{"type":"FeatureCollection","data_type":"Dataset","url_type":null,"permissions":[{"permissions":{"download":true,"view":true},"group_id":"everyone"}],"classification":null,"title":"2010 campers","count":345,"stream_id":100306,"contributor":{"url":"http://geocommons.com/users/22768","name":"marty@riverbendcampfire.org"},"data_attributes":null,"calculation_params":null,"icon_link":null,"link":"http://geocommons.com/overlays/100306.json","extent":[-170.799,-14.3367,144.786,64.4036],"geometry_types":["point"],"unique_name":null,"name":"2010 campers","feature_count":345,"description":"","next_feature":null,"is_raster":false,"short_classification":"Y","stats":{},"features":[{"properties":{"city":"Edwardsburg","zip":"49112","geo_score":0.582,"home address":"69092 Maple St","id":"a6m71ewzyr5z","geo_precision":"street","state":"MI"},"type":"Feature","geometry":{"type":"Point","coordinates":[-94.585566,35.401891]}},{"properties":{"city":"South Bend","zip":"46615","geo_score":0.329,"home address":"736 Country Club Lane","id":"a6m71emsuwgj","geo_precision":"street","state":"IN"},"type":"Feature","geometry":{"type":"Point","coordinates":[-84.135781,33.742051]}},{"properties":{"city":"South Bend","zip":"46615","geo_score":0.514,"home address":"305 S. 34th St.","id":"a6m71eqborid","geo_precision":"street","state":"IN"},"type":"Feature","geometry":{"type":"Point","coordinates":[-92.981629,34.067185]}},{"properties":{"city":"granger","zip":"46530","geo_score":0.662,"home address":"50779 canyon ridge drive","id":"a6m71exsi38k","geo_precision":"street","state":"IN"},"type":"Feature","geometry":{"type":"Point","coordinates":[-122.043117,37.691721]}},{"properties":{"city":"Holly","zip":"48442","geo_score":0.513,"home address":"706 W. Rose St.","id":"a6m71er8c8l6","geo_precision":"street","state":"MI"},"type":"Feature","geometry":{"type":"Point","coordinates":[-86.468544,33.935272]}},{"properties":{"city":"Holly","zip":"48442","geo_score":0.513,"home address":"706 W. Rose St.","id":"a6m71ew3w0s5","geo_precision":"street","state":"MI"},"type":"Feature","geometry":{"type":"Point","coordinates":[-86.468544,33.935272]}},{"properties":{"city":"Niles","zip":"49120","geo_score":0.902,"home address":"1318 Thomson Rd.","id":"a6m71erxuqij","geo_precision":"range","state":"MI"},"type":"Feature","geometry":{"type":"Point","coordinates":[-92.375987,46.676828]}},{"properties":{"city":"Dowagiac","zip":"49047","geo_score":0.473,"home address":"30416 M-62","id":"a6m71ezs5cjx","geo_precision":"street","state":"MI"},"type":"Feature","geometry":{"type":"Point","coordinates":[-159.31749,22.09247]}},{"properties":{"city":"Niles","zip":"49120","geo_score":0.0,"home address":"1512 Inner Drive","id":"a6m71exmws72","geo_precision":"unmatched","state":"MI"},"type":"Feature","geometry":null},{"properties":{"city":"South Bend","zip":"46614","geo_score":0.625,"home address":"304 teri Street","id":"a6m71etlbbj1","geo_precision":"street","state":"IN"},"type":"Feature","geometry":{"type":"Point","coordinates":[-82.879246,42.594789]}},{"properties":{"city":"Niles","zip":"49120","geo_score":0.643,"home address":"1628 Orchard Lane","id":"a6m71eqv5arr","geo_precision":"street","state":"MI"},"type":"Feature","geometry":{"type":"Point","coordinates":[-107.898446,38.467344]}},{"properties":{"city":"Edwardsburg","zip":"49112","geo_score":0.537,"home address":"66751 Conrad Road","id":"a6m71em18lyt","geo_precision":"street","state":"MI"},"type":"Feature","geometry":{"type":"Point","coordinates":[-87.757644,45.982036]}},{"properties":{"city":"Edwardsburg","zip":"49112","geo_score":0.537,"home address":"66751 Conrad Road","id":"a6m71ey01p1f","geo_precision":"street","state":"MI"},"type":"Feature","geometry":{"type":"Point","coordinates":[-87.757644,45.982036]}},{"properties":{"city":"South Bend","zip":"46614","geo_score":0.675,"home address":"1626 Galway Dr.","id":"a6m71eyjk8fk","geo_precision":"street","state":"IN"},"type":"Feature","geometry":{"type":"Point","coordinates":[-92.364111,34.620177]}},{"properties":{"city":"Granger","zip":"46530","geo_score":0.352,"home address":"51605 Bluffside Court","id":"a6m71eyhj9ba","geo_precision":"street","state":"IN"},"type":"Feature","geometry":{"type":"Point","coordinates":[-81.301233,31.826998]}},{"properties":{"city":"South Bend","zip":"46614","geo_score":0.598,"home address":"4109 manor dr","id":"a6m71exzvk94","geo_precision":"street","state":"IN"},"type":"Feature","geometry":{"type":"Point","coordinates":[-92.067749,32.571059]}},{"properties":{"city":"Oak Park","zip":"60302","geo_score":0.362,"home address":"1233 N. Lombard Ave","id":"a6m71exwl4dn","geo_precision":"street","state":"IL"},"type":"Feature","geometry":{"type":"Point","coordinates":[-93.198197,34.307767]}},{"properties":{"city":"Niles","zip":"49120","geo_score":0.484,"home address":"3125 Portage Prairie Trail","id":"a6m71ewmam1g","geo_precision":"street","state":"MI"},"type":"Feature","geometry":{"type":"Point","coordinates":[-85.258551,34.013267]}},{"properties":{"city":"Chicago","zip":"60625","geo_score":0.473,"home address":"4500 N. Francisco","id":"a6m71ep84q3c","geo_precision":"street","state":"IL"},"type":"Feature","geometry":{"type":"Point","coordinates":[-84.861758,35.102878]}},{"properties":{"city":"Chicago","zip":"60625","geo_score":0.473,"home address":"4500 N. Francisco","id":"a6m71eoc5afr","geo_precision":"street","state":"IL"},"type":"Feature","geometry":{"type":"Point","coordinates":[-84.861758,35.102878]}},{"properties":{"city":"Chicago","zip":"60625","geo_score":0.443,"home address":"2634 W. Wilson","id":"a6m71etftmpv","geo_precision":"city","state":"IL"},"type":"Feature","geometry":{"type":"Point","coordinates":[-92.929614,35.210362]}},{"properties":{"city":"Granger","zip":"46530","geo_score":0.681,"home address":"50960 Sherwood Dr.","id":"a6m71ezhl6au","geo_precision":"street","state":"IN"},"type":"Feature","geometry":{"type":"Point","coordinates":[-75.147806,38.537659]}},{"properties":{"city":"South Bend","zip":"46637","geo_score":0.451,"home address":"19331 Greenacrest","id":"a6m71eo3f0gp","geo_precision":"city","state":"IN"},"type":"Feature","geometry":{"type":"Point","coordinates":[-75.496865,39.790391]}},{"properties":{"city":"South Bend","zip":"46637","geo_score":0.451,"home address":"19331 Greenacrest","id":"a6m71eldh4lw","geo_precision":"city","state":"IN"},"type":"Feature","geometry":{"type":"Point","coordinates":[-75.496865,39.790391]}},{"properties":{"city":"South Bend","zip":"46637","geo_score":0.451,"home address":"19331 Greenacrest","id":"a6m71ewaeapt","geo_precision":"city","state":"IN"},"type":"Feature","geometry":{"type":"Point","coordinates":[-75.496865,39.790391]}},{"properties":{"city":"Granger","zip":"46530","geo_score":0.0,"home address":"52439 Liberty Mills Ct.","id":"a6m71elspqwv","geo_precision":"unmatched","state":"IN"},"type":"Feature","geometry":null},{"properties":{"city":"Walkerton","zip":"46574","geo_score":0.481,"home address":"29105 Smith Rd.","id":"a6m71eo6grib","geo_precision":"street","state":"IN"},"type":"Feature","geometry":{"type":"Point","coordinates":[-88.77579,37.331221]}},{"properties":{"city":"Lakewood","zip":"60014","geo_score":0.369,"home address":"9590 NIcklaus Lane","id":"a6m71et5tmiq","geo_precision":"street","state":"IL"},"type":"Feature","geometry":{"type":"Point","coordinates":[-85.054031,32.342386]}},{"properties":{"city":"Niles","zip":"49120","geo_score":0.756,"home address":"410 Carey Mission Dr.","id":"a6m71es4tdbh","geo_precision":"range","state":"MI"},"type":"Feature","geometry":{"type":"Point","coordinates":[-152.400976,57.78915]}},{"properties":{"city":"South Bend","zip":"46637","geo_score":0.561,"home address":"18342 East State Line Road","id":"a6m71er76gm6","geo_precision":"street","state":"IN"},"type":"Feature","geometry":{"type":"Point","coordinates":[-88.409429,30.668592]}},{"properties":{"city":"South Bend","zip":"46617","geo_score":0.298,"home address":"735 West North Shore Drive","id":"a6m71eqzhimg","geo_precision":"street","state":"IN"},"type":"Feature","geometry":{"type":"Point","coordinates":[-75.486312,39.811038]}},{"properties":{"city":"Edwardsburg","zip":"49112","geo_score":0.434,"home address":"23836 Northshore Drive","id":"a6m71evzxrei","geo_precision":"city","state":"MI"},"type":"Feature","geometry":{"type":"Point","coordinates":[-75.502421,39.818168]}},{"properties":{"city":"south Bend","zip":"46614","geo_score":0.405,"home address":"609 Finch Drive","id":"a6m71erh1r8m","geo_precision":"city","state":"IN"},"type":"Feature","geometry":{"type":"Point","coordinates":[-112.074037,33.448377]}},{"properties":{"city":"South Bend","zip":"46615","geo_score":0.512,"home address":"1527 Sunnymede Ave","id":"a6m71em2ezt4","geo_precision":"street","state":"IN"},"type":"Feature","geometry":{"type":"Point","coordinates":[-122.322661,37.562909]}},{"properties":{"city":"Chicago","zip":"60625","geo_score":0.423,"home address":"2846 W Ainslie","id":"a6m71eurg00q","geo_precision":"city","state":"IL"},"type":"Feature","geometry":{"type":"Point","coordinates":[-86.115791,31.886264]}},{"properties":{"city":"Chicago","zip":"60625","geo_score":0.423,"home address":"2846 W Ainslie","id":"a6m71ell8ucx","geo_precision":"city","state":"IL"},"type":"Feature","geometry":{"type":"Point","coordinates":[-86.115791,31.886264]}},{"properties":{"city":"Chicago","zip":"60625","geo_score":0.423,"home address":"2846 W Ainslie","id":"a6m71ete4lzo","geo_precision":"city","state":"IL"},"type":"Feature","geometry":{"type":"Point","coordinates":[-86.115791,31.886264]}},{"properties":{"city":"Vandalia","zip":"49095","geo_score":0.59,"home address":"62861 Birch Lakeview Dr","id":"a6m71exiv0we","geo_precision":"street","state":"MI"},"type":"Feature","geometry":{"type":"Point","coordinates":[-94.314976,43.380171]}},{"properties":{"city":"Cassopolis","zip":"49031","geo_score":0.0,"home address":"61237 Lenawee Rd","id":"a6m71f15jlzq","geo_precision":"unmatched","state":"MI"},"type":"Feature","geometry":null},{"properties":{"city":"Mishawaka","zip":"46544","geo_score":0.466,"home address":"1119 South Main St.","id":"a6m71f0yrj43","geo_precision":"street","state":"IN"},"type":"Feature","geometry":{"type":"Point","coordinates":[-94.183731,36.06053]}},{"properties":{"city":"Oak Lawn","zip":"60453","geo_score":0.48,"home address":"10609 S. LeClaire Ave","id":"a6m71esub268","geo_precision":"street","state":"IL"},"type":"Feature","geometry":{"type":"Point","coordinates":[-89.949964,38.807247]}},{"properties":{"city":"Oak Lawn","zip":"60453","geo_score":0.48,"home address":"10609 S. LeClaire Ave","id":"a6m71ez6jy00","geo_precision":"street","state":"IL"},"type":"Feature","geometry":{"type":"Point","coordinates":[-89.949964,38.807247]}},{"properties":{"city":"Vandalia","zip":"49095","geo_score":0.59,"home address":"62967 Birch LAkeview Dr","id":"a6m71eqa4zt1","geo_precision":"street","state":"MI"},"type":"Feature","geometry":{"type":"Point","coordinates":[-94.314976,43.380171]}},{"properties":{"city":"Granger","zip":"46530","geo_score":0.527,"home address":"15645 Billington Court","id":"a6m71evv7x1g","geo_precision":"street","state":"IN"},"type":"Feature","geometry":{"type":"Point","coordinates":[-78.614806,42.786935]}},{"properties":{"city":"Granger","zip":"46530","geo_score":0.527,"home address":"15645 Billington Court","id":"a6m71ezkag1i","geo_precision":"street","state":"IN"},"type":"Feature","geometry":{"type":"Point","coordinates":[-78.614806,42.786935]}},{"properties":{"city":"Edwardsburg","zip":"49112","geo_score":0.55,"home address":"70752 Brande Creek Dr.","id":"a6m71eu5wj0x","geo_precision":"street","state":"MI"},"type":"Feature","geometry":{"type":"Point","coordinates":[-112.226967,33.66344]}},{"properties":{"city":"Valparaiso","zip":"46375","geo_score":0.431,"home address":"236 w 375 south","id":"a6m71eu95yei","geo_precision":"city","state":"IN"},"type":"Feature","geometry":{"type":"Point","coordinates":[-86.364699,37.329217]}},{"properties":{"city":"South Bend","zip":"46614","geo_score":0.659,"home address":"19101 Montrose Dr.","id":"a6m71eywuahd","geo_precision":"street","state":"IN"},"type":"Feature","geometry":{"type":"Point","coordinates":[-87.02623,34.555738]}},{"properties":{"city":"Granger","zip":"46530","geo_score":0.366,"home address":"51939 Cheryl Dr.","id":"a6m71em5z0yy","geo_precision":"street","state":"IN"},"type":"Feature","geometry":{"type":"Point","coordinates":[-118.02981,33.82732]}},{"properties":{"city":"Mishawaka","zip":"46544","geo_score":0.477,"home address":"2212 Ridge Place","id":"a6m71ewfu9bc","geo_precision":"street","state":"IN"},"type":"Feature","geometry":{"type":"Point","coordinates":[-92.196077,30.180826]}},{"properties":{"city":"Mishawaka","zip":"46544","geo_score":0.477,"home address":"2212 Ridge Place","id":"a6m71erncrdn","geo_precision":"street","state":"IN"},"type":"Feature","geometry":{"type":"Point","coordinates":[-92.196077,30.180826]}},{"properties":{"city":"Mishawaka","zip":"46544","geo_score":0.601,"home address":"430 Miami Club Drive","id":"a6m71eufbouk","geo_precision":"street","state":"IN"},"type":"Feature","geometry":{"type":"Point","coordinates":[-80.163666,25.9296]}},{"properties":{"city":"south bend","zip":"46617","geo_score":0.675,"home address":"315 w. north shore dr","id":"a6m71eui41ln","geo_precision":"range","state":"IN"},"type":"Feature","geometry":{"type":"Point","coordinates":[-101.048387,39.389849]}},{"properties":{"city":"South Bend","zip":"46614","geo_score":0.708,"home address":"1049 Hermitage Drive","id":"a6m71exluuml","geo_precision":"street","state":"IN"},"type":"Feature","geometry":{"type":"Point","coordinates":[-91.266511,30.71107]}},{"properties":{"city":"Granger","zip":"46530","geo_score":0.55,"home address":"30228 Quial Pointe Dr","id":"a6m71eqiz3hf","geo_precision":"street","state":"IN"},"type":"Feature","geometry":{"type":"Point","coordinates":[-85.369633,31.209051]}},{"properties":{"city":"Niles","zip":"49120","geo_score":0.582,"home address":"2675 Korn St","id":"a6m71eyvfdf1","geo_precision":"street","state":"MI"},"type":"Feature","geometry":{"type":"Point","coordinates":[-87.593249,34.26686]}},{"properties":{"city":"Granger","zip":"46530","geo_score":0.649,"home address":"17122 Mayfair Court","id":"a6m71eqgl9im","geo_precision":"street","state":"IN"},"type":"Feature","geometry":{"type":"Point","coordinates":[-86.793431,33.476355]}},{"properties":{"city":"South Bend","zip":"46614","geo_score":0.62,"home address":"3366 Deer Lake Dr.","id":"a6m71f1opd9s","geo_precision":"street","state":"IN"},"type":"Feature","geometry":{"type":"Point","coordinates":[-82.854255,42.546595]}},{"properties":{"city":"Niles","zip":"49120","geo_score":0.448,"home address":"2260 w Bertrand Rd","id":"a6m71emagq5b","geo_precision":"street","state":"MI"},"type":"Feature","geometry":{"type":"Point","coordinates":[-90.012546,29.774818]}},{"properties":{"city":"North Liberty","zip":"46554","geo_score":0.343,"home address":"30617 Quinn Rd.","id":"a6m71ex8xt5s","geo_precision":"street","state":"IN"},"type":"Feature","geometry":{"type":"Point","coordinates":[-87.411529,31.031612]}},{"properties":{"city":"North Liberty","zip":"46554","geo_score":0.343,"home address":"30617 Quinn Rd.","id":"a6m71eq34dov","geo_precision":"street","state":"IN"},"type":"Feature","geometry":{"type":"Point","coordinates":[-87.411529,31.031612]}},{"properties":{"city":"Granger","zip":"46530","geo_score":0.603,"home address":"52075 Arrowhead Circle","id":"a6m71erfz0bj","geo_precision":"street","state":"IN"},"type":"Feature","geometry":{"type":"Point","coordinates":[-83.975918,35.934938]}},{"properties":{"city":"Granger","zip":"46530","geo_score":0.397,"home address":"52075 Fall Creek Dr.","id":"a6m71evqjjfb","geo_precision":"street","state":"IN"},"type":"Feature","geometry":{"type":"Point","coordinates":[-92.88883,33.587959]}},{"properties":{"city":"Granger","zip":"46530","geo_score":0.397,"home address":"52075 Fall Creek Dr.","id":"a6m71eyl9w4s","geo_precision":"street","state":"IN"},"type":"Feature","geometry":{"type":"Point","coordinates":[-92.88883,33.587959]}},{"properties":{"city":"Chicago","zip":"60625","geo_score":0.557,"home address":"4431 N Rockwell St","id":"a6m71ezlrvk8","geo_precision":"street","state":"IL"},"type":"Feature","geometry":{"type":"Point","coordinates":[-93.066262,34.477188]}},{"properties":{"city":"Pembroke Pines","zip":"33029","geo_score":0.512,"home address":"17607 SW 11th Street","id":"a6m71f0ih0hg","geo_precision":"street","state":"FL"},"type":"Feature","geometry":{"type":"Point","coordinates":[-86.44643,31.830613]}},{"properties":{"city":"Pembroke Pines","zip":"33029","geo_score":0.512,"home address":"17607 SW 11th Street","id":"a6m71eoodq25","geo_precision":"street","state":"FL"},"type":"Feature","geometry":{"type":"Point","coordinates":[-86.44643,31.830613]}},{"properties":{"city":"Mishawaka","zip":"46545","geo_score":0.0,"home address":"3402 Savannah Ct","id":"a6m71eoaozso","geo_precision":"unmatched","state":"IN"},"type":"Feature","geometry":null},{"properties":{"city":"Granger","zip":"46530","geo_score":0.31,"home address":"50665 Sorrel Drive","id":"a6m71epzmedk","geo_precision":"street","state":"IN"},"type":"Feature","geometry":{"type":"Point","coordinates":[-88.40943,32.187953]}},{"properties":{"city":"South Bend","zip":"46637","geo_score":0.514,"home address":"19381 Haviland Drive","id":"a6m71eufl5ff","geo_precision":"street","state":"IN"},"type":"Feature","geometry":{"type":"Point","coordinates":[-73.898275,41.777575]}},{"properties":{"city":"Simpsonville","zip":"29681","geo_score":0.707,"home address":"125 Warrenton Way","id":"a6m71ez25ers","geo_precision":"range","state":"SC"},"type":"Feature","geometry":{"type":"Point","coordinates":[-86.354533,34.362222]}},{"properties":{"city":"Simpsonville","zip":"29681","geo_score":0.707,"home address":"125 Warrenton Way","id":"a6m71em8vr5i","geo_precision":"range","state":"SC"},"type":"Feature","geometry":{"type":"Point","coordinates":[-86.354533,34.362222]}},{"properties":{"city":"Chicago","zip":"60625","geo_score":0.432,"home address":"2516 West Wilson","id":"a6m71etmdxoh","geo_precision":"city","state":"IL"},"type":"Feature","geometry":{"type":"Point","coordinates":[-92.929614,35.210362]}},{"properties":{"city":"Chicago","zip":"60625","geo_score":0.432,"home address":"2516 West Wilson","id":"a6m71eurctr8","geo_precision":"city","state":"IL"},"type":"Feature","geometry":{"type":"Point","coordinates":[-92.929614,35.210362]}},{"properties":{"city":"Cincinnati","zip":"45244","geo_score":0.0,"home address":"7420 Spyglass Ct","id":"a6m71ezzzw3y","geo_precision":"unmatched","state":"OH"},"type":"Feature","geometry":null},{"properties":{"city":"Cincinnati","zip":"45244","geo_score":0.0,"home address":"7420 Spyglass Ct","id":"a6m71eqi4itu","geo_precision":"unmatched","state":"OH"},"type":"Feature","geometry":null},{"properties":{"city":"South Bend","zip":"46635","geo_score":0.64,"home address":"1737 Crestwood Blvd","id":"a6m71emnmkl6","geo_precision":"street","state":"IN"},"type":"Feature","geometry":{"type":"Point","coordinates":[-93.668118,41.635023]}},{"properties":{"city":"South Bend","zip":"46635","geo_score":0.64,"home address":"1737 Crestwood Blvd","id":"a6m71f0wjcd5","geo_precision":"street","state":"IN"},"type":"Feature","geometry":{"type":"Point","coordinates":[-93.668118,41.635023]}},{"properties":{"city":"Osceola","zip":"46561","geo_score":0.551,"home address":"58575 Hidden Springs Dr","id":"a6m71etzy700","geo_precision":"street","state":"IN"},"type":"Feature","geometry":{"type":"Point","coordinates":[-72.589181,42.108902]}},{"properties":{"city":"Osceola","zip":"46561","geo_score":0.551,"home address":"58575 Hidden Springs Dr","id":"a6m71emxk86p","geo_precision":"street","state":"IN"},"type":"Feature","geometry":{"type":"Point","coordinates":[-72.589181,42.108902]}},{"properties":{"city":"Osceola","zip":"46561","geo_score":0.551,"home address":"58575 Hidden Springs Dr","id":"a6m71et3naif","geo_precision":"street","state":"IN"},"type":"Feature","geometry":{"type":"Point","coordinates":[-72.589181,42.108902]}},{"properties":{"city":"Niles","zip":"49120","geo_score":0.488,"home address":"71434 Sanderling Dr.","id":"a6m71ez9ofnq","geo_precision":"street","state":"MI"},"type":"Feature","geometry":{"type":"Point","coordinates":[-85.945545,32.94254]}},{"properties":{"city":"South Bend","zip":"46637","geo_score":0.642,"home address":"51390 Simmons Dr.","id":"a6m71ez1jgrp","geo_precision":"street","state":"IN"},"type":"Feature","geometry":{"type":"Point","coordinates":[-87.046973,37.212607]}},{"properties":{"city":"South Bend","zip":"46615","geo_score":0.512,"home address":"1436 Sunnymede Ave","id":"a6m71ezp7tec","geo_precision":"street","state":"IN"},"type":"Feature","geometry":{"type":"Point","coordinates":[-122.322661,37.562909]}},{"properties":{"city":"Granger","zip":"46530","geo_score":0.437,"home address":"14333 Northampton Drive","id":"a6m71elgub50","geo_precision":"city","state":"IN"},"type":"Feature","geometry":{"type":"Point","coordinates":[-89.538982,40.931148]}},{"properties":{"city":"Mishawaka","zip":"46545","geo_score":0.0,"home address":"3003 Trenton Ct.","id":"a6m71epuipem","geo_precision":"unmatched","state":"IN"},"type":"Feature","geometry":null},{"properties":{"city":"Oak Lawn","zip":"60453","geo_score":0.398,"home address":"8909 S. 49th Ave.","id":"a6m71el7mish","geo_precision":"city","state":"IL"},"type":"Feature","geometry":{"type":"Point","coordinates":[-170.799167,-14.336667]}},{"properties":{"city":"Oak Lawn","zip":"60453","geo_score":0.398,"home address":"8909 S. 49th Ave.","id":"a6m71evew565","geo_precision":"city","state":"IL"},"type":"Feature","geometry":{"type":"Point","coordinates":[-170.799167,-14.336667]}},{"properties":{"city":"South Bend","zip":"46628","geo_score":0.708,"home address":"1334 College St.","id":"a6m71eseme7g","geo_precision":"street","state":"IN"},"type":"Feature","geometry":{"type":"Point","coordinates":[-91.257432,33.121786]}},{"properties":{"city":"Mishawaka","zip":"46544","geo_score":0.423,"home address":"708 Prism Valley Dr","id":"a6m71ex3yxon","geo_precision":"street","state":"IN"},"type":"Feature","geometry":{"type":"Point","coordinates":[-92.88883,33.587959]}},{"properties":{"city":"Mishawaka","zip":"46544","geo_score":0.423,"home address":"708 Prism Valley Dr","id":"a6m71es4dt5n","geo_precision":"street","state":"IN"},"type":"Feature","geometry":{"type":"Point","coordinates":[-92.88883,33.587959]}},{"properties":{"city":"Mishawaka","zip":"46544","geo_score":0.423,"home address":"708 Prism Valley Dr","id":"a6m71eww4m1v","geo_precision":"street","state":"IN"},"type":"Feature","geometry":{"type":"Point","coordinates":[-92.88883,33.587959]}},{"properties":{"city":"Chicago","zip":"60646","geo_score":0.365,"home address":"5924 N. Kostner Ave.","id":"a6m71esq97u5","geo_precision":"street","state":"IL"},"type":"Feature","geometry":{"type":"Point","coordinates":[-111.496997,47.304294]}},{"properties":{"city":"Middlebury","zip":"46540","geo_score":0.562,"home address":"611 Spring Valley Drive","id":"a6m71exol7ri","geo_precision":"street","state":"IN"},"type":"Feature","geometry":{"type":"Point","coordinates":[-72.600668,42.12734]}},{"properties":{"city":"Middlebury","zip":"46540","geo_score":0.562,"home address":"611 Spring Valley Drive","id":"a6m71f1m8t8d","geo_precision":"street","state":"IN"},"type":"Feature","geometry":{"type":"Point","coordinates":[-72.600668,42.12734]}},{"properties":{"city":"Chicago","zip":"60625","geo_score":0.45,"home address":"2643 W. Eastwood","id":"a6m71eubsmyd","geo_precision":"city","state":"IL"},"type":"Feature","geometry":{"type":"Point","coordinates":[-86.457208,33.940931]}},{"properties":{"city":"Chicago","zip":"60625","geo_score":0.45,"home address":"2643 W. Eastwood","id":"a6m71eziq32m","geo_precision":"city","state":"IL"},"type":"Feature","geometry":{"type":"Point","coordinates":[-86.457208,33.940931]}},{"properties":{"city":"Edwardsburg","zip":"49112","geo_score":0.577,"home address":"68623 South Shore Drive","id":"a6m71ev71o19","geo_precision":"street","state":"IN"},"type":"Feature","geometry":{"type":"Point","coordinates":[-90.52094,38.86393]}},{"properties":{"city":"Edwardsburg","zip":"49112","geo_score":0.577,"home address":"68623 South Shore Drive","id":"a6m71eoicwdn","geo_precision":"street","state":"IN"},"type":"Feature","geometry":{"type":"Point","coordinates":[-90.52094,38.86393]}},{"properties":{"city":"Edwardsburg","zip":"49112","geo_score":0.356,"home address":"69291 Sundance Drive","id":"a6m71ev4iaky","geo_precision":"street","state":"MI"},"type":"Feature","geometry":{"type":"Point","coordinates":[-120.103469,34.657821]}},{"properties":{"city":"South Bend","zip":"46637","geo_score":0.0,"home address":"52111 Friars Ct.","id":"a6m71enuuw2u","geo_precision":"unmatched","state":"IN"},"type":"Feature","geometry":null},{"properties":{"city":"south Bend","zip":"46637","geo_score":0.512,"home address":"19050 Layden St","id":"a6m71ewp89ax","geo_precision":"street","state":"IN"},"type":"Feature","geometry":{"type":"Point","coordinates":[-99.326706,34.659224]}},{"properties":{"city":"Valparaiso","zip":"46385","geo_score":0.549,"home address":"1251 Jade Blvd","id":"a6m71emhw37d","geo_precision":"range","state":"IN"},"type":"Feature","geometry":{"type":"Point","coordinates":[-87.499123,31.327526]}},{"properties":{"city":"Granger","zip":"46530","geo_score":0.561,"home address":"51880 Waterford Green","id":"a6m71erkaggm","geo_precision":"street","state":"IN"},"type":"Feature","geometry":{"type":"Point","coordinates":[-87.989173,34.107603]}},{"properties":{"city":"Granger","zip":"46530","geo_score":0.406,"home address":"52475 Liberty Mills Court","id":"a6m71eu4ro1v","geo_precision":"street","state":"IN"},"type":"Feature","geometry":{"type":"Point","coordinates":[-86.509699,34.118204]}},{"properties":{"city":"Granger","zip":"46530","geo_score":0.406,"home address":"52475 Liberty Mills Court","id":"a6m71elui1y1","geo_precision":"street","state":"IN"},"type":"Feature","geometry":{"type":"Point","coordinates":[-86.509699,34.118204]}},{"properties":{"city":"South Bend","zip":"46617","geo_score":0.35,"home address":"1002 N. Niles Ave.","id":"a6m71en6ssas","geo_precision":"street","state":"IN"},"type":"Feature","geometry":{"type":"Point","coordinates":[-119.909049,37.202828]}},{"properties":{"city":"Granger","zip":"46530","geo_score":0.512,"home address":"17525 Stoney Point","id":"a6m71excbl5i","geo_precision":"street","state":"IN"},"type":"Feature","geometry":{"type":"Point","coordinates":[-87.795149,30.740136]}},{"properties":{"city":"Oak Lawn","zip":"60453","geo_score":0.707,"home address":"4944 W 91st Place","id":"a6m71f039kp1","geo_precision":"range","state":"IL"},"type":"Feature","geometry":{"type":"Point","coordinates":[-86.028742,33.404829]}},{"properties":{"city":"Oak Lawn","zip":"60453","geo_score":0.707,"home address":"4944 W 91st Place","id":"a6m71f0sqhlg","geo_precision":"range","state":"IL"},"type":"Feature","geometry":{"type":"Point","coordinates":[-86.028742,33.404829]}},{"properties":{"city":"Orland Park","zip":"60462","geo_score":0.624,"home address":"14018 Terry Drive","id":"a6m71ez9t25v","geo_precision":"street","state":"IL"},"type":"Feature","geometry":{"type":"Point","coordinates":[-82.905572,42.968996]}},{"properties":{"city":"Osceola","zip":"46561","geo_score":0.514,"home address":"11172 Wildwood Drive","id":"a6m71expibip","geo_precision":"street","state":"IN"},"type":"Feature","geometry":{"type":"Point","coordinates":[-122.137036,37.158139]}},{"properties":{"city":"Joliet","zip":"60436","geo_score":0.487,"home address":"925 Greenleaf Drive","id":"a6m71ex8rdgy","geo_precision":"street","state":"IL"},"type":"Feature","geometry":{"type":"Point","coordinates":[-85.961827,41.695589]}},{"properties":{"city":"Elkhart","zip":"46514","geo_score":0.522,"home address":"22972 Jennifer Ln.","id":"a6m71eyyjx4j","geo_precision":"street","state":"IN"},"type":"Feature","geometry":{"type":"Point","coordinates":[-85.909476,33.566769]}},{"properties":{"city":"South Bend","zip":"46628","geo_score":0.579,"home address":"51777 Westwood Forest Court","id":"a6m71et8cn0c","geo_precision":"street","state":"IN"},"type":"Feature","geometry":{"type":"Point","coordinates":[-87.684438,33.249218]}},{"properties":{"city":"Granger","zip":"46530","geo_score":0.0,"home address":"51535 Steeple Chase Ct","id":"a6m71eqhcy9a","geo_precision":"unmatched","state":"IN"},"type":"Feature","geometry":null},{"properties":{"city":"Elkhart","zip":"46516","geo_score":0.435,"home address":"122 Homan Ave","id":"a6m71esws9bv","geo_precision":"city","state":"IN"},"type":"Feature","geometry":{"type":"Point","coordinates":[-93.886296,33.5429]}},{"properties":{"city":"South Bend","zip":"46617","geo_score":0.41,"home address":"1211 Stanfield St.","id":"a6m71emcwvnm","geo_precision":"city","state":"IN"},"type":"Feature","geometry":{"type":"Point","coordinates":[-88.836466,41.304756]}},{"properties":{"city":"South Bend","zip":"46614","geo_score":0.498,"home address":"19772 Dice street","id":"a6m71ep1sh0c","geo_precision":"street","state":"IN"},"type":"Feature","geometry":{"type":"Point","coordinates":[-87.557583,32.677704]}},{"properties":{"city":"South Bend","zip":"46614","geo_score":0.435,"home address":"6039 S. Gotham Dr.","id":"a6m71exvvwu4","geo_precision":"city","state":"IN"},"type":"Feature","geometry":{"type":"Point","coordinates":[-90.261804,43.234509]}},{"properties":{"city":"South Bend","zip":"46614","geo_score":0.435,"home address":"6039 S. Gotham Dr.","id":"a6m71ew0xs81","geo_precision":"city","state":"IN"},"type":"Feature","geometry":{"type":"Point","coordinates":[-90.261804,43.234509]}},{"properties":{"city":"South Bend","zip":"46628","geo_score":0.494,"home address":"2347 Pebble Creek","id":"a6m71ep0isy1","geo_precision":"street","state":"IN"},"type":"Feature","geometry":{"type":"Point","coordinates":[-103.362327,38.088411]}},{"properties":{"city":"Mishawaka","zip":"46544","geo_score":0.413,"home address":"305 N. Byrkit Ave.","id":"a6m71em2vmnx","geo_precision":"city","state":"IN"},"type":"Feature","geometry":{"type":"Point","coordinates":[-69.317821,44.298131]}},{"properties":{"city":"Eau Claire","zip":"49111","geo_score":0.463,"home address":"9618 Old M62","id":"a6m71eoju1fq","geo_precision":"street","state":"MI"},"type":"Feature","geometry":{"type":"Point","coordinates":[-155.897357,19.479713]}},{"properties":{"city":"Edwardsburg","zip":"49112","geo_score":0.51,"home address":"69892 Knottingham lane","id":"a6m71eshml4y","geo_precision":"street","state":"MI"},"type":"Feature","geometry":{"type":"Point","coordinates":[-86.223871,33.362622]}},{"properties":{"city":"Edwardsburg","zip":"49112","geo_score":0.51,"home address":"696892 Knottingham lane","id":"a6m71erx91ve","geo_precision":"street","state":"MI"},"type":"Feature","geometry":{"type":"Point","coordinates":[-86.223871,33.362622]}},{"properties":{"city":"Beverly Hills","zip":"48025","geo_score":0.395,"home address":"31086 Old Stage Rd,","id":"a6m71f077iig","geo_precision":"street","state":"MI"},"type":"Feature","geometry":{"type":"Point","coordinates":[-91.980178,34.9945]}},{"properties":{"city":"South Bend","zip":"46637","geo_score":0.649,"home address":"20640 Worthing Lane","id":"a6m71eldiprz","geo_precision":"street","state":"IN"},"type":"Feature","geometry":{"type":"Point","coordinates":[-85.486454,38.243835]}},{"properties":{"city":"Edwardsburg","zip":"49112","geo_score":0.143,"home address":"p.o. box 501","id":"a6m71emkfcj6","geo_precision":"street","state":"MI"},"type":"Feature","geometry":{"type":"Point","coordinates":[-87.743938,31.939605]}},{"properties":{"city":"Chicago","zip":"60618","geo_score":0.756,"home address":"3901 N. Mozart","id":"a6m71enfztnx","geo_precision":"range","state":"IL"},"type":"Feature","geometry":{"type":"Point","coordinates":[-91.573771,34.784414]}},{"properties":{"city":"South Bend","zip":"46628","geo_score":0.252,"home address":"53160 Gentle Breeze Court","id":"a6m71esfh4w4","geo_precision":"street","state":"IN"},"type":"Feature","geometry":{"type":"Point","coordinates":[-81.110039,32.049206]}},{"properties":{"city":"South Bend","zip":"46637","geo_score":0.435,"home address":"128 Rhodes St.","id":"a6m71eszrpbe","geo_precision":"city","state":"IN"},"type":"Feature","geometry":{"type":"Point","coordinates":[-86.161892,31.26267]}},{"properties":{"city":"South Bend","zip":"46614","geo_score":0.805,"home address":"1236 East Jackson","id":"a6m71ewmmtlh","geo_precision":"range","state":"IN"},"type":"Feature","geometry":{"type":"Point","coordinates":[-81.674751,30.326018]}},{"properties":{"city":"South Bend","zip":"46614","geo_score":0.805,"home address":"1236 East Jackson","id":"a6m71elbdujf","geo_precision":"range","state":"IN"},"type":"Feature","geometry":{"type":"Point","coordinates":[-81.674751,30.326018]}},{"properties":{"city":"Elkhart","zip":"46514","geo_score":0.176,"home address":"3009 Twin Pines Pointe","id":"a6m71eqtmtpi","geo_precision":"street","state":"IN"},"type":"Feature","geometry":{"type":"Point","coordinates":[-92.028123,33.85961]}},{"properties":{"city":"South Bend","zip":"46614","geo_score":0.524,"home address":"60866 Whispering Hills Drive","id":"a6m71eumotuq","geo_precision":"street","state":"IN"},"type":"Feature","geometry":{"type":"Point","coordinates":[-89.17872,44.331036]}},{"properties":{"city":"Fenton","zip":"48430","geo_score":0.537,"home address":"8138 Denton Hill RD","id":"a6m71ez4lp3a","geo_precision":"street","state":"MI"},"type":"Feature","geometry":{"type":"Point","coordinates":[-81.39898,24.72739]}},{"properties":{"city":"Niles","zip":"49120","geo_score":0.708,"home address":"1412 Oak St","id":"a6m71exyntbq","geo_precision":"street","state":"MI"},"type":"Feature","geometry":{"type":"Point","coordinates":[-82.634689,29.44259]}},{"properties":{"city":"Niles","zip":"49120","geo_score":0.708,"home address":"1412 Oak St","id":"a6m71f1b5duv","geo_precision":"street","state":"MI"},"type":"Feature","geometry":{"type":"Point","coordinates":[-82.634689,29.44259]}},{"properties":{"city":"Granger","zip":"46530","geo_score":0.437,"home address":"14415 Northampton Drive","id":"a6m71eyojek1","geo_precision":"city","state":"IN"},"type":"Feature","geometry":{"type":"Point","coordinates":[-89.538982,40.931148]}},{"properties":{"city":"Chicago","zip":"60625","geo_score":0.634,"home address":"4418 N. Mozart","id":"a6m71eo5xjij","geo_precision":"range","state":"IL"},"type":"Feature","geometry":{"type":"Point","coordinates":[-91.573763,34.784518]}},{"properties":{"city":"Chicago","zip":"60625","geo_score":0.634,"home address":"4418 N. Mozart","id":"a6m71eo10oj4","geo_precision":"range","state":"IL"},"type":"Feature","geometry":{"type":"Point","coordinates":[-91.573763,34.784518]}},{"properties":{"city":"Chicago","zip":"60625","geo_score":0.634,"home address":"4418 N. Mozart","id":"a6m71ew9v7nv","geo_precision":"range","state":"IL"},"type":"Feature","geometry":{"type":"Point","coordinates":[-91.573763,34.784518]}},{"properties":{"city":"Marcellus","zip":"49067","geo_score":0.642,"home address":"93473 Siebert Dr","id":"a6m71evt4nz6","geo_precision":"street","state":"MI"},"type":"Feature","geometry":{"type":"Point","coordinates":[-88.293328,30.796265]}},{"properties":{"city":"Osceola","zip":"46561","geo_score":0.43,"home address":"54833 Sunbeam Court","id":"a6m71f1lgq5j","geo_precision":"city","state":"IN"},"type":"Feature","geometry":{"type":"Point","coordinates":[-108.195922,40.550801]}},{"properties":{"city":"Granger","zip":"46530","geo_score":0.61,"home address":"14516 Old Farm Rd","id":"a6m71et7d3fb","geo_precision":"street","state":"KY"},"type":"Feature","geometry":{"type":"Point","coordinates":[-94.060043,35.945761]}},{"properties":{"city":"Mishawaka","zip":"46545","geo_score":0.423,"home address":"12418 Weber Drive","id":"a6m71evmt1es","geo_precision":"city","state":"IN"},"type":"Feature","geometry":{"type":"Point","coordinates":[-83.139874,31.237144]}},{"properties":{"city":"Oak Park","zip":"50304","geo_score":0.668,"home address":"746 Wesley, 3N","id":"a6m71eorb1o2","geo_precision":"range","state":"IL"},"type":"Feature","geometry":{"type":"Point","coordinates":[-82.596371,32.371738]}},{"properties":{"city":"Mishawaka","zip":"46544","geo_score":0.407,"home address":"345 Bercado Circle 33","id":"a6m71esx98mx","geo_precision":"city","state":"IN"},"type":"Feature","geometry":{"type":"Point","coordinates":[144.786297,13.444257]}},{"properties":{"city":"granger","zip":"46530","geo_score":0.537,"home address":"15587 signal hill court","id":"a6m71eqnpalr","geo_precision":"street","state":"IN"},"type":"Feature","geometry":{"type":"Point","coordinates":[-80.223281,26.318074]}},{"properties":{"city":"Granger","zip":"46530","geo_score":0.418,"home address":"52051 Falcon Chase Drive","id":"a6m71eoukyou","geo_precision":"city","state":"IN"},"type":"Feature","geometry":{"type":"Point","coordinates":[-93.413507,33.464566]}},{"properties":{"city":"South Bend","zip":"46628","geo_score":0.488,"home address":"2330 Council Oak Dr.","id":"a6m71eu3uq3z","geo_precision":"street","state":"IN"},"type":"Feature","geometry":{"type":"Point","coordinates":[-87.101405,32.315641]}},{"properties":{"city":"Oak Park","zip":"60304","geo_score":0.449,"home address":"746 S. Wesley","id":"a6m71exwtq6a","geo_precision":"city","state":"IL"},"type":"Feature","geometry":{"type":"Point","coordinates":[-82.33096,32.483501]}},{"properties":{"city":"Oak Park","zip":"60304","geo_score":0.449,"home address":"746 S. Wesley","id":"a6m71em4gv6t","geo_precision":"city","state":"IL"},"type":"Feature","geometry":{"type":"Point","coordinates":[-82.33096,32.483501]}},{"properties":{"city":"South Bend","zip":"46635","geo_score":0.253,"home address":"1524 Gordon Dr","id":"a6m71exwkktl","geo_precision":"street","state":"IN"},"type":"Feature","geometry":{"type":"Point","coordinates":[-88.195533,33.154314]}},{"properties":{"city":"South Bend","zip":"46615","geo_score":0.577,"home address":"1209 E. Wayne St. North","id":"a6m71eqsz04v","geo_precision":"street","state":"IN"},"type":"Feature","geometry":{"type":"Point","coordinates":[-80.313065,36.087185]}},{"properties":{"city":"South Bend","zip":"46615","geo_score":0.577,"home address":"1209 E. Wayne St. North","id":"a6m71eoxvc31","geo_precision":"street","state":"IN"},"type":"Feature","geometry":{"type":"Point","coordinates":[-80.313065,36.087185]}},{"properties":{"city":"South Bend","zip":"46615","geo_score":0.577,"home address":"1209 E. Wayne St. North","id":"a6m71elvvufx","geo_precision":"street","state":"IN"},"type":"Feature","geometry":{"type":"Point","coordinates":[-80.313065,36.087185]}},{"properties":{"city":"Granger","zip":"46530","geo_score":0.634,"home address":"52121 locks ln","id":"a6m71exkk2th","geo_precision":"street","state":"IN"},"type":"Feature","geometry":{"type":"Point","coordinates":[-78.693474,43.16964]}},{"properties":{"city":"Granger","zip":"46530","geo_score":0.634,"home address":"52121 locks ln","id":"a6m71ezlalo6","geo_precision":"street","state":"IN"},"type":"Feature","geometry":{"type":"Point","coordinates":[-78.693474,43.16964]}},{"properties":{"city":"South Bend","zip":"46637","geo_score":0.0,"home address":"51902 Whitestable Ln","id":"a6m71f0c1zj4","geo_precision":"unmatched","state":"IN"},"type":"Feature","geometry":null},{"properties":{"city":"South Bend","zip":"46637","geo_score":0.0,"home address":"51902 Whitestable Ln","id":"a6m71etsnsy9","geo_precision":"unmatched","state":"IN"},"type":"Feature","geometry":null},{"properties":{"city":"South Bend","zip":"46613","geo_score":0.426,"home address":"1641 East Fox Street","id":"a6m71f1co6vz","geo_precision":"street","state":"IN"},"type":"Feature","geometry":{"type":"Point","coordinates":[-71.23368,42.073409]}},{"properties":{"city":"South Bend","zip":"46614","geo_score":0.407,"home address":"61585 Fellows Street","id":"a6m71etbtswv","geo_precision":"city","state":"IN"},"type":"Feature","geometry":{"type":"Point","coordinates":[-169.512222,-14.226667]}},{"properties":{"city":"Shorewood","zip":"60404","geo_score":0.512,"home address":"1104 Oxford Lane","id":"a6m71ezxdb4f","geo_precision":"street","state":"IL"},"type":"Feature","geometry":{"type":"Point","coordinates":[-107.074328,37.212807]}},{"properties":{"city":"Shorewood","zip":"60404","geo_score":0.512,"home address":"1104 Oxford Lane","id":"a6m71elruc1c","geo_precision":"street","state":"IL"},"type":"Feature","geometry":{"type":"Point","coordinates":[-107.074328,37.212807]}},{"properties":{"city":"south bend","zip":"46617","geo_score":0.61,"home address":"722 marquette ave","id":"a6m71evevons","geo_precision":"range","state":"IN"},"type":"Feature","geometry":{"type":"Point","coordinates":[-86.533107,33.584096]}},{"properties":{"city":"South Bend","zip":"46614","geo_score":0.382,"home address":"5709 Danbury Drive","id":"a6m71emd171o","geo_precision":"street","state":"IN"},"type":"Feature","geometry":{"type":"Point","coordinates":[-92.770373,41.939925]}},{"properties":{"city":"south bend","zip":"46614","geo_score":0.431,"home address":"61605 brightwood lane","id":"a6m71evm0qjb","geo_precision":"city","state":"IN"},"type":"Feature","geometry":{"type":"Point","coordinates":[-94.056869,36.417851]}},{"properties":{"city":"south bend","zip":"46614","geo_score":0.431,"home address":"61605 brightwood lane","id":"a6m71esrwuzm","geo_precision":"city","state":"IN"},"type":"Feature","geometry":{"type":"Point","coordinates":[-94.056869,36.417851]}},{"properties":{"city":"NIles","zip":"49120","geo_score":0.624,"home address":"1031 Miami Rd.","id":"a6m71eprquld","geo_precision":"street","state":"MI"},"type":"Feature","geometry":{"type":"Point","coordinates":[-80.163666,25.9296]}},{"properties":{"city":"South Bend","zip":"46614","geo_score":0.505,"home address":"61665 Kingston Court","id":"a6m71eu5ad03","geo_precision":"street","state":"IN"},"type":"Feature","geometry":{"type":"Point","coordinates":[-93.432082,35.327753]}},{"properties":{"city":"South Bend","zip":"46614","geo_score":0.505,"home address":"61665 Kingston Court","id":"a6m71eogm8lh","geo_precision":"street","state":"IN"},"type":"Feature","geometry":{"type":"Point","coordinates":[-93.432082,35.327753]}},{"properties":{"city":"Algonquin","zip":"60102","geo_score":0.698,"home address":"450 Highland Ave.","id":"a6m71f1n2hlo","geo_precision":"range","state":"IL"},"type":"Feature","geometry":{"type":"Point","coordinates":[-85.777097,33.31715]}},{"properties":{"city":"Mishawaka","zip":"46545","geo_score":0.0,"home address":"15669 Luminiaire Court","id":"a6m71eoaz34m","geo_precision":"unmatched","state":"IN"},"type":"Feature","geometry":null},{"properties":{"city":"Mishawaka","zip":"46545","geo_score":0.0,"home address":"15669 Luminiaire Court","id":"a6m71epjoldx","geo_precision":"unmatched","state":"IN"},"type":"Feature","geometry":null},{"properties":{"city":"Mishawaka","zip":"46545","geo_score":0.0,"home address":"15669 Luminiaire Court","id":"a6m71ewcjldv","geo_precision":"unmatched","state":"IN"},"type":"Feature","geometry":null},{"properties":{"city":"Prather","zip":"93651","geo_score":0.418,"home address":"14484 Red Rock Lane","id":"a6m71epoh8jb","geo_precision":"street","state":"CA"},"type":"Feature","geometry":{"type":"Point","coordinates":[-94.195099,34.610728]}},{"properties":{"city":"South Bend","zip":"46614","geo_score":0.439,"home address":"19321 Edinburgh Dr","id":"a6m71exqwsja","geo_precision":"city","state":"IN"},"type":"Feature","geometry":{"type":"Point","coordinates":[-93.693831,40.0814]}},{"properties":{"city":"Niles","zip":"49120","geo_score":0.358,"home address":"1409 Barron Lake Rd.","id":"a6m71eyuviyj","geo_precision":"street","state":"MI"},"type":"Feature","geometry":{"type":"Point","coordinates":[-87.146427,33.728645]}},{"properties":{"city":"granger","zip":"46530","geo_score":0.397,"home address":"52024 fall creek dr.","id":"a6m71ezfs2sz","geo_precision":"street","state":"IN"},"type":"Feature","geometry":{"type":"Point","coordinates":[-92.88883,33.587959]}},{"properties":{"city":"Edwardsburg","zip":"49112","geo_score":0.454,"home address":"69915 Roy Dr","id":"a6m71ep6vsa3","geo_precision":"street","state":"MI"},"type":"Feature","geometry":{"type":"Point","coordinates":[-93.747059,34.006622]}},{"properties":{"city":"Granger","zip":"46530","geo_score":0.492,"home address":"50619 Lakeside Drive","id":"a6m71em20o5o","geo_precision":"street","state":"IN"},"type":"Feature","geometry":{"type":"Point","coordinates":[-92.858849,33.592729]}},{"properties":{"city":"Granger","zip":"46530","geo_score":0.492,"home address":"50619 Lakeside Drive","id":"a6m71elx0e98","geo_precision":"street","state":"IN"},"type":"Feature","geometry":{"type":"Point","coordinates":[-92.858849,33.592729]}},{"properties":{"city":"Mishawaka","zip":"46544","geo_score":0.54,"home address":"701 Steeplechase Drive","id":"a6m71evo2xuj","geo_precision":"street","state":"IN"},"type":"Feature","geometry":{"type":"Point","coordinates":[-70.927455,41.852514]}},{"properties":{"city":"South Bend","zip":"46628","geo_score":0.59,"home address":"51579 Primrose Rd","id":"a6m71etayduh","geo_precision":"street","state":"IN"},"type":"Feature","geometry":{"type":"Point","coordinates":[-84.769679,33.165663]}},{"properties":{"city":"Mishawaka","zip":"46544","geo_score":0.707,"home address":"446 E 10th St","id":"a6m71eod2g6k","geo_precision":"range","state":"IN"},"type":"Feature","geometry":{"type":"Point","coordinates":[-94.310093,34.283073]}},{"properties":{"city":"Mishawaka","zip":"46544","geo_score":0.707,"home address":"446 E 10th St","id":"a6m71en1u71o","geo_precision":"range","state":"IN"},"type":"Feature","geometry":{"type":"Point","coordinates":[-94.310093,34.283073]}},{"properties":{"city":"South Bend","zip":"46637","geo_score":0.0,"home address":"51388 Prague Ct","id":"a6m71eyc8xgm","geo_precision":"unmatched","state":"IN"},"type":"Feature","geometry":null},{"properties":{"city":"south bend","zip":"46617","geo_score":0.586,"home address":"1202 hillcrest rd","id":"a6m71f13qbwp","geo_precision":"street","state":"IN"},"type":"Feature","geometry":{"type":"Point","coordinates":[-85.81913,33.715258]}},{"properties":{"city":"La Porte","zip":"46350","geo_score":0.293,"home address":"1311 Boyd Blvd","id":"a6m71f11tfx2","geo_precision":"street","state":"IN"},"type":"Feature","geometry":{"type":"Point","coordinates":[-149.223696,61.671699]}},{"properties":{"city":"La Porte","zip":"46350","geo_score":0.293,"home address":"1311 Boyd Blvd","id":"a6m71esj12hs","geo_precision":"street","state":"IN"},"type":"Feature","geometry":{"type":"Point","coordinates":[-149.223696,61.671699]}},{"properties":{"city":"La Porte","zip":"46350","geo_score":0.293,"home address":"1311 Boyd Blvd","id":"a6m71emvz19v","geo_precision":"street","state":"IN"},"type":"Feature","geometry":{"type":"Point","coordinates":[-149.223696,61.671699]}},{"properties":{"city":"Vandalia","zip":"49095","geo_score":0.624,"home address":"63168 Birch Rd.","id":"a6m71eo1zq2m","geo_precision":"street","state":"MI"},"type":"Feature","geometry":{"type":"Point","coordinates":[-95.139482,42.896598]}},{"properties":{"city":"south bend","zip":"46628","geo_score":0.341,"home address":"25676 den trail","id":"a6m71eqkoc2p","geo_precision":"street","state":"IN"},"type":"Feature","geometry":{"type":"Point","coordinates":[-85.982194,31.807965]}},{"properties":{"city":"South Bend","zip":"46628","geo_score":0.274,"home address":"4340 Fox Fire Dr","id":"a6m71em4f79v","geo_precision":"street","state":"IN"},"type":"Feature","geometry":{"type":"Point","coordinates":[-110.257317,31.554627]}},{"properties":{"city":"South Bend","zip":"46628","geo_score":0.582,"home address":"50600 Hidden Forest Dr.","id":"a6m71esyf850","geo_precision":"street","state":"IN"},"type":"Feature","geometry":{"type":"Point","coordinates":[-87.534722,33.064307]}},{"properties":{"city":"South Bend","zip":"46614","geo_score":0.435,"home address":"803 Amhurst ave","id":"a6m71eyut9li","geo_precision":"city","state":"IN"},"type":"Feature","geometry":{"type":"Point","coordinates":[-68.364188,44.833404]}},{"properties":{"city":"South Bend","zip":"46614","geo_score":0.435,"home address":"803 Amhurst ave","id":"a6m71etide0b","geo_precision":"city","state":"IN"},"type":"Feature","geometry":{"type":"Point","coordinates":[-68.364188,44.833404]}},{"properties":{"city":"Granger","zip":"46530","geo_score":0.433,"home address":"50715 Ashford Lane","id":"a6m71elxxrcd","geo_precision":"city","state":"IN"},"type":"Feature","geometry":{"type":"Point","coordinates":[-81.947888,35.871515]}},{"properties":{"city":"Mishawaka","zip":"46545","geo_score":0.383,"home address":"221 E. Broadway St.","id":"a6m71en1b6lb","geo_precision":"street","state":"IN"},"type":"Feature","geometry":{"type":"Point","coordinates":[-76.169735,41.259066]}},{"properties":{"city":"Mishawaka","zip":"46544","geo_score":0.361,"home address":"12092 Dragoon Trail","id":"a6m71ezhsieg","geo_precision":"street","state":"IN"},"type":"Feature","geometry":{"type":"Point","coordinates":[-77.72943,39.38098]}},{"properties":{"city":"South Bend","zip":"46614","geo_score":0.382,"home address":"1002 Wheatly Drive","id":"a6m71es8vai4","geo_precision":"street","state":"IN"},"type":"Feature","geometry":{"type":"Point","coordinates":[-123.803313,40.299163]}},{"properties":{"city":"Elkhart","zip":"46514","geo_score":0.359,"home address":"1314 Glenwood Park Dr.","id":"a6m71eti0y1n","geo_precision":"street","state":"IN"},"type":"Feature","geometry":{"type":"Point","coordinates":[-85.659667,30.154992]}},{"properties":{"city":"Miami","zip":"33161","geo_score":0.524,"home address":"11845 W Biscayne Canal Rd","id":"a6m71ene49iq","geo_precision":"street","state":"FL"},"type":"Feature","geometry":{"type":"Point","coordinates":[-82.197718,28.543865]}},{"properties":{"city":"Miami","zip":"33161","geo_score":0.524,"home address":"11845 W Biscayne Canal Rd","id":"a6m71enr3y26","geo_precision":"street","state":"FL"},"type":"Feature","geometry":{"type":"Point","coordinates":[-82.197718,28.543865]}},{"properties":{"city":"South Bend","zip":"46617","geo_score":0.341,"home address":"1115 N. Notre Dame Ave.","id":"a6m71es2fkmq","geo_precision":"street","state":"IN"},"type":"Feature","geometry":{"type":"Point","coordinates":[-107.167248,37.233084]}},{"properties":{"city":"Shorewood","zip":"60404","geo_score":0.617,"home address":"24844 Lake Forrest Lane","id":"a6m71eptaak4","geo_precision":"street","state":"IL"},"type":"Feature","geometry":{"type":"Point","coordinates":[-87.567495,33.253892]}},{"properties":{"city":"Granger","zip":"46530","geo_score":0.512,"home address":"51510 Crooked Oak Drive","id":"a6m71ethksh5","geo_precision":"street","state":"IN"},"type":"Feature","geometry":{"type":"Point","coordinates":[-84.867364,39.11229]}},{"properties":{"city":"Cassopolis","zip":"49031","geo_score":0.501,"home address":"21781 Dutch Settlement St.","id":"a6m71ep41vbs","geo_precision":"street","state":"MI"},"type":"Feature","geometry":{"type":"Point","coordinates":[-72.338521,41.591378]}},{"properties":{"city":"New Albany","zip":"47150","geo_score":0.659,"home address":"1917 E. Elm St.","id":"a6m71eypijif","geo_precision":"street","state":"IN"},"type":"Feature","geometry":{"type":"Point","coordinates":[-81.613479,31.843708]}},{"properties":{"city":"New Albany","zip":"47150","geo_score":0.659,"home address":"1917 E. Elm St.","id":"a6m71eu2n32b","geo_precision":"street","state":"IN"},"type":"Feature","geometry":{"type":"Point","coordinates":[-81.613479,31.843708]}},{"properties":{"city":"South Bend","zip":"46614","geo_score":0.442,"home address":"61572 Brompton Rd","id":"a6m71exnt6sc","geo_precision":"city","state":"IN"},"type":"Feature","geometry":{"type":"Point","coordinates":[-86.469427,33.582048]}},{"properties":{"city":"Niles","zip":"49120","geo_score":0.309,"home address":"71396 Song Sparrow Trail","id":"a6m71eny9z0z","geo_precision":"street","state":"MI"},"type":"Feature","geometry":{"type":"Point","coordinates":[-93.122918,36.244279]}},{"properties":{"city":"Granger","zip":"46530","geo_score":0.0,"home address":"14263 Watersedge Drive","id":"a6m71eq0ghxr","geo_precision":"unmatched","state":"IN"},"type":"Feature","geometry":null},{"properties":{"city":"Cassopolis","zip":"49031","geo_score":0.433,"home address":"24856 Kingsbury St.","id":"a6m71f0e1s11","geo_precision":"city","state":"MI"},"type":"Feature","geometry":{"type":"Point","coordinates":[-80.301163,25.637326]}},{"properties":{"city":"Chicago","zip":"60625","geo_score":0.59,"home address":"2761 W Wilson Ave","id":"a6m71epwdvja","geo_precision":"street","state":"IL"},"type":"Feature","geometry":{"type":"Point","coordinates":[-93.732832,35.281031]}},{"properties":{"city":"Niles","zip":"49120","geo_score":0.402,"home address":"975 Hance St.","id":"a6m71ew1yhto","geo_precision":"street","state":"MI"},"type":"Feature","geometry":{"type":"Point","coordinates":[-86.612754,32.578984]}},{"properties":{"city":"Mishawaka","zip":"46545","geo_score":0.429,"home address":"15385 Old Bedford Trail","id":"a6m71ennbuza","geo_precision":"city","state":"IN"},"type":"Feature","geometry":{"type":"Point","coordinates":[-87.800055,41.76281]}},{"properties":{"city":"Mishawaka","zip":"46544","geo_score":0.522,"home address":"59450 Christine Drive","id":"a6m71ewdy6x7","geo_precision":"street","state":"IN"},"type":"Feature","geometry":{"type":"Point","coordinates":[-85.207019,37.142257]}},{"properties":{"city":"South bend","zip":"46614","geo_score":0.537,"home address":"5648 Buckhorn Dr","id":"a6m71etkn7ne","geo_precision":"street","state":"IN"},"type":"Feature","geometry":{"type":"Point","coordinates":[-86.466287,34.851797]}},{"properties":{"city":"mishawaka","zip":"46545","geo_score":0.425,"home address":"54644 old bedford tr.","id":"a6m71f0vc0cx","geo_precision":"city","state":"IN"},"type":"Feature","geometry":{"type":"Point","coordinates":[-87.800055,41.76281]}},{"properties":{"city":"Kalamazoo","zip":"49001","geo_score":0.493,"home address":"3612 S. Burdick st.","id":"a6m71epuamz3","geo_precision":"street","state":"MI"},"type":"Feature","geometry":{"type":"Point","coordinates":[-86.961046,41.607015]}},{"properties":{"city":"Niles","zip":"49120","geo_score":0.472,"home address":"30166 Lloyd Lane","id":"a6m71eufttgw","geo_precision":"street","state":"MI"},"type":"Feature","geometry":{"type":"Point","coordinates":[-86.289566,34.31217]}},{"properties":{"city":"Granger","zip":"46530","geo_score":0.654,"home address":"50957 Park Ridge Court","id":"a6m71eufvsk6","geo_precision":"street","state":"IN"},"type":"Feature","geometry":{"type":"Point","coordinates":[-92.232868,34.877402]}},{"properties":{"city":"Oak Park","zip":"60304","geo_score":0.454,"home address":"626 Clarence Ave","id":"a6m71ew9lo9q","geo_precision":"street","state":"IL"},"type":"Feature","geometry":{"type":"Point","coordinates":[-84.540635,37.293154]}},{"properties":{"city":"Oak Park","zip":"60304","geo_score":0.454,"home address":"626 Clarence Ave","id":"a6m71eoazwru","geo_precision":"street","state":"IL"},"type":"Feature","geometry":{"type":"Point","coordinates":[-84.540635,37.293154]}},{"properties":{"city":"Mishawaka","zip":"46544","geo_score":0.586,"home address":"1604 Milburn Boulevard","id":"a6m71erucich","geo_precision":"street","state":"IN"},"type":"Feature","geometry":{"type":"Point","coordinates":[-80.573936,28.083879]}},{"properties":{"city":"Vandalia","zip":"49095","geo_score":0.59,"home address":"62803 Birch Lakeview Dr.","id":"a6m71enz3fvl","geo_precision":"street","state":"MI"},"type":"Feature","geometry":{"type":"Point","coordinates":[-94.314976,43.380171]}},{"properties":{"city":"South bend","zip":"46615","geo_score":0.756,"home address":"845 So 28th St","id":"a6m71epgspar","geo_precision":"range","state":"IN"},"type":"Feature","geometry":{"type":"Point","coordinates":[-93.270934,33.989067]}},{"properties":{"city":"Elkhart","zip":"46514","geo_score":0.236,"home address":"1714 Canterbury Dr.","id":"a6m71em4hdia","geo_precision":"street","state":"IN"},"type":"Feature","geometry":{"type":"Point","coordinates":[-88.372495,32.426513]}},{"properties":{"city":"Overbrook","zip":"66524","geo_score":0.488,"home address":"3492 E US Hwy 56","id":"a6m71eutph6q","geo_precision":"street","state":"KS"},"type":"Feature","geometry":{"type":"Point","coordinates":[-85.499922,31.257444]}},{"properties":{"city":"Oak Park","zip":"60304","geo_score":0.499,"home address":"645 S. East Ave.","id":"a6m71f1oncvs","geo_precision":"street","state":"IL"},"type":"Feature","geometry":{"type":"Point","coordinates":[-76.194889,39.521775]}},{"properties":{"city":"Oak Lawn","zip":"60453","geo_score":0.326,"home address":"10500 S. Laramie Ave.","id":"a6m71erw0tqe","geo_precision":"street","state":"IL"},"type":"Feature","geometry":{"type":"Point","coordinates":[-88.44981,47.233954]}},{"properties":{"city":"Granger","zip":"46530","geo_score":0.628,"home address":"14449 Windward Dr.","id":"a6m71f1c828z","geo_precision":"street","state":"IN"},"type":"Feature","geometry":{"type":"Point","coordinates":[-80.993617,31.982433]}},{"properties":{"city":"Granger","zip":"46530","geo_score":0.628,"home address":"14449 Windward Dr.","id":"a6m71eyg6v9j","geo_precision":"street","state":"IN"},"type":"Feature","geometry":{"type":"Point","coordinates":[-80.993617,31.982433]}},{"properties":{"city":"South Bend","zip":"46614","geo_score":0.0,"home address":"18761 Paddington Ct.","id":"a6m71ep0sdsr","geo_precision":"unmatched","state":"IN"},"type":"Feature","geometry":null},{"properties":{"city":"Granger","zip":"46530","geo_score":0.51,"home address":"50646 Lakeside Dr","id":"a6m71ezp2c05","geo_precision":"street","state":"IN"},"type":"Feature","geometry":{"type":"Point","coordinates":[-92.858849,33.592729]}},{"properties":{"city":"Niles","zip":"49120","geo_score":0.448,"home address":"2210 E. Bertrand Rd.","id":"a6m71eqkx2l9","geo_precision":"street","state":"MI"},"type":"Feature","geometry":{"type":"Point","coordinates":[-90.012546,29.774818]}},{"properties":{"city":"Niles","zip":"49120","geo_score":0.448,"home address":"2210 E. Bertrand Rd.","id":"a6m71evj8aql","geo_precision":"street","state":"MI"},"type":"Feature","geometry":{"type":"Point","coordinates":[-90.012546,29.774818]}},{"properties":{"city":"Granger","zip":"46530","geo_score":0.561,"home address":"13452 SR 23","id":"a6m71erb45zh","geo_precision":"street","state":"IN"},"type":"Feature","geometry":{"type":"Point","coordinates":[-85.563107,31.618019]}},{"properties":{"city":"Mishawaka","zip":"46544","geo_score":0.523,"home address":"801 Hubbard St","id":"a6m71ewectbv","geo_precision":"street","state":"IN"},"type":"Feature","geometry":{"type":"Point","coordinates":[-94.322527,35.906988]}},{"properties":{"city":"Waterford","zip":"48327","geo_score":0.429,"home address":"5785 S. Aylesbury","id":"a6m71ey2p2m9","geo_precision":"range","state":"MI"},"type":"Feature","geometry":{"type":"Point","coordinates":[-88.094149,34.734005]}},{"properties":{"city":"South Bend","zip":"46628","geo_score":0.624,"home address":"2308 Spring Hill Drive","id":"a6m71f15dwvy","geo_precision":"street","state":"IN"},"type":"Feature","geometry":{"type":"Point","coordinates":[-80.243279,26.245703]}},{"properties":{"city":"Granger","zip":"46530","geo_score":0.61,"home address":"10628 Pheasant Cove","id":"a6m71epjuefz","geo_precision":"street","state":"IN"},"type":"Feature","geometry":{"type":"Point","coordinates":[-110.265607,31.505962]}},{"properties":{"city":"Granger","zip":"46530","geo_score":0.61,"home address":"10628 Pheasant Cove","id":"a6m71f1ha26e","geo_precision":"street","state":"IN"},"type":"Feature","geometry":{"type":"Point","coordinates":[-110.265607,31.505962]}},{"properties":{"city":"Granger","zip":"46530","geo_score":0.707,"home address":"14693 Horseshoe Bend","id":"a6m71eu4420d","geo_precision":"street","state":"IN"},"type":"Feature","geometry":{"type":"Point","coordinates":[-121.576602,44.307408]}},{"properties":{"city":"Cassopolis","zip":"49031","geo_score":0.707,"home address":"65949 Union Road","id":"a6m71es9mryi","geo_precision":"street","state":"MI"},"type":"Feature","geometry":{"type":"Point","coordinates":[-87.208364,33.220036]}},{"properties":{"city":"Indianapolis","zip":"46226","geo_score":0.404,"home address":"6420 Around The Hills Road","id":"a6m71emdzwqt","geo_precision":"city","state":"IN"},"type":"Feature","geometry":{"type":"Point","coordinates":[-81.669851,38.896472]}},{"properties":{"city":"Niles","zip":"49120","geo_score":0.391,"home address":"29901 Edwards Way","id":"a6m71erkpmoa","geo_precision":"street","state":"MI"},"type":"Feature","geometry":{"type":"Point","coordinates":[-117.809737,35.005249]}},{"properties":{"city":"Niles","zip":"49120","geo_score":0.391,"home address":"29901 Edwards Way","id":"a6m71et5vn9x","geo_precision":"street","state":"MI"},"type":"Feature","geometry":{"type":"Point","coordinates":[-117.809737,35.005249]}},{"properties":{"city":"Plymouth","zip":"46563","geo_score":0.0,"home address":"10670 Nutmeg Road","id":"a6m71f1opqnm","geo_precision":"unmatched","state":"IN"},"type":"Feature","geometry":null},{"properties":{"city":"Carmel","zip":"46033","geo_score":0.396,"home address":"11920 Eden Glen Drive","id":"a6m71eynjpkl","geo_precision":"street","state":"IN"},"type":"Feature","geometry":{"type":"Point","coordinates":[-86.271864,33.633294]}},{"properties":{"city":"South Bend","zip":"46614","geo_score":0.506,"home address":"5788 Boxwood Dr. East","id":"a6m71ezntplf","geo_precision":"street","state":"IN"},"type":"Feature","geometry":{"type":"Point","coordinates":[-75.617059,39.72564]}},{"properties":{"city":"Three Rivers","zip":"49093","geo_score":0.376,"home address":"17071 apache Trail","id":"a6m71exsjd1c","geo_precision":"street","state":"MI"},"type":"Feature","geometry":{"type":"Point","coordinates":[-94.40509,35.024115]}},{"properties":{"city":"Three Rivers","zip":"49093","geo_score":0.376,"home address":"17071 apache Trail","id":"a6m71eyxts85","geo_precision":"street","state":"MI"},"type":"Feature","geometry":{"type":"Point","coordinates":[-94.40509,35.024115]}},{"properties":{"city":"Three Rivers","zip":"49093","geo_score":0.376,"home address":"17071 apache Trail","id":"a6m71eng3ds5","geo_precision":"street","state":"MI"},"type":"Feature","geometry":{"type":"Point","coordinates":[-94.40509,35.024115]}},{"properties":{"city":"Bloomington","zip":"47401","geo_score":0.442,"home address":"4020 E. Bennington Blvd.","id":"a6m71eortdx6","geo_precision":"city","state":"IN"},"type":"Feature","geometry":{"type":"Point","coordinates":[-111.321596,42.391038]}},{"properties":{"city":"Plymouth","zip":"46563","geo_score":0.0,"home address":"10765 Muckshaw Rd","id":"a6m71epel4yx","geo_precision":"unmatched","state":"IN"},"type":"Feature","geometry":null},{"properties":{"city":"Plymouth","zip":"46563","geo_score":0.0,"home address":"10765 Muckshaw Rd","id":"a6m71ersju6g","geo_precision":"unmatched","state":"IN"},"type":"Feature","geometry":null},{"properties":{"city":"Holly","zip":"48442","geo_score":0.815,"home address":"14467 Vanessa Dr.","id":"a6m71ewdbf31","geo_precision":"range","state":"MI"},"type":"Feature","geometry":{"type":"Point","coordinates":[-118.317819,33.900171]}},{"properties":{"city":"Holly","zip":"48442","geo_score":0.815,"home address":"14467 Vanessa Dr.","id":"a6m71evezwgi","geo_precision":"range","state":"MI"},"type":"Feature","geometry":{"type":"Point","coordinates":[-118.317819,33.900171]}},{"properties":{"city":"South Bend","zip":"46614","geo_score":0.654,"home address":"1202 Ridgedale Road","id":"a6m71ezzzasi","geo_precision":"street","state":"IN"},"type":"Feature","geometry":{"type":"Point","coordinates":[-85.550094,36.160362]}},{"properties":{"city":"Granger","zip":"46530","geo_score":0.0,"home address":"51985 Bittersweet Road","id":"a6m71eofqab1","geo_precision":"unmatched","state":"IN"},"type":"Feature","geometry":null},{"properties":{"city":"Oak Lawn","zip":"60453","geo_score":0.429,"home address":"10420 S. Long","id":"a6m71eo7o215","geo_precision":"city","state":"IL"},"type":"Feature","geometry":{"type":"Point","coordinates":[-155.497222,64.403611]}},{"properties":{"city":"Granger","zip":"46530","geo_score":0.0,"home address":"52041 Carding Mill Ct","id":"a6m71epf2lp4","geo_precision":"unmatched","state":"IN"},"type":"Feature","geometry":null},{"properties":{"city":"Granger","zip":"46530","geo_score":0.0,"home address":"52041 Carding Mill Ct","id":"a6m71f03fsqm","geo_precision":"unmatched","state":"IN"},"type":"Feature","geometry":null},{"properties":{"city":"Granger","zip":"46530","geo_score":0.638,"home address":"50570 Weeping Willow Run E","id":"a6m71esozdt1","geo_precision":"street","state":"IN"},"type":"Feature","geometry":{"type":"Point","coordinates":[-119.757265,39.484671]}},{"properties":{"city":"Granger","zip":"46530","geo_score":0.638,"home address":"50570 Weeping Willow Run E","id":"a6m71epa1foe","geo_precision":"street","state":"IN"},"type":"Feature","geometry":{"type":"Point","coordinates":[-119.757265,39.484671]}},{"properties":{"city":"New Carlisle","zip":"46552","geo_score":0.772,"home address":"111 Lynn Dee Court","id":"a6m71esz8te7","geo_precision":"range","state":"IN"},"type":"Feature","geometry":{"type":"Point","coordinates":[-86.448609,32.472631]}},{"properties":{"city":"mishawaka","zip":"46545","geo_score":0.0,"home address":"3323 Conocrd Ct","id":"a6m71ew2p49r","geo_precision":"unmatched","state":"IN"},"type":"Feature","geometry":null},{"properties":{"city":"South Bend","zip":"46635","geo_score":0.431,"home address":"54701 Northern Avenue","id":"a6m71ev88up0","geo_precision":"city","state":"IN"},"type":"Feature","geometry":{"type":"Point","coordinates":[-90.453714,35.503416]}},{"properties":{"city":"Granger","zip":"46530","geo_score":0.253,"home address":"10642 Fawn Woods Court","id":"a6m71eyrgjbf","geo_precision":"street","state":"IN"},"type":"Feature","geometry":{"type":"Point","coordinates":[-87.857633,31.033113]}},{"properties":{"city":"Granger","zip":"46530","geo_score":0.253,"home address":"10642 Fawn Woods Court","id":"a6m71f090ppl","geo_precision":"street","state":"IN"},"type":"Feature","geometry":{"type":"Point","coordinates":[-87.857633,31.033113]}},{"properties":{"city":"Granger","zip":"46530","geo_score":0.0,"home address":"15577 Countryview Court","id":"a6m71en5uce7","geo_precision":"unmatched","state":"IN"},"type":"Feature","geometry":null},{"properties":{"city":"Oak Lawn","zip":"60453","geo_score":0.624,"home address":"5421 Avery PL","id":"a6m71ezfn4so","geo_precision":"street","state":"IL"},"type":"Feature","geometry":{"type":"Point","coordinates":[-91.902149,33.672959]}},{"properties":{"city":"Plainfield","zip":"60544","geo_score":0.313,"home address":"13825 S. Quail Run Drive","id":"a6m71f0f138w","geo_precision":"street","state":"IL"},"type":"Feature","geometry":{"type":"Point","coordinates":[-119.992415,39.659787]}},{"properties":{"city":"Cassopolis","zip":"49031","geo_score":0.424,"home address":"22236 Lake Street","id":"a6m71ep88tn2","geo_precision":"street","state":"MI"},"type":"Feature","geometry":{"type":"Point","coordinates":[-85.125832,31.916048]}},{"properties":{"city":"Granger","zip":"46530","geo_score":0.0,"home address":"14516 Sedgwick Ct.","id":"a6m71eqqava4","geo_precision":"unmatched","state":"IN"},"type":"Feature","geometry":null},{"properties":{"city":"Granger","zip":"46530","geo_score":0.0,"home address":"14516 Sedgwick Ct.","id":"a6m71es1qga2","geo_precision":"unmatched","state":"IN"},"type":"Feature","geometry":null},{"properties":{"city":"Granger","zip":"46530","geo_score":0.561,"home address":"10810 Pine Cone Court","id":"a6m71eu1e5rl","geo_precision":"street","state":"IN"},"type":"Feature","geometry":{"type":"Point","coordinates":[-71.546623,43.204826]}},{"properties":{"city":"Granger","zip":"46530","geo_score":0.418,"home address":"12816 Vicki Lane","id":"a6m71f1nidn7","geo_precision":"city","state":"IN"},"type":"Feature","geometry":{"type":"Point","coordinates":[-92.105693,33.328729]}},{"properties":{"city":"Mishawaka","zip":"46545","geo_score":0.415,"home address":"123 W Catalpa","id":"a6m71etxzunu","geo_precision":"street","state":"IN"},"type":"Feature","geometry":{"type":"Point","coordinates":[-86.589886,32.663013]}},{"properties":{"city":"South Bend","zip":"46635","geo_score":0.532,"home address":"17886 Tally Ho Drive E","id":"a6m71esnfs9f","geo_precision":"street","state":"IN"},"type":"Feature","geometry":{"type":"Point","coordinates":[-157.734761,21.44599]}},{"properties":{"city":"South Bend","zip":"46635","geo_score":0.532,"home address":"17886 Tally Ho Drive E","id":"a6m71eyyu1nn","geo_precision":"street","state":"IN"},"type":"Feature","geometry":{"type":"Point","coordinates":[-157.734761,21.44599]}},{"properties":{"city":"Chicago","zip":"60618","geo_score":0.35,"home address":"3513 N. Hoyne Ave.","id":"a6m71f0b9d4p","geo_precision":"street","state":"IL"},"type":"Feature","geometry":{"type":"Point","coordinates":[-86.983786,34.746269]}},{"properties":{"city":"Chicago","zip":"60618","geo_score":0.35,"home address":"3513 N. Hoyne Ave.","id":"a6m71eq8rxte","geo_precision":"street","state":"IL"},"type":"Feature","geometry":{"type":"Point","coordinates":[-86.983786,34.746269]}},{"properties":{"city":"South Bend","zip":"46614","geo_score":0.524,"home address":"60644 Whispering Hills Drive","id":"a6m71ewku57n","geo_precision":"street","state":"IN"},"type":"Feature","geometry":{"type":"Point","coordinates":[-89.17872,44.331036]}},{"properties":{"city":"Cassopolis","zip":"49031","geo_score":0.433,"home address":"20850 Diamond Shores Drive","id":"a6m71evcqd6x","geo_precision":"street","state":"MI"},"type":"Feature","geometry":{"type":"Point","coordinates":[-86.435037,34.240719]}},{"properties":{"city":"Granger","zip":"46530","geo_score":0.0,"home address":"51585 Bowood Ct","id":"a6m71emhu118","geo_precision":"unmatched","state":"IN"},"type":"Feature","geometry":null},{"properties":{"city":"chicago","zip":"60625","geo_score":0.366,"home address":"4851 N. California","id":"a6m71es3shbh","geo_precision":"street","state":"IL"},"type":"Feature","geometry":{"type":"Point","coordinates":[-118.840348,34.178698]}},{"properties":{"city":"Granger","zip":"46530","geo_score":0.561,"home address":"15805 N. Lakeshore Dr","id":"a6m71exsuuxm","geo_precision":"street","state":"IN"},"type":"Feature","geometry":{"type":"Point","coordinates":[-92.02887,32.536229]}},{"properties":{"city":"Granger","zip":"46530","geo_score":0.561,"home address":"15805 N. Lakeshore Dr.","id":"a6m71f1k5f51","geo_precision":"street","state":"IN"},"type":"Feature","geometry":{"type":"Point","coordinates":[-92.02887,32.536229]}},{"properties":{"city":"Granger","zip":"46530","geo_score":0.438,"home address":"51730 Creekside Dr.","id":"a6m71ex2thet","geo_precision":"street","state":"IN"},"type":"Feature","geometry":{"type":"Point","coordinates":[-85.477002,32.27455]}},{"properties":{"city":"Granger","zip":"46530","geo_score":0.438,"home address":"51730 Creekside Dr.","id":"a6m71evyxf4o","geo_precision":"street","state":"IN"},"type":"Feature","geometry":{"type":"Point","coordinates":[-85.477002,32.27455]}},{"properties":{"city":"Granger","zip":"46530","geo_score":0.0,"home address":"15810 Walnut Pointe Ct.","id":"a6m71ey4vkw8","geo_precision":"unmatched","state":"IN"},"type":"Feature","geometry":null},{"properties":{"city":"Granger","zip":"46530","geo_score":0.0,"home address":"12122 Pennyroyal Lane","id":"a6m71elohbhf","geo_precision":"unmatched","state":"IN"},"type":"Feature","geometry":null},{"properties":{"city":"Granger","zip":"46530","geo_score":0.0,"home address":"12122 Pennyroyal Lane","id":"a6m71eq5plit","geo_precision":"unmatched","state":"IN"},"type":"Feature","geometry":null},{"properties":{"city":"Mishawaka","zip":"46544","geo_score":0.548,"home address":"13585 Layton Road","id":"a6m71et3r69w","geo_precision":"street","state":"IN"},"type":"Feature","geometry":{"type":"Point","coordinates":[-98.490366,34.624047]}},{"properties":{"city":"Mishawaka","zip":"46544","geo_score":0.548,"home address":"13585 Layton Road","id":"a6m71es9hjj7","geo_precision":"street","state":"IN"},"type":"Feature","geometry":{"type":"Point","coordinates":[-98.490366,34.624047]}},{"properties":{"city":"Mishawaka","zip":"46544","geo_score":0.548,"home address":"13585 Layton Road","id":"a6m71eyl575x","geo_precision":"street","state":"IN"},"type":"Feature","geometry":{"type":"Point","coordinates":[-98.490366,34.624047]}},{"properties":{"city":"Edwardsburg","zip":"49112","geo_score":0.528,"home address":"69979 KNOTTINGHAM","id":"a6m71en25g1p","geo_precision":"street","state":"IN"},"type":"Feature","geometry":{"type":"Point","coordinates":[-86.223871,33.362622]}},{"properties":{"city":"South Bend","zip":"46615","geo_score":0.634,"home address":"1322 Longfellow Ave.","id":"a6m71eztg49e","geo_precision":"range","state":"IN"},"type":"Feature","geometry":{"type":"Point","coordinates":[-110.244436,36.729744]}},{"properties":{"city":"Mishawaka","zip":"46544","geo_score":0.482,"home address":"105 N. Brook Ave","id":"a6m71eo1jv8x","geo_precision":"street","state":"IN"},"type":"Feature","geometry":{"type":"Point","coordinates":[-94.127865,33.673009]}},{"properties":{"city":"Mishawaka","zip":"46544","geo_score":0.482,"home address":"105 N. Brook Ave","id":"a6m71etzll2h","geo_precision":"street","state":"IN"},"type":"Feature","geometry":{"type":"Point","coordinates":[-94.127865,33.673009]}},{"properties":{"city":"Mishawaka","zip":"46544","geo_score":0.482,"home address":"105 N. Brook Ave","id":"a6m71eocgpr2","geo_precision":"street","state":"IN"},"type":"Feature","geometry":{"type":"Point","coordinates":[-94.127865,33.673009]}},{"properties":{"city":"South bend","zip":"46614","geo_score":0.437,"home address":"133 E. Tasher St.","id":"a6m71exvqbq8","geo_precision":"street","state":"IN"},"type":"Feature","geometry":{"type":"Point","coordinates":[-83.274141,30.827246]}},{"properties":{"city":"Niles","zip":"49120","geo_score":0.532,"home address":"204 South Saint Joseph Ave.","id":"a6m71et9woa8","geo_precision":"street","state":"MI"},"type":"Feature","geometry":{"type":"Point","coordinates":[-112.087827,40.709032]}},{"properties":{"city":"Niles","zip":"49120","geo_score":0.532,"home address":"204 South Saint Joseph Ave.","id":"a6m71f0m1m8c","geo_precision":"street","state":"MI"},"type":"Feature","geometry":{"type":"Point","coordinates":[-112.087827,40.709032]}},{"properties":{"city":"Granger","zip":"46530","geo_score":0.561,"home address":"6410 Summer Place Dr W Apt 9A","id":"a6m71etbvmwa","geo_precision":"street","state":"IN"},"type":"Feature","geometry":{"type":"Point","coordinates":[-82.936324,42.527645]}},{"properties":{"city":"South Bend","zip":"46614","geo_score":0.411,"home address":"61525 Druid Lane","id":"a6m71evyx8jd","geo_precision":"city","state":"IN"},"type":"Feature","geometry":{"type":"Point","coordinates":[-87.090563,34.066214]}},{"properties":{"city":"South Bend","zip":"46619","geo_score":0.26,"home address":"25711 Fawn Ridge Court","id":"a6m71esmtcsx","geo_precision":"street","state":"IN"},"type":"Feature","geometry":{"type":"Point","coordinates":[-87.857633,31.033113]}},{"properties":{"city":"Murfreesboro","zip":"37129","geo_score":0.426,"home address":"1231 Lunar Dr","id":"a6m71f146twt","geo_precision":"city","state":"TN"},"type":"Feature","geometry":{"type":"Point","coordinates":[-119.930975,36.430505]}},{"properties":{"city":"Murfreesboro","zip":"37129","geo_score":0.426,"home address":"1231 Lunar Dr","id":"a6m71eu6t199","geo_precision":"city","state":"TN"},"type":"Feature","geometry":{"type":"Point","coordinates":[-119.930975,36.430505]}},{"properties":{"city":"South Bend","zip":"46637","geo_score":0.707,"home address":"52052 Central Ave","id":"a6m71er61m7w","geo_precision":"street","state":"IN"},"type":"Feature","geometry":{"type":"Point","coordinates":[-86.934159,33.446399]}},{"properties":{"city":"Paw Paw","zip":"49079","geo_score":0.659,"home address":"53141 Meadow View Ln","id":"a6m71epa5486","geo_precision":"street","state":"MI"},"type":"Feature","geometry":{"type":"Point","coordinates":[-75.475758,39.837351]}},{"properties":{"city":"granger","zip":"46530","geo_score":0.0,"home address":"50560 pine row ct.","id":"a6m71enigt19","geo_precision":"unmatched","state":"IN"},"type":"Feature","geometry":null},{"properties":{"city":"Osceola","zip":"46561","geo_score":0.0,"home address":"55799 Ringneck Drive","id":"a6m71f0h47p5","geo_precision":"unmatched","state":"IN"},"type":"Feature","geometry":null},{"properties":{"city":"Granger","zip":"46530","geo_score":0.0,"home address":"15550 Signal Hill Ct","id":"a6m71eydetb7","geo_precision":"unmatched","state":"IN"},"type":"Feature","geometry":null},{"properties":{"city":"Granger","zip":"46530","geo_score":0.0,"home address":"15550 Signal Hill Ct","id":"a6m71evpdx9y","geo_precision":"unmatched","state":"IN"},"type":"Feature","geometry":null},{"properties":{"city":"Elkhart","zip":"46514","geo_score":0.642,"home address":"1700 Rainbow Bend","id":"a6m71er2fa66","geo_precision":"street","state":"IN"},"type":"Feature","geometry":{"type":"Point","coordinates":[-121.549115,43.721889]}},{"properties":{"city":"Elkhart","zip":"46514","geo_score":0.642,"home address":"1700 Rainbow Bend","id":"a6m71ewynmds","geo_precision":"street","state":"IN"},"type":"Feature","geometry":{"type":"Point","coordinates":[-121.549115,43.721889]}},{"properties":{"city":"South Bend","zip":"46617","geo_score":0.59,"home address":"1325 E. Washington St.","id":"a6m71enyr0sn","geo_precision":"street","state":"IN"},"type":"Feature","geometry":{"type":"Point","coordinates":[-77.049726,38.902969]}},{"properties":{"city":"South Bend","zip":"46617","geo_score":0.59,"home address":"1325 E. Washington St.","id":"a6m71etysxrk","geo_precision":"street","state":"IN"},"type":"Feature","geometry":{"type":"Point","coordinates":[-77.049726,38.902969]}},{"properties":{"city":"Mishawaka","zip":"46545","geo_score":0.385,"home address":"726 Travers Cir","id":"a6m71et15u0v","geo_precision":"street","state":"IN"},"type":"Feature","geometry":{"type":"Point","coordinates":[-88.996338,38.330363]}},{"properties":{"city":"Oak Lawn","zip":"60453","geo_score":0.4,"home address":"9710 S 55 Ave.","id":"a6m71eojfg54","geo_precision":"city","state":"IL"},"type":"Feature","geometry":{"type":"Point","coordinates":[-170.799167,-14.336667]}},{"properties":{"city":"Holly","zip":"48442","geo_score":0.489,"home address":"209 Park","id":"a6m71eln4s56","geo_precision":"range","state":"MI"},"type":"Feature","geometry":{"type":"Point","coordinates":[-92.405757,34.217454]}},{"properties":{"city":"Niles","zip":"49120","geo_score":0.454,"home address":"8 South 16th Street","id":"a6m71eu9sga1","geo_precision":"street","state":"MI"},"type":"Feature","geometry":{"type":"Point","coordinates":[-86.421826,31.919114]}},{"properties":{"city":"Chicago","zip":"60625","geo_score":0.61,"home address":"2756 W. Windsor","id":"a6m71emf47ze","geo_precision":"street","state":"IL"},"type":"Feature","geometry":{"type":"Point","coordinates":[-86.770266,33.472083]}},{"properties":{"city":"Granger","zip":"46530","geo_score":0.659,"home address":"52020 Barrington PL","id":"a6m71ezwicls","geo_precision":"street","state":"IN"},"type":"Feature","geometry":{"type":"Point","coordinates":[-88.144669,42.061806]}},{"properties":{"city":"South Bend","zip":"46619","geo_score":0.5,"home address":"1135 Parkway","id":"a6m71emr5v1k","geo_precision":"street","state":"IN"},"type":"Feature","geometry":{"type":"Point","coordinates":[-90.391179,38.27346]}},{"properties":{"city":"South Bend","zip":"46619","geo_score":0.586,"home address":"58419 Crumstown Hwy.","id":"a6m71eyegi0t","geo_precision":"street","state":"IN"},"type":"Feature","geometry":{"type":"Point","coordinates":[-86.397369,41.635644]}},{"properties":{"city":"South Bend","zip":"46619","geo_score":0.432,"home address":"26559 State Rd 2","id":"a6m71ez7nmir","geo_precision":"street","state":"IN"},"type":"Feature","geometry":{"type":"Point","coordinates":[-70.651848,43.188491]}},{"properties":{"city":"Union","zip":"49130","geo_score":0.143,"home address":"PO BOX 504","id":"a6m71emi4570","geo_precision":"street","state":"MI"},"type":"Feature","geometry":{"type":"Point","coordinates":[-87.743938,31.939605]}},{"properties":{"city":"Union","zip":"49130","geo_score":0.143,"home address":"PO Box 504","id":"a6m71exrfsau","geo_precision":"street","state":"MI"},"type":"Feature","geometry":{"type":"Point","coordinates":[-87.743938,31.939605]}},{"properties":{"city":"Ada","zip":"49301","geo_score":0.35,"home address":"549 Abbey Mill","id":"a6m71emf1uhb","geo_precision":"street","state":"MI"},"type":"Feature","geometry":{"type":"Point","coordinates":[-83.384456,31.75723]}},{"properties":{"city":"Oak Park","zip":"60304","geo_score":0.501,"home address":"521 S Ridgeland Ave null","id":"a6m71enx6a26","geo_precision":"street","state":"IL"},"type":"Feature","geometry":{"type":"Point","coordinates":[-76.496005,38.84924]}},{"properties":{"city":"Oak Park","zip":"60304","geo_score":0.61,"home address":"521 S Ridgeland","id":"a6m71ewlw16v","geo_precision":"range","state":"IL"},"type":"Feature","geometry":{"type":"Point","coordinates":[-82.794957,39.110246]}},{"properties":{"city":"Valparaiso","zip":"46383","geo_score":0.434,"home address":"1310 Napoleon Street","id":"a6m71eqpo7nh","geo_precision":"city","state":"IN"},"type":"Feature","geometry":{"type":"Point","coordinates":[-85.359116,33.324005]}},{"properties":{"city":"Michigan City","zip":"46360","geo_score":0.0,"home address":"275 Pine Tree Ct","id":"a6m71eznlkqd","geo_precision":"unmatched","state":"IN"},"type":"Feature","geometry":null},{"properties":{"city":"Mishawaka","zip":"46545","geo_score":0.512,"home address":"54589 Whispering Oak Drive","id":"a6m71epko51q","geo_precision":"street","state":"IN"},"type":"Feature","geometry":{"type":"Point","coordinates":[-81.98917,29.782809]}},{"properties":{"city":"Three Rivers","zip":"49093","geo_score":0.399,"home address":"10166 Mann Road","id":"a6m71ertsmgk","geo_precision":"street","state":"MI"},"type":"Feature","geometry":{"type":"Point","coordinates":[-94.0811,36.073063]}},{"properties":{"city":"South Bend","zip":"46614","geo_score":0.402,"home address":"60770 Rue DuLac E. Dr.","id":"a6m71ez3aibs","geo_precision":"city","state":"IN"},"type":"Feature","geometry":{"type":"Point","coordinates":[-95.992775,36.153982]}},{"properties":{"city":"Granger","zip":"46530","geo_score":0.4,"home address":"52333 Fall Creek Drive","id":"a6m71f0lx8xf","geo_precision":"street","state":"IN"},"type":"Feature","geometry":{"type":"Point","coordinates":[-92.88883,33.587959]}},{"properties":{"city":"New Carlisle","zip":"46552","geo_score":0.317,"home address":"8052 E. US 20, PO Box 194","id":"a6m71ep16hkn","geo_precision":"street","state":"IN"},"type":"Feature","geometry":{"type":"Point","coordinates":[-88.02805,31.983204]}}],"is_temporal":false,"author":{"url":"","metadata":"","contact_name":"","contact_address":"","source":"","contact_phone":""},"source":"","pagination":{"sort":null,"start":0,"total":345,"limit":1000000},"state":"complete","tags":"","published":"2014-08-12T21:25:51-04:00","id":100306}