{"type":"FeatureCollection","data_type":"Dataset","url_type":null,"permissions":[{"permissions":{"download":true,"view":true},"group_id":"everyone"}],"classification":null,"title":"Sold!","count":136,"stream_id":100865,"contributor":{"url":"http://geocommons.com/users/23615","name":"tsanford"},"data_attributes":null,"calculation_params":null,"icon_link":null,"link":"http://geocommons.com/overlays/100865.json","extent":[-72.4972,41.2801,-69.9963,42.6743],"geometry_types":["point"],"unique_name":null,"name":"Sold!","feature_count":136,"description":"","next_feature":null,"is_raster":false,"short_classification":"Y","stats":{},"features":[{"properties":{"city":"Waltham","geo_score":0.805,"street":"47 Chestnut Street","id":"a6kjtmqzu8je","geo_precision":"range","state":"MA"},"type":"Feature","geometry":{"type":"Point","coordinates":[-71.065952,42.451845]}},{"properties":{"city":"Boston","geo_score":0.805,"street":"149 Richmond Street","id":"a6kjtmusyr6s","geo_precision":"range","state":"MA"},"type":"Feature","geometry":{"type":"Point","coordinates":[-71.054228,42.363266]}},{"properties":{"city":"Cambridge","geo_score":0.805,"street":"8 Museum Way","id":"a6kjtn0db00c","geo_precision":"range","state":"MA"},"type":"Feature","geometry":{"type":"Point","coordinates":[-71.0723,42.368849]}},{"properties":{"city":"Cambridge","geo_score":0.805,"street":"8 Museum Way","id":"a6kjtml62ab6","geo_precision":"range","state":"MA"},"type":"Feature","geometry":{"type":"Point","coordinates":[-71.0723,42.368849]}},{"properties":{"city":"Boston","geo_score":0.805,"street":"133 Commonwealth Ave","id":"a6kjtmoxeo9h","geo_precision":"range","state":"MA"},"type":"Feature","geometry":{"type":"Point","coordinates":[-71.077684,42.352185]}},{"properties":{"city":"Boston","geo_score":0.805,"street":"91 Webster Street","id":"a6kjtmnozuxl","geo_precision":"range","state":"MA"},"type":"Feature","geometry":{"type":"Point","coordinates":[-71.0376,42.366829]}},{"properties":{"city":"Cambridge","geo_score":0.872,"street":"52 Lee Street","id":"a6kjtmo34kzo","geo_precision":"range","state":"MA"},"type":"Feature","geometry":{"type":"Point","coordinates":[-71.105437,42.370214]}},{"properties":{"city":"Swampscott","geo_score":0.902,"street":"27 Puritan Park","id":"a6kjtmphfccq","geo_precision":"range","state":"MA"},"type":"Feature","geometry":{"type":"Point","coordinates":[-70.893961,42.46969]}},{"properties":{"city":"Somerville","geo_score":0.737,"street":"41 Corinthian Avenue","id":"a6kjtmujrh6y","geo_precision":"range","state":"MA"},"type":"Feature","geometry":{"type":"Point","coordinates":[-71.123342,42.401065]}},{"properties":{"city":"Boston","geo_score":0.805,"street":"377 Adams Street","id":"a6kjtmuii6mk","geo_precision":"range","state":"MA"},"type":"Feature","geometry":{"type":"Point","coordinates":[-71.020672,42.253019]}},{"properties":{"city":"Boston","geo_score":0.805,"street":"99 Chestnut Hill Ave","id":"a6kjtmtfskzl","geo_precision":"range","state":"MA"},"type":"Feature","geometry":{"type":"Point","coordinates":[-71.153401,42.343495]}},{"properties":{"city":"Arlington","geo_score":0.805,"street":"188 Cedar Street","id":"a6kjtmvof2bo","geo_precision":"range","state":"MA"},"type":"Feature","geometry":{"type":"Point","coordinates":[-71.110232,42.395215]}},{"properties":{"city":"Boston","geo_score":0.805,"street":"1 Avery Street","id":"a6kjtmlk493f","geo_precision":"range","state":"MA"},"type":"Feature","geometry":{"type":"Point","coordinates":[-71.062516,42.35328]}},{"properties":{"city":"Boston","geo_score":0.805,"street":"5 Vinal Street","id":"a6kjtmtkpmph","geo_precision":"range","state":"MA"},"type":"Feature","geometry":{"type":"Point","coordinates":[-71.139027,42.346104]}},{"properties":{"city":"Newton","geo_score":0.6,"street":"26 Beecher Street","id":"a6kjtmtojcwl","geo_precision":"range","state":"MA"},"type":"Feature","geometry":{"type":"Point","coordinates":[-70.503149,41.581096]}},{"properties":{"city":"Boston","geo_score":0.805,"street":"79 Waltham Street","id":"a6kjtmvmbnkj","geo_precision":"range","state":"MA"},"type":"Feature","geometry":{"type":"Point","coordinates":[-71.07056,42.343164]}},{"properties":{"city":"Newton","geo_score":0.354,"street":"369 Dudley Road","id":"a6kjtmtc8lbv","geo_precision":"street","state":"MA"},"type":"Feature","geometry":{"type":"Point","coordinates":[-70.313345,41.66881]}},{"properties":{"city":"Cambridge","geo_score":0.872,"street":"10 Lopez Street","id":"a6kjtmq6mzb5","geo_precision":"range","state":"MA"},"type":"Feature","geometry":{"type":"Point","coordinates":[-71.104286,42.361258]}},{"properties":{"city":"Brookline","geo_score":0.805,"street":"15 Davis Street","id":"a6kjtmnxo78s","geo_precision":"range","state":"MA"},"type":"Feature","geometry":{"type":"Point","coordinates":[-71.007273,42.418388]}},{"properties":{"city":"Boston","geo_score":0.707,"street":"14 North Square","id":"a6kjtmzpp9eq","geo_precision":"range","state":"MA"},"type":"Feature","geometry":{"type":"Point","coordinates":[-71.031341,42.337207]}},{"properties":{"city":"Watertown","geo_score":0.805,"street":"100 School Street","id":"a6kjtmyi7zvz","geo_precision":"range","state":"MA"},"type":"Feature","geometry":{"type":"Point","coordinates":[-71.009592,42.412928]}},{"properties":{"city":"Framingham","geo_score":0.866,"street":"14 Campello Road","id":"a6kjtml95us6","geo_precision":"range","state":"MA"},"type":"Feature","geometry":{"type":"Point","coordinates":[-71.403157,42.314077]}},{"properties":{"city":"South Boston","geo_score":0.805,"street":"12 Vinton Street","id":"a6kjtmothnjv","geo_precision":"range","state":"MA"},"type":"Feature","geometry":{"type":"Point","coordinates":[-71.071503,42.456831]}},{"properties":{"city":"South Natick","geo_score":0.902,"street":"56 Cottage Street","id":"a6kjtmrhy4pf","geo_precision":"range","state":"MA"},"type":"Feature","geometry":{"type":"Point","coordinates":[-71.34562,42.27477]}},{"properties":{"city":"Cambridge","geo_score":0.872,"street":"22 Centre Street","id":"a6kjtmoyzlmr","geo_precision":"range","state":"MA"},"type":"Feature","geometry":{"type":"Point","coordinates":[-71.108196,42.36937]}},{"properties":{"city":"Boston","geo_score":0.805,"street":"14 Sanborn Avenue","id":"a6kjtmywvm2h","geo_precision":"range","state":"MA"},"type":"Feature","geometry":{"type":"Point","coordinates":[-71.163521,42.280016]}},{"properties":{"city":"Fairhaven","geo_score":0.902,"street":"7 Baker Avenue","id":"a6kjtmr6xkk6","geo_precision":"range","state":"MA"},"type":"Feature","geometry":{"type":"Point","coordinates":[-70.891951,41.628696]}},{"properties":{"city":"Brookline","geo_score":0.805,"street":"20 Chapel Street","id":"a6kjtmn0f8cu","geo_precision":"range","state":"MA"},"type":"Feature","geometry":{"type":"Point","coordinates":[-71.120699,42.398805]}},{"properties":{"city":"Lexington","geo_score":0.805,"street":"15 Patterson Street","id":"a6kjtmw0mhgv","geo_precision":"range","state":"MA"},"type":"Feature","geometry":{"type":"Point","coordinates":[-71.065216,42.279045]}},{"properties":{"city":"Southbrough","geo_score":0.721,"street":"38 Flagg Street","id":"a6kjtmzog8g5","geo_precision":"range","state":"MA"},"type":"Feature","geometry":{"type":"Point","coordinates":[-71.555303,42.296163]}},{"properties":{"city":"Norwood","geo_score":0.902,"street":"20 Prospect Street","id":"a6kjtmn9jqvg","geo_precision":"range","state":"MA"},"type":"Feature","geometry":{"type":"Point","coordinates":[-71.196835,42.20446]}},{"properties":{"city":"Boston","geo_score":0.707,"street":"210 West Eighth Street","id":"a6kjtmyum2uc","geo_precision":"range","state":"MA"},"type":"Feature","geometry":{"type":"Point","coordinates":[-71.051436,42.333056]}},{"properties":{"city":"Boston","geo_score":0.805,"street":"4 Adams Street","id":"a6kjtmnlg9mv","geo_precision":"range","state":"MA"},"type":"Feature","geometry":{"type":"Point","coordinates":[-71.12452,42.413206]}},{"properties":{"city":"Sharon","geo_score":0.902,"street":"16 Tall Tree Road","id":"a6kjtmq5yszv","geo_precision":"range","state":"MA"},"type":"Feature","geometry":{"type":"Point","coordinates":[-71.163507,42.104023]}},{"properties":{"city":"Somerville","geo_score":0.87,"street":"50-B Spring Street","id":"a6kjtmub142n","geo_precision":"range","state":"MA"},"type":"Feature","geometry":{"type":"Point","coordinates":[-71.108416,42.386269]}},{"properties":{"city":"Boston","geo_score":0.805,"street":"422 Hanover Street","id":"a6kjtmvt02r5","geo_precision":"range","state":"MA"},"type":"Feature","geometry":{"type":"Point","coordinates":[-71.052764,42.366242]}},{"properties":{"city":"Cambridge","geo_score":0.684,"street":"42 Union Street","id":"a6kjtmywz2zq","geo_precision":"street","state":"MA"},"type":"Feature","geometry":{"type":"Point","coordinates":[-71.095501,42.36936]}},{"properties":{"city":"Boston","geo_score":0.805,"street":"26 Stillman Street","id":"a6kjtmoqnkab","geo_precision":"range","state":"MA"},"type":"Feature","geometry":{"type":"Point","coordinates":[-70.941103,42.200958]}},{"properties":{"city":"Boston","geo_score":0.805,"street":"5 Goodwin Place","id":"a6kjtmwrvaxh","geo_precision":"range","state":"MA"},"type":"Feature","geometry":{"type":"Point","coordinates":[-71.069055,42.359567]}},{"properties":{"city":"Stoneham","geo_score":0.707,"street":"3 O'Grady Circle","id":"a6kjtmv6449o","geo_precision":"range","state":"MA"},"type":"Feature","geometry":{"type":"Point","coordinates":[-71.04196,42.36986]}},{"properties":{"city":"Boston","geo_score":0.805,"street":"342 Commercial Street","id":"a6kjtmsj9x84","geo_precision":"range","state":"MA"},"type":"Feature","geometry":{"type":"Point","coordinates":[-70.95901,42.224647]}},{"properties":{"city":"Winchester","geo_score":0.856,"street":"38 Clark Street","id":"a6kjtn0sv990","geo_precision":"range","state":"MA"},"type":"Feature","geometry":{"type":"Point","coordinates":[-71.140828,42.459277]}},{"properties":{"city":"Westford","geo_score":0.721,"street":"16 Forge Village Road","id":"a6kjtn14332s","geo_precision":"range","state":"MA"},"type":"Feature","geometry":{"type":"Point","coordinates":[-72.497162,42.073665]}},{"properties":{"city":"Brookline","geo_score":0.611,"street":"247 Cypress Street","id":"a6kjtmuv122u","geo_precision":"street","state":"MA"},"type":"Feature","geometry":{"type":"Point","coordinates":[-71.107699,42.384054]}},{"properties":{"city":"Boston","geo_score":0.805,"street":"456 Beacon Street","id":"a6kjtms27mnv","geo_precision":"range","state":"MA"},"type":"Feature","geometry":{"type":"Point","coordinates":[-71.087611,42.351296]}},{"properties":{"city":"Boston","geo_score":0.805,"street":"72 Mozart Street","id":"a6kjtmullxfc","geo_precision":"range","state":"MA"},"type":"Feature","geometry":{"type":"Point","coordinates":[-71.10437,42.320393]}},{"properties":{"city":"Boston","geo_score":0.805,"street":"4 Chiswick Road","id":"a6kjtn0zrbsn","geo_precision":"range","state":"MA"},"type":"Feature","geometry":{"type":"Point","coordinates":[-71.150686,42.337579]}},{"properties":{"city":"Weston","geo_score":0.513,"street":"610 South Avenue","id":"a6kjtn0eps68","geo_precision":"street","state":"MA"},"type":"Feature","geometry":{"type":"Point","coordinates":[-70.953189,42.276109]}},{"properties":{"city":"Belmont","geo_score":0.805,"street":"139 Lexington Street","id":"a6kjtn1ehu73","geo_precision":"range","state":"MA"},"type":"Feature","geometry":{"type":"Point","coordinates":[-71.034766,42.378765]}},{"properties":{"city":"Lexington","geo_score":0.695,"street":"4 Chase Avenue","id":"a6kjtmzcuyqp","geo_precision":"range","state":"MA"},"type":"Feature","geometry":{"type":"Point","coordinates":[-71.090949,42.490513]}},{"properties":{"city":"Sharon","geo_score":0.756,"street":"361 East Street","id":"a6kjtmtggona","geo_precision":"range","state":"MA"},"type":"Feature","geometry":{"type":"Point","coordinates":[-71.152234,42.124948]}},{"properties":{"city":"Brookline","geo_score":0.721,"street":"26 Alton Place","id":"a6kjtmyhzwd0","geo_precision":"range","state":"MA"},"type":"Feature","geometry":{"type":"Point","coordinates":[-70.997471,42.236208]}},{"properties":{"city":"Arlington","geo_score":0.659,"street":"1 West Street","id":"a6kjtmyd1f1q","geo_precision":"range","state":"MA"},"type":"Feature","geometry":{"type":"Point","coordinates":[-71.0045,42.21497]}},{"properties":{"city":"Reading","geo_score":0.902,"street":"31 Pierce Street","id":"a6kjtmrlofkb","geo_precision":"range","state":"MA"},"type":"Feature","geometry":{"type":"Point","coordinates":[-71.095255,42.527602]}},{"properties":{"city":"Boston","geo_score":0.805,"street":"3 Walnut Street","id":"a6kjtmxueov6","geo_precision":"range","state":"MA"},"type":"Feature","geometry":{"type":"Point","coordinates":[-71.098221,42.474621]}},{"properties":{"city":"Boston","geo_score":0.805,"street":"41 Ashford Terrace","id":"a6kjtmnnmmra","geo_precision":"range","state":"MA"},"type":"Feature","geometry":{"type":"Point","coordinates":[-71.126318,42.354754]}},{"properties":{"city":"Boston","geo_score":0.805,"street":"13 Hartford Street","id":"a6kjtn1g0s3d","geo_precision":"range","state":"MA"},"type":"Feature","geometry":{"type":"Point","coordinates":[-71.073329,42.317521]}},{"properties":{"city":"Boston","geo_score":0.805,"street":"10 Worcester Square","id":"a6kjtmlzergs","geo_precision":"range","state":"MA"},"type":"Feature","geometry":{"type":"Point","coordinates":[-71.075398,42.337189]}},{"properties":{"city":"Newton","geo_score":0.768,"street":"4-6 Cotter Road","id":"a6kjtmqcgyo5","geo_precision":"range","state":"MA"},"type":"Feature","geometry":{"type":"Point","coordinates":[-70.000307,41.690983]}},{"properties":{"city":"Waltham","geo_score":0.585,"street":"62 Milner Street","id":"a6kjtmsrx81e","geo_precision":"city","state":"MA"},"type":"Feature","geometry":{"type":"Point","coordinates":[-71.2398,42.388938]}},{"properties":{"city":"Somerville","geo_score":0.805,"street":"110 Josephine Avenue","id":"a6kjtn0t5npv","geo_precision":"range","state":"MA"},"type":"Feature","geometry":{"type":"Point","coordinates":[-71.113251,42.398232]}},{"properties":{"city":"Boston","geo_score":0.805,"street":"41 Ashford Terrace","id":"a6kjtmwnhzqm","geo_precision":"range","state":"MA"},"type":"Feature","geometry":{"type":"Point","coordinates":[-71.126318,42.354754]}},{"properties":{"city":"Needham","geo_score":0.585,"street":"81 Rolling Lane","id":"a6kjtmlua796","geo_precision":"city","state":"MA"},"type":"Feature","geometry":{"type":"Point","coordinates":[-71.08923,42.180048]}},{"properties":{"city":"Framingham","geo_score":0.805,"street":"53 Maple Street","id":"a6kjtmnfw3xk","geo_precision":"range","state":"MA"},"type":"Feature","geometry":{"type":"Point","coordinates":[-71.43159,42.295058]}},{"properties":{"city":"Winchester","geo_score":0.832,"street":"12 Hutchenson Road","id":"a6kjtmwjuvfm","geo_precision":"range","state":"MA"},"type":"Feature","geometry":{"type":"Point","coordinates":[-71.171232,42.437425]}},{"properties":{"city":"Avon","geo_score":0.735,"street":"39 South Street","id":"a6kjtmnvd4wd","geo_precision":"range","state":"MA"},"type":"Feature","geometry":{"type":"Point","coordinates":[-71.041528,42.118755]}},{"properties":{"city":"Boston","geo_score":0.805,"street":"286 E Street","id":"a6kjtmtzdvfi","geo_precision":"range","state":"MA"},"type":"Feature","geometry":{"type":"Point","coordinates":[-71.050478,42.336788]}},{"properties":{"city":"Boston","geo_score":0.695,"street":"5 Common Street","id":"a6kjtmrvt6b6","geo_precision":"range","state":"MA"},"type":"Feature","geometry":{"type":"Point","coordinates":[-71.064029,42.349102]}},{"properties":{"city":"Watertown","geo_score":0.805,"street":"18 Myrtle Street","id":"a6kjtmvaht9y","geo_precision":"range","state":"MA"},"type":"Feature","geometry":{"type":"Point","coordinates":[-70.923264,42.213522]}},{"properties":{"city":"Cambridge","geo_score":0.872,"street":"5 Chalk Street","id":"a6kjtmv8e6o7","geo_precision":"range","state":"MA"},"type":"Feature","geometry":{"type":"Point","coordinates":[-71.108777,42.361288]}},{"properties":{"city":"Acton","geo_score":0.902,"street":"36 Simon Willard Road","id":"a6kjtmw1c1m4","geo_precision":"range","state":"MA"},"type":"Feature","geometry":{"type":"Point","coordinates":[-71.441583,42.488172]}},{"properties":{"city":"Swampscott","geo_score":0.902,"street":"54 Atlantic Road","id":"a6kjtmtit07h","geo_precision":"range","state":"MA"},"type":"Feature","geometry":{"type":"Point","coordinates":[-70.89213,42.470225]}},{"properties":{"city":"Boston","geo_score":0.805,"street":"18 Maria Lane","id":"a6kjtn13x82z","geo_precision":"range","state":"MA"},"type":"Feature","geometry":{"type":"Point","coordinates":[-71.134958,42.28226]}},{"properties":{"city":"Boston","geo_score":0.546,"street":"308 Shawmut","id":"a6kjtmw199ze","geo_precision":"street","state":"MA"},"type":"Feature","geometry":{"type":"Point","coordinates":[-70.92501,42.21355]}},{"properties":{"city":"Westford","geo_score":0.772,"street":"14 Kestral Lane","id":"a6kjtmppikkc","geo_precision":"range","state":"MA"},"type":"Feature","geometry":{"type":"Point","coordinates":[-72.493669,42.356257]}},{"properties":{"city":"Boston","geo_score":0.805,"street":"170 Commercial Street","id":"a6kjtmpfeprf","geo_precision":"range","state":"MA"},"type":"Feature","geometry":{"type":"Point","coordinates":[-70.966122,42.223048]}},{"properties":{"city":"Newton","geo_score":0.571,"street":"110 Moultion Road","id":"a6kjtmxyhtpa","geo_precision":"city","state":"MA"},"type":"Feature","geometry":{"type":"Point","coordinates":[-70.438637,41.671776]}},{"properties":{"city":"Boston","geo_score":0.805,"street":"36 Redgate Road","id":"a6kjtmv0kxlm","geo_precision":"range","state":"MA"},"type":"Feature","geometry":{"type":"Point","coordinates":[-71.153736,42.277552]}},{"properties":{"city":"Westwood","geo_score":0.902,"street":"133 Cobleigh Street","id":"a6kjtmn3wq8q","geo_precision":"range","state":"MA"},"type":"Feature","geometry":{"type":"Point","coordinates":[-71.191187,42.224115]}},{"properties":{"city":"Arlington","geo_score":0.805,"street":"15 Medford Street","id":"a6kjtml1duvo","geo_precision":"range","state":"MA"},"type":"Feature","geometry":{"type":"Point","coordinates":[-71.066057,42.418219]}},{"properties":{"city":"Boston","geo_score":0.805,"street":"386 Commercial Street","id":"a6kjtmu17qwn","geo_precision":"range","state":"MA"},"type":"Feature","geometry":{"type":"Point","coordinates":[-70.957343,42.224715]}},{"properties":{"city":"Dedham","geo_score":0.902,"street":"33 Ridley Road","id":"a6kjtmzarayt","geo_precision":"range","state":"MA"},"type":"Feature","geometry":{"type":"Point","coordinates":[-71.195691,42.242097]}},{"properties":{"city":"Boston","geo_score":0.805,"street":"6 Trenton Street","id":"a6kjtn1d3wer","geo_precision":"range","state":"MA"},"type":"Feature","geometry":{"type":"Point","coordinates":[-71.075611,42.449945]}},{"properties":{"city":"Boston","geo_score":0.763,"street":"51 East Springfield","id":"a6kjtmszqcld","geo_precision":"range","state":"MA"},"type":"Feature","geometry":{"type":"Point","coordinates":[-71.075482,42.336177]}},{"properties":{"city":"Boston","geo_score":0.805,"street":"215 West Canton Street","id":"a6kjtmzrlqmd","geo_precision":"range","state":"MA"},"type":"Feature","geometry":{"type":"Point","coordinates":[-71.076675,42.344979]}},{"properties":{"city":"Newton","geo_score":0.571,"street":"17 Hagen Road","id":"a6kjtmpy6czn","geo_precision":"city","state":"MA"},"type":"Feature","geometry":{"type":"Point","coordinates":[-70.438637,41.671776]}},{"properties":{"city":"Andover","geo_score":0.902,"street":"7 Odyssey Way","id":"a6kjtmwfg6vh","geo_precision":"range","state":"MA"},"type":"Feature","geometry":{"type":"Point","coordinates":[-71.150276,42.615616]}},{"properties":{"city":"Boston","geo_score":0.805,"street":"1134 Adams Street","id":"a6kjtmrozots","geo_precision":"range","state":"MA"},"type":"Feature","geometry":{"type":"Point","coordinates":[-71.064503,42.273032]}},{"properties":{"city":"Newton","geo_score":0.61,"street":"1547 Centre Street","id":"a6kjtmq8nt48","geo_precision":"street","state":"MA"},"type":"Feature","geometry":{"type":"Point","coordinates":[-69.996285,41.903639]}},{"properties":{"city":"Belmont","geo_score":0.74,"street":"34 Chester Road","id":"a6kjtmu85v93","geo_precision":"range","state":"MA"},"type":"Feature","geometry":{"type":"Point","coordinates":[-71.123135,42.394738]}},{"properties":{"city":"Medford","geo_score":0.85,"street":"375 Fulton Street","id":"a6kjtmwktgyc","geo_precision":"range","state":"MA"},"type":"Feature","geometry":{"type":"Point","coordinates":[-71.097297,42.433159]}},{"properties":{"city":"Boston","geo_score":0.805,"street":"195 West Canton Street","id":"a6kjtmukyq3i","geo_precision":"range","state":"MA"},"type":"Feature","geometry":{"type":"Point","coordinates":[-71.076239,42.344621]}},{"properties":{"city":"Arlington","geo_score":0.772,"street":"45 Landern Lane","id":"a6kjtmmvxdzi","geo_precision":"range","state":"MA"},"type":"Feature","geometry":{"type":"Point","coordinates":[-71.077538,42.256632]}},{"properties":{"city":"Boston","geo_score":0.805,"street":"111 Beach Street","id":"a6kjtmviyp6d","geo_precision":"range","state":"MA"},"type":"Feature","geometry":{"type":"Point","coordinates":[-71.057977,42.350794]}},{"properties":{"city":"Winchester","geo_score":0.856,"street":"3 Bates Road","id":"a6kjtmm2hj9q","geo_precision":"range","state":"MA"},"type":"Feature","geometry":{"type":"Point","coordinates":[-71.127549,42.46199]}},{"properties":{"city":"Needham","geo_score":0.615,"street":"135 Hillcrest Road","id":"a6kjtmvh1cd8","geo_precision":"street","state":"MA"},"type":"Feature","geometry":{"type":"Point","coordinates":[-71.053919,42.25631]}},{"properties":{"city":"Waltham","geo_score":0.805,"street":"59 Orange Street","id":"a6kjtmmgafxl","geo_precision":"range","state":"MA"},"type":"Feature","geometry":{"type":"Point","coordinates":[-71.033702,42.398628]}},{"properties":{"city":"Watertown","geo_score":0.659,"street":"12 Cozy Street","id":"a6kjtmofqplw","geo_precision":"range","state":"MA"},"type":"Feature","geometry":{"type":"Point","coordinates":[-71.060804,42.453883]}},{"properties":{"city":"Andover","geo_score":0.902,"street":"3 Wintergreen Circle","id":"a6kjtmys1cz5","geo_precision":"range","state":"MA"},"type":"Feature","geometry":{"type":"Point","coordinates":[-71.219941,42.674273]}},{"properties":{"city":"Cambridge","geo_score":0.629,"street":"20 Second Street","id":"a6kjtmvz9z7u","geo_precision":"range","state":"MA"},"type":"Feature","geometry":{"type":"Point","coordinates":[-71.09286,42.357758]}},{"properties":{"city":"Nantucket","geo_score":0.902,"street":"15 Pleasant Street","id":"a6kjtmwpr4ke","geo_precision":"range","state":"MA"},"type":"Feature","geometry":{"type":"Point","coordinates":[-70.101612,41.280102]}},{"properties":{"city":"Dover","geo_score":0.902,"street":"17 Rocky Brook Road","id":"a6kjtmxt1ssb","geo_precision":"range","state":"MA"},"type":"Feature","geometry":{"type":"Point","coordinates":[-71.278017,42.223652]}},{"properties":{"city":"Cambridge","geo_score":0.805,"street":"76 Walden Street","id":"a6kjtn0h258s","geo_precision":"range","state":"MA"},"type":"Feature","geometry":{"type":"Point","coordinates":[-70.987218,42.381307]}},{"properties":{"city":"Arlington","geo_score":0.805,"street":"98 Oakland Avenue","id":"a6kjtmx06m08","geo_precision":"range","state":"MA"},"type":"Feature","geometry":{"type":"Point","coordinates":[-71.04759,42.413078]}},{"properties":{"city":"Falmouth","geo_score":0.805,"street":"31 Narragansett Avenue","id":"a6kjtmnlzznc","geo_precision":"range","state":"MA"},"type":"Feature","geometry":{"type":"Point","coordinates":[-70.556656,41.453541]}},{"properties":{"city":"Wellesley","geo_score":0.805,"street":"88 Woodside Avenue","id":"a6kjtmyp9jqy","geo_precision":"range","state":"MA"},"type":"Feature","geometry":{"type":"Point","coordinates":[-71.103749,42.30996]}},{"properties":{"city":"Grafton","geo_score":0.695,"street":"44 High Point Drive","id":"a6kjtmp5duon","geo_precision":"range","state":"MA"},"type":"Feature","geometry":{"type":"Point","coordinates":[-71.684821,42.416718]}},{"properties":{"city":"Boston","geo_score":0.805,"street":"25 East Springfield St","id":"a6kjtmvwlm22","geo_precision":"range","state":"MA"},"type":"Feature","geometry":{"type":"Point","coordinates":[-71.075915,42.336557]}},{"properties":{"city":"Acton","geo_score":0.717,"street":"12 Preston Way","id":"a6kjtmrnh030","geo_precision":"range","state":"MA"},"type":"Feature","geometry":{"type":"Point","coordinates":[-71.388577,42.430446]}},{"properties":{"city":"Somerville","geo_score":0.585,"street":"85 Propsect Street","id":"a6kjtmuokk8r","geo_precision":"city","state":"MA"},"type":"Feature","geometry":{"type":"Point","coordinates":[-71.098896,42.38092]}},{"properties":{"city":"Littleton","geo_score":0.861,"street":"1-A Trot Road","id":"a6kjtmx202b1","geo_precision":"range","state":"MA"},"type":"Feature","geometry":{"type":"Point","coordinates":[-71.500954,42.532238]}},{"properties":{"city":"Somerville","geo_score":0.805,"street":"106 Orchard Street","id":"a6kjtmt8y78q","geo_precision":"range","state":"MA"},"type":"Feature","geometry":{"type":"Point","coordinates":[-71.123252,42.393678]}},{"properties":{"city":"Newton","geo_score":0.61,"street":"391 Cherry Street","id":"a6kjtmwwlr5g","geo_precision":"street","state":"MA"},"type":"Feature","geometry":{"type":"Point","coordinates":[-70.290236,41.657033]}},{"properties":{"city":"Shrewsbury","geo_score":0.902,"street":"11 Bridle Path","id":"a6kjtmw519ps","geo_precision":"range","state":"MA"},"type":"Feature","geometry":{"type":"Point","coordinates":[-71.702509,42.328695]}},{"properties":{"city":"Somerville","geo_score":0.805,"street":"20 Malvern Avenue","id":"a6kjtmvebkjw","geo_precision":"range","state":"MA"},"type":"Feature","geometry":{"type":"Point","coordinates":[-71.127987,42.399757]}},{"properties":{"city":"Stoughton","geo_score":0.902,"street":"12 Rockland Street","id":"a6kjtmllktco","geo_precision":"range","state":"MA"},"type":"Feature","geometry":{"type":"Point","coordinates":[-71.096672,42.129769]}},{"properties":{"city":"Marblehead","geo_score":0.875,"street":"19 Manataug Trail","id":"a6kjtmvd89a0","geo_precision":"range","state":"MA"},"type":"Feature","geometry":{"type":"Point","coordinates":[-70.870496,42.508202]}},{"properties":{"city":"Boston","geo_score":0.805,"street":"32 Rutland Square","id":"a6kjtmy2vvrz","geo_precision":"range","state":"MA"},"type":"Feature","geometry":{"type":"Point","coordinates":[-71.078367,42.341861]}},{"properties":{"city":"Southborough","geo_score":0.805,"street":"5 Sadie Hutt Lane","id":"a6kjtmwmgx03","geo_precision":"range","state":"MA"},"type":"Feature","geometry":{"type":"Point","coordinates":[-71.54052,42.315934]}},{"properties":{"city":"Watertown","geo_score":0.707,"street":"59 Winsor Avenue","id":"a6kjtmoxn5jp","geo_precision":"range","state":"MA"},"type":"Feature","geometry":{"type":"Point","coordinates":[-71.050499,42.472395]}},{"properties":{"city":"Lexington","geo_score":0.805,"street":"20 Bartlett Avenue","id":"a6kjtmsabfl4","geo_precision":"range","state":"MA"},"type":"Feature","geometry":{"type":"Point","coordinates":[-71.170101,42.271542]}},{"properties":{"city":"Boston","geo_score":0.805,"street":"591 Morton Street","id":"a6kjtmrl7aea","geo_precision":"range","state":"MA"},"type":"Feature","geometry":{"type":"Point","coordinates":[-71.094013,42.287628]}},{"properties":{"city":"Nantucket","geo_score":0.849,"street":"10 Still Dock","id":"a6kjtmozlt5d","geo_precision":"range","state":"MA"},"type":"Feature","geometry":{"type":"Point","coordinates":[-70.097218,41.284076]}},{"properties":{"city":"Foxboro","geo_score":0.902,"street":"23 Edwards Road","id":"a6kjtmwpshov","geo_precision":"range","state":"MA"},"type":"Feature","geometry":{"type":"Point","coordinates":[-71.24824,42.093163]}},{"properties":{"city":"Boston","geo_score":0.805,"street":"101 Sawyer Ave","id":"a6kjtmphimdl","geo_precision":"range","state":"MA"},"type":"Feature","geometry":{"type":"Point","coordinates":[-71.062303,42.3127]}},{"properties":{"city":"Brookline","geo_score":0.737,"street":"52 Salisbury Road","id":"a6kjtmmc88u2","geo_precision":"range","state":"MA"},"type":"Feature","geometry":{"type":"Point","coordinates":[-71.059161,42.299255]}},{"properties":{"city":"Weston","geo_score":0.717,"street":"10 Westgate Road","id":"a6kjtmvbhzrm","geo_precision":"range","state":"MA"},"type":"Feature","geometry":{"type":"Point","coordinates":[-71.098374,42.490257]}},{"properties":{"city":"Belmont","geo_score":0.746,"street":"64 Townsend Road","id":"a6kjtmqasfut","geo_precision":"range","state":"MA"},"type":"Feature","geometry":{"type":"Point","coordinates":[-71.091758,42.318879]}},{"properties":{"city":"Waltham","geo_score":0.725,"street":"6 Montview Avenue","id":"a6kjtmpem5uh","geo_precision":"range","state":"MA"},"type":"Feature","geometry":{"type":"Point","coordinates":[-71.157869,42.28864]}},{"properties":{"city":"Swampscott","geo_score":0.902,"street":"16 MacArthur Circle","id":"a6kjtmwmvstl","geo_precision":"range","state":"MA"},"type":"Feature","geometry":{"type":"Point","coordinates":[-70.923863,42.480619]}},{"properties":{"city":"Belmont","geo_score":0.805,"street":"26 Harris Street","id":"a6kjtmnk9vcl","geo_precision":"range","state":"MA"},"type":"Feature","geometry":{"type":"Point","coordinates":[-71.082695,42.425993]}},{"properties":{"city":"Boxborough","geo_score":0.902,"street":"392 Sargent Road","id":"a6kjtmu5tiyz","geo_precision":"range","state":"MA"},"type":"Feature","geometry":{"type":"Point","coordinates":[-71.492708,42.492819]}},{"properties":{"city":"Boston","geo_score":0.805,"street":"10 Museum Way","id":"a6kjtmy7tsy8","geo_precision":"range","state":"MA"},"type":"Feature","geometry":{"type":"Point","coordinates":[-71.072272,42.368887]}},{"properties":{"city":"Boston","geo_score":0.393,"street":"1 St. George","id":"a6kjtmnt3w27","geo_precision":"street","state":"MA"},"type":"Feature","geometry":{"type":"Point","coordinates":[-71.133229,42.39655]}},{"properties":{"city":"Reading","geo_score":0.902,"street":"197 Grove Street","id":"a6kjtn0aivrw","geo_precision":"range","state":"MA"},"type":"Feature","geometry":{"type":"Point","coordinates":[-71.123908,42.539778]}},{"properties":{"city":"Nantucket","geo_score":0.693,"street":"10 Cornish Street","id":"a6kjtmt9i34x","geo_precision":"street","state":"MA"},"type":"Feature","geometry":{"type":"Point","coordinates":[-70.098723,41.2882]}}],"is_temporal":false,"author":{"url":"","metadata":"","contact_name":"","contact_address":"","source":"","contact_phone":""},"source":"","pagination":{"sort":null,"start":0,"total":136,"limit":1000000},"state":"complete","tags":"","published":"2014-08-12T22:20:40-04:00","id":100865}