{"type":"FeatureCollection","data_type":"Dataset","url_type":null,"permissions":[{"permissions":{"download":true,"view":true},"group_id":"everyone"}],"classification":null,"title":"Places to Sled, Washington DC Metro Area, 2009","count":40,"stream_id":10120,"contributor":{"url":"http://geocommons.com/users/185","name":"emily"},"data_attributes":null,"calculation_params":null,"icon_link":null,"link":"http://geocommons.com/overlays/10120.json","extent":[-79.4475,38.7855,-75.9238,39.5802],"geometry_types":["point"],"unique_name":null,"name":"Places to Sled, Washington DC Metro Area, 2009","feature_count":40,"description":"This is a dataset compiled from different sources that provides places for sledding in the DC Metro Area. Locations may not be exact or may no longer have sledding. ","next_feature":null,"is_raster":false,"short_classification":"Y","stats":{"latitude":{"max":39.58022,"mean":39.059379725,"variance":0.0554776669491786,"stdev":0.235536975757902,"min":38.785518,"median":38.97403},"longitude":{"max":-75.923759,"mean":-77.21754465,"variance":0.603488537381515,"stdev":0.776845246739346,"min":-79.447505,"median":-77.030855}},"features":[{"properties":{"name":"(Laurel, MD)","city":"Laurel Md","latitude":39.08347,"contact":"","longitude":-76.883769,"id":"a62t0xyzlcab","address":"Van Dusen Rd and Contee Rd","source":"http://wikimapia.org/#lat=39.084505&amp;lon=-76.882435&amp;z=18&amp;l=0&amp;m=a&amp;v=2&amp;show=/7902371/Great-Sledding-Hill","location":""},"type":"Feature","geometry":{"type":"Point","coordinates":[-76.883769,39.08347]}},{"properties":{"name":"Baltimore County Board of Education","city":"Towson, Maryland 21204","latitude":39.403033,"contact":"","longitude":-76.630997,"id":"a62t0y53s4ob","address":"6901 Charles Street","source":"http://www.baltimoremagazine.net/article.asp?t=1&amp;m=1&amp;c=32&amp;s=671&amp;ai=77497","location":"hill in front"},"type":"Feature","geometry":{"type":"Point","coordinates":[-76.630997,39.403033]}},{"properties":{"name":"Banneker Recreation Center","city":"Washington, DC","latitude":38.923951,"contact":"","longitude":-77.023485,"id":"a62t0y3drux8","address":"800 Euclid St., NW","source":"http://www.washingtonfamily.com/web_extras/sleddingparks0109.htm","location":""},"type":"Feature","geometry":{"type":"Point","coordinates":[-77.023485,38.923951]}},{"properties":{"name":"Battery Kemble Park","city":"Washington, DC","latitude":38.92224,"contact":"","longitude":-77.099679,"id":"a62t0y25upje","address":"Chain Bridge Rd. &amp; Macarthur Blvd., NW","source":"http://www.washingtonfamily.com/web_extras/sleddingparks0109.htm","location":""},"type":"Feature","geometry":{"type":"Point","coordinates":[-77.099679,38.92224]}},{"properties":{"name":"Birch Avenue","city":"Takoma Park, MD","latitude":38.98095,"contact":"","longitude":-77.013334,"id":"a62t0xzr0yx3","address":"Birch Avenue","source":"http://www.washingtonfamily.com/web_extras/sleddingparks0109.htm","location":"(Montgomery County will close the street for sledding after heavy snowfalls)"},"type":"Feature","geometry":{"type":"Point","coordinates":[-77.013334,38.98095]}},{"properties":{"name":"Burke Lake Park","city":"Fairfax, VA","latitude":38.81269,"contact":"","longitude":-77.324029,"id":"a62t0y7u1oe2","address":"7315 Ox Rd.","source":"http://www.washingtonfamily.com/web_extras/sleddingparks0109.htm","location":""},"type":"Feature","geometry":{"type":"Point","coordinates":[-77.324029,38.81269]}},{"properties":{"name":"Cardinal Forest Park","city":"Springfield, VA","latitude":38.785518,"contact":"","longitude":-77.235127,"id":"a62t0y1wb9hq","address":"6121 Roxbury Avenue","source":"http://www.washingtonfamily.com/web_extras/sleddingparks0109.htm","location":""},"type":"Feature","geometry":{"type":"Point","coordinates":[-77.235127,38.785518]}},{"properties":{"name":"Cow Hill","city":"","latitude":39.37403,"contact":"","longitude":-76.644439,"id":"a62t0yba2yt4","address":"Lake Manor Dr and W. Lake Ave. Baltimore MD","source":"","location":""},"type":"Feature","geometry":{"type":"Point","coordinates":[-76.644439,39.37403]}},{"properties":{"name":"Deep Creek Lake State Park","city":"MD","latitude":38.823399,"contact":"","longitude":-75.923759,"id":"a62t0y9mm4d3","address":"898 State Park Road","source":"http://www.associatedcontent.com/article/510961/top_sledding_spots_in_maryland.html?cat=11","location":""},"type":"Feature","geometry":{"type":"Point","coordinates":[-75.923759,38.823399]}},{"properties":{"name":"Dogwood Park Below Tennis Courts","city":"Rockville, MD 20852","latitude":39.07233,"contact":"","longitude":-77.150889,"id":"a62t0y7v3zg1","address":"W Edmonston Dr &amp; Cabin John Pkwy","source":"http://www.rockvillecentral.com/2008/01/favorite-sledding-hills-in-rockville.html","location":""},"type":"Feature","geometry":{"type":"Point","coordinates":[-77.150889,39.07233]}},{"properties":{"name":"Edgewood Recreation Center","city":"Washington, DC","latitude":38.9245,"contact":"","longitude":-77.001979,"id":"a62t0yad3sfo","address":"Third and Evarts Streets, NE","source":"http://www.washingtonfamily.com/web_extras/sleddingparks0109.htm","location":""},"type":"Feature","geometry":{"type":"Point","coordinates":[-77.001979,38.9245]}},{"properties":{"name":"Fort Dupont Park","city":"Washington, DC","latitude":38.878528,"contact":"","longitude":-76.961804,"id":"a62t0y1d6im7","address":"Randle Circle, SE","source":"http://www.washingtonfamily.com/web_extras/sleddingparks0109.htm","location":""},"type":"Feature","geometry":{"type":"Point","coordinates":[-76.961804,38.878528]}},{"properties":{"name":"Fort Greble Recreation Center","city":"Washington, DC","latitude":38.82604,"contact":"","longitude":-77.012579,"id":"a62t0y74os7o","address":"Martin Luther King Jr. Ave. &amp; Elmira Street, SW","source":"http://www.washingtonfamily.com/web_extras/sleddingparks0109.htm","location":""},"type":"Feature","geometry":{"type":"Point","coordinates":[-77.012579,38.82604]}},{"properties":{"name":"Fort Stevens Recreation Center","city":"Washington, DC","latitude":38.970093,"contact":"","longitude":-77.030855,"id":"a62t0y8l9g92","address":"1327 Van Buren St., NW","source":"http://www.washingtonfamily.com/web_extras/sleddingparks0109.htm","location":""},"type":"Feature","geometry":{"type":"Point","coordinates":[-77.030855,38.970093]}},{"properties":{"name":"Friendship Recreation Center","city":"Washington, DC","latitude":38.92717,"contact":"","longitude":-77.088619,"id":"a62t0ycrap17","address":"45th &amp; Van Ness Streets, NW","source":"http://www.washingtonfamily.com/web_extras/sleddingparks0109.htm","location":""},"type":"Feature","geometry":{"type":"Point","coordinates":[-77.088619,38.92717]}},{"properties":{"name":"Frost Middle School","city":"Rockville, MD 20850","latitude":39.074742,"contact":"","longitude":-77.188667,"id":"a62t0xxb3nr6","address":"9201 Scott Dr","source":"http://www.rockvillecentral.com/2008/01/favorite-sledding-hills-in-rockville.html","location":""},"type":"Feature","geometry":{"type":"Point","coordinates":[-77.188667,39.074742]}},{"properties":{"name":"George Washington Masonic Memorial","city":"Alexandria, VA","latitude":38.806949,"contact":"","longitude":-77.062853,"id":"a62t0y4da7yy","address":"101 Callahan Drive","source":"http://www.washingtonfamily.com/web_extras/sleddingparks0109.htm","location":""},"type":"Feature","geometry":{"type":"Point","coordinates":[-77.062853,38.806949]}},{"properties":{"name":"Glenview Mansion Hill","city":"Rockville, MD 20852","latitude":39.071487,"contact":"","longitude":-77.147027,"id":"a62t0xzpjerw","address":"603 Edmonston Dr","source":"http://www.rockvillecentral.com/2008/01/favorite-sledding-hills-in-rockville.html","location":""},"type":"Feature","geometry":{"type":"Point","coordinates":[-77.147027,39.071487]}},{"properties":{"name":"Greenway Heights Park","city":"Great Falls, VA","latitude":38.99723,"contact":"","longitude":-77.28839,"id":"a62t0y477312","address":"8203 Riding Ridge Place","source":"http://www.washingtonfamily.com/web_extras/sleddingparks0109.htm","location":""},"type":"Feature","geometry":{"type":"Point","coordinates":[-77.28839,38.99723]}},{"properties":{"name":"Herrington Manor State Park","city":"Oakland, MD","latitude":39.45425,"contact":"301-334-9180","longitude":-79.447505,"id":"a62t0y1b0jxe","address":"222 Herrington Lane","source":"http://www.baltimoremagazine.net/article.asp?t=1&amp;m=1&amp;c=32&amp;s=671&amp;ai=77499","location":"Oakland"},"type":"Feature","geometry":{"type":"Point","coordinates":[-79.447505,39.45425]}},{"properties":{"name":"Husky Power Dogsledding","city":"Accident, MD","latitude":39.58022,"contact":"301-746-7200","longitude":-79.32593,"id":"a62t0y8dd2l8","address":"2008 Bumble Bee Rd.","source":"http://www.baltimoremagazine.net/article.asp?t=1&amp;m=1&amp;c=32&amp;s=671&amp;ai=77492","location":""},"type":"Feature","geometry":{"type":"Point","coordinates":[-79.32593,39.58022]}},{"properties":{"name":"Jefferson Manor Park","city":"Alexandria, VA","latitude":38.793089,"contact":"","longitude":-77.081579,"id":"a62t0y3g6ngm","address":"2909 Farmington Drive","source":"http://www.washingtonfamily.com/web_extras/sleddingparks0109.htm","location":""},"type":"Feature","geometry":{"type":"Point","coordinates":[-77.081579,38.793089]}},{"properties":{"name":"Kenilworth-Parkside Recreation Center","city":"Washington, DC","latitude":38.907401,"contact":"","longitude":-76.942903,"id":"a62t0y9ich5d","address":"4300 Anacostia Ave., NE","source":"http://www.washingtonfamily.com/web_extras/sleddingparks0109.htm","location":""},"type":"Feature","geometry":{"type":"Point","coordinates":[-76.942903,38.907401]}},{"properties":{"name":"Lafayette Recreation Center","city":"Washington, DC","latitude":38.9676,"contact":"","longitude":-77.066359,"id":"a62t0y77i0r1","address":"33rd &amp; Patterson Streets, NW","source":"http://www.washingtonfamily.com/web_extras/sleddingparks0109.htm","location":""},"type":"Feature","geometry":{"type":"Point","coordinates":[-77.066359,38.9676]}},{"properties":{"name":"Lake Fairfax Park","city":"Reston, VA","latitude":38.97403,"contact":"","longitude":-77.319404,"id":"a62t0y6lbiv7","address":"Lake Fairfax Drive","source":"http://www.washingtonfamily.com/web_extras/sleddingparks0109.htm","location":""},"type":"Feature","geometry":{"type":"Point","coordinates":[-77.319404,38.97403]}},{"properties":{"name":"Leakin Park","city":"Baltimore, MD","latitude":39.304774,"contact":"","longitude":-76.700287,"id":"a62t0y1rmubb","address":"1901 Eagle Drive","source":"http://www.baltimoremagazine.net/article.asp?t=1&amp;m=1&amp;c=32&amp;s=671&amp;ai=77496","location":"behind the mansion at Crimea, Park your car at the tennis courts off Windsor Mill Road and walk back."},"type":"Feature","geometry":{"type":"Point","coordinates":[-76.700287,39.304774]}},{"properties":{"name":"Marie Butler Preserve","city":"McLean, VA","latitude":38.929332,"contact":"","longitude":-77.147177,"id":"a62t0xxszdxf","address":"1501 Kirby Rd.","source":"http://www.washingtonfamily.com/web_extras/sleddingparks0109.htm","location":""},"type":"Feature","geometry":{"type":"Point","coordinates":[-77.147177,38.929332]}},{"properties":{"name":"Mason District Park","city":"Annandale, VA","latitude":38.836527,"contact":"","longitude":-77.173114,"id":"a62t0y92eg8e","address":"6621 Columbia Pike","source":"http://www.washingtonfamily.com/web_extras/sleddingparks0109.htm","location":""},"type":"Feature","geometry":{"type":"Point","coordinates":[-77.173114,38.836527]}},{"properties":{"name":"Nottoway Park","city":"Vienna, VA","latitude":38.887287,"contact":"","longitude":-77.277184,"id":"a62t0ya0vnh3","address":"9601 Courthouse Rd.","source":"http://www.washingtonfamily.com/web_extras/sleddingparks0109.htm","location":""},"type":"Feature","geometry":{"type":"Point","coordinates":[-77.277184,38.887287]}},{"properties":{"name":"Oregon Ridge Park","city":"Cockeysville, MD","latitude":39.492392,"contact":"410-887-1818","longitude":-76.680017,"id":"a62t0y9k31a3","address":"13401 Beaver Dam Road","source":"http://www.baltimoremagazine.net/article.asp?t=1&amp;m=1&amp;c=32&amp;s=671&amp;ai=77498","location":"former ski hills"},"type":"Feature","geometry":{"type":"Point","coordinates":[-76.680017,39.492392]}},{"properties":{"name":"Patterson Park","city":"Baltimore, MD","latitude":39.291207,"contact":"","longitude":-76.584506,"id":"a62t0y3sfyge","address":"27 South Patterson Park Avenue","source":"http://www.washingtonfamily.com/web_extras/sleddingparks0109.htm","location":""},"type":"Feature","geometry":{"type":"Point","coordinates":[-76.584506,39.291207]}},{"properties":{"name":"Pinecrest Elementary School","city":"Silver Spring, MD","latitude":39.021069,"contact":"","longitude":-77.005657,"id":"a62t0y5dgse2","address":"201 Woodmoor Drive","source":"http://www.washingtonfamily.com/web_extras/sleddingparks0109.htm","location":""},"type":"Feature","geometry":{"type":"Point","coordinates":[-77.005657,39.021069]}},{"properties":{"name":"Pleasant Valley Dream Rides","city":"Oakland, MD 21550","latitude":39.351478,"contact":"301-334-1688","longitude":-79.397244,"id":"a62t0y60frov","address":"1689 Pleasant Valley Rd.","source":"http://www.baltimoremagazine.net/article.asp?t=1&amp;m=1&amp;c=32&amp;s=671&amp;ai=77491","location":""},"type":"Feature","geometry":{"type":"Point","coordinates":[-79.397244,39.351478]}},{"properties":{"name":"Randall Recreation Center","city":"Washington, DC","latitude":38.8868,"contact":"","longitude":-77.009024,"id":"a62t0y8itire","address":"South Capitol &amp; I Streets, SW","source":"http://www.washingtonfamily.com/web_extras/sleddingparks0109.htm","location":""},"type":"Feature","geometry":{"type":"Point","coordinates":[-77.009024,38.8868]}},{"properties":{"name":"Rosewood Recreation Center","city":"Washington, DC","latitude":38.89812,"contact":"","longitude":-76.979679,"id":"a62t0yc8seef","address":"17th &amp; Gales Streets, NE","source":"http://www.washingtonfamily.com/web_extras/sleddingparks0109.htm","location":""},"type":"Feature","geometry":{"type":"Point","coordinates":[-76.979679,38.89812]}},{"properties":{"name":"Suicide Hill","city":"Baltimore, MD","latitude":39.350214,"contact":"","longitude":-76.638192,"id":"a62t0y0wbe2l","address":"4712 Club Road","source":"http://www.baltimoremagazine.net/article.asp?t=1&amp;m=1&amp;c=32&amp;s=671&amp;ai=77494","location":"Baltimore Country Club"},"type":"Feature","geometry":{"type":"Point","coordinates":[-76.638192,39.350214]}},{"properties":{"name":"Takoma Park Middle School","city":"Silver Spring, MD","latitude":38.985366,"contact":"","longitude":-77.014196,"id":"a62t0y5v1c9p","address":"7611 Piney Branch Avenue","source":"http://www.washingtonfamily.com/web_extras/sleddingparks0109.htm","location":""},"type":"Feature","geometry":{"type":"Point","coordinates":[-77.014196,38.985366]}},{"properties":{"name":"Westgate Park","city":"McLean, VA","latitude":38.91372,"contact":"","longitude":-77.213053,"id":"a62t0yc0n77f","address":"7550 Magarity Road","source":"http://www.washingtonfamily.com/web_extras/sleddingparks0109.htm","location":""},"type":"Feature","geometry":{"type":"Point","coordinates":[-77.213053,38.91372]}},{"properties":{"name":"Wisp Ski Resort, McHenry, MD","city":"McHenry, MD","latitude":39.557393,"contact":"301-387-4911","longitude":-79.360627,"id":"a62t0y6p546d","address":"296 Marsh Hill Road","source":"http://www.baltimoremagazine.net/article.asp?t=1&amp;m=1&amp;c=32&amp;s=671&amp;ai=77491","location":""},"type":"Feature","geometry":{"type":"Point","coordinates":[-79.360627,39.557393]}},{"properties":{"name":"Wyman Park","city":"Baltimore, MD","latitude":39.33457,"contact":"","longitude":-76.625869,"id":"a62t0y1aazeo","address":"Tudor Arms and 38th Street","source":"http://www.baltimoremagazine.net/article.asp?t=1&amp;m=1&amp;c=32&amp;s=671&amp;ai=77495","location":""},"type":"Feature","geometry":{"type":"Point","coordinates":[-76.625869,39.33457]}}],"is_temporal":false,"author":{"url":"","metadata":"","contact_name":"","contact_address":"","source":"Various: See Attribute Descriptions ","contact_phone":""},"source":"","pagination":{"sort":null,"start":0,"total":40,"limit":1000000},"state":"complete","tags":"baltimore,dc,dogs,hills,maryland,sled,sledding,snow,virginia","published":"2009-03-02T12:00:00Z","id":10120}