{"type":"FeatureCollection","data_type":"Dataset","url_type":null,"permissions":[{"permissions":{"download":true,"view":true},"group_id":"everyone"}],"classification":null,"title":"NCAA Men's Lacrosse Matchup Locations, USA, 3.7.2009 ","count":73,"stream_id":10139,"contributor":{"url":"http://geocommons.com/users/139","name":"Burkey"},"data_attributes":null,"calculation_params":null,"icon_link":null,"link":"http://geocommons.com/overlays/10139.json","extent":[-122.284,28.5928,-69.6595,44.6837],"geometry_types":["point"],"unique_name":null,"name":"NCAA Men's Lacrosse Matchup Locations, USA, 3.7.2009 ","feature_count":73,"description":"This dataset displays the locations of sites were NCAA Men's Lacrosse matchups will be taking on Saturday, March 7th, 2009.\n\nThe data comes from LaxPower and includes: Matchup, time, location, city, state, lat/lon location \n","next_feature":null,"is_raster":false,"short_classification":"Y","stats":{"lon":{"max":-69.659478,"mean":-76.2150340410959,"variance":42.1428375723964,"stdev":6.49175150266832,"min":-122.28425,"median":-75.452911},"lat":{"max":44.683744,"mean":40.6480354520548,"variance":7.47889517038919,"stdev":2.73475687591954,"min":28.592759,"median":41.032369}},"features":[{"properties":{"city":"West Point","lon":-73.964135,"time":"12:00 PM","matchup":"Air Force at Army","id":"a68lmissknoq","lat":41.387548,"location":"Army","state":"NY"},"type":"Feature","geometry":{"type":"Point","coordinates":[-73.964135,41.387548]}},{"properties":{"city":"Hackettstown","lon":-74.836708,"time":"3:00 PM","matchup":"Alvernia at Centenary","id":"a68lmiq4hde0","lat":40.845591,"location":"Centenary","state":"NJ"},"type":"Feature","geometry":{"type":"Point","coordinates":[-74.836708,40.845591]}},{"properties":{"city":"Medford","lon":-71.113106,"time":"1:00 PM","matchup":"Amherst at Tufts","id":"a68lmienjb1z","lat":42.406551,"location":"Tufts","state":"MA"},"type":"Feature","geometry":{"type":"Point","coordinates":[-71.113106,42.406551]}},{"properties":{"city":"Kingston","lon":-71.537648,"time":"12:00 PM","matchup":"Anna Maria at Rhode Island","id":"a68lmih5ok4x","lat":41.487959,"location":"Rhode Island","state":"RI"},"type":"Feature","geometry":{"type":"Point","coordinates":[-71.537648,41.487959]}},{"properties":{"city":"Schenectady","lon":-73.92562,"time":"1:00 PM","matchup":"Babson at Union","id":"a68lmidflmk2","lat":42.816874,"location":"Union","state":"NY"},"type":"Feature","geometry":{"type":"Point","coordinates":[-73.92562,42.816874]}},{"properties":{"city":"Middlebury","lon":-73.175892,"time":"1:00 PM","matchup":"Bates at Middlebury","id":"a68lmio70ojf","lat":44.003596,"location":"Middlebury","state":"VT"},"type":"Feature","geometry":{"type":"Point","coordinates":[-73.175892,44.003596]}},{"properties":{"city":"Alfred","lon":-77.789019,"time":"1:00 PM","matchup":"Brockport at Alfred","id":"a68lmir5japf","lat":42.25748,"location":"Alfred","state":"NY"},"type":"Feature","geometry":{"type":"Point","coordinates":[-77.789019,42.25748]}},{"properties":{"city":"Geneva","lon":-76.991867,"time":"1:00 PM","matchup":"Bucknell at Hobart","id":"a68lmiqfz3r5","lat":42.858052,"location":"Hobart","state":"NY"},"type":"Feature","geometry":{"type":"Point","coordinates":[-76.991867,42.858052]}},{"properties":{"city":"Waltham","lon":-71.22376,"time":"1:00 PM","matchup":"C. W. Post at Bentley","id":"a68lmimhobsi","lat":42.38267,"location":"Bentley","state":"MA"},"type":"Feature","geometry":{"type":"Point","coordinates":[-71.22376,42.38267]}},{"properties":{"city":"Lynchburg","lon":-79.183261,"time":"1:00 PM","matchup":"Cabrini at Lynchburg","id":"a68lmii0ubqg","lat":37.398391,"location":"Lynchburg","state":"VA"},"type":"Feature","geometry":{"type":"Point","coordinates":[-79.183261,37.398391]}},{"properties":{"city":"St. Louis","lon":-90.351691,"time":"6:00 PM","matchup":"Carthage at Fontbonne","id":"a68lmigp98wx","lat":38.656425,"location":"Fontbonne","state":"MO"},"type":"Feature","geometry":{"type":"Point","coordinates":[-90.351691,38.656425]}},{"properties":{"city":"Danbury","lon":-73.492608,"time":"2:00 PM","matchup":"Castleton at Western Connecticut","id":"a68lmin09oxu","lat":41.396174,"location":"Western Connecticut","state":"CT"},"type":"Feature","geometry":{"type":"Point","coordinates":[-73.492608,41.396174]}},{"properties":{"city":"Worcester","lon":-71.830118,"time":"TBD","matchup":"Cazenovia at Clark","id":"a68lmihslof4","lat":42.249097,"location":"Clark","state":"MA"},"type":"Feature","geometry":{"type":"Point","coordinates":[-71.830118,42.249097]}},{"properties":{"city":"West Point","lon":-73.964135,"time":"3:00 PM","matchup":"Cobleskill vs. Army Prep","id":"a68lmiiskvz9","lat":41.387548,"location":"Army","state":"NY"},"type":"Feature","geometry":{"type":"Point","coordinates":[-73.964135,41.387548]}},{"properties":{"city":"Colchester","lon":-73.165139,"time":"12:00 PM","matchup":"Dominican College at Saint Michael's","id":"a68lmil9tcab","lat":44.497879,"location":"Saint Michael's","state":"VT"},"type":"Feature","geometry":{"type":"Point","coordinates":[-73.165139,44.497879]}},{"properties":{"city":"Rindge","lon":-72.054201,"time":"1:00 PM","matchup":"Dowling at Franklin Pierce","id":"a68lmikhjp8i","lat":42.77809,"location":"Franklin Pierce","state":"NH"},"type":"Feature","geometry":{"type":"Point","coordinates":[-72.054201,42.77809]}},{"properties":{"city":"Queens","lon":-73.796804,"time":"1:00 PM","matchup":"Drexel at St. John's","id":"a68lmihvs1qv","lat":40.722793,"location":"St. John's","state":"NY"},"type":"Feature","geometry":{"type":"Point","coordinates":[-73.796804,40.722793]}},{"properties":{"city":"Montclair","lon":-74.201179,"time":"2:00 PM","matchup":"Eastern Connecticut at Montclair State","id":"a68lmidwirde","lat":40.85858,"location":"Montclair State","state":"NJ"},"type":"Feature","geometry":{"type":"Point","coordinates":[-74.201179,40.85858]}},{"properties":{"city":"Rochester","lon":-77.524305,"time":"1:00 PM","matchup":"Geneseo at Nazareth","id":"a68lmir39pg9","lat":43.104004,"location":"Nazareth","state":"NY"},"type":"Feature","geometry":{"type":"Point","coordinates":[-77.524305,43.104004]}},{"properties":{"city":"Massapequa","lon":-73.44633,"time":"1:00 PM","matchup":"Gettysburg vs. Cortland","id":"a68lmilvi5fy","lat":40.664857,"location":"John J. Burns Park","state":"NY"},"type":"Feature","geometry":{"type":"Point","coordinates":[-73.44633,40.664857]}},{"properties":{"city":"Ithaca","lon":-76.476306,"time":"2:00 PM","matchup":"Haverford vs. St. Lawrence","id":"a68lmifyzfm4","lat":42.443222,"location":"Cornell","state":"NY"},"type":"Feature","geometry":{"type":"Point","coordinates":[-76.476306,42.443222]}},{"properties":{"city":"Baltimore","lon":-76.620865,"time":"12:00 PM","matchup":"Hofstra at Johns Hopkins","id":"a68lmijgbi3z","lat":39.333476,"location":"Johns Hopkins","state":"MD"},"type":"Feature","geometry":{"type":"Point","coordinates":[-76.620865,39.333476]}},{"properties":{"city":"Hamilton","lon":-75.543784,"time":"1:00 PM","matchup":"Holy Cross at Colgate","id":"a68lmiiygc9t","lat":42.81662,"location":"Colgate","state":"NY"},"type":"Feature","geometry":{"type":"Point","coordinates":[-75.543784,42.81662]}},{"properties":{"city":"Washington","lon":-80.245653,"time":"5:00 PM","matchup":"Hood at Washington &amp; Jefferson","id":"a68lmipwr42t","lat":40.1645,"location":"Washington &amp; Jefferson","state":"PA"},"type":"Feature","geometry":{"type":"Point","coordinates":[-80.245653,40.1645]}},{"properties":{"city":"Wilkes-Barre","lon":-75.860992,"time":"2:00 PM","matchup":"Immaculata at King's","id":"a68lmid9rrhg","lat":41.233239,"location":"King's","state":"PA"},"type":"Feature","geometry":{"type":"Point","coordinates":[-75.860992,41.233239]}},{"properties":{"city":"Annapolis","lon":-76.507078,"time":"12:00 PM","matchup":"Lafayette at Navy","id":"a68lmih6xaks","lat":38.984768,"location":"Navy","state":"MD"},"type":"Feature","geometry":{"type":"Point","coordinates":[-76.507078,38.984768]}},{"properties":{"city":"Hanover","lon":-72.27744,"time":"3:00 PM","matchup":"Lehigh at Dartmouth","id":"a68lmiqebxcz","lat":43.700091,"location":"Dartmouth","state":"NH"},"type":"Feature","geometry":{"type":"Point","coordinates":[-72.27744,43.700091]}},{"properties":{"city":"Baltimore","lon":-76.620865,"time":"6:00 PM","matchup":"Limestone vs. Le Moyne","id":"a68lmipyv7ua","lat":39.333476,"location":"Johns Hopkins","state":"MD"},"type":"Feature","geometry":{"type":"Point","coordinates":[-76.620865,39.333476]}},{"properties":{"city":"Durham","lon":-78.943993,"time":"1:00 PM","matchup":"Loyola at Duke","id":"a68lmijw794i","lat":35.995791,"location":"Duke","state":"NC"},"type":"Feature","geometry":{"type":"Point","coordinates":[-78.943993,35.995791]}},{"properties":{"city":"Elmira","lon":-76.817141,"time":"1:00 PM","matchup":"Lycoming at Elmira","id":"a68lmienbbaw","lat":42.094846,"location":"Elmira","state":"NY"},"type":"Feature","geometry":{"type":"Point","coordinates":[-76.817141,42.094846]}},{"properties":{"city":"Binghamton","lon":-75.966046,"time":"1:00 PM","matchup":"Marist at Binghamton","id":"a68lmijqcl21","lat":42.092683,"location":"Binghamton","state":"NY"},"type":"Feature","geometry":{"type":"Point","coordinates":[-75.966046,42.092683]}},{"properties":{"city":"Salisbury","lon":-80.486284,"time":"2:00 PM","matchup":"Mars Hill at Catawba","id":"a68lmippgqw8","lat":35.692286,"location":"Catawba","state":"NC"},"type":"Feature","geometry":{"type":"Point","coordinates":[-80.486284,35.692286]}},{"properties":{"city":"Dover","lon":-75.542751,"time":"1:00 PM","matchup":"Mary Washington at Wesley","id":"a68lmilz9rra","lat":39.163009,"location":"Wesley","state":"DE"},"type":"Feature","geometry":{"type":"Point","coordinates":[-75.542751,39.163009]}},{"properties":{"city":"Towson","lon":-76.615937,"time":"2:00 PM","matchup":"Maryland at Towson","id":"a68lmijwkv1j","lat":39.388498,"location":"Towson","state":"MD"},"type":"Feature","geometry":{"type":"Point","coordinates":[-76.615937,39.388498]}},{"properties":{"city":"Hampden-Sydney","lon":-78.455328,"time":"1:00 PM","matchup":"Marymount at Hampden-Sydney","id":"a68lmisoa67q","lat":37.246564,"location":"Hampden-Sydney","state":"VA"},"type":"Feature","geometry":{"type":"Point","coordinates":[-78.455328,37.246564]}},{"properties":{"city":"Lynchburg","lon":-79.171184,"time":"1:30 PM","matchup":"Marywood at Randolph","id":"a68lmikpzxgu","lat":37.439041,"location":"Randolph","state":"VA"},"type":"Feature","geometry":{"type":"Point","coordinates":[-79.171184,37.439041]}},{"properties":{"city":"Cambridge","lon":-71.097766,"time":"1:00 PM","matchup":"Mass-Dartmouth at MIT","id":"a68lmilz4o9a","lat":42.357931,"location":"MIT","state":"MA"},"type":"Feature","geometry":{"type":"Point","coordinates":[-71.097766,42.357931]}},{"properties":{"city":"Cambridge","lon":-71.127571,"time":"1:00 PM","matchup":"Massachusetts at Harvard","id":"a68lmiip7q6i","lat":42.37012,"location":"Harvard","state":"MA"},"type":"Feature","geometry":{"type":"Point","coordinates":[-71.127571,42.37012]}},{"properties":{"city":"Myrtle Beach","lon":-78.893998,"time":"1:00 PM","matchup":"Misericordia vs. Gwynedd-Mercy","id":"a68lmilp37tm","lat":33.696649,"location":"Myrtle Beach, SC","state":"SC"},"type":"Feature","geometry":{"type":"Point","coordinates":[-78.893998,33.696649]}},{"properties":{"city":"Clinton","lon":-75.404382,"time":"1:00 PM","matchup":"Morrisville at Hamilton","id":"a68lmir8rtbl","lat":43.055568,"location":"Hamilton","state":"NY"},"type":"Feature","geometry":{"type":"Point","coordinates":[-75.404382,43.055568]}},{"properties":{"city":"Union","lon":-74.238411,"time":"1:00 PM","matchup":"Mount Ida at Kean","id":"a68lmigxldaz","lat":40.681086,"location":"Kean","state":"NJ"},"type":"Feature","geometry":{"type":"Point","coordinates":[-74.238411,40.681086]}},{"properties":{"city":"Madison","lon":-74.437865,"time":"1:00 PM","matchup":"Muhlenberg at Fairleigh Dickinson","id":"a68lmiezp541","lat":40.776353,"location":"Fairleigh Dickinson","state":"NJ"},"type":"Feature","geometry":{"type":"Point","coordinates":[-74.437865,40.776353]}},{"properties":{"city":"Grantham","lon":-76.989686,"time":"4:00 PM","matchup":"Neumann at Messiah","id":"a68lmiqlukx5","lat":40.153686,"location":"Messiah","state":"PA"},"type":"Feature","geometry":{"type":"Point","coordinates":[-76.989686,40.153686]}},{"properties":{"city":"University Park","lon":-77.854243,"time":"1:00 PM","matchup":"Ohio State at Penn State","id":"a68lmidm2ec7","lat":40.805195,"location":"Penn State","state":"PA"},"type":"Feature","geometry":{"type":"Point","coordinates":[-77.854243,40.805195]}},{"properties":{"city":"Potsdam","lon":-74.993464,"time":"1:00 PM","matchup":"Oneonta at Clarkson","id":"a68lmilla157","lat":44.665048,"location":"Clarkson","state":"NY"},"type":"Feature","geometry":{"type":"Point","coordinates":[-74.993464,44.665048]}},{"properties":{"city":"Throgs Neck","lon":-73.797751,"time":"1:00 PM","matchup":"Oswego at Maritime","id":"a68lmim3q02n","lat":40.807477,"location":"Maritime","state":"NY"},"type":"Feature","geometry":{"type":"Point","coordinates":[-73.797751,40.807477]}},{"properties":{"city":"Winchester","lon":-78.157974,"time":"1:00 PM","matchup":"PSU - Abington at Shenandoah","id":"a68lmie9x0yp","lat":39.166314,"location":"Shenandoah","state":"VA"},"type":"Feature","geometry":{"type":"Point","coordinates":[-78.157974,39.166314]}},{"properties":{"city":"Winter Park","lon":-81.349962,"time":"2:00 PM","matchup":"Queens U. of Charlotte at Rollins","id":"a68lmipmgdb7","lat":28.592759,"location":"Rollins","state":"FL"},"type":"Feature","geometry":{"type":"Point","coordinates":[-81.349962,28.592759]}},{"properties":{"city":"Newton","lon":-71.242641,"time":"1:00 PM","matchup":"Roger Williams at Lasell","id":"a68lmidmo04c","lat":42.338704,"location":"Lasell","state":"MA"},"type":"Feature","geometry":{"type":"Point","coordinates":[-71.242641,42.338704]}},{"properties":{"city":"Fairfield","lon":-73.25819,"time":"1:00 PM","matchup":"Rutgers at Fairfield","id":"a68lmilcwjqt","lat":41.161692,"location":"Fairfield","state":"CT"},"type":"Feature","geometry":{"type":"Point","coordinates":[-73.25819,41.161692]}},{"properties":{"city":"Hartford","lon":-72.702778,"time":"1:00 PM","matchup":"Sacred Heart at Hartford","id":"a68lmiqm4tsk","lat":41.765242,"location":"Hartford","state":"CT"},"type":"Feature","geometry":{"type":"Point","coordinates":[-72.702778,41.765242]}},{"properties":{"city":"Manchester","lon":-71.459169,"time":"1:00 PM","matchup":"Saint Anselm vs. Adelphi","id":"a68lmiofybzh","lat":43.036243,"location":"Derryfield School","state":"NH"},"type":"Feature","geometry":{"type":"Point","coordinates":[-71.459169,43.036243]}},{"properties":{"city":"Salem","lon":-70.894107,"time":"2:00 PM","matchup":"Salve Regina at Salem State","id":"a68lmify7gww","lat":42.504622,"location":"Salem State","state":"MA"},"type":"Feature","geometry":{"type":"Point","coordinates":[-70.894107,42.504622]}},{"properties":{"city":"Lancaster","lon":-76.318697,"time":"1:00 PM","matchup":"Scranton at Franklin &amp; Marshall","id":"a68lmicz10u7","lat":40.049,"location":"Franklin &amp; Marshall","state":"PA"},"type":"Feature","geometry":{"type":"Point","coordinates":[-76.318697,40.049]}},{"properties":{"city":"Oneonta","lon":-75.073474,"time":"1:00 PM","matchup":"Skidmore at Hartwick","id":"a68lmifhwgzk","lat":42.458319,"location":"Hartwick","state":"NY"},"type":"Feature","geometry":{"type":"Point","coordinates":[-75.073474,42.458319]}},{"properties":{"city":"Belmont","lon":-122.28425,"time":"1:00 PM","matchup":"St. Andrews at Notre Dame de Namur","id":"a68lmid2ry34","lat":37.515565,"location":"Notre Dame de Namur","state":"CA"},"type":"Feature","geometry":{"type":"Point","coordinates":[-122.28425,37.515565]}},{"properties":{"city":"Salem","lon":-80.055562,"time":"2:00 PM","matchup":"St. Mary's at Roanoke","id":"a68lmirgon30","lat":37.296947,"location":"Roanoke","state":"VA"},"type":"Feature","geometry":{"type":"Point","coordinates":[-80.055562,37.296947]}},{"properties":{"city":"Collegeville","lon":-75.452911,"time":"1:00 PM","matchup":"Stevenson at Ursinus","id":"a68lmim939p2","lat":40.195319,"location":"Ursinus","state":"PA"},"type":"Feature","geometry":{"type":"Point","coordinates":[-75.452911,40.195319]}},{"properties":{"city":"Loundonville","lon":-73.745989,"time":"1:00 PM","matchup":"Stony Brook at Siena","id":"a68lmipv4pvn","lat":42.716549,"location":"Siena","state":"NY"},"type":"Feature","geometry":{"type":"Point","coordinates":[-73.745989,42.716549]}},{"properties":{"city":"Newport News","lon":-76.500745,"time":"12:00 PM","matchup":"Susquehanna at Christopher Newport","id":"a68lmiicgxxj","lat":37.064741,"location":"Christopher Newport","state":"VA"},"type":"Feature","geometry":{"type":"Point","coordinates":[-76.500745,37.064741]}},{"properties":{"city":"Washington","lon":-77.075423,"time":"12:00 PM","matchup":"Syracuse at Georgetown","id":"a68lmigvf8wx","lat":38.908514,"location":"Georgetown","state":"DC"},"type":"Feature","geometry":{"type":"Point","coordinates":[-77.075423,38.908514]}},{"properties":{"city":"Cincinnati","lon":-84.634829,"time":"7:00 PM","matchup":"Trine at Mount St. Joseph","id":"a68lmis6cxn7","lat":39.634829,"location":"Mount St. Joseph","state":"OH"},"type":"Feature","geometry":{"type":"Point","coordinates":[-84.634829,39.634829]}},{"properties":{"city":"New London","lon":-72.098641,"time":"1:00 PM","matchup":"Trinity at Connecticut College","id":"a68lmifegfwv","lat":41.381749,"location":"Connecticut College","state":"CT"},"type":"Feature","geometry":{"type":"Point","coordinates":[-72.098641,41.381749]}},{"properties":{"city":"Plattsburgh","lon":-73.475563,"time":"1:00 PM","matchup":"Utica College at Plattsburgh","id":"a68lmifovdc8","lat":44.683744,"location":"Plattsburgh","state":"NY"},"type":"Feature","geometry":{"type":"Point","coordinates":[-73.475563,44.683744]}},{"properties":{"city":"Coraopolis","lon":-80.216242,"time":"1:00 PM","matchup":"VMI at Robert Morris","id":"a68lmiruo8uf","lat":40.521189,"location":"Robert Morris","state":"PA"},"type":"Feature","geometry":{"type":"Point","coordinates":[-80.216242,40.521189]}},{"properties":{"city":"Keuka Park","lon":-77.09179,"time":"2:00 PM","matchup":"Vassar vs. Keuka","id":"a68lmihrqtla","lat":42.615161,"location":"Keuka","state":"NY"},"type":"Feature","geometry":{"type":"Point","coordinates":[-77.09179,42.615161]}},{"properties":{"city":"Westminster","lon":-77.003658,"time":"1:00 PM","matchup":"Virginia Wesleyan at McDaniel","id":"a68lmigybp7p","lat":39.584867,"location":"McDaniel","state":"MD"},"type":"Feature","geometry":{"type":"Point","coordinates":[-77.003658,39.584867]}},{"properties":{"city":"Chestertown","lon":-76.07087,"time":"1:00 PM","matchup":"Washington &amp; Lee at Washington College","id":"a68lmimbjhgk","lat":39.218584,"location":"Washington College","state":"MD"},"type":"Feature","geometry":{"type":"Point","coordinates":[-76.07087,39.218584]}},{"properties":{"city":"Purchase","lon":-73.717943,"time":"2:00 PM","matchup":"Wells vs. Mt. St. Vincent","id":"a68lmidpb1y3","lat":41.032369,"location":"Manhattanville","state":"NY"},"type":"Feature","geometry":{"type":"Point","coordinates":[-73.717943,41.032369]}},{"properties":{"city":"Brunswick","lon":-69.957614,"time":"1:00 PM","matchup":"Wesleyan at Bowdoin","id":"a68lmiivnfo8","lat":43.90281,"location":"Bowdoin","state":"ME"},"type":"Feature","geometry":{"type":"Point","coordinates":[-69.957614,43.90281]}},{"properties":{"city":"Waterville","lon":-69.659478,"time":"1:00 PM","matchup":"Williams at Colby","id":"a68lmijmqka9","lat":44.566927,"location":"Colby","state":"ME"},"type":"Feature","geometry":{"type":"Point","coordinates":[-69.659478,44.566927]}},{"properties":{"city":"Belmont","lon":-81.038401,"time":"2:00 PM","matchup":"Wingate at Belmont Abbey","id":"a68lmirlptc4","lat":35.259829,"location":"Belmont Abbey","state":"NC"},"type":"Feature","geometry":{"type":"Point","coordinates":[-81.038401,35.259829]}},{"properties":{"city":"Pomona","lon":-74.606274,"time":"1:00 PM","matchup":"York at Stockton","id":"a68lmiql69pl","lat":39.482618,"location":"Stockton","state":"NJ"},"type":"Feature","geometry":{"type":"Point","coordinates":[-74.606274,39.482618]}}],"is_temporal":false,"author":{"url":"http://www.laxpower.com/calendar/gcalendar.php# ","metadata":"","contact_name":"","contact_address":"","source":"LaxPower ","contact_phone":""},"source":"http://www.laxpower.com/calendar/gcalendar.php# ","pagination":{"sort":null,"start":0,"total":73,"limit":1000000},"state":"complete","tags":"athletics,college,lacrosse,ncaa","published":"2009-03-02T12:00:00Z","id":10139}