{"type":"FeatureCollection","data_type":"Dataset","url_type":null,"permissions":[{"permissions":{"download":true,"view":true},"group_id":"everyone"}],"classification":null,"title":"kentucky county population","count":120,"stream_id":10203,"contributor":{"url":"http://geocommons.com/users/3995","name":"amazon"},"data_attributes":null,"calculation_params":null,"icon_link":null,"link":"http://geocommons.com/overlays/10203.json","extent":[-89.1966,36.5046,-82.3488,39.0734],"geometry_types":["point"],"unique_name":null,"name":"kentucky county population","feature_count":120,"description":"kentucky county population","next_feature":null,"is_raster":false,"short_classification":"Y","stats":{"2015":{"max":724447.0,"mean":37521.625,"variance":5333843886.875,"stdev":73033.1697715155,"min":2634.0,"median":20441.0},"2030":{"max":763393.0,"mean":40938.5083333333,"variance":6160682572.55456,"stdev":78490.01575076,"min":2866.0,"median":22510.0},"2020":{"max":752184.0,"mean":39995.3583333333,"variance":5914748440.63522,"stdev":76907.4017285412,"min":2807.0,"median":22012.0},"2010":{"max":710120.0,"mean":36054.0833333333,"variance":5041069269.16947,"stdev":71000.4878093769,"min":2524.0,"median":19384.0},"lat":{"max":39.073366,"mean":37.656467125,"variance":0.467026532357404,"stdev":0.683393395020324,"min":36.504624,"median":37.558101},"long":{"max":-82.348824,"mean":-85.0970909583333,"variance":3.19001180178883,"stdev":1.78606041381271,"min":-89.196576,"median":-84.663328}},"features":[{"properties":{"2015":18603.0,"county":"Adair","2030":20045.0,"2020":19660.0,"2010":17925.0,"id":"a676jqvb6op4","lat":37.972692,"state":"KY","long":-86.84226},"type":"Feature","geometry":{"type":"Point","coordinates":[-86.84226,37.972692]}},{"properties":{"2015":21295.0,"county":"Allen","2030":24427.0,"2020":23509.0,"2010":19993.0,"id":"a676jqtqf3jh","lat":37.615204,"state":"KY","long":-82.72394},"type":"Feature","geometry":{"type":"Point","coordinates":[-82.72394,37.615204]}},{"properties":{"2015":23324.0,"county":"Anderson","2030":26964.0,"2020":26034.0,"2010":21707.0,"id":"a676jqsbeynx","lat":36.698362,"state":"KY","long":-87.179332},"type":"Feature","geometry":{"type":"Point","coordinates":[-87.179332,36.698362]}},{"properties":{"2015":8341.0,"county":"Ballard","2030":8552.0,"2020":8504.0,"2010":8243.0,"id":"a676jqke924q","lat":37.913391,"state":"KY","long":-85.042846},"type":"Feature","geometry":{"type":"Point","coordinates":[-85.042846,37.913391]}},{"properties":{"2015":43617.0,"county":"Barren","2030":48019.0,"2020":46860.0,"2010":41600.0,"id":"a676jqttoogz","lat":36.94635,"state":"KY","long":-85.957787},"type":"Feature","geometry":{"type":"Point","coordinates":[-85.957787,36.94635]}},{"properties":{"2015":12908.0,"county":"Bath","2030":14544.0,"2020":14065.0,"2010":12258.0,"id":"a676jqxq2s8u","lat":37.245832,"state":"KY","long":-82.905371},"type":"Feature","geometry":{"type":"Point","coordinates":[-82.905371,37.245832]}},{"properties":{"2015":28907.0,"county":"Bell","2030":26546.0,"2020":27337.0,"2010":29656.0,"id":"a676jqrpt1mq","lat":36.769089,"state":"KY","long":-83.709183},"type":"Feature","geometry":{"type":"Point","coordinates":[-83.709183,36.769089]}},{"properties":{"2015":140577.0,"county":"Boone","2030":188652.0,"2020":174084.0,"2010":121919.0,"id":"a676jqnka66q","lat":37.512169,"state":"KY","long":-84.320345},"type":"Feature","geometry":{"type":"Point","coordinates":[-84.320345,37.512169]}},{"properties":{"2015":20848.0,"county":"Bourbon","2030":22481.0,"2020":22012.0,"2010":20215.0,"id":"a676jqwd97gy","lat":37.05151,"state":"KY","long":-84.622866},"type":"Feature","geometry":{"type":"Point","coordinates":[-84.622866,37.05151]}},{"properties":{"2015":49266.0,"county":"Boyd","2030":49705.0,"2020":49519.0,"2010":49198.0,"id":"a676jqqehgvo","lat":38.549705,"state":"KY","long":-84.393914},"type":"Feature","geometry":{"type":"Point","coordinates":[-84.393914,38.549705]}},{"properties":{"2015":29762.0,"county":"Boyle","2030":32277.0,"2020":31517.0,"2010":28872.0,"id":"a676jqisr5m0","lat":37.624649,"state":"KY","long":-84.845749},"type":"Feature","geometry":{"type":"Point","coordinates":[-84.845749,37.624649]}},{"properties":{"2015":9169.0,"county":"Bracken","2030":9688.0,"2020":9562.0,"2010":8899.0,"id":"a676jqk1aod0","lat":38.688549,"state":"KY","long":-84.070061},"type":"Feature","geometry":{"type":"Point","coordinates":[-84.070061,38.688549]}},{"properties":{"2015":16364.0,"county":"Breathitt","2030":16671.0,"2020":16626.0,"2010":16099.0,"id":"a676jqnf6ljx","lat":37.515011,"state":"KY","long":-83.264297},"type":"Feature","geometry":{"type":"Point","coordinates":[-83.264297,37.515011]}},{"properties":{"2015":21452.0,"county":"Breckinridge","2030":23764.0,"2020":23114.0,"2010":20459.0,"id":"a676jqnne3n6","lat":38.440583,"state":"KY","long":-84.373118},"type":"Feature","geometry":{"type":"Point","coordinates":[-84.373118,38.440583]}},{"properties":{"2015":78222.0,"county":"Bullitt","2030":89729.0,"2020":86848.0,"2010":72816.0,"id":"a676jqrw3sae","lat":39.073366,"state":"KY","long":-84.737867},"type":"Feature","geometry":{"type":"Point","coordinates":[-84.737867,39.073366]}},{"properties":{"2015":14542.0,"county":"Butler","2030":16087.0,"2020":15672.0,"2010":13857.0,"id":"a676jqmjetpu","lat":38.789406,"state":"KY","long":-84.367863},"type":"Feature","geometry":{"type":"Point","coordinates":[-84.367863,38.789406]}},{"properties":{"2015":12507.0,"county":"Caldwell","2030":12093.0,"2020":12256.0,"2010":12609.0,"id":"a676jqmvz5b2","lat":38.80252,"state":"KY","long":-84.424394},"type":"Feature","geometry":{"type":"Point","coordinates":[-84.424394,38.80252]}},{"properties":{"2015":37349.0,"county":"Calloway","2030":40122.0,"2020":39486.0,"2010":35990.0,"id":"a676jqlqwcv9","lat":36.623959,"state":"KY","long":-88.26078},"type":"Feature","geometry":{"type":"Point","coordinates":[-88.26078,36.623959]}},{"properties":{"2015":95828.0,"county":"Campbell","2030":108024.0,"2020":104251.0,"2010":91130.0,"id":"a676jqthqjpq","lat":36.64412,"state":"KY","long":-87.439229},"type":"Feature","geometry":{"type":"Point","coordinates":[-87.439229,36.64412]}},{"properties":{"2015":5551.0,"county":"Carlisle","2030":5789.0,"2020":5724.0,"2010":5466.0,"id":"a676jqv4hmdw","lat":38.31205,"state":"KY","long":-84.027084},"type":"Feature","geometry":{"type":"Point","coordinates":[-84.027084,38.31205]}},{"properties":{"2015":10993.0,"county":"Carroll","2030":11749.0,"2020":11559.0,"2010":10631.0,"id":"a676jqpns0lp","lat":38.681146,"state":"KY","long":-85.179017},"type":"Feature","geometry":{"type":"Point","coordinates":[-85.179017,38.681146]}},{"properties":{"2015":29204.0,"county":"Carter","2030":31140.0,"2020":30614.0,"2010":28294.0,"id":"a676jqwdo7rz","lat":38.429758,"state":"KY","long":-83.122368},"type":"Feature","geometry":{"type":"Point","coordinates":[-83.122368,38.429758]}},{"properties":{"2015":17724.0,"county":"Casey","2030":19054.0,"2020":18685.0,"2010":17138.0,"id":"a676jqo0pvo1","lat":37.327615,"state":"KY","long":-86.609237},"type":"Feature","geometry":{"type":"Point","coordinates":[-86.609237,37.327615]}},{"properties":{"2015":84144.0,"county":"Christian","2030":98867.0,"2020":93897.0,"2010":79545.0,"id":"a676jqjosk24","lat":38.266459,"state":"KY","long":-85.096985},"type":"Feature","geometry":{"type":"Point","coordinates":[-85.096985,38.266459]}},{"properties":{"2015":37418.0,"county":"Clark","2030":40375.0,"2020":39628.0,"2010":36007.0,"id":"a676jqraoira","lat":37.495525,"state":"KY","long":-86.222089},"type":"Feature","geometry":{"type":"Point","coordinates":[-86.222089,37.495525]}},{"properties":{"2015":25192.0,"county":"Clay","2030":26695.0,"2020":26277.0,"2010":24423.0,"id":"a676jqqd4xag","lat":37.4766,"state":"KY","long":-87.820174},"type":"Feature","geometry":{"type":"Point","coordinates":[-87.820174,37.4766]}},{"properties":{"2015":9875.0,"county":"Clinton","2030":10209.0,"2020":10141.0,"2010":9683.0,"id":"a676jqwktlyt","lat":36.667045,"state":"KY","long":-88.994114},"type":"Feature","geometry":{"type":"Point","coordinates":[-88.994114,36.667045]}},{"properties":{"2015":9103.0,"county":"Crittenden","2030":9021.0,"2020":9085.0,"2010":9069.0,"id":"a676jqwgrn41","lat":38.78111,"state":"KY","long":-84.606051},"type":"Feature","geometry":{"type":"Point","coordinates":[-84.606051,38.78111]}},{"properties":{"2015":7491.0,"county":"Cumberland","2030":7721.0,"2020":7669.0,"2010":7345.0,"id":"a676jqjjcbci","lat":36.97646,"state":"KY","long":-82.991504},"type":"Feature","geometry":{"type":"Point","coordinates":[-82.991504,36.97646]}},{"properties":{"2015":97166.0,"county":"Daviess","2030":102708.0,"2020":101420.0,"2010":94567.0,"id":"a676jquvcn4g","lat":37.745022,"state":"KY","long":-87.112831},"type":"Feature","geometry":{"type":"Point","coordinates":[-87.112831,37.745022]}},{"properties":{"2015":12840.0,"county":"Edmonson","2030":13610.0,"2020":13466.0,"2010":12398.0,"id":"a676jqkjfrpo","lat":37.197021,"state":"KY","long":-86.258987},"type":"Feature","geometry":{"type":"Point","coordinates":[-86.258987,37.197021]}},{"properties":{"2015":7313.0,"county":"Elliott","2030":7472.0,"2020":7473.0,"2010":7156.0,"id":"a676jqsz44be","lat":38.183531,"state":"KY","long":-83.27831},"type":"Feature","geometry":{"type":"Point","coordinates":[-83.27831,38.183531]}},{"properties":{"2015":15365.0,"county":"Estill","2030":15875.0,"2020":15759.0,"2010":15185.0,"id":"a676jqjxaaf8","lat":37.459543,"state":"KY","long":-82.819366},"type":"Feature","geometry":{"type":"Point","coordinates":[-82.819366,37.459543]}},{"properties":{"2015":296647.0,"county":"Fayette","2030":331212.0,"2020":322194.0,"2010":281613.0,"id":"a676jqqtlr4n","lat":38.028412,"state":"KY","long":-84.471497},"type":"Feature","geometry":{"type":"Point","coordinates":[-84.471497,38.028412]}},{"properties":{"2015":16418.0,"county":"Fleming","2030":18567.0,"2020":17934.0,"2010":15546.0,"id":"a676jqufglte","lat":37.195396,"state":"KY","long":-82.699454},"type":"Feature","geometry":{"type":"Point","coordinates":[-82.699454,37.195396]}},{"properties":{"2015":41977.0,"county":"Floyd","2030":40257.0,"2020":41002.0,"2010":42198.0,"id":"a676jqi95f7b","lat":37.268445,"state":"KY","long":-84.663328},"type":"Feature","geometry":{"type":"Point","coordinates":[-84.663328,37.268445]}},{"properties":{"2015":50180.0,"county":"Franklin","2030":52649.0,"2020":52011.0,"2010":49040.0,"id":"a676jquna9tp","lat":36.722605,"state":"KY","long":-86.577934},"type":"Feature","geometry":{"type":"Point","coordinates":[-86.577934,36.722605]}},{"properties":{"2015":7014.0,"county":"Fulton","2030":6948.0,"2020":6961.0,"2010":7090.0,"id":"a676jqsbz630","lat":36.504624,"state":"KY","long":-88.874365},"type":"Feature","geometry":{"type":"Point","coordinates":[-88.874365,36.504624]}},{"properties":{"2015":10135.0,"county":"Gallatin","2030":12570.0,"2020":11851.0,"2010":9155.0,"id":"a676jqqjulag","lat":38.760799,"state":"KY","long":-84.842117},"type":"Feature","geometry":{"type":"Point","coordinates":[-84.842117,38.760799]}},{"properties":{"2015":19862.0,"county":"Garrard","2030":23254.0,"2020":22354.0,"2010":18251.0,"id":"a676jql85z2v","lat":37.125406,"state":"KY","long":-83.747261},"type":"Feature","geometry":{"type":"Point","coordinates":[-83.747261,37.125406]}},{"properties":{"2015":31476.0,"county":"Grant","2030":40733.0,"2020":37802.0,"2010":28164.0,"id":"a676jqtosnil","lat":38.963524,"state":"KY","long":-84.464865},"type":"Feature","geometry":{"type":"Point","coordinates":[-84.464865,38.963524]}},{"properties":{"2015":40126.0,"county":"Graves","2030":44359.0,"2020":43068.0,"2010":38595.0,"id":"a676jqtbesb7","lat":36.723869,"state":"KY","long":-88.652008},"type":"Feature","geometry":{"type":"Point","coordinates":[-88.652008,36.723869]}},{"properties":{"2015":27832.0,"county":"Grayson","2030":30937.0,"2020":30066.0,"2010":26440.0,"id":"a676jqopzhb3","lat":38.332195,"state":"KY","long":-82.946344},"type":"Feature","geometry":{"type":"Point","coordinates":[-82.946344,38.332195]}},{"properties":{"2015":12728.0,"county":"Green","2030":13459.0,"2020":13328.0,"2010":12293.0,"id":"a676jql87sah","lat":38.145563,"state":"KY","long":-83.075221},"type":"Feature","geometry":{"type":"Point","coordinates":[-83.075221,38.145563]}},{"properties":{"2015":37005.0,"county":"Greenup","2030":36354.0,"2020":36676.0,"2010":37026.0,"id":"a676jqk3i1q6","lat":38.574742,"state":"KY","long":-82.840985},"type":"Feature","geometry":{"type":"Point","coordinates":[-82.840985,38.574742]}},{"properties":{"2015":8734.0,"county":"Hancock","2030":9160.0,"2020":9085.0,"2010":8505.0,"id":"a676jqm5ab2l","lat":37.827309,"state":"KY","long":-86.804832},"type":"Feature","geometry":{"type":"Point","coordinates":[-86.804832,37.827309]}},{"properties":{"2015":108505.0,"county":"Hardin","2030":121847.0,"2020":117911.0,"2010":102848.0,"id":"a676jql7n1te","lat":36.761635,"state":"KY","long":-88.296384},"type":"Feature","geometry":{"type":"Point","coordinates":[-88.296384,36.761635]}},{"properties":{"2015":30035.0,"county":"Harlan","2030":27145.0,"2020":28185.0,"2010":30910.0,"id":"a676jqrrs06a","lat":36.84573,"state":"KY","long":-83.322329},"type":"Feature","geometry":{"type":"Point","coordinates":[-83.322329,36.84573]}},{"properties":{"2015":19774.0,"county":"Harrison","2030":21288.0,"2020":20913.0,"2010":19026.0,"id":"a676jqllc58f","lat":38.089011,"state":"KY","long":-85.073696},"type":"Feature","geometry":{"type":"Point","coordinates":[-85.073696,38.089011]}},{"properties":{"2015":20199.0,"county":"Hart","2030":22654.0,"2020":21993.0,"2010":19050.0,"id":"a676jqnisgzs","lat":37.312784,"state":"KY","long":-82.632369},"type":"Feature","geometry":{"type":"Point","coordinates":[-82.632369,37.312784]}},{"properties":{"2015":46655.0,"county":"Henderson","2030":48168.0,"2020":47865.0,"2010":45792.0,"id":"a676jqo85owa","lat":37.8299,"state":"KY","long":-87.597034},"type":"Feature","geometry":{"type":"Point","coordinates":[-87.597034,37.8299]}},{"properties":{"2015":17675.0,"county":"Henry","2030":20238.0,"2020":19483.0,"2010":16605.0,"id":"a676jqvcxgf5","lat":38.46619,"state":"KY","long":-85.10643},"type":"Feature","geometry":{"type":"Point","coordinates":[-85.10643,38.46619]}},{"properties":{"2015":4835.0,"county":"Hickman","2030":4554.0,"2020":4660.0,"2010":4940.0,"id":"a676jqugnnww","lat":36.57241,"state":"KY","long":-89.196576},"type":"Feature","geometry":{"type":"Point","coordinates":[-89.196576,36.57241]}},{"properties":{"2015":47860.0,"county":"Hopkins","2030":48929.0,"2020":48725.0,"2010":47312.0,"id":"a676jqjg7xuv","lat":36.867275,"state":"KY","long":-87.487699},"type":"Feature","geometry":{"type":"Point","coordinates":[-87.487699,36.867275]}},{"properties":{"2015":14775.0,"county":"Jackson","2030":16052.0,"2020":15712.0,"2010":14176.0,"id":"a676jqms6d1f","lat":37.558101,"state":"KY","long":-83.378014},"type":"Feature","geometry":{"type":"Point","coordinates":[-83.378014,37.558101]}},{"properties":{"2015":724447.0,"county":"Jefferson","2030":763393.0,"2020":752184.0,"2010":710120.0,"id":"a676jql4s3s8","lat":38.193954,"state":"KY","long":-85.565978},"type":"Feature","geometry":{"type":"Point","coordinates":[-85.565978,38.193954]}},{"properties":{"2015":51152.0,"county":"Jessamine","2030":59489.0,"2020":57237.0,"2010":47328.0,"id":"a676jqjc4qy2","lat":37.885675,"state":"KY","long":-84.614124},"type":"Feature","geometry":{"type":"Point","coordinates":[-84.614124,37.885675]}},{"properties":{"2015":24623.0,"county":"Johnson","2030":25310.0,"2020":25183.0,"2010":24232.0,"id":"a676jqwcwcoi","lat":38.120201,"state":"KY","long":-85.856551},"type":"Feature","geometry":{"type":"Point","coordinates":[-85.856551,38.120201]}},{"properties":{"2015":158966.0,"county":"Kenton","2030":169402.0,"2020":166579.0,"2010":154572.0,"id":"a676jqjyfjeh","lat":38.868774,"state":"KY","long":-84.455472},"type":"Feature","geometry":{"type":"Point","coordinates":[-84.455472,38.868774]}},{"properties":{"2015":17885.0,"county":"Knott","2030":17771.0,"2020":17887.0,"2010":17770.0,"id":"a676jqulsedm","lat":37.349312,"state":"KY","long":-82.922668},"type":"Feature","geometry":{"type":"Point","coordinates":[-82.922668,37.349312]}},{"properties":{"2015":33270.0,"county":"Knox","2030":35915.0,"2020":35140.0,"2010":32168.0,"id":"a676jqmqdgvp","lat":37.882105,"state":"KY","long":-85.962284},"type":"Feature","geometry":{"type":"Point","coordinates":[-85.962284,37.882105]}},{"properties":{"2015":14170.0,"county":"Larue","2030":15117.0,"2020":14897.0,"2010":13681.0,"id":"a676jquc7ya7","lat":37.20059,"state":"KY","long":-83.919697},"type":"Feature","geometry":{"type":"Point","coordinates":[-83.919697,37.20059]}},{"properties":{"2015":65277.0,"county":"Laurel","2030":74278.0,"2020":71721.0,"2010":61391.0,"id":"a676jqy53kb3","lat":36.819081,"state":"KY","long":-83.550078},"type":"Feature","geometry":{"type":"Point","coordinates":[-83.550078,36.819081]}},{"properties":{"2015":17275.0,"county":"Lawrence","2030":18377.0,"2020":18109.0,"2010":16634.0,"id":"a676jqljpgue","lat":38.037185,"state":"KY","long":-84.895834},"type":"Feature","geometry":{"type":"Point","coordinates":[-84.895834,38.037185]}},{"properties":{"2015":8220.0,"county":"Lee","2030":8327.0,"2020":8333.0,"2010":8081.0,"id":"a676jqja5hkn","lat":37.29666,"state":"KY","long":-86.500106},"type":"Feature","geometry":{"type":"Point","coordinates":[-86.500106,37.29666]}},{"properties":{"2015":11478.0,"county":"Leslie","2030":10735.0,"2020":10987.0,"2010":11736.0,"id":"a676jqqnor11","lat":36.784652,"state":"KY","long":-85.447243},"type":"Feature","geometry":{"type":"Point","coordinates":[-85.447243,36.784652]}},{"properties":{"2015":23640.0,"county":"Letcher","2030":22510.0,"2020":22835.0,"2010":24089.0,"id":"a676jqsy9wxl","lat":37.139885,"state":"KY","long":-82.988874},"type":"Feature","geometry":{"type":"Point","coordinates":[-82.988874,37.139885]}},{"properties":{"2015":13969.0,"county":"Lewis","2030":14621.0,"2020":14476.0,"2010":13578.0,"id":"a676jqrvinhl","lat":36.985595,"state":"KY","long":-86.955734},"type":"Feature","geometry":{"type":"Point","coordinates":[-86.955734,36.985595]}},{"properties":{"2015":28158.0,"county":"Lincoln","2030":31416.0,"2020":30569.0,"2010":26565.0,"id":"a676jqxe5c6c","lat":37.10005,"state":"KY","long":-83.756044},"type":"Feature","geometry":{"type":"Point","coordinates":[-83.756044,37.10005]}},{"properties":{"2015":9930.0,"county":"Livingston","2030":9937.0,"2020":9998.0,"2010":9771.0,"id":"a676jqnpufom","lat":37.299345,"state":"KY","long":-84.217314},"type":"Feature","geometry":{"type":"Point","coordinates":[-84.217314,37.299345]}},{"properties":{"2015":28367.0,"county":"Logan","2030":30072.0,"2020":29639.0,"2010":27533.0,"id":"a676jqnbeub4","lat":37.885985,"state":"KY","long":-84.470514},"type":"Feature","geometry":{"type":"Point","coordinates":[-84.470514,37.885985]}},{"properties":{"2015":8583.0,"county":"Lyon","2030":8756.0,"2020":8773.0,"2010":8393.0,"id":"a676jqwxvpwm","lat":37.677625,"state":"KY","long":-85.612114},"type":"Feature","geometry":{"type":"Point","coordinates":[-85.612114,37.677625]}},{"properties":{"2015":90306.0,"county":"Madison","2030":104419.0,"2020":100711.0,"2010":83859.0,"id":"a676jquo4qg3","lat":37.3279,"state":"KY","long":-87.498929},"type":"Feature","geometry":{"type":"Point","coordinates":[-87.498929,37.3279]}},{"properties":{"2015":13542.0,"county":"Magoffin","2030":13700.0,"2020":13660.0,"2010":13472.0,"id":"a676jqkck8m7","lat":37.69051,"state":"KY","long":-83.074608},"type":"Feature","geometry":{"type":"Point","coordinates":[-83.074608,37.69051]}},{"properties":{"2015":20441.0,"county":"Marion","2030":22381.0,"2020":21820.0,"2010":19654.0,"id":"a676jqq7oiyf","lat":37.331675,"state":"KY","long":-88.081504},"type":"Feature","geometry":{"type":"Point","coordinates":[-88.081504,37.331675]}},{"properties":{"2015":32738.0,"county":"Marshall","2030":33741.0,"2020":33732.0,"2010":31696.0,"id":"a676jqijsqww","lat":36.929467,"state":"KY","long":-88.248678},"type":"Feature","geometry":{"type":"Point","coordinates":[-88.248678,36.929467]}},{"properties":{"2015":13884.0,"county":"Martin","2030":14579.0,"2020":14325.0,"2010":13716.0,"id":"a676jqxejzzp","lat":37.567398,"state":"KY","long":-82.758683},"type":"Feature","geometry":{"type":"Point","coordinates":[-82.758683,37.567398]}},{"properties":{"2015":17476.0,"county":"Mason","2030":18173.0,"2020":18011.0,"2010":17116.0,"id":"a676jqutgosx","lat":37.723568,"state":"KY","long":-83.053213},"type":"Feature","geometry":{"type":"Point","coordinates":[-83.053213,37.723568]}},{"properties":{"2015":64164.0,"county":"McCracken","2030":66029.0,"2020":65627.0,"2010":63229.0,"id":"a676jqy4k6rp","lat":37.085491,"state":"KY","long":-88.712463},"type":"Feature","geometry":{"type":"Point","coordinates":[-88.712463,37.085491]}},{"properties":{"2015":18107.0,"county":"McCreary","2030":18914.0,"2020":18748.0,"2010":17624.0,"id":"a676jqpw1bsm","lat":37.704029,"state":"KY","long":-84.501204},"type":"Feature","geometry":{"type":"Point","coordinates":[-84.501204,37.704029]}},{"properties":{"2015":10058.0,"county":"McLean","2030":10414.0,"2020":10333.0,"2010":9892.0,"id":"a676jqkxz00r","lat":37.531921,"state":"KY","long":-87.269241},"type":"Feature","geometry":{"type":"Point","coordinates":[-87.269241,37.531921]}},{"properties":{"2015":30636.0,"county":"Meade","2030":32858.0,"2020":32299.0,"2010":29533.0,"id":"a676jqtvom9u","lat":38.41291,"state":"KY","long":-82.710324},"type":"Feature","geometry":{"type":"Point","coordinates":[-82.710324,38.41291]}},{"properties":{"2015":7711.0,"county":"Menifee","2030":8526.0,"2020":8309.0,"2010":7267.0,"id":"a676jqw7p7yb","lat":37.938641,"state":"KY","long":-83.605453},"type":"Feature","geometry":{"type":"Point","coordinates":[-83.605453,37.938641]}},{"properties":{"2015":23337.0,"county":"Mercer","2030":25322.0,"2020":24785.0,"2010":22551.0,"id":"a676jqmidjgp","lat":37.250705,"state":"KY","long":-87.149344},"type":"Feature","geometry":{"type":"Point","coordinates":[-87.149344,37.250705]}},{"properties":{"2015":10891.0,"county":"Metcalfe","2030":11711.0,"2020":11497.0,"2010":10475.0,"id":"a676jqu77qmz","lat":37.000191,"state":"KY","long":-85.609283},"type":"Feature","geometry":{"type":"Point","coordinates":[-85.609283,37.000191]}},{"properties":{"2015":12181.0,"county":"Monroe","2030":12779.0,"2020":12611.0,"2010":11897.0,"id":"a676jqnn8j9b","lat":37.233332,"state":"KY","long":-85.701441},"type":"Feature","geometry":{"type":"Point","coordinates":[-85.701441,37.233332]}},{"properties":{"2015":27092.0,"county":"Montgomery","2030":30328.0,"2020":29397.0,"2010":25676.0,"id":"a676jqqsfkkb","lat":36.878708,"state":"KY","long":-87.740369},"type":"Feature","geometry":{"type":"Point","coordinates":[-87.740369,36.878708]}},{"properties":{"2015":15202.0,"county":"Morgan","2030":15815.0,"2020":15691.0,"2010":14804.0,"id":"a676jqx0neu0","lat":38.603355,"state":"KY","long":-84.398993},"type":"Feature","geometry":{"type":"Point","coordinates":[-84.398993,38.603355]}},{"properties":{"2015":32263.0,"county":"Muhlenberg","2030":32997.0,"2020":32782.0,"2010":31956.0,"id":"a676jqui8r3z","lat":37.22818,"state":"KY","long":-87.135048},"type":"Feature","geometry":{"type":"Point","coordinates":[-87.135048,37.22818]}},{"properties":{"2015":48601.0,"county":"Nelson","2030":57293.0,"2020":54779.0,"2010":45000.0,"id":"a676jqub9eyf","lat":37.314665,"state":"KY","long":-87.055899},"type":"Feature","geometry":{"type":"Point","coordinates":[-87.055899,37.314665]}},{"properties":{"2015":7329.0,"county":"Nicholas","2030":7679.0,"2020":7583.0,"2010":7169.0,"id":"a676jqxvtrk1","lat":37.88678,"state":"KY","long":-84.570344},"type":"Feature","geometry":{"type":"Point","coordinates":[-84.570344,37.88678]}},{"properties":{"2015":25065.0,"county":"Ohio","2030":26835.0,"2020":26349.0,"2010":24253.0,"id":"a676jqloyo8g","lat":37.47496,"state":"KY","long":-86.857063},"type":"Feature","geometry":{"type":"Point","coordinates":[-86.857063,37.47496]}},{"properties":{"2015":63516.0,"county":"Oldham","2030":75973.0,"2020":72524.0,"2010":58123.0,"id":"a676jqj8yp3f","lat":38.50098,"state":"KY","long":-85.399369},"type":"Feature","geometry":{"type":"Point","coordinates":[-85.399369,38.50098]}},{"properties":{"2015":12947.0,"county":"Owen","2030":14684.0,"2020":14225.0,"2010":12166.0,"id":"a676jqvx08jh","lat":38.536615,"state":"KY","long":-84.836034},"type":"Feature","geometry":{"type":"Point","coordinates":[-84.836034,38.536615]}},{"properties":{"2015":4866.0,"county":"Owsley","2030":4863.0,"2020":4873.0,"2010":4810.0,"id":"a676jqllvmn5","lat":37.5312,"state":"KY","long":-82.618354},"type":"Feature","geometry":{"type":"Point","coordinates":[-82.618354,37.5312]}},{"properties":{"2015":17363.0,"county":"Pendleton","2030":19455.0,"2020":18888.0,"2010":16365.0,"id":"a676jqjf9fp9","lat":38.462945,"state":"KY","long":-85.304599},"type":"Feature","geometry":{"type":"Point","coordinates":[-85.304599,38.462945]}},{"properties":{"2015":29892.0,"county":"Perry","2030":29649.0,"2020":29832.0,"2010":29820.0,"id":"a676jqxnn7t6","lat":38.520895,"state":"KY","long":-84.384039},"type":"Feature","geometry":{"type":"Point","coordinates":[-84.384039,38.520895]}},{"properties":{"2015":63777.0,"county":"Pike","2030":58001.0,"2020":60082.0,"2010":65532.0,"id":"a676jqrt59uk","lat":37.470482,"state":"KY","long":-82.348824},"type":"Feature","geometry":{"type":"Point","coordinates":[-82.348824,37.470482]}},{"properties":{"2015":14810.0,"county":"Powell","2030":15976.0,"2020":15652.0,"2010":14280.0,"id":"a676jqjouq5l","lat":37.620317,"state":"KY","long":-83.956472},"type":"Feature","geometry":{"type":"Point","coordinates":[-83.956472,37.620317]}},{"properties":{"2015":62957.0,"county":"Pulaski","2030":67301.0,"2020":66186.0,"2010":60914.0,"id":"a676jqpm5zhn","lat":37.209425,"state":"KY","long":-84.63893},"type":"Feature","geometry":{"type":"Point","coordinates":[-84.63893,37.209425]}},{"properties":{"2015":2634.0,"county":"Robertson","2030":2866.0,"2020":2807.0,"2010":2524.0,"id":"a676jqmu0t12","lat":38.515442,"state":"KY","long":-84.05706},"type":"Feature","geometry":{"type":"Point","coordinates":[-84.05706,38.515442]}},{"properties":{"2015":17658.0,"county":"Rockcastle","2030":18690.0,"2020":18445.0,"2010":17106.0,"id":"a676jqjpibag","lat":36.908053,"state":"KY","long":-87.965946},"type":"Feature","geometry":{"type":"Point","coordinates":[-87.965946,36.908053]}},{"properties":{"2015":23343.0,"county":"Rowan","2030":24581.0,"2020":24305.0,"2010":22716.0,"id":"a676jqt9s1a4","lat":38.206589,"state":"KY","long":-83.417236},"type":"Feature","geometry":{"type":"Point","coordinates":[-83.417236,38.206589]}},{"properties":{"2015":17511.0,"county":"Russell","2030":18590.0,"2020":18277.0,"2010":17043.0,"id":"a676jqtw1vgd","lat":38.533005,"state":"KY","long":-82.694154},"type":"Feature","geometry":{"type":"Point","coordinates":[-82.694154,38.533005]}},{"properties":{"2015":49755.0,"county":"Scott","2030":64196.0,"2020":59701.0,"2010":44322.0,"id":"a676jqk7ik9s","lat":37.36655,"state":"KY","long":-86.841394},"type":"Feature","geometry":{"type":"Point","coordinates":[-86.841394,37.36655]}},{"properties":{"2015":44882.0,"county":"Shelby","2030":53151.0,"2020":50792.0,"2010":41445.0,"id":"a676jqihwdy8","lat":37.212995,"state":"KY","long":-82.556009},"type":"Feature","geometry":{"type":"Point","coordinates":[-82.556009,37.212995]}},{"properties":{"2015":17816.0,"county":"Simpson","2030":19177.0,"2020":18799.0,"2010":17271.0,"id":"a676jquw25vu","lat":37.67228,"state":"KY","long":-83.36563},"type":"Feature","geometry":{"type":"Point","coordinates":[-83.36563,37.67228]}},{"properties":{"2015":22943.0,"county":"Spencer","2030":31906.0,"2020":29277.0,"2010":19384.0,"id":"a676jqnzalsk","lat":38.043629,"state":"KY","long":-85.309288},"type":"Feature","geometry":{"type":"Point","coordinates":[-85.309288,38.043629]}},{"properties":{"2015":24995.0,"county":"Taylor","2030":26493.0,"2020":26105.0,"2010":24262.0,"id":"a676jqo4anf8","lat":39.008213,"state":"KY","long":-84.502343},"type":"Feature","geometry":{"type":"Point","coordinates":[-84.502343,39.008213]}},{"properties":{"2015":12771.0,"county":"Todd","2030":14268.0,"2020":13802.0,"2010":12220.0,"id":"a676jqn5t26m","lat":36.858639,"state":"KY","long":-87.193024},"type":"Feature","geometry":{"type":"Point","coordinates":[-87.193024,36.858639]}},{"properties":{"2015":14789.0,"county":"Trigg","2030":16469.0,"2020":16021.0,"2010":14016.0,"id":"a676jqpj3a8b","lat":36.817638,"state":"KY","long":-87.908409},"type":"Feature","geometry":{"type":"Point","coordinates":[-87.908409,36.817638]}},{"properties":{"2015":11434.0,"county":"Trimble","2030":14163.0,"2020":13383.0,"2010":10316.0,"id":"a676jqlwz34p","lat":37.013645,"state":"KY","long":-84.735144},"type":"Feature","geometry":{"type":"Point","coordinates":[-84.735144,37.013645]}},{"properties":{"2015":15800.0,"county":"Union","2030":15558.0,"2020":15653.0,"2010":15854.0,"id":"a676jqkt4gm5","lat":38.948284,"state":"KY","long":-84.665593},"type":"Feature","geometry":{"type":"Point","coordinates":[-84.665593,38.948284]}},{"properties":{"2015":109558.0,"county":"Warren","2030":123931.0,"2020":119785.0,"2010":103655.0,"id":"a676jqr8uc2d","lat":36.752537,"state":"KY","long":-83.839192},"type":"Feature","geometry":{"type":"Point","coordinates":[-83.839192,36.752537]}},{"properties":{"2015":12094.0,"county":"Washington","2030":12691.0,"2020":12547.0,"2010":11819.0,"id":"a676jqqq1hpn","lat":38.615048,"state":"KY","long":-83.809882},"type":"Feature","geometry":{"type":"Point","coordinates":[-83.809882,38.615048]}},{"properties":{"2015":22554.0,"county":"Wayne","2030":24783.0,"2020":24187.0,"2010":21563.0,"id":"a676jqmiyyr4","lat":36.800331,"state":"KY","long":-84.818291},"type":"Feature","geometry":{"type":"Point","coordinates":[-84.818291,36.800331]}},{"properties":{"2015":14291.0,"county":"Webster","2030":14636.0,"2020":14582.0,"2010":14001.0,"id":"a676jqks7n9d","lat":37.929429,"state":"KY","long":-86.368635},"type":"Feature","geometry":{"type":"Point","coordinates":[-86.368635,37.929429]}},{"properties":{"2015":41654.0,"county":"Whitley","2030":45311.0,"2020":44273.0,"2010":40009.0,"id":"a676jqubr7ud","lat":36.72694,"state":"KY","long":-84.468374},"type":"Feature","geometry":{"type":"Point","coordinates":[-84.468374,36.72694]}},{"properties":{"2015":7179.0,"county":"Wolfe","2030":7721.0,"2020":7563.0,"2010":6939.0,"id":"a676jqnjrziq","lat":38.380322,"state":"KY","long":-83.110433},"type":"Feature","geometry":{"type":"Point","coordinates":[-83.110433,38.380322]}},{"properties":{"2015":25665.0,"county":"Woodford","2030":27610.0,"2020":27189.0,"2010":24607.0,"id":"a676jqmi3gzg","lat":38.02129,"state":"KY","long":-84.745483},"type":"Feature","geometry":{"type":"Point","coordinates":[-84.745483,38.02129]}}],"is_temporal":false,"author":{"url":"","metadata":"","contact_name":"","contact_address":"","source":"","contact_phone":""},"source":"","pagination":{"sort":null,"start":0,"total":120,"limit":1000000},"state":"complete","tags":"country,kentucky,population","published":"2009-03-04T12:00:00Z","id":10203}