{"type":"FeatureCollection","data_type":"Dataset","url_type":null,"permissions":[{"permissions":{"download":true,"view":true},"group_id":"everyone"}],"classification":null,"title":"ca-colleges","count":115,"stream_id":102508,"contributor":{"url":"http://geocommons.com/users/24040","name":"whiteraven"},"data_attributes":null,"calculation_params":null,"icon_link":null,"link":"http://geocommons.com/overlays/102508.json","extent":[-124.198,32.6419,-114.605,41.4128],"geometry_types":["point"],"unique_name":null,"name":"ca-colleges","feature_count":115,"description":"","next_feature":null,"is_raster":false,"short_classification":"Y","stats":{"latitude":{"max":41.4128,"mean":35.8348834782609,"variance":5.03717387840885,"stdev":2.24436491649839,"min":32.6419,"median":35.1498},"code":{"max":96150,"mean":93374.3739130435,"variance":2874678.4993135,"stdev":1695.48768775049,"min":90015,"median":93257},"id":{"max":114,"mean":57.0,"variance":1111.66666666667,"stdev":33.3416656252603,"min":0,"median":57},"longitude":{"max":-114.6048,"mean":-119.617243478261,"variance":4.51810294405797,"stdev":2.12558296569623,"min":-124.1976,"median":-119.2294}},"features":[{"properties":{"city":"San Diego","latitude":32.7727,"code":92182,"id":"a625ie08wvxv","longitude":-117.0713,"label":"San Diego State University"},"type":"Feature","geometry":{"type":"Point","coordinates":[-117.0713,32.7727]}},{"properties":{"city":"Sacramento","latitude":38.5721,"code":95811,"id":"a625ie75j7qw","longitude":-121.4944,"label":"California Community Colleges System Office"},"type":"Feature","geometry":{"type":"Point","coordinates":[-121.4944,38.5721]}},{"properties":{"city":"Alameda","latitude":37.7798,"code":94501,"id":"a625ie63rngl","longitude":-122.2795,"label":"College of Alameda"},"type":"Feature","geometry":{"type":"Point","coordinates":[-122.2795,37.7798]}},{"properties":{"city":"Santa Maria","latitude":34.946,"code":93454,"id":"a625ie417mv1","longitude":-120.4235,"label":"Allan Hancock College"},"type":"Feature","geometry":{"type":"Point","coordinates":[-120.4235,34.946]}},{"properties":{"city":"Sacramento","latitude":38.651,"code":95841,"id":"a625idx7ihkd","longitude":-121.3494,"label":"American River College"},"type":"Feature","geometry":{"type":"Point","coordinates":[-121.3494,38.651]}},{"properties":{"city":"Lancaster","latitude":34.6749,"code":93536,"id":"a625ie5icy7p","longitude":-118.1833,"label":"Antelope Valley College"},"type":"Feature","geometry":{"type":"Point","coordinates":[-118.1833,34.6749]}},{"properties":{"city":"Bakersfield","latitude":35.4107,"code":93305,"id":"a625ie5nzamp","longitude":-118.9728,"label":"Bakersfield College"},"type":"Feature","geometry":{"type":"Point","coordinates":[-118.9728,35.4107]}},{"properties":{"city":"Barstow","latitude":34.8713,"code":92311,"id":"a625idw1upec","longitude":-117.0205,"label":"Barstow College"},"type":"Feature","geometry":{"type":"Point","coordinates":[-117.0205,34.8713]}},{"properties":{"city":"Oroville","latitude":39.6465,"code":95965,"id":"a625idw12vvf","longitude":-121.5896,"label":"Butte College"},"type":"Feature","geometry":{"type":"Point","coordinates":[-121.5896,39.6465]}},{"properties":{"city":"Aptos","latitude":36.9889,"code":95003,"id":"a625idyzmxd8","longitude":-121.9265,"label":"Cabrillo College"},"type":"Feature","geometry":{"type":"Point","coordinates":[-121.9265,36.9889]}},{"properties":{"city":"Redwood City","latitude":37.4472,"code":94061,"id":"a625idxkew1k","longitude":-122.2594,"label":"Canada College"},"type":"Feature","geometry":{"type":"Point","coordinates":[-122.2594,37.4472]}},{"properties":{"city":"Santa Clarita","latitude":34.4077,"code":91355,"id":"a625ie0iehwn","longitude":-118.5669,"label":"College of the Canyons"},"type":"Feature","geometry":{"type":"Point","coordinates":[-118.5669,34.4077]}},{"properties":{"city":"Norwalk","latitude":33.8875,"code":90650,"id":"a625ie0b7nv6","longitude":-118.0969,"label":"Cerritos College"},"type":"Feature","geometry":{"type":"Point","coordinates":[-118.0969,33.8875]}},{"properties":{"city":"Ridgecrest","latitude":35.5775,"code":93555,"id":"a625idt6ho4v","longitude":-117.6692,"label":"Cerro Coso Community College"},"type":"Feature","geometry":{"type":"Point","coordinates":[-117.6692,35.5775]}},{"properties":{"city":"Hayward","latitude":37.6416,"code":94545,"id":"a625idyya2lz","longitude":-122.1019,"label":"Chabot College"},"type":"Feature","geometry":{"type":"Point","coordinates":[-122.1019,37.6416]}},{"properties":{"city":"Rancho Cucamonga","latitude":34.1459,"code":91737,"id":"a625ie4o7o3a","longitude":-117.5746,"label":"Chaffey College"},"type":"Feature","geometry":{"type":"Point","coordinates":[-117.5746,34.1459]}},{"properties":{"city":"Glendora","latitude":34.1361,"code":91741,"id":"a625ie66a51m","longitude":-117.8788,"label":"Citrus College"},"type":"Feature","geometry":{"type":"Point","coordinates":[-117.8788,34.1361]}},{"properties":{"city":"Sonora","latitude":38.0293,"code":95370,"id":"a625idz725j5","longitude":-120.3874,"label":"Columbia College"},"type":"Feature","geometry":{"type":"Point","coordinates":[-120.3874,38.0293]}},{"properties":{"city":"San Pablo","latitude":37.9658,"code":94806,"id":"a625idy5219x","longitude":-122.3427,"label":"Contra Costa College"},"type":"Feature","geometry":{"type":"Point","coordinates":[-122.3427,37.9658]}},{"properties":{"city":"Sacramento","latitude":38.453,"code":95823,"id":"a625idwj2pit","longitude":-121.426,"label":"Cosumnes River College"},"type":"Feature","geometry":{"type":"Point","coordinates":[-121.426,38.453]}},{"properties":{"city":"Yucaipa","latitude":34.0417,"code":92399,"id":"a625idunb4u2","longitude":-117.1084,"label":"Crafton Hills College"},"type":"Feature","geometry":{"type":"Point","coordinates":[-117.1084,34.0417]}},{"properties":{"city":"San Luis Obispo","latitude":35.2646,"code":93403,"id":"a625ie4jkb5u","longitude":-120.6536,"label":"Cuesta College"},"type":"Feature","geometry":{"type":"Point","coordinates":[-120.6536,35.2646]}},{"properties":{"city":"Cypress","latitude":33.8285,"code":90630,"id":"a625ie0xupxp","longitude":-118.0273,"label":"Cypress College"},"type":"Feature","geometry":{"type":"Point","coordinates":[-118.0273,33.8285]}},{"properties":{"city":"Cupertino","latitude":37.3227,"code":95014,"id":"a625idr1jugn","longitude":-122.0496,"label":"De Anza College"},"type":"Feature","geometry":{"type":"Point","coordinates":[-122.0496,37.3227]}},{"properties":{"city":"Palm Desert","latitude":33.7326,"code":92260,"id":"a625ie2wvd3w","longitude":-116.3904,"label":"College of the Desert"},"type":"Feature","geometry":{"type":"Point","coordinates":[-116.3904,33.7326]}},{"properties":{"city":"Pleasant Hill","latitude":37.9713,"code":94523,"id":"a625idvilmlg","longitude":-122.0695,"label":"Diablo Valley College"},"type":"Feature","geometry":{"type":"Point","coordinates":[-122.0695,37.9713]}},{"properties":{"city":"Monterey Park","latitude":34.0393,"code":91754,"id":"a625ie1oqryx","longitude":-118.1474,"label":"East Los Angeles College"},"type":"Feature","geometry":{"type":"Point","coordinates":[-118.1474,34.0393]}},{"properties":{"city":"Torrance","latitude":33.8853,"code":90506,"id":"a625idt3i4bu","longitude":-118.3258,"label":"El Camino College"},"type":"Feature","geometry":{"type":"Point","coordinates":[-118.3258,33.8853]}},{"properties":{"city":"San Jose","latitude":37.298,"code":95135,"id":"a625idtb6s2u","longitude":-121.7622,"label":"Evergreen Valley College"},"type":"Feature","geometry":{"type":"Point","coordinates":[-121.7622,37.298]}},{"properties":{"city":"Quincy","latitude":39.9516,"code":95971,"id":"a625idyy0pi4","longitude":-120.9691,"label":"Feather River College"},"type":"Feature","geometry":{"type":"Point","coordinates":[-120.9691,39.9516]}},{"properties":{"city":"Los Altos Hills","latitude":37.358,"code":94022,"id":"a625idsdv5ej","longitude":-122.1277,"label":"Foothill College"},"type":"Feature","geometry":{"type":"Point","coordinates":[-122.1277,37.358]}},{"properties":{"city":"Fresno","latitude":36.7668,"code":93741,"id":"a625idzz1ywk","longitude":-119.7983,"label":"Fresno City College"},"type":"Feature","geometry":{"type":"Point","coordinates":[-119.7983,36.7668]}},{"properties":{"city":"Fullerton","latitude":33.8738,"code":92832,"id":"a625ie4ezfj8","longitude":-117.9183,"label":"Fullerton College"},"type":"Feature","geometry":{"type":"Point","coordinates":[-117.9183,33.8738]}},{"properties":{"city":"Gilroy","latitude":36.9666,"code":95020,"id":"a625idwmij1c","longitude":-121.5608,"label":"Gavilan College"},"type":"Feature","geometry":{"type":"Point","coordinates":[-121.5608,36.9666]}},{"properties":{"city":"Glendale","latitude":34.1685,"code":91208,"id":"a625ie2bldam","longitude":-118.2275,"label":"Glendale Community College"},"type":"Feature","geometry":{"type":"Point","coordinates":[-118.2275,34.1685]}},{"properties":{"city":"Huntington Beach","latitude":33.7337,"code":92647,"id":"a625idyeokk4","longitude":-118.0056,"label":"Golden West College"},"type":"Feature","geometry":{"type":"Point","coordinates":[-118.0056,33.7337]}},{"properties":{"city":"El Cajon","latitude":32.814,"code":92020,"id":"a625ie4f7loq","longitude":-117.0065,"label":"Grossmont College"},"type":"Feature","geometry":{"type":"Point","coordinates":[-117.0065,32.814]}},{"properties":{"city":"Salinas","latitude":36.6747,"code":93901,"id":"a625idu9b26d","longitude":-121.664,"label":"Hartnell College"},"type":"Feature","geometry":{"type":"Point","coordinates":[-121.664,36.6747]}},{"properties":{"city":"Imperial","latitude":32.8255,"code":92251,"id":"a625idtsspij","longitude":-115.5018,"label":"Imperial Valley College"},"type":"Feature","geometry":{"type":"Point","coordinates":[-115.5018,32.8255]}},{"properties":{"city":"South Lake Tahoe","latitude":38.9293,"code":96150,"id":"a625idsjyiqm","longitude":-119.9699,"label":"Lake Tahoe Community College"},"type":"Feature","geometry":{"type":"Point","coordinates":[-119.9699,38.9293]}},{"properties":{"city":"Oakland","latitude":37.7973,"code":94607,"id":"a625ie63lue2","longitude":-122.2627,"label":"Laney College"},"type":"Feature","geometry":{"type":"Point","coordinates":[-122.2627,37.7973]}},{"properties":{"city":"Susanville","latitude":40.4314,"code":96130,"id":"a625idw02zs1","longitude":-120.6314,"label":"Lassen Community College"},"type":"Feature","geometry":{"type":"Point","coordinates":[-120.6314,40.4314]}},{"properties":{"city":"Long Beach","latitude":33.8325,"code":90808,"id":"a625ie381inx","longitude":-118.1343,"label":"Long Beach City College"},"type":"Feature","geometry":{"type":"Point","coordinates":[-118.1343,33.8325]}},{"properties":{"city":"Los Angeles","latitude":34.0867,"code":90029,"id":"a625idukrhfu","longitude":-118.2909,"label":"Los Angeles City College"},"type":"Feature","geometry":{"type":"Point","coordinates":[-118.2909,34.0867]}},{"properties":{"city":"Wilmington","latitude":33.7845,"code":90744,"id":"a625idx2ocab","longitude":-118.2806,"label":"Los Angeles Harbor College"},"type":"Feature","geometry":{"type":"Point","coordinates":[-118.2806,33.7845]}},{"properties":{"city":"Sylmar","latitude":34.3146,"code":91342,"id":"a625idukdjdh","longitude":-118.4193,"label":"Los Angeles Mission College"},"type":"Feature","geometry":{"type":"Point","coordinates":[-118.4193,34.3146]}},{"properties":{"city":"Woodland Hills","latitude":34.1818,"code":91371,"id":"a625idy2lv2b","longitude":-118.5701,"label":"Pierce College"},"type":"Feature","geometry":{"type":"Point","coordinates":[-118.5701,34.1818]}},{"properties":{"city":"Los Angeles","latitude":33.9309,"code":90047,"id":"a625idzd5428","longitude":-118.3039,"label":"Los Angeles Southwest College"},"type":"Feature","geometry":{"type":"Point","coordinates":[-118.3039,33.9309]}},{"properties":{"city":"Los Angeles","latitude":34.0332,"code":90015,"id":"a625idtgm1ba","longitude":-118.2688,"label":"Los Angeles Trade-Technical College"},"type":"Feature","geometry":{"type":"Point","coordinates":[-118.2688,34.0332]}},{"properties":{"city":"Valley Glen","latitude":34.1757,"code":91401,"id":"a625iduxln0s","longitude":-118.4214,"label":"Los Angeles Valley College"},"type":"Feature","geometry":{"type":"Point","coordinates":[-118.4214,34.1757]}},{"properties":{"city":"Pittsburg","latitude":38.0082,"code":94565,"id":"a625idwxcksr","longitude":-121.8566,"label":"Los Medanos College"},"type":"Feature","geometry":{"type":"Point","coordinates":[-121.8566,38.0082]}},{"properties":{"city":"Kentfield","latitude":37.954,"code":94904,"id":"a625idw73e2k","longitude":-122.5478,"label":"College of Marin"},"type":"Feature","geometry":{"type":"Point","coordinates":[-122.5478,37.954]}},{"properties":{"city":"Ukiah","latitude":39.1911,"code":95482,"id":"a625idts1f8b","longitude":-123.2082,"label":"Mendocino College"},"type":"Feature","geometry":{"type":"Point","coordinates":[-123.2082,39.1911]}},{"properties":{"city":"Merced","latitude":37.3322,"code":95348,"id":"a625ie3yarcv","longitude":-120.477,"label":"Merced College"},"type":"Feature","geometry":{"type":"Point","coordinates":[-120.477,37.3322]}},{"properties":{"city":"Oakland","latitude":37.7913,"code":94619,"id":"a625idx6r2jz","longitude":-122.1664,"label":"Merritt College"},"type":"Feature","geometry":{"type":"Point","coordinates":[-122.1664,37.7913]}},{"properties":{"city":"Oceanside","latitude":33.1922,"code":92056,"id":"a625idv1hm8h","longitude":-117.3006,"label":"MiraCosta College"},"type":"Feature","geometry":{"type":"Point","coordinates":[-117.3006,33.1922]}},{"properties":{"city":"Modesto","latitude":37.6501,"code":95350,"id":"a625idw7ju4r","longitude":-121.0065,"label":"Modesto Junior College"},"type":"Feature","geometry":{"type":"Point","coordinates":[-121.0065,37.6501]}},{"properties":{"city":"Monterey","latitude":36.5938,"code":93940,"id":"a625ie1i1lgg","longitude":-121.8825,"label":"Monterey Peninsula College"},"type":"Feature","geometry":{"type":"Point","coordinates":[-121.8825,36.5938]}},{"properties":{"city":"Moorpark","latitude":34.3031,"code":93021,"id":"a625idu49lj4","longitude":-118.8355,"label":"Moorpark College"},"type":"Feature","geometry":{"type":"Point","coordinates":[-118.8355,34.3031]}},{"properties":{"city":"Walnut","latitude":34.0417,"code":91789,"id":"a625ie2jebv3","longitude":-117.8439,"label":"Mt. San Antonio College"},"type":"Feature","geometry":{"type":"Point","coordinates":[-117.8439,34.0417]}},{"properties":{"city":"San Jacinto","latitude":33.8019,"code":92583,"id":"a625idssxslr","longitude":-116.9714,"label":"Mt. San Jacinto College"},"type":"Feature","geometry":{"type":"Point","coordinates":[-116.9714,33.8019]}},{"properties":{"city":"Napa","latitude":38.2726,"code":94558,"id":"a625idsr3vml","longitude":-122.2716,"label":"Napa Valley College"},"type":"Feature","geometry":{"type":"Point","coordinates":[-122.2716,38.2726]}},{"properties":{"city":"Fremont","latitude":37.528,"code":94539,"id":"a625idwrt99t","longitude":-121.9171,"label":"Ohlone College"},"type":"Feature","geometry":{"type":"Point","coordinates":[-121.9171,37.528]}},{"properties":{"city":"Costa Mesa","latitude":33.6689,"code":92628,"id":"a625idzndhzb","longitude":-117.9069,"label":"Orange Coast College"},"type":"Feature","geometry":{"type":"Point","coordinates":[-117.9069,33.6689]}},{"properties":{"city":"Oxnard","latitude":34.1643,"code":93033,"id":"a625idy92pig","longitude":-119.158,"label":"Oxnard College"},"type":"Feature","geometry":{"type":"Point","coordinates":[-119.158,34.1643]}},{"properties":{"city":"San Marcos","latitude":33.1472,"code":92069,"id":"a625idqtlu6t","longitude":-117.1843,"label":"Palomar College"},"type":"Feature","geometry":{"type":"Point","coordinates":[-117.1843,33.1472]}},{"properties":{"city":"Blythe","latitude":33.6176,"code":92225,"id":"a625ie0p33b5","longitude":-114.6048,"label":"Palo Verde College"},"type":"Feature","geometry":{"type":"Point","coordinates":[-114.6048,33.6176]}},{"properties":{"city":"Pasadena","latitude":34.1459,"code":91106,"id":"a625ie6yga6e","longitude":-118.1171,"label":"Pasadena City College"},"type":"Feature","geometry":{"type":"Point","coordinates":[-118.1171,34.1459]}},{"properties":{"city":"Berkeley","latitude":37.8702,"code":94704,"id":"a625idxqh5jc","longitude":-122.2693,"label":"Berkeley City College"},"type":"Feature","geometry":{"type":"Point","coordinates":[-122.2693,37.8702]}},{"properties":{"city":"Porterville","latitude":36.0483,"code":93257,"id":"a625idujmliu","longitude":-119.013,"label":"Porterville College"},"type":"Feature","geometry":{"type":"Point","coordinates":[-119.013,36.0483]}},{"properties":{"city":"Eureka","latitude":40.696,"code":95501,"id":"a625ie00k2o5","longitude":-124.1976,"label":"College of the Redwoods"},"type":"Feature","geometry":{"type":"Point","coordinates":[-124.1976,40.696]}},{"properties":{"city":"Reedley","latitude":36.606,"code":93654,"id":"a625idw0p30v","longitude":-119.4568,"label":"Reedley College"},"type":"Feature","geometry":{"type":"Point","coordinates":[-119.4568,36.606]}},{"properties":{"city":"Whittier","latitude":34.0188,"code":90601,"id":"a625idwgmsqm","longitude":-118.0378,"label":"Rio Hondo College"},"type":"Feature","geometry":{"type":"Point","coordinates":[-118.0378,34.0188]}},{"properties":{"city":"Riverside","latitude":33.9714,"code":92506,"id":"a625idsqgzf8","longitude":-117.3836,"label":"Riverside City College"},"type":"Feature","geometry":{"type":"Point","coordinates":[-117.3836,33.9714]}},{"properties":{"city":"Sacramento","latitude":38.5412,"code":95822,"id":"a625idt4jf4i","longitude":-121.4906,"label":"Sacramento City College"},"type":"Feature","geometry":{"type":"Point","coordinates":[-121.4906,38.5412]}},{"properties":{"city":"Mission Viejo","latitude":33.557,"code":92692,"id":"a625ie4dmdni","longitude":-117.6663,"label":"Saddleback College"},"type":"Feature","geometry":{"type":"Point","coordinates":[-117.6663,33.557]}},{"properties":{"city":"San Bernardino","latitude":34.0889,"code":92410,"id":"a625idsyvvft","longitude":-117.3128,"label":"San Bernardino Valley College"},"type":"Feature","geometry":{"type":"Point","coordinates":[-117.3128,34.0889]}},{"properties":{"city":"San Diego","latitude":32.7188,"code":92101,"id":"a625ie5lz8qa","longitude":-117.1536,"label":"San Diego City College"},"type":"Feature","geometry":{"type":"Point","coordinates":[-117.1536,32.7188]}},{"properties":{"city":"San Diego","latitude":32.8033,"code":92111,"id":"a625idy9i8sn","longitude":-117.1631,"label":"San Diego Mesa College"},"type":"Feature","geometry":{"type":"Point","coordinates":[-117.1631,32.8033]}},{"properties":{"city":"San Diego","latitude":32.9085,"code":92126,"id":"a625ie5e061t","longitude":-117.1235,"label":"San Diego Miramar College"},"type":"Feature","geometry":{"type":"Point","coordinates":[-117.1235,32.9085]}},{"properties":{"city":"San Francisco","latitude":37.7258,"code":94112,"id":"a625iduuhnpp","longitude":-122.4512,"label":"City College of San Francisco"},"type":"Feature","geometry":{"type":"Point","coordinates":[-122.4512,37.7258]}},{"properties":{"city":"Stockton","latitude":37.996,"code":95207,"id":"a625idrkvodq","longitude":-121.3137,"label":"San Joaquin Delta College"},"type":"Feature","geometry":{"type":"Point","coordinates":[-121.3137,37.996]}},{"properties":{"city":"San Jose","latitude":37.3163,"code":95128,"id":"a625idqttiua","longitude":-121.9267,"label":"San Jose City College"},"type":"Feature","geometry":{"type":"Point","coordinates":[-121.9267,37.3163]}},{"properties":{"city":"San Mateo","latitude":37.532,"code":94402,"id":"a625idyowhm8","longitude":-122.3338,"label":"College of San Mateo"},"type":"Feature","geometry":{"type":"Point","coordinates":[-122.3338,37.532]}},{"properties":{"city":"Santa Ana","latitude":33.7599,"code":92706,"id":"a625ie7c1f42","longitude":-117.8892,"label":"Santa Ana College"},"type":"Feature","geometry":{"type":"Point","coordinates":[-117.8892,33.7599]}},{"properties":{"city":"Santa Barbara","latitude":34.4078,"code":93109,"id":"a625idyf0d3m","longitude":-119.6976,"label":"Santa Barbara City College"},"type":"Feature","geometry":{"type":"Point","coordinates":[-119.6976,34.4078]}},{"properties":{"city":"Santa Monica","latitude":34.0188,"code":90405,"id":"a625idw2q1t0","longitude":-118.4695,"label":"Santa Monica College"},"type":"Feature","geometry":{"type":"Point","coordinates":[-118.4695,34.0188]}},{"properties":{"city":"Santa Rosa","latitude":38.4548,"code":95401,"id":"a625idr84s5b","longitude":-122.7164,"label":"Santa Rosa Junior College"},"type":"Feature","geometry":{"type":"Point","coordinates":[-122.7164,38.4548]}},{"properties":{"city":"Visalia","latitude":36.3229,"code":93277,"id":"a625ie5p50nr","longitude":-119.3128,"label":"College of the Sequoias"},"type":"Feature","geometry":{"type":"Point","coordinates":[-119.3128,36.3229]}},{"properties":{"city":"Redding","latitude":40.573,"code":96049,"id":"a625idsoytzj","longitude":-122.3516,"label":"Shasta College"},"type":"Feature","geometry":{"type":"Point","coordinates":[-122.3516,40.573]}},{"properties":{"city":"Rocklin","latitude":38.7886,"code":95677,"id":"a625ie00n0f4","longitude":-121.205,"label":"Sierra College"},"type":"Feature","geometry":{"type":"Point","coordinates":[-121.205,38.7886]}},{"properties":{"city":"Weed","latitude":41.4128,"code":96094,"id":"a625idx8of5k","longitude":-122.3947,"label":"College of the Siskiyous"},"type":"Feature","geometry":{"type":"Point","coordinates":[-122.3947,41.4128]}},{"properties":{"city":"San Bruno","latitude":37.6326,"code":94066,"id":"a625idyzfe06","longitude":-122.4591,"label":"Skyline College"},"type":"Feature","geometry":{"type":"Point","coordinates":[-122.4591,37.6326]}},{"properties":{"city":"Fairfield","latitude":38.2332,"code":94534,"id":"a625idr7p7c8","longitude":-122.1268,"label":"Solano Community College"},"type":"Feature","geometry":{"type":"Point","coordinates":[-122.1268,38.2332]}},{"properties":{"city":"Chula Vista","latitude":32.6419,"code":91910,"id":"a625ie2k8s4t","longitude":-116.9934,"label":"Southwestern College"},"type":"Feature","geometry":{"type":"Point","coordinates":[-116.9934,32.6419]}},{"properties":{"city":"Taft","latitude":35.1498,"code":93268,"id":"a625idukxpbz","longitude":-119.4589,"label":"Taft College"},"type":"Feature","geometry":{"type":"Point","coordinates":[-119.4589,35.1498]}},{"properties":{"city":"Ventura","latitude":34.2759,"code":93003,"id":"a625ie3at2xh","longitude":-119.2294,"label":"Ventura College"},"type":"Feature","geometry":{"type":"Point","coordinates":[-119.2294,34.2759]}},{"properties":{"city":"Victorville","latitude":34.4713,"code":92392,"id":"a625idz8apvg","longitude":-117.2591,"label":"Victor Valley College"},"type":"Feature","geometry":{"type":"Point","coordinates":[-117.2591,34.4713]}},{"properties":{"city":"Coalinga","latitude":36.1473,"code":93210,"id":"a625idyhp8zl","longitude":-120.3561,"label":"West Hills College Coalinga"},"type":"Feature","geometry":{"type":"Point","coordinates":[-120.3561,36.1473]}},{"properties":{"city":"Culver City","latitude":34.0051,"code":90230,"id":"a625idxsjxn0","longitude":-118.3882,"label":"West Los Angeles College"},"type":"Feature","geometry":{"type":"Point","coordinates":[-118.3882,34.0051]}},{"properties":{"city":"Saratoga","latitude":37.2669,"code":95070,"id":"a625idtpq70d","longitude":-122.0125,"label":"West Valley College"},"type":"Feature","geometry":{"type":"Point","coordinates":[-122.0125,37.2669]}},{"properties":{"city":"Marysville","latitude":39.1282,"code":95901,"id":"a625ie3hwrql","longitude":-121.5408,"label":"Yuba College"},"type":"Feature","geometry":{"type":"Point","coordinates":[-121.5408,39.1282]}},{"properties":{"city":"Fountain Valley","latitude":33.7161,"code":92708,"id":"a625ie15p02t","longitude":-117.9282,"label":"Coastline Community College"},"type":"Feature","geometry":{"type":"Point","coordinates":[-117.9282,33.7161]}},{"properties":{"city":"Santa Clara","latitude":37.389,"code":95054,"id":"a625ie2ql906","longitude":-121.9855,"label":"Mission College"},"type":"Feature","geometry":{"type":"Point","coordinates":[-121.9855,37.389]}},{"properties":{"city":"El Cajon","latitude":32.7469,"code":92019,"id":"a625ie0xu7eo","longitude":-116.9362,"label":"Cuyamaca College"},"type":"Feature","geometry":{"type":"Point","coordinates":[-116.9362,32.7469]}},{"properties":{"city":"Irvine","latitude":33.6741,"code":92618,"id":"a625ie0o9epx","longitude":-117.7733,"label":"Irvine Valley College"},"type":"Feature","geometry":{"type":"Point","coordinates":[-117.7733,33.6741]}},{"properties":{"city":"Livermore","latitude":37.7036,"code":94550,"id":"a625ie0rgah7","longitude":-121.8048,"label":"Las Positas College"},"type":"Feature","geometry":{"type":"Point","coordinates":[-121.8048,37.7036]}},{"properties":{"city":"Orange","latitude":33.7946,"code":92869,"id":"a625idvs12vm","longitude":-117.7681,"label":"Santiago Canyon College"},"type":"Feature","geometry":{"type":"Point","coordinates":[-117.7681,33.7946]}},{"properties":{"city":"Joshua Tree","latitude":34.1412,"code":92252,"id":"a625idroe414","longitude":-116.2113,"label":"Copper Mountain College"},"type":"Feature","geometry":{"type":"Point","coordinates":[-116.2113,34.1412]}},{"properties":{"city":"Lemoore","latitude":36.292,"code":93245,"id":"a625ie298krz","longitude":-119.8102,"label":"West Hills College at Lemoore"},"type":"Feature","geometry":{"type":"Point","coordinates":[-119.8102,36.292]}},{"properties":{"city":"Folsom","latitude":38.6616,"code":95630,"id":"a625idus8jeu","longitude":-121.1258,"label":"Folsom Lake College"},"type":"Feature","geometry":{"type":"Point","coordinates":[-121.1258,38.6616]}},{"properties":{"city":"Woodland","latitude":38.6626,"code":95776,"id":"a625ie2yrnnn","longitude":-121.7354,"label":"Woodland Community College"},"type":"Feature","geometry":{"type":"Point","coordinates":[-121.7354,38.6626]}},{"properties":{"city":"Moreno Valley","latitude":33.8941,"code":92551,"id":"a625idxamz7h","longitude":-117.2091,"label":"Moreno Valley College"},"type":"Feature","geometry":{"type":"Point","coordinates":[-117.2091,33.8941]}},{"properties":{"city":"Norco","latitude":33.9167,"code":92860,"id":"a625ids7gr2g","longitude":-117.5602,"label":"Norco College"},"type":"Feature","geometry":{"type":"Point","coordinates":[-117.5602,33.9167]}},{"properties":{"city":"La Jolla","latitude":32.9051,"code":92037,"id":"a625ie22vacz","longitude":-117.2425,"label":"National University"},"type":"Feature","geometry":{"type":"Point","coordinates":[-117.2425,32.9051]}}],"is_temporal":false,"author":{"url":"","metadata":"","contact_name":"","contact_address":"","source":"owner","contact_phone":""},"source":"","pagination":{"sort":null,"start":0,"total":115,"limit":1000000},"state":"complete","tags":"colleges,curriculum,universities","published":"2011-03-22T06:08:47Z","id":102508}