{"type":"FeatureCollection","data_type":"Dataset","url_type":null,"permissions":[{"permissions":{"download":true,"edit":true,"view":true},"group_id":13923},{"permissions":{"download":true,"view":true},"group_id":"everyone"}],"classification":null,"title":"Old Navy Store Locations (USA)","count":722,"stream_id":102839,"contributor":{"url":"http://geocommons.com/users/6","name":"seagor"},"data_attributes":null,"calculation_params":null,"icon_link":null,"link":"http://geocommons.com/overlays/102839.json","extent":[-158.013,20.8818,-68.7574,48.7878],"geometry_types":["point"],"unique_name":null,"name":"Old Navy Store Locations (USA)","feature_count":722,"description":"This is data scraped from the Old Navy store locator for the USA.  The Canadian stores were removed because they have a funny accents, and the geocoder is US only.","next_feature":null,"is_raster":false,"short_classification":"Y","stats":{},"features":[{"properties":{"city":"Bellingham","zipcode":"98226","geo_score":0.92,"id":"a64an6dikn30","geo_precision":"range","address":"1 Bellis Fair Parkway","state":"WA"},"type":"Feature","geometry":{"type":"Point","coordinates":[-122.491317,48.787796]}},{"properties":{"city":"Atlanta","zipcode":"30326","geo_score":0.958,"id":"a64an6k7j6lf","geo_precision":"range","address":"1 Buckhead Loop","state":"GA"},"type":"Feature","geometry":{"type":"Point","coordinates":[-84.362017,33.850598]}},{"properties":{"city":"Albany","zipcode":"12203","geo_score":0.411,"id":"a64an6e2zbxr","geo_precision":"street","address":"1 Crossgates Mall Road","state":"NY"},"type":"Feature","geometry":{"type":"Point","coordinates":[-73.798645,42.634673]}},{"properties":{"city":"Cheektowaga","zipcode":"14225","geo_score":0.659,"id":"a64an6b8qdmo","geo_precision":"range","address":"1 Galleria Dr","state":"NY"},"type":"Feature","geometry":{"type":"Point","coordinates":[-78.878726,42.961393]}},{"properties":{"city":"Middletown","zipcode":"10941","geo_score":1.0,"id":"a64an69pp7bz","geo_precision":"range","address":"1 N Galleria Dr","state":"NY"},"type":"Feature","geometry":{"type":"Point","coordinates":[-74.371509,41.455141]}},{"properties":{"city":"Broomfield","zipcode":"80021","geo_score":0.737,"id":"a64an6fitv19","geo_precision":"street","address":"1 W Flatiron Circle","state":"CO"},"type":"Feature","geometry":{"type":"Point","coordinates":[-105.133383,39.930282]}},{"properties":{"city":"Framingham","zipcode":"1701","geo_score":0.756,"id":"a64an6pxa6i7","geo_precision":"street","address":"1 Worcester Road","state":"MA"},"type":"Feature","geometry":{"type":"Point","coordinates":[-71.393613,42.29876]}},{"properties":{"city":"Wisconsin Dells","zipcode":"53965","geo_score":0.571,"id":"a64an6jltceo","geo_precision":"street","address":"Route 12","state":"WI"},"type":"Feature","geometry":{"type":"Point","coordinates":[-89.793101,43.589127]}},{"properties":{"city":"Augusta","zipcode":"4330","geo_score":0.944,"id":"a64an6ag8dxl","geo_precision":"range","address":"10 Stephen King Dr","state":"ME"},"type":"Feature","geometry":{"type":"Point","coordinates":[-69.784763,44.344223]}},{"properties":{"city":"Cambridge","zipcode":"2141","geo_score":0.97,"id":"a64an6kj5wgc","geo_precision":"range","address":"100 Cambridgeside Place","state":"MA"},"type":"Feature","geometry":{"type":"Point","coordinates":[-71.077717,42.367256]}},{"properties":{"city":"Sturbridge","zipcode":"1566","geo_score":1.0,"id":"a64an6ldvvaa","geo_precision":"range","address":"100 Charlton Road","state":"MA"},"type":"Feature","geometry":{"type":"Point","coordinates":[-72.056109,42.12479]}},{"properties":{"city":"Leominster","zipcode":"1453","geo_score":0.972,"id":"a64an6n3lhsp","geo_precision":"range","address":"100 Commercial Road","state":"MA"},"type":"Feature","geometry":{"type":"Point","coordinates":[-71.741702,42.531838]}},{"properties":{"city":"Danvers","zipcode":"1923","geo_score":0.92,"id":"a64an6b827t1","geo_precision":"range","address":"100 Independence Way","state":"MA"},"type":"Feature","geometry":{"type":"Point","coordinates":[-70.938062,42.550739]}},{"properties":{"city":"White Plains","zipcode":"10601","geo_score":1.0,"id":"a64an6ao5e4l","geo_precision":"range","address":"100 Main St","state":"NY"},"type":"Feature","geometry":{"type":"Point","coordinates":[-73.770839,41.03207]}},{"properties":{"city":"Williston","zipcode":"5495","geo_score":1.0,"id":"a64an6a8xdle","geo_precision":"range","address":"100 Maple Tree Place","state":"VT"},"type":"Feature","geometry":{"type":"Point","coordinates":[-73.106574,44.447211]}},{"properties":{"city":"Schererville","zipcode":"46375","geo_score":0.935,"id":"a64an6aiqjx8","geo_precision":"range","address":"100 Us Highway 41","state":"IN"},"type":"Feature","geometry":{"type":"Point","coordinates":[-87.471315,41.520957]}},{"properties":{"city":"Scranton","zipcode":"18508","geo_score":1.0,"id":"a64an6bgm9el","geo_precision":"range","address":"100 Viewmont Mall","state":"PA"},"type":"Feature","geometry":{"type":"Point","coordinates":[-75.656865,41.460771]}},{"properties":{"city":"Pittsburgh","zipcode":"15237","geo_score":0.912,"id":"a64an6lc16w9","geo_precision":"range","address":"1000 Ross Park Mall Dr","state":"PA"},"type":"Feature","geometry":{"type":"Point","coordinates":[-80.006526,40.54104]}},{"properties":{"city":"Omaha","zipcode":"68114","geo_score":1.0,"id":"a64an6nw4vbl","geo_precision":"range","address":"10000 California St","state":"NE"},"type":"Feature","geometry":{"type":"Point","coordinates":[-96.068314,41.264134]}},{"properties":{"city":"Albuquerque","zipcode":"87114","geo_score":0.917,"id":"a64an6igkwog","geo_precision":"range","address":"10000 Coors Bypass NW","state":"NM"},"type":"Feature","geometry":{"type":"Point","coordinates":[-106.659866,35.196939]}},{"properties":{"city":"Philadelphia","zipcode":"19107","geo_score":1.0,"id":"a64an6bm13hb","geo_precision":"range","address":"1001 Market St","state":"PA"},"type":"Feature","geometry":{"type":"Point","coordinates":[-75.156735,39.95153]}},{"properties":{"city":"Avondale","zipcode":"85323","geo_score":0.709,"id":"a64an6jkdv9b","geo_precision":"street","address":"10025 W Mcdowell Road","state":"AZ"},"type":"Feature","geometry":{"type":"Point","coordinates":[-112.27231,33.464734]}},{"properties":{"city":"CASA GRANDE","zipcode":"85222","geo_score":0.405,"id":"a64an6h0i7kk","geo_precision":"street","address":"1004 NORTH PROMENADE","state":"AZ"},"type":"Feature","geometry":{"type":"Point","coordinates":[-111.848181,33.425848]}},{"properties":{"city":"Brooklyn","zipcode":"11226","geo_score":0.902,"id":"a64an6iz5i7b","geo_precision":"range","address":"1009 Flatbush Ave","state":"NY"},"type":"Feature","geometry":{"type":"Point","coordinates":[-73.958118,40.646634]}},{"properties":{"city":"Joplin","zipcode":"64801","geo_score":0.878,"id":"a64an6dilnnt","geo_precision":"range","address":"101 Range Line Road","state":"MO"},"type":"Feature","geometry":{"type":"Point","coordinates":[-94.476993,37.090835]}},{"properties":{"city":"Glen Allen","zipcode":"23059","geo_score":0.878,"id":"a64an6n6ncy5","geo_precision":"street","address":"10101 Brook Road","state":"VA"},"type":"Feature","geometry":{"type":"Point","coordinates":[-77.460971,37.674134]}},{"properties":{"city":"Georgetown","zipcode":"78628","geo_score":0.912,"id":"a64an6b13cnf","geo_precision":"range","address":"1019 W University Ave","state":"TX"},"type":"Feature","geometry":{"type":"Point","coordinates":[-97.693002,30.633029]}},{"properties":{"city":"Sandy","zipcode":"84070","geo_score":0.913,"id":"a64an6d8si46","geo_precision":"range","address":"10210 S State St","state":"UT"},"type":"Feature","geometry":{"type":"Point","coordinates":[-111.890787,40.565663]}},{"properties":{"city":"Clarksville","zipcode":"47129","geo_score":0.683,"id":"a64an6ddqpzv","geo_precision":"zip","address":"1025 Veterans Parkway","state":"IN"},"type":"Feature","geometry":{"type":"Point","coordinates":[-85.764463,38.310958]}},{"properties":{"city":"Jacksonville","zipcode":"32246","geo_score":0.4,"id":"a64an6dgjroc","geo_precision":"street","address":"10261 River Marsh Dr","state":"FL"},"type":"Feature","geometry":{"type":"Point","coordinates":[-81.404742,30.273526]}},{"properties":{"city":"Portland","zipcode":"97232","geo_score":1.0,"id":"a64an6euwccl","geo_precision":"range","address":"1028 Lloyd Center","state":"OR"},"type":"Feature","geometry":{"type":"Point","coordinates":[-122.654564,45.531689]}},{"properties":{"city":"Webster","zipcode":"14580","geo_score":0.965,"id":"a64an6k4u6b9","geo_precision":"range","address":"1034 Ridge Road","state":"NY"},"type":"Feature","geometry":{"type":"Point","coordinates":[-77.454625,43.209569]}},{"properties":{"city":"Benton Harbor","zipcode":"49022","geo_score":0.674,"id":"a64an6i2b4ey","geo_precision":"street","address":"1040 Fairplain Road","state":"MI"},"type":"Feature","geometry":{"type":"Point","coordinates":[-86.430784,42.079649]}},{"properties":{"city":"Reading","zipcode":"19610","geo_score":0.737,"id":"a64an6jj4gmx","geo_precision":"street","address":"1045 Woodland Road","state":"PA"},"type":"Feature","geometry":{"type":"Point","coordinates":[-75.981764,40.33224]}},{"properties":{"city":"Jackson","zipcode":"39211","geo_score":0.78,"id":"a64an6dssgm6","geo_precision":"street","address":"1049 E County Line Road","state":"MS"},"type":"Feature","geometry":{"type":"Point","coordinates":[-90.138846,32.399475]}},{"properties":{"city":"Matthews","zipcode":"28105","geo_score":0.415,"id":"a64an6ggz8j3","geo_precision":"street","address":"10530 NE Parkway","state":"NC"},"type":"Feature","geometry":{"type":"Point","coordinates":[-80.440159,35.399115]}},{"properties":{"city":"Gilbert","zipcode":"85233","geo_score":0.805,"id":"a64an6gvymkm","geo_precision":"range","address":"1055 E Baseline Road","state":"AZ"},"type":"Feature","geometry":{"type":"Point","coordinates":[-111.923139,33.378296]}},{"properties":{"city":"Burnsville","zipcode":"55306","geo_score":0.783,"id":"a64an6m39bkb","geo_precision":"street","address":"1079 Burnsville CTR","state":"MN"},"type":"Feature","geometry":{"type":"Point","coordinates":[-93.283661,44.718219]}},{"properties":{"city":"Fort Collins","zipcode":"80525","geo_score":1.0,"id":"a64an6jbp8bh","geo_precision":"range","address":"108 W Troutman Parkway","state":"CO"},"type":"Feature","geometry":{"type":"Point","coordinates":[-105.077221,40.528629]}},{"properties":{"city":"Myrtle Beach","zipcode":"29572","geo_score":0.805,"id":"a64an6abm0ef","geo_precision":"street","address":"10823 Kings Road","state":"SC"},"type":"Feature","geometry":{"type":"Point","coordinates":[-78.771954,33.788284]}},{"properties":{"city":"Port Saint Lucie","zipcode":"34986","geo_score":0.692,"id":"a64an6aubozb","geo_precision":"range","address":"10880 SW Village Parkway","state":"FL"},"type":"Feature","geometry":{"type":"Point","coordinates":[-81.081168,27.081515]}},{"properties":{"city":"Valley Stream","zipcode":"11581","geo_score":0.693,"id":"a64an6f4hhdh","geo_precision":"street","address":"1093 Green Acres Mall","state":"NY"},"type":"Feature","geometry":{"type":"Point","coordinates":[-73.718263,40.660474]}},{"properties":{"city":"Sunset Hills","zipcode":"63127","geo_score":1.0,"id":"a64an6d2gw30","geo_precision":"range","address":"10940 Sunset Hills Plaza","state":"MO"},"type":"Feature","geometry":{"type":"Point","coordinates":[-90.407835,38.55434]}},{"properties":{"city":"Canton","zipcode":"6019","geo_score":0.951,"id":"a64an6h24lrv","geo_precision":"range","address":"110 Albany Turnpike","state":"CT"},"type":"Feature","geometry":{"type":"Point","coordinates":[-72.885957,41.824192]}},{"properties":{"city":"Green Bay","zipcode":"54304","geo_score":0.911,"id":"a64an6dx5rsh","geo_precision":"range","address":"110 Bay Park Square","state":"WI"},"type":"Feature","geometry":{"type":"Point","coordinates":[-88.067438,44.484514]}},{"properties":{"city":"Rochester","zipcode":"14623","geo_score":0.44,"id":"a64an6jgre39","geo_precision":"street","address":"110 Miracle Mile","state":"NY"},"type":"Feature","geometry":{"type":"Point","coordinates":[-77.727295,43.234123]}},{"properties":{"city":"Redwood City","zipcode":"94063","geo_score":0.732,"id":"a64an6el4eos","geo_precision":"street","address":"1101 El Camino Real","state":"CA"},"type":"Feature","geometry":{"type":"Point","coordinates":[-122.22912,37.481722]}},{"properties":{"city":"Moorestown","zipcode":"8057","geo_score":0.727,"id":"a64an6b63q82","geo_precision":"street","address":"1101 Nixon Dr","state":"NJ"},"type":"Feature","geometry":{"type":"Point","coordinates":[-74.961906,39.947842]}},{"properties":{"city":"Auburn","zipcode":"98001","geo_score":0.919,"id":"a64an6igrcs4","geo_precision":"range","address":"1101 Supermall Way","state":"WA"},"type":"Feature","geometry":{"type":"Point","coordinates":[-122.246295,47.301772]}},{"properties":{"city":"Knoxville","zipcode":"37922","geo_score":0.716,"id":"a64an6izz70j","geo_precision":"street","address":"11028 Parkside Dr","state":"TN"},"type":"Feature","geometry":{"type":"Point","coordinates":[-84.132821,35.907149]}},{"properties":{"city":"Cedar Park","zipcode":"78613","geo_score":1.0,"id":"a64an6nympu3","geo_precision":"range","address":"11066 Pecan Park Blvd","state":"TX"},"type":"Feature","geometry":{"type":"Point","coordinates":[-97.802106,30.472044]}},{"properties":{"city":"Manassas","zipcode":"20109","geo_score":1.0,"id":"a64an6l86vij","geo_precision":"range","address":"11096 Bulloch Dr","state":"VA"},"type":"Feature","geometry":{"type":"Point","coordinates":[-77.525839,38.801868]}},{"properties":{"city":"Jackson","zipcode":"38305","geo_score":0.807,"id":"a64an6gc8kz6","geo_precision":"street","address":"1109a Vann Dr","state":"TN"},"type":"Feature","geometry":{"type":"Point","coordinates":[-88.858207,35.66877]}},{"properties":{"city":"Kokomo","zipcode":"46902","geo_score":0.963,"id":"a64an6assq4c","geo_precision":"range","address":"1111 So Reed Road","state":"IN"},"type":"Feature","geometry":{"type":"Point","coordinates":[-86.107849,40.476339]}},{"properties":{"city":"Waldorf","zipcode":"20603","geo_score":0.878,"id":"a64an6llr2a8","geo_precision":"range","address":"11110 Mall Circle","state":"MD"},"type":"Feature","geometry":{"type":"Point","coordinates":[-76.916886,38.62064]}},{"properties":{"city":"Wheaton","zipcode":"20902","geo_score":0.959,"id":"a64an6jn9h1p","geo_precision":"range","address":"11160 Veirs Mill Road","state":"MD"},"type":"Feature","geometry":{"type":"Point","coordinates":[-77.054941,39.039753]}},{"properties":{"city":"Greenville","zipcode":"29607","geo_score":0.911,"id":"a64an6i7r4fa","geo_precision":"range","address":"1117 Woodruff Road","state":"SC"},"type":"Feature","geometry":{"type":"Point","coordinates":[-82.300378,34.827448]}},{"properties":{"city":"Livingston","zipcode":"7039","geo_score":0.78,"id":"a64an6jfw12p","geo_precision":"range","address":"112 Eisenhower Parkway","state":"NJ"},"type":"Feature","geometry":{"type":"Point","coordinates":[-74.35338,40.782863]}},{"properties":{"city":"Clovis","zipcode":"93612","geo_score":0.935,"id":"a64an6e3wq0d","geo_precision":"range","address":"115 Shaw Ave","state":"CA"},"type":"Feature","geometry":{"type":"Point","coordinates":[-119.707696,36.808482]}},{"properties":{"city":"Christiansburg","zipcode":"24073","geo_score":0.599,"id":"a64an6h1bsnz","geo_precision":"zip","address":"115 Shopper's Way NW","state":"VA"},"type":"Feature","geometry":{"type":"Point","coordinates":[-80.513666,37.153461]}},{"properties":{"city":"Downers Grove","zipcode":"60516","geo_score":0.816,"id":"a64an6kkrrdh","geo_precision":"street","address":"1150 - 75th St","state":"IL"},"type":"Feature","geometry":{"type":"Point","coordinates":[-88.00558,41.751267]}},{"properties":{"city":"Richmond","zipcode":"23235","geo_score":1.0,"id":"a64an6parwro","geo_precision":"range","address":"11500 Midlothian Turnpike","state":"VA"},"type":"Feature","geometry":{"type":"Point","coordinates":[-77.608933,37.505533]}},{"properties":{"city":"Medina","zipcode":"44256","geo_score":0.8,"id":"a64an6ns0iw6","geo_precision":"range","address":"1155 N Court St","state":"OH"},"type":"Feature","geometry":{"type":"Point","coordinates":[-81.8628,41.154992]}},{"properties":{"city":"Fayetteville","zipcode":"30214","geo_score":0.927,"id":"a64an6d7fcx1","geo_precision":"range","address":"116 Pavilion Parkway","state":"GA"},"type":"Feature","geometry":{"type":"Point","coordinates":[-84.43915,33.480317]}},{"properties":{"city":"Atlanta","zipcode":"30346","geo_score":1.0,"id":"a64an6c8m3s3","geo_precision":"range","address":"1161 Hammond Dr NE","state":"GA"},"type":"Feature","geometry":{"type":"Point","coordinates":[-84.343695,33.920566]}},{"properties":{"city":"San Antonio","zipcode":"78250","geo_score":1.0,"id":"a64an6aes74b","geo_precision":"range","address":"11659 Bandera Road","state":"TX"},"type":"Feature","geometry":{"type":"Point","coordinates":[-98.666477,29.553066]}},{"properties":{"city":"Salt Lake City","zipcode":"84106","geo_score":0.925,"id":"a64an6alwn30","geo_precision":"range","address":"1168 E 2100 S","state":"UT"},"type":"Feature","geometry":{"type":"Point","coordinates":[-111.857681,40.725416]}},{"properties":{"city":"Milpitas","zipcode":"95035","geo_score":1.0,"id":"a64an6eth5cm","geo_precision":"range","address":"1172 Great Mall Dr","state":"CA"},"type":"Feature","geometry":{"type":"Point","coordinates":[-121.900467,37.414457]}},{"properties":{"city":"San Antonio","zipcode":"78230","geo_score":0.39,"id":"a64an6fc8977","geo_precision":"street","address":"11745 W Interstate Highway 10","state":"TX"},"type":"Feature","geometry":{"type":"Point","coordinates":[-98.422738,29.405458]}},{"properties":{"city":"Atlantic City","zipcode":"8401","geo_score":1.0,"id":"a64an6i09qo4","geo_precision":"range","address":"119 N Michigan Ave","state":"NJ"},"type":"Feature","geometry":{"type":"Point","coordinates":[-74.437091,39.361308]}},{"properties":{"city":"Oxford","zipcode":"36203","geo_score":0.629,"id":"a64an6j53l7z","geo_precision":"street","address":"1-20 and Morgan Road","state":"AL"},"type":"Feature","geometry":{"type":"Point","coordinates":[-85.786171,33.602621]}},{"properties":{"city":"Tilton","zipcode":"3276","geo_score":0.912,"id":"a64an6khgmhy","geo_precision":"range","address":"120 Laconia Road","state":"NH"},"type":"Feature","geometry":{"type":"Point","coordinates":[-71.563856,43.457092]}},{"properties":{"city":"Orland Park","zipcode":"60462","geo_score":0.922,"id":"a64an6eu706d","geo_precision":"range","address":"120 Orland Park Place","state":"IL"},"type":"Feature","geometry":{"type":"Point","coordinates":[-87.850779,41.613695]}},{"properties":{"city":"Phillipsburg","zipcode":"8865","geo_score":0.774,"id":"a64an6p6fm1b","geo_precision":"range","address":"1200 Us Highway 22 Suite 612","state":"NJ"},"type":"Feature","geometry":{"type":"Point","coordinates":[-75.168426,40.677559]}},{"properties":{"city":"Austin","zipcode":"78723","geo_score":0.438,"id":"a64an6npnwen","geo_precision":"street","address":"1201 Barbara Jordan Blvd","state":"TX"},"type":"Feature","geometry":{"type":"Point","coordinates":[-97.723254,30.350704]}},{"properties":{"city":"Toms River","zipcode":"8753","geo_score":0.965,"id":"a64an6daelqg","geo_precision":"range","address":"1201 Hooper Ave","state":"NJ"},"type":"Feature","geometry":{"type":"Point","coordinates":[-74.182673,39.978958]}},{"properties":{"city":"Rockville","zipcode":"20852","geo_score":0.924,"id":"a64an6jeiwvb","geo_precision":"range","address":"12017 Rockville Pike","state":"MD"},"type":"Feature","geometry":{"type":"Point","coordinates":[-77.117559,39.054592]}},{"properties":{"city":"Goldsboro","zipcode":"27534","geo_score":1.0,"id":"a64an6d6l5cj","geo_precision":"range","address":"1205 N Berkeley Blvd","state":"NC"},"type":"Feature","geometry":{"type":"Point","coordinates":[-77.933855,35.379844]}},{"properties":{"city":"Overland Park","zipcode":"66210","geo_score":0.708,"id":"a64an6nlyp5h","geo_precision":"street","address":"12065 Metcalf Ave","state":"KS"},"type":"Feature","geometry":{"type":"Point","coordinates":[-94.667739,38.912866]}},{"properties":{"city":"Philadelphia","zipcode":"19154","geo_score":1.0,"id":"a64an6esvyc4","geo_precision":"range","address":"1207 Franklin Mills Circle","state":"PA"},"type":"Feature","geometry":{"type":"Point","coordinates":[-74.958952,40.087997]}},{"properties":{"city":"Greensboro","zipcode":"27407","geo_score":0.857,"id":"a64an6pdfma9","geo_precision":"range","address":"1208-B Bridfort Parkway","state":"NC"},"type":"Feature","geometry":{"type":"Point","coordinates":[-79.903251,36.058975]}},{"properties":{"city":"Milford","zipcode":"6460","geo_score":0.922,"id":"a64an6fyzguo","geo_precision":"range","address":"1212 Boston Post Road","state":"CT"},"type":"Feature","geometry":{"type":"Point","coordinates":[-73.038861,41.236533]}},{"properties":{"city":"Woodstock","zipcode":"30189","geo_score":0.7,"id":"a64an6frth7j","geo_precision":"range","address":"122 Woodstock Square Ave","state":"GA"},"type":"Feature","geometry":{"type":"Point","coordinates":[-84.528294,34.102965]}},{"properties":{"city":"Fairfax","zipcode":"22033","geo_score":1.0,"id":"a64an6c6d40y","geo_precision":"range","address":"12209 Fairlakes Promenade Dr","state":"VA"},"type":"Feature","geometry":{"type":"Point","coordinates":[-77.365968,38.860022]}},{"properties":{"city":"Troy","zipcode":"48084","geo_score":0.902,"id":"a64an6j44sao","geo_precision":"range","address":"1221 Coolidge Highway","state":"MI"},"type":"Feature","geometry":{"type":"Point","coordinates":[-83.186108,42.543866]}},{"properties":{"city":"Birch Run","zipcode":"48415","geo_score":0.912,"id":"a64an6blp2qm","geo_precision":"range","address":"12240 S Beyer Road","state":"MI"},"type":"Feature","geometry":{"type":"Point","coordinates":[-83.774661,43.245911]}},{"properties":{"city":"Newport News","zipcode":"23602","geo_score":0.911,"id":"a64an6d0mnrb","geo_precision":"range","address":"12300 Jefferson Ave","state":"VA"},"type":"Feature","geometry":{"type":"Point","coordinates":[-76.50165,37.115366]}},{"properties":{"city":"Jonesboro","zipcode":"72401","geo_score":0.859,"id":"a64an6ocwrh8","geo_precision":"range","address":"1231 S Caraway Road","state":"AR"},"type":"Feature","geometry":{"type":"Point","coordinates":[-90.677606,35.830916]}},{"properties":{"city":"Decatur","zipcode":"35601","geo_score":0.475,"id":"a64an6o7ayf6","geo_precision":"street","address":"1241 Point Mallard Parkway","state":"AL"},"type":"Feature","geometry":{"type":"Point","coordinates":[-87.551204,34.791988]}},{"properties":{"city":"Roseville","zipcode":"95678","geo_score":0.464,"id":"a64an6ii3f1l","geo_precision":"street","address":"1244 Galleria Blvd","state":"CA"},"type":"Feature","geometry":{"type":"Point","coordinates":[-120.983636,38.669747]}},{"properties":{"city":"Sacramento","zipcode":"95825","geo_score":0.941,"id":"a64an6lejeoa","geo_precision":"range","address":"1250 Howe Ave","state":"CA"},"type":"Feature","geometry":{"type":"Point","coordinates":[-121.415315,38.587971]}},{"properties":{"city":"North Attleboro","zipcode":"2760","geo_score":0.916,"id":"a64an6bblsx1","geo_precision":"range","address":"1250 S Washington St","state":"MA"},"type":"Feature","geometry":{"type":"Point","coordinates":[-71.349621,41.938806]}},{"properties":{"city":"Jacksonville","zipcode":"28546","geo_score":1.0,"id":"a64an6hj7j0h","geo_precision":"range","address":"1250 Western Blvd","state":"NC"},"type":"Feature","geometry":{"type":"Point","coordinates":[-77.397074,34.78197]}},{"properties":{"city":"Greenwood","zipcode":"46142","geo_score":0.916,"id":"a64an6hunzvo","geo_precision":"range","address":"1251 Us Highway 31 N","state":"IN"},"type":"Feature","geometry":{"type":"Point","coordinates":[-86.126108,39.634553]}},{"properties":{"city":"Fredericksburg","zipcode":"22401","geo_score":0.916,"id":"a64an6fkjhft","geo_precision":"range","address":"1260 Carl D Silver Parkway","state":"VA"},"type":"Feature","geometry":{"type":"Point","coordinates":[-77.508795,38.300892]}},{"properties":{"city":"Eagan","zipcode":"55121","geo_score":0.902,"id":"a64an6kgs4xk","geo_precision":"range","address":"1263 Promenade Place","state":"MN"},"type":"Feature","geometry":{"type":"Point","coordinates":[-93.155955,44.835881]}},{"properties":{"city":"Holland","zipcode":"49424","geo_score":1.0,"id":"a64an6jg1q8t","geo_precision":"range","address":"12635 Felch St","state":"MI"},"type":"Feature","geometry":{"type":"Point","coordinates":[-86.09304,42.819276]}},{"properties":{"city":"Coon Rapids","zipcode":"55448","geo_score":0.899,"id":"a64an6hjv44x","geo_precision":"range","address":"12767 Riverdale Blvd NW","state":"MN"},"type":"Feature","geometry":{"type":"Point","coordinates":[-93.355092,45.20099]}},{"properties":{"city":"Saugus","zipcode":"1906","geo_score":0.911,"id":"a64an6j9ycfr","geo_precision":"range","address":"1277 Broadway","state":"MA"},"type":"Feature","geometry":{"type":"Point","coordinates":[-71.024614,42.461893]}},{"properties":{"city":"Little Rock","zipcode":"72211","geo_score":1.0,"id":"a64an6ndqz2i","geo_precision":"range","address":"12801 Chenal Parkway","state":"AR"},"type":"Feature","geometry":{"type":"Point","coordinates":[-92.415499,34.754268]}},{"properties":{"city":"Burleson","zipcode":"76028","geo_score":0.401,"id":"a64an6l3ji5z","geo_precision":"street","address":"12868 S Freeway","state":"TX"},"type":"Feature","geometry":{"type":"Point","coordinates":[-97.07199,32.767122]}},{"properties":{"city":"South Bend","zipcode":"46614","geo_score":0.913,"id":"a64an6dbk90l","geo_precision":"range","address":"1290 E Ireland Road","state":"IN"},"type":"Feature","geometry":{"type":"Point","coordinates":[-86.231102,41.629427]}},{"properties":{"city":"Austin","zipcode":"78733","geo_score":0.585,"id":"a64an6d5b2pa","geo_precision":"zip","address":"12909 Shops Parkway","state":"TX"},"type":"Feature","geometry":{"type":"Point","coordinates":[-97.94501,30.308537]}},{"properties":{"city":"Marietta","zipcode":"30068","geo_score":1.0,"id":"a64an6mz9n82","geo_precision":"range","address":"1291 Johnson Ferry Road","state":"GA"},"type":"Feature","geometry":{"type":"Point","coordinates":[-84.423003,33.979979]}},{"properties":{"city":"North Dartmouth","zipcode":"2747","geo_score":0.923,"id":"a64an6dhw7ai","geo_precision":"range","address":"130 N Dartmouth Mall","state":"MA"},"type":"Feature","geometry":{"type":"Point","coordinates":[-70.993276,41.642984]}},{"properties":{"city":"Kingston","zipcode":"12401","geo_score":0.613,"id":"a64an6ev2iy4","geo_precision":"street","address":"1300 Ulster Ave","state":"NY"},"type":"Feature","geometry":{"type":"Point","coordinates":[-73.988692,41.971067]}},{"properties":{"city":"Fayetteville","zipcode":"28314","geo_score":0.805,"id":"a64an6mz1afy","geo_precision":"street","address":"131 Glensford Dr","state":"NC"},"type":"Feature","geometry":{"type":"Point","coordinates":[-78.963146,35.0588]}},{"properties":{"city":"Wenatchee","zipcode":"98801","geo_score":0.97,"id":"a64an6b698n0","geo_precision":"range","address":"1310 N Miller St","state":"WA"},"type":"Feature","geometry":{"type":"Point","coordinates":[-120.324738,47.440828]}},{"properties":{"city":"Kennewick","zipcode":"99336","geo_score":0.922,"id":"a64an6f0mvzv","geo_precision":"range","address":"1321 N Columbia Center Blvd","state":"WA"},"type":"Feature","geometry":{"type":"Point","coordinates":[-119.22361,46.224668]}},{"properties":{"city":"Chesapeake","zipcode":"23320","geo_score":0.92,"id":"a64an6c28e7h","geo_precision":"range","address":"1322 Greenbrier Parkway","state":"VA"},"type":"Feature","geometry":{"type":"Point","coordinates":[-76.228869,36.772686]}},{"properties":{"city":"Jacksonville","zipcode":"32218","geo_score":0.537,"id":"a64an6jioew2","geo_precision":"street","address":"13221 City Station Dr","state":"FL"},"type":"Feature","geometry":{"type":"Point","coordinates":[-81.609957,30.475672]}},{"properties":{"city":"Columbus","zipcode":"43240","geo_score":1.0,"id":"a64an6a67nhk","geo_precision":"range","address":"1345 Polaris Parkway","state":"OH"},"type":"Feature","geometry":{"type":"Point","coordinates":[-82.986309,40.141867]}},{"properties":{"city":"Dover","zipcode":"19901","geo_score":0.924,"id":"a64an6d3u5tm","geo_precision":"range","address":"1356 N Dupont Highway","state":"DE"},"type":"Feature","geometry":{"type":"Point","coordinates":[-75.541034,39.189492]}},{"properties":{"city":"Wheaton","zipcode":"60187","geo_score":1.0,"id":"a64an6d6iusc","geo_precision":"range","address":"138 Danada Square W","state":"IL"},"type":"Feature","geometry":{"type":"Point","coordinates":[-88.107826,41.833107]}},{"properties":{"city":"Bloomington","zipcode":"55425","geo_score":0.707,"id":"a64an6dj30jr","geo_precision":"range","address":"138 E Broadway","state":"MN"},"type":"Feature","geometry":{"type":"Point","coordinates":[-93.279479,44.999117]}},{"properties":{"city":"College Point","zipcode":"11356","geo_score":0.624,"id":"a64an6lz1pb2","geo_precision":"street","address":"13915 20th Ave","state":"NY"},"type":"Feature","geometry":{"type":"Point","coordinates":[-73.847763,40.781683]}},{"properties":{"city":"Fairless Hills","zipcode":"19030","geo_score":1.0,"id":"a64an6lelmmg","geo_precision":"range","address":"140 Commerce Blvd","state":"PA"},"type":"Feature","geometry":{"type":"Point","coordinates":[-74.867017,40.187444]}},{"properties":{"city":"Hempstead","zipcode":"11550","geo_score":0.965,"id":"a64an6f16f50","geo_precision":"range","address":"140 Fulton Ave","state":"NY"},"type":"Feature","geometry":{"type":"Point","coordinates":[-73.631542,40.706856]}},{"properties":{"city":"Columbia","zipcode":"29212","geo_score":1.0,"id":"a64an6dmpxxb","geo_precision":"range","address":"140 Harbison Blvd","state":"SC"},"type":"Feature","geometry":{"type":"Point","coordinates":[-81.166817,34.067678]}},{"properties":{"city":"Wayne","zipcode":"7470","geo_score":0.913,"id":"a64an6g3269u","geo_precision":"range","address":"1400 Willowbrook Mall","state":"NJ"},"type":"Feature","geometry":{"type":"Point","coordinates":[-74.256136,40.889484]}},{"properties":{"city":"Newburgh","zipcode":"12550","geo_score":0.645,"id":"a64an6j3v0nx","geo_precision":"street","address":"1401 Route 300","state":"NY"},"type":"Feature","geometry":{"type":"Point","coordinates":[-74.066842,41.511202]}},{"properties":{"city":"Everett","zipcode":"98208","geo_score":1.0,"id":"a64an6hykgpm","geo_precision":"range","address":"1402 SE Everett Mall Way","state":"WA"},"type":"Feature","geometry":{"type":"Point","coordinates":[-122.214198,47.912163]}},{"properties":{"city":"Noblesville","zipcode":"46060","geo_score":0.612,"id":"a64an6ggzufq","geo_precision":"street","address":"14049 Town Center Blvd","state":"IN"},"type":"Feature","geometry":{"type":"Point","coordinates":[-86.012914,40.053625]}},{"properties":{"city":"Sewell","zipcode":"8080","geo_score":0.924,"id":"a64an6p0m1gc","geo_precision":"range","address":"141 Tuckahoe Road","state":"NJ"},"type":"Feature","geometry":{"type":"Point","coordinates":[-75.030383,39.716361]}},{"properties":{"city":"Anderson","zipcode":"29621","geo_score":0.415,"id":"a64an6onk1eu","geo_precision":"street","address":"142 Station Dr","state":"SC"},"type":"Feature","geometry":{"type":"Point","coordinates":[-82.653201,34.494257]}},{"properties":{"city":"Holland","zipcode":"43528","geo_score":0.798,"id":"a64an6l2ub61","geo_precision":"range","address":"1420 S Holland Sylvannia Road","state":"OH"},"type":"Feature","geometry":{"type":"Point","coordinates":[-83.684197,41.614208]}},{"properties":{"city":"Aurora","zipcode":"80012","geo_score":1.0,"id":"a64an6n6sb27","geo_precision":"range","address":"14200 E Alameda Ave","state":"CO"},"type":"Feature","geometry":{"type":"Point","coordinates":[-104.825965,39.711157]}},{"properties":{"city":"Carmel","zipcode":"46032","geo_score":0.838,"id":"a64an6lsnvn8","geo_precision":"range","address":"14250 Clay Terrace Blvd","state":"IN"},"type":"Feature","geometry":{"type":"Point","coordinates":[-86.12917,39.995259]}},{"properties":{"city":"Lakewood","zipcode":"80401","geo_score":0.902,"id":"a64an6jdl65y","geo_precision":"range","address":"14367 W Colfax Ave","state":"CO"},"type":"Feature","geometry":{"type":"Point","coordinates":[-105.158737,39.735455]}},{"properties":{"city":"Oklahoma City","zipcode":"73159","geo_score":0.635,"id":"a64an6jc5n0w","geo_precision":"street","address":"1437 W I-240 Service Road","state":"OK"},"type":"Feature","geometry":{"type":"Point","coordinates":[-97.5392,35.391473]}},{"properties":{"city":"Providence","zipcode":"2903","geo_score":1.0,"id":"a64an6fiq2vb","geo_precision":"range","address":"144 Providence Place","state":"RI"},"type":"Feature","geometry":{"type":"Point","coordinates":[-71.418928,41.827788]}},{"properties":{"city":"Port Charlotte","zipcode":"33948","geo_score":1.0,"id":"a64an6l0m0qs","geo_precision":"range","address":"1441 Tamiami Trail","state":"FL"},"type":"Feature","geometry":{"type":"Point","coordinates":[-82.142568,27.011069]}},{"properties":{"city":"Danville","zipcode":"24540","geo_score":0.604,"id":"a64an6nai7z8","geo_precision":"range","address":"145 Holt Garrison Parkway","state":"VA"},"type":"Feature","geometry":{"type":"Point","coordinates":[-79.067314,37.32132]}},{"properties":{"city":"Honolulu","zipcode":"96814","geo_score":0.927,"id":"a64an6gm3gcw","geo_precision":"range","address":"1450 Ala Moana Blvd","state":"HI"},"type":"Feature","geometry":{"type":"Point","coordinates":[-157.841897,21.289188]}},{"properties":{"city":"Coralville","zipcode":"52241","geo_score":1.0,"id":"a64an6n2adqk","geo_precision":"range","address":"1451 Coral Ridge Ave","state":"IA"},"type":"Feature","geometry":{"type":"Point","coordinates":[-91.608403,41.691709]}},{"properties":{"city":"Burlington","zipcode":"27215","geo_score":0.595,"id":"a64an6o69ai8","geo_precision":"zip","address":"1453 University Blvd","state":"NC"},"type":"Feature","geometry":{"type":"Point","coordinates":[-79.400022,36.207636]}},{"properties":{"city":"West Hartford","zipcode":"6110","geo_score":0.967,"id":"a64an6dyljxf","geo_precision":"range","address":"1459 New Britain Ave","state":"CT"},"type":"Feature","geometry":{"type":"Point","coordinates":[-72.759831,41.72546]}},{"properties":{"city":"Homewood","zipcode":"35209","geo_score":1.0,"id":"a64an6mkptuf","geo_precision":"range","address":"146 Wildwood Parkway","state":"AL"},"type":"Feature","geometry":{"type":"Point","coordinates":[-86.824022,33.448347]}},{"properties":{"city":"Bluffton","zipcode":"29910","geo_score":0.902,"id":"a64an6gg7uff","geo_precision":"range","address":"1460 Fording Island Road","state":"SC"},"type":"Feature","geometry":{"type":"Point","coordinates":[-80.816593,32.240918]}},{"properties":{"city":"Brunswick","zipcode":"4011","geo_score":0.917,"id":"a64an6d5muex","geo_precision":"range","address":"147 Bath Road","state":"ME"},"type":"Feature","geometry":{"type":"Point","coordinates":[-69.927098,43.906525]}},{"properties":{"city":"West Nyack","zipcode":"10994","geo_score":0.966,"id":"a64an6bbu0t7","geo_precision":"range","address":"1470 Palisades Center","state":"NY"},"type":"Feature","geometry":{"type":"Point","coordinates":[-73.955802,41.09942]}},{"properties":{"city":"Springfield","zipcode":"45504","geo_score":0.789,"id":"a64an69l9znf","geo_precision":"range","address":"1475 Upper Valley Pike","state":"OH"},"type":"Feature","geometry":{"type":"Point","coordinates":[-83.852323,39.947142]}},{"properties":{"city":"Columbus","zipcode":"39705","geo_score":1.0,"id":"a64an6elt3li","geo_precision":"range","address":"1488 Old Aberdeen Road","state":"MS"},"type":"Feature","geometry":{"type":"Point","coordinates":[-88.433248,33.51664]}},{"properties":{"city":"Lawton","zipcode":"73501","geo_score":0.578,"id":"a64an6brtqqo","geo_precision":"street","address":"149 Central Mall","state":"OK"},"type":"Feature","geometry":{"type":"Point","coordinates":[-98.243147,34.819962]}},{"properties":{"city":"Schaumburg","zipcode":"60173","geo_score":1.0,"id":"a64an6aox9ij","geo_precision":"range","address":"1498 E Golf Road","state":"IL"},"type":"Feature","geometry":{"type":"Point","coordinates":[-88.043084,42.050561]}},{"properties":{"city":"New York City","zipcode":"10001","geo_score":0.881,"id":"a64an6gjxqyl","geo_precision":"range","address":"150 W 34th St","state":"NY"},"type":"Feature","geometry":{"type":"Point","coordinates":[-73.988887,40.750386]}},{"properties":{"city":"West Fargo","zipcode":"58078","geo_score":0.829,"id":"a64an6byhv4t","geo_precision":"range","address":"1500 13th Ave E","state":"ND"},"type":"Feature","geometry":{"type":"Point","coordinates":[-96.876419,46.862098]}},{"properties":{"city":"Manchester","zipcode":"3103","geo_score":1.0,"id":"a64an6onqoru","geo_precision":"range","address":"1500 S Willow St","state":"NH"},"type":"Feature","geometry":{"type":"Point","coordinates":[-71.435909,42.956729]}},{"properties":{"city":"Westbury","zipcode":"11590","geo_score":0.946,"id":"a64an6iif257","geo_precision":"range","address":"1504 Old Country Road","state":"NY"},"type":"Feature","geometry":{"type":"Point","coordinates":[-73.592985,40.747164]}},{"properties":{"city":"San Luis Obispo","zipcode":"93405","geo_score":0.683,"id":"a64an6fn3l0d","geo_precision":"zip","address":"1510 Froom Way","state":"CA"},"type":"Feature","geometry":{"type":"Point","coordinates":[-120.703455,35.363067]}},{"properties":{"city":"Watchung","zipcode":"7069","geo_score":1.0,"id":"a64an6kzjii4","geo_precision":"range","address":"1515 Us Highway 22","state":"NJ"},"type":"Feature","geometry":{"type":"Point","coordinates":[-74.415804,40.64112]}},{"properties":{"city":"Olathe","zipcode":"66062","geo_score":1.0,"id":"a64an6jpx9oy","geo_precision":"range","address":"15290 W 119th St","state":"KS"},"type":"Feature","geometry":{"type":"Point","coordinates":[-94.764128,38.912816]}},{"properties":{"city":"Shawnee","zipcode":"66217","geo_score":0.951,"id":"a64an6okg8rp","geo_precision":"range","address":"15310 Shawnee Mission Parkway","state":"KS"},"type":"Feature","geometry":{"type":"Point","coordinates":[-94.764612,39.008435]}},{"properties":{"city":"Mayfield Heights","zipcode":"44124","geo_score":0.915,"id":"a64an6jgug7u","geo_precision":"range","address":"1533 Golden Gate Plaza","state":"OH"},"type":"Feature","geometry":{"type":"Point","coordinates":[-81.449156,41.518655]}},{"properties":{"city":"Bowie","zipcode":"20716","geo_score":0.917,"id":"a64an6j4rqp4","geo_precision":"range","address":"15426 Emerald Way","state":"MD"},"type":"Feature","geometry":{"type":"Point","coordinates":[-76.735142,38.942819]}},{"properties":{"city":"Southaven","zipcode":"38671","geo_score":1.0,"id":"a64an6ctbmqc","geo_precision":"range","address":"155 Goodman Road W","state":"MS"},"type":"Feature","geometry":{"type":"Point","coordinates":[-89.992537,34.96267]}},{"properties":{"city":"San Leandro","zipcode":"94577","geo_score":0.721,"id":"a64an6g6tsjn","geo_precision":"street","address":"15555 E 14th St","state":"CA"},"type":"Feature","geometry":{"type":"Point","coordinates":[-122.159683,37.729931]}},{"properties":{"city":"Township of Deptford","zipcode":"8096","geo_score":0.913,"id":"a64an6nexhay","geo_precision":"range","address":"1557 Almonesson Road","state":"NJ"},"type":"Feature","geometry":{"type":"Point","coordinates":[-75.10211,39.842188]}},{"properties":{"city":"Bellevue","zipcode":"98008","geo_score":0.916,"id":"a64an6b0rvra","geo_precision":"range","address":"15600 NE 8th St","state":"WA"},"type":"Feature","geometry":{"type":"Point","coordinates":[-122.132424,47.616997]}},{"properties":{"city":"Apex","zipcode":"27502","geo_score":0.554,"id":"a64an6fcymwl","geo_precision":"street","address":"1561 Beaver Creek Commons Dr","state":"NC"},"type":"Feature","geometry":{"type":"Point","coordinates":[-78.880246,35.747575]}},{"properties":{"city":"Orlando","zipcode":"32821","geo_score":0.919,"id":"a64an6ltu058","geo_precision":"range","address":"15661 S Apopka Vineland Road","state":"FL"},"type":"Feature","geometry":{"type":"Point","coordinates":[-81.489611,28.349161]}},{"properties":{"city":"Rocky Mount","zipcode":"27804","geo_score":1.0,"id":"a64an6femuy9","geo_precision":"range","address":"1587 Benvenue Road","state":"NC"},"type":"Feature","geometry":{"type":"Point","coordinates":[-77.808727,35.980548]}},{"properties":{"city":"Conyers","zipcode":"30013","geo_score":0.947,"id":"a64an6hnupoh","geo_precision":"range","address":"1590 Dogwood Dr","state":"GA"},"type":"Feature","geometry":{"type":"Point","coordinates":[-83.999345,33.650747]}},{"properties":{"city":"Jamaica","zipcode":"11432","geo_score":0.711,"id":"a64an6nk7wjs","geo_precision":"street","address":"159-18 Jamaica Ave","state":"NY"},"type":"Feature","geometry":{"type":"Point","coordinates":[-73.793959,40.705827]}},{"properties":{"city":"Chicago","zipcode":"60622","geo_score":1.0,"id":"a64an6kcb7o1","geo_precision":"range","address":"1596 N Kingsbury St","state":"IL"},"type":"Feature","geometry":{"type":"Point","coordinates":[-87.653998,41.910766]}},{"properties":{"city":"Tuscaloosa","zipcode":"35405","geo_score":0.816,"id":"a64an6at8or9","geo_precision":"street","address":"15th St E and Mcfarland Blvd","state":"AL"},"type":"Feature","geometry":{"type":"Point","coordinates":[-87.526181,33.185525]}},{"properties":{"city":"Duluth","zipcode":"55811","geo_score":0.911,"id":"a64an6njcczb","geo_precision":"range","address":"1600 Miller Trunk Highway","state":"MN"},"type":"Feature","geometry":{"type":"Point","coordinates":[-92.160507,46.806698]}},{"properties":{"city":"San Jose","zipcode":"95129","geo_score":1.0,"id":"a64an6em5x9f","geo_precision":"range","address":"1600 Saratoga Ave","state":"CA"},"type":"Feature","geometry":{"type":"Point","coordinates":[-121.9902,37.293242]}},{"properties":{"city":"Great Falls","zipcode":"59404","geo_score":0.932,"id":"a64an6lk85ck","geo_precision":"range","address":"1601 Market Place Dr","state":"MT"},"type":"Feature","geometry":{"type":"Point","coordinates":[-111.341202,47.48254]}},{"properties":{"city":"Richmond","zipcode":"23230","geo_score":1.0,"id":"a64an6hdtgrx","geo_precision":"range","address":"1601 Willow Lawn Dr","state":"VA"},"type":"Feature","geometry":{"type":"Point","coordinates":[-77.499354,37.582336]}},{"properties":{"city":"Bloomington","zipcode":"61701","geo_score":0.929,"id":"a64an6kvlk4w","geo_precision":"range","address":"1615 E Empire St","state":"IL"},"type":"Feature","geometry":{"type":"Point","coordinates":[-88.955303,40.488156]}},{"properties":{"city":"Brentwood","zipcode":"37027","geo_score":1.0,"id":"a64an6eii0qk","geo_precision":"range","address":"1618 Service Merchandise Blvd","state":"TN"},"type":"Feature","geometry":{"type":"Point","coordinates":[-86.809449,35.96953]}},{"properties":{"city":"Birmingham","zipcode":"35235","geo_score":0.911,"id":"a64an6h0orq4","geo_precision":"range","address":"1620 Gadsden Highway","state":"AL"},"type":"Feature","geometry":{"type":"Point","coordinates":[-86.639804,33.601258]}},{"properties":{"city":"Minneapolis","zipcode":"55413","geo_score":1.0,"id":"a64an6mr5loe","geo_precision":"range","address":"1620 New Brighton Blvd","state":"MN"},"type":"Feature","geometry":{"type":"Point","coordinates":[-93.228713,45.003903]}},{"properties":{"city":"Scottsdale","zipcode":"85254","geo_score":0.61,"id":"a64an6am95hx","geo_precision":"street","address":"16215 N Scottsdale Road","state":"AZ"},"type":"Feature","geometry":{"type":"Point","coordinates":[-111.926672,33.489139]}},{"properties":{"city":"Loveland","zipcode":"80538","geo_score":0.753,"id":"a64an6am6s2v","geo_precision":"street","address":"1629 Fall River Dr","state":"CO"},"type":"Feature","geometry":{"type":"Point","coordinates":[-105.007367,40.408135]}},{"properties":{"city":"Lancaster","zipcode":"43130","geo_score":0.885,"id":"a64an6n5lv1g","geo_precision":"range","address":"1635 River Valley Circle S","state":"OH"},"type":"Feature","geometry":{"type":"Point","coordinates":[-82.629105,39.730333]}},{"properties":{"city":"Oswego","zipcode":"60543","geo_score":0.927,"id":"a64an6f1h0n0","geo_precision":"range","address":"1640 New Douglas Road","state":"IL"},"type":"Feature","geometry":{"type":"Point","coordinates":[-88.314142,41.694956]}},{"properties":{"city":"Nampa","zipcode":"83687","geo_score":0.537,"id":"a64an6duo0lk","geo_precision":"street","address":"16454 Market Place Blvd","state":"ID"},"type":"Feature","geometry":{"type":"Point","coordinates":[-116.530532,43.565746]}},{"properties":{"city":"Springfield","zipcode":"1129","geo_score":1.0,"id":"a64an6cyyjq2","geo_precision":"range","address":"1655 Boston Road","state":"MA"},"type":"Feature","geometry":{"type":"Point","coordinates":[-72.487972,42.143467]}},{"properties":{"city":"Lees Summit","zipcode":"64081","geo_score":1.0,"id":"a64an6na7m07","geo_precision":"range","address":"1656 NW Chipman Road","state":"MO"},"type":"Feature","geometry":{"type":"Point","coordinates":[-94.406759,38.926046]}},{"properties":{"city":"Lutherville","zipcode":"21093","geo_score":0.911,"id":"a64an6j2130m","geo_precision":"range","address":"170 W Ridgely Road","state":"MD"},"type":"Feature","geometry":{"type":"Point","coordinates":[-76.626292,39.428653]}},{"properties":{"city":"Valdosta","zipcode":"31601","geo_score":0.829,"id":"a64an6erspvb","geo_precision":"range","address":"1700 Norman Road","state":"GA"},"type":"Feature","geometry":{"type":"Point","coordinates":[-83.320631,30.840017]}},{"properties":{"city":"Tuscola","zipcode":"61953","geo_score":0.719,"id":"a64an6cvd7g0","geo_precision":"street","address":"1700 Tuscola Blvd","state":"IL"},"type":"Feature","geometry":{"type":"Point","coordinates":[-88.267243,39.785368]}},{"properties":{"city":"Lancaster","zipcode":"17601","geo_score":0.905,"id":"a64an6japtu4","geo_precision":"range","address":"1700-F Fruitville Pike","state":"PA"},"type":"Feature","geometry":{"type":"Point","coordinates":[-76.316334,40.068806]}},{"properties":{"city":"Sanford","zipcode":"32771","geo_score":0.769,"id":"a64an6pnvvaq","geo_precision":"range","address":"1701 Wp Ball Blvd","state":"FL"},"type":"Feature","geometry":{"type":"Point","coordinates":[-81.280315,28.79729]}},{"properties":{"city":"Omaha","zipcode":"68118","geo_score":0.805,"id":"a64an6he82v9","geo_precision":"street","address":"17101 Davenport St","state":"NE"},"type":"Feature","geometry":{"type":"Point","coordinates":[-96.169015,41.259667]}},{"properties":{"city":"Oklahoma City","zipcode":"73118","geo_score":1.0,"id":"a64an6o1fd80","geo_precision":"range","address":"1711 Belle Isle Blvd","state":"OK"},"type":"Feature","geometry":{"type":"Point","coordinates":[-97.53527,35.52545]}},{"properties":{"city":"Union Gap","zipcode":"98903","geo_score":0.803,"id":"a64an6j7iw3f","geo_precision":"range","address":"1716 E Washington Ave","state":"WA"},"type":"Feature","geometry":{"type":"Point","coordinates":[-120.478803,46.570373]}},{"properties":{"city":"Mount Pleasant","zipcode":"29464","geo_score":0.9,"id":"a64an6b6thlh","geo_precision":"range","address":"1720 Town Centre Way","state":"SC"},"type":"Feature","geometry":{"type":"Point","coordinates":[-79.826773,32.831638]}},{"properties":{"city":"Chicago","zipcode":"60614","geo_score":1.0,"id":"a64an6ngfwr3","geo_precision":"range","address":"1730 W Fullerton Ave","state":"IL"},"type":"Feature","geometry":{"type":"Point","coordinates":[-87.671843,41.925103]}},{"properties":{"city":"Hagerstown","zipcode":"21740","geo_score":0.912,"id":"a64an6exzx6v","geo_precision":"range","address":"17301 Valley Mall Road","state":"MD"},"type":"Feature","geometry":{"type":"Point","coordinates":[-77.77304,39.62168]}},{"properties":{"city":"Columbus","zipcode":"43212","geo_score":0.681,"id":"a64an6itfqvu","geo_precision":"street","address":"1731 Olentangy River Road","state":"OH"},"type":"Feature","geometry":{"type":"Point","coordinates":[-83.025866,39.998478]}},{"properties":{"city":"Fort Worth","zipcode":"76116","geo_score":0.902,"id":"a64an6joi5zu","geo_precision":"range","address":"1734 Greenoaks Road","state":"TX"},"type":"Feature","geometry":{"type":"Point","coordinates":[-97.433921,32.743206]}},{"properties":{"city":"Olean","zipcode":"14760","geo_score":0.676,"id":"a64an6pzsvsa","geo_precision":"street","address":"1743 Plaza Dr","state":"NY"},"type":"Feature","geometry":{"type":"Point","coordinates":[-78.468387,42.076768]}},{"properties":{"city":"Tukwila","zipcode":"98188","geo_score":0.902,"id":"a64an6pviktq","geo_precision":"range","address":"17470 Southcenter Parkway","state":"WA"},"type":"Feature","geometry":{"type":"Point","coordinates":[-122.262464,47.449538]}},{"properties":{"city":"San Antonio","zipcode":"78257","geo_score":0.475,"id":"a64an6piu99m","geo_precision":"street","address":"17610 la Cantera Parkway","state":"TX"},"type":"Feature","geometry":{"type":"Point","coordinates":[-98.482405,29.558626]}},{"properties":{"city":"Hanover","zipcode":"2339","geo_score":0.959,"id":"a64an6ar4z6u","geo_precision":"range","address":"1775 Washington St","state":"MA"},"type":"Feature","geometry":{"type":"Point","coordinates":[-70.845351,42.147344]}},{"properties":{"city":"Layton","zipcode":"84041","geo_score":0.961,"id":"a64an6fw6xgg","geo_precision":"range","address":"1782 Woodland Park Dr","state":"UT"},"type":"Feature","geometry":{"type":"Point","coordinates":[-111.984197,41.085047]}},{"properties":{"city":"Pittsburgh","zipcode":"15275","geo_score":0.61,"id":"a64an6a2z92m","geo_precision":"street","address":"180 Quinn Dr","state":"PA"},"type":"Feature","geometry":{"type":"Point","coordinates":[-79.921219,40.420404]}},{"properties":{"city":"Eatontown","zipcode":"7724","geo_score":0.887,"id":"a64an6b4k3fw","geo_precision":"range","address":"180 State Route 35 S","state":"NJ"},"type":"Feature","geometry":{"type":"Point","coordinates":[-74.051509,40.288719]}},{"properties":{"city":"Topeka","zipcode":"66604","geo_score":0.902,"id":"a64an6hhud2d","geo_precision":"range","address":"1801 SW Wanamaker Road","state":"KS"},"type":"Feature","geometry":{"type":"Point","coordinates":[-95.762009,39.034571]}},{"properties":{"city":"San Antonio","zipcode":"78232","geo_score":0.877,"id":"a64an6h0tsq0","geo_precision":"range","address":"18030 Us Highway 281 N","state":"TX"},"type":"Feature","geometry":{"type":"Point","coordinates":[-98.469417,29.606247]}},{"properties":{"city":"Kansas City","zipcode":"66111","geo_score":0.594,"id":"a64an6cfwp27","geo_precision":"zip","address":"1815 Village W Parkway","state":"KS"},"type":"Feature","geometry":{"type":"Point","coordinates":[-94.801629,39.062504]}},{"properties":{"city":"Algonquin","zipcode":"60102","geo_score":0.734,"id":"a64an6hv94c9","geo_precision":"street","address":"1824 S Randall Road","state":"IL"},"type":"Feature","geometry":{"type":"Point","coordinates":[-88.335415,42.175706]}},{"properties":{"city":"Strongsville","zipcode":"44136","geo_score":1.0,"id":"a64an6d9p9ql","geo_precision":"range","address":"18260 Royalton Road","state":"OH"},"type":"Feature","geometry":{"type":"Point","coordinates":[-81.828744,41.313864]}},{"properties":{"city":"Philadelphia","zipcode":"19148","geo_score":0.979,"id":"a64an6pxjtek","geo_precision":"range","address":"1851 So Columbus Blvd","state":"PA"},"type":"Feature","geometry":{"type":"Point","coordinates":[-75.143469,39.923526]}},{"properties":{"city":"Hilliard","zipcode":"43026","geo_score":0.902,"id":"a64an6btaf9y","geo_precision":"range","address":"1852 Hilliard Rome Road","state":"OH"},"type":"Feature","geometry":{"type":"Point","coordinates":[-83.151313,39.987817]}},{"properties":{"city":"Gettysburg","zipcode":"17325","geo_score":0.563,"id":"a64an6prm7ov","geo_precision":"street","address":"1863 Gettysburg Village Dr","state":"PA"},"type":"Feature","geometry":{"type":"Point","coordinates":[-77.237625,39.826651]}},{"properties":{"city":"Morrow","zipcode":"30260","geo_score":0.799,"id":"a64an6b4mtyh","geo_precision":"range","address":"1865 Mount Zion Road Suite B","state":"GA"},"type":"Feature","geometry":{"type":"Point","coordinates":[-84.329127,33.567796]}},{"properties":{"city":"Albany","zipcode":"97322","geo_score":0.935,"id":"a64an6iuqfvh","geo_precision":"range","address":"1871 14th Ave SE","state":"OR"},"type":"Feature","geometry":{"type":"Point","coordinates":[-123.082762,44.628752]}},{"properties":{"city":"Hickory","zipcode":"28602","geo_score":0.88,"id":"a64an6e7du4q","geo_precision":"range","address":"1880 Catawba Valley Blvd","state":"NC"},"type":"Feature","geometry":{"type":"Point","coordinates":[-81.305799,35.70157]}},{"properties":{"city":"Independence","zipcode":"64057","geo_score":0.89,"id":"a64an6jo5qt9","geo_precision":"range","address":"18813 E 39th St","state":"MO"},"type":"Feature","geometry":{"type":"Point","coordinates":[-94.357128,39.047948]}},{"properties":{"city":"Burlington","zipcode":"98233","geo_score":0.922,"id":"a64an6n9dplz","geo_precision":"range","address":"1883 Marketplace Dr","state":"WA"},"type":"Feature","geometry":{"type":"Point","coordinates":[-122.33818,48.449837]}},{"properties":{"city":"Mankato","zipcode":"56001","geo_score":0.902,"id":"a64an6fwju32","geo_precision":"range","address":"1901 E Madison Ave","state":"MN"},"type":"Feature","geometry":{"type":"Point","coordinates":[-93.948968,44.166877]}},{"properties":{"city":"Orange Park","zipcode":"32073","geo_score":0.932,"id":"a64an6f6d56f","geo_precision":"range","address":"1910 Wells Road","state":"FL"},"type":"Feature","geometry":{"type":"Point","coordinates":[-81.732506,30.186919]}},{"properties":{"city":"Grove City","zipcode":"16127","geo_score":0.738,"id":"a64an6ac34p5","geo_precision":"street","address":"1911 Leesburg Grove City Road","state":"PA"},"type":"Feature","geometry":{"type":"Point","coordinates":[-80.156348,41.143447]}},{"properties":{"city":"Plymouth","zipcode":"2360","geo_score":0.584,"id":"a64an6kbn88j","geo_precision":"street","address":"192 Colony Place","state":"MA"},"type":"Feature","geometry":{"type":"Point","coordinates":[-70.554039,41.916931]}},{"properties":{"city":"Harrisonburg","zipcode":"22801","geo_score":0.911,"id":"a64an6nghiin","geo_precision":"range","address":"1925 E Market St","state":"VA"},"type":"Feature","geometry":{"type":"Point","coordinates":[-78.84196,38.429552]}},{"properties":{"city":"Elizabethtown","zipcode":"42701","geo_score":0.867,"id":"a64an6bc6gan","geo_precision":"range","address":"1940 N Dixie Highway","state":"KY"},"type":"Feature","geometry":{"type":"Point","coordinates":[-85.846839,37.668188]}},{"properties":{"city":"Lynnwood","zipcode":"98036","geo_score":0.909,"id":"a64an6i6m3kp","geo_precision":"range","address":"19401 Alderwood Mall Parkway","state":"WA"},"type":"Feature","geometry":{"type":"Point","coordinates":[-122.271029,47.82296]}},{"properties":{"city":"Riverhead","zipcode":"11901","geo_score":0.957,"id":"a64an6e21iwk","geo_precision":"range","address":"1947 Old Country Road","state":"NY"},"type":"Feature","geometry":{"type":"Point","coordinates":[-72.718814,40.922681]}},{"properties":{"city":"Phoenix","zipcode":"85016","geo_score":1.0,"id":"a64an6phf9ol","geo_precision":"range","address":"1949 E Camelback Road","state":"AZ"},"type":"Feature","geometry":{"type":"Point","coordinates":[-112.041773,33.509231]}},{"properties":{"city":"Lexington","zipcode":"40509","geo_score":0.976,"id":"a64an69rsh48","geo_precision":"range","address":"1960 Pavillion Way","state":"KY"},"type":"Feature","geometry":{"type":"Point","coordinates":[-84.417596,38.023398]}},{"properties":{"city":"McLean","zipcode":"22102","geo_score":0.932,"id":"a64an6othy55","geo_precision":"range","address":"1961 Chain Bridge Road","state":"VA"},"type":"Feature","geometry":{"type":"Point","coordinates":[-77.226226,38.919716]}},{"properties":{"city":"Concord","zipcode":"94520","geo_score":0.93,"id":"a64an6drk3bc","geo_precision":"range","address":"1975 Diamond Blvd","state":"CA"},"type":"Feature","geometry":{"type":"Point","coordinates":[-122.054635,37.970078]}},{"properties":{"city":"Newport","zipcode":"2840","geo_score":0.965,"id":"a64an6bbxi3g","geo_precision":"range","address":"199 Connell Highway","state":"RI"},"type":"Feature","geometry":{"type":"Point","coordinates":[-71.317697,41.50842]}},{"properties":{"city":"Arden","zipcode":"28704","geo_score":0.717,"id":"a64an6kwgwe8","geo_precision":"range","address":"2 Mckenna Road","state":"NC"},"type":"Feature","geometry":{"type":"Point","coordinates":[-82.05861,35.92923]}},{"properties":{"city":"Lake Saint Louis","zipcode":"63367","geo_score":0.575,"id":"a64an6mhobnm","geo_precision":"range","address":"2 Meadows Circle Dr","state":"MO"},"type":"Feature","geometry":{"type":"Point","coordinates":[-90.793312,38.791725]}},{"properties":{"city":"Westminster","zipcode":"21157","geo_score":0.929,"id":"a64an6he4vz4","geo_precision":"range","address":"200 Clifton Blvd","state":"MD"},"type":"Feature","geometry":{"type":"Point","coordinates":[-76.988765,39.584533]}},{"properties":{"city":"Lawrenceville","zipcode":"8648","geo_score":0.917,"id":"a64an6pu93l7","geo_precision":"range","address":"200 Quakerbridge Mall","state":"NJ"},"type":"Feature","geometry":{"type":"Point","coordinates":[-74.685297,40.289695]}},{"properties":{"city":"South Portland","zipcode":"4106","geo_score":0.878,"id":"a64an6bqyhi0","geo_precision":"range","address":"200 Running Hill Road","state":"ME"},"type":"Feature","geometry":{"type":"Point","coordinates":[-70.339981,43.638445]}},{"properties":{"city":"Brockton","zipcode":"2301","geo_score":1.0,"id":"a64an6hi3qs2","geo_precision":"range","address":"200 Westgate Dr","state":"MA"},"type":"Feature","geometry":{"type":"Point","coordinates":[-71.050269,42.094377]}},{"properties":{"city":"Akron","zipcode":"44310","geo_score":0.683,"id":"a64an6py8xc4","geo_precision":"zip","address":"2000 Brittian Road","state":"OH"},"type":"Feature","geometry":{"type":"Point","coordinates":[-81.498182,41.105505]}},{"properties":{"city":"Myrtle Beach","zipcode":"29577","geo_score":0.611,"id":"a64an6hc2h1f","geo_precision":"street","address":"2000 Coastal Grand Circle","state":"SC"},"type":"Feature","geometry":{"type":"Point","coordinates":[-78.89063,33.711698]}},{"properties":{"city":"Poughkeepsie","zipcode":"12601","geo_score":0.465,"id":"a64an6jo7khb","geo_precision":"street","address":"2001 S Road","state":"NY"},"type":"Feature","geometry":{"type":"Point","coordinates":[-73.93685,41.695153]}},{"properties":{"city":"Harker Heights","zipcode":"76548","geo_score":0.902,"id":"a64an6k4y938","geo_precision":"street","address":"201 E Central Texas Expressway","state":"TX"},"type":"Feature","geometry":{"type":"Point","coordinates":[-97.666527,31.071453]}},{"properties":{"city":"Selden","zipcode":"11784","geo_score":1.0,"id":"a64an6ci30mb","geo_precision":"range","address":"201 Independence Plaza","state":"NY"},"type":"Feature","geometry":{"type":"Point","coordinates":[-73.051192,40.863353]}},{"properties":{"city":"Twin Falls","zipcode":"83301","geo_score":0.713,"id":"a64an6fh48xa","geo_precision":"street","address":"2030 Bridgeview Blvd","state":"ID"},"type":"Feature","geometry":{"type":"Point","coordinates":[-114.45515,42.596675]}},{"properties":{"city":"Township of Cranberry","zipcode":"16066","geo_score":0.827,"id":"a64an6ko3n54","geo_precision":"range","address":"20418 Route 19","state":"PA"},"type":"Feature","geometry":{"type":"Point","coordinates":[-80.104486,40.699746]}},{"properties":{"city":"Snellville","zipcode":"30078","geo_score":0.688,"id":"a64an6pwcw88","geo_precision":"street","address":"2059 Scenic Highway N","state":"GA"},"type":"Feature","geometry":{"type":"Point","coordinates":[-84.02358,33.849976]}},{"properties":{"city":"Waterloo","zipcode":"50702","geo_score":1.0,"id":"a64an6iuut8w","geo_precision":"range","address":"2060 Crossroads Blvd","state":"IA"},"type":"Feature","geometry":{"type":"Point","coordinates":[-92.319614,42.464056]}},{"properties":{"city":"Columbia","zipcode":"65203","geo_score":0.902,"id":"a64an6o9234w","geo_precision":"range","address":"207 N Stadium Blvd","state":"MO"},"type":"Feature","geometry":{"type":"Point","coordinates":[-92.37132,38.957612]}},{"properties":{"city":"Erie","zipcode":"16565","geo_score":0.805,"id":"a64an6i4rz11","geo_precision":"range","address":"2088 Interchange Road","state":"PA"},"type":"Feature","geometry":{"type":"Point","coordinates":[-80.111849,42.066086]}},{"properties":{"city":"San Mateo","zipcode":"94403","geo_score":1.0,"id":"a64an6hqwq8g","geo_precision":"range","address":"21 W Hillsdale Blvd","state":"CA"},"type":"Feature","geometry":{"type":"Point","coordinates":[-122.298132,37.536688]}},{"properties":{"city":"Barboursville","zipcode":"25504","geo_score":0.718,"id":"a64an6pjglel","geo_precision":"street","address":"210 Mall Road","state":"WV"},"type":"Feature","geometry":{"type":"Point","coordinates":[-82.262335,38.422692]}},{"properties":{"city":"Cherry Hill","zipcode":"8002","geo_score":0.644,"id":"a64an6jc4qcj","geo_precision":"street","address":"2100 Route 38","state":"NJ"},"type":"Feature","geometry":{"type":"Point","coordinates":[-75.02785,39.9385]}},{"properties":{"city":"Phoenix","zipcode":"85050","geo_score":1.0,"id":"a64an6mqpcv2","geo_precision":"range","address":"21001 N Tatum Blvd","state":"AZ"},"type":"Feature","geometry":{"type":"Point","coordinates":[-111.97735,33.678771]}},{"properties":{"city":"Sterling","zipcode":"20166","geo_score":1.0,"id":"a64an6lvm5yk","geo_precision":"range","address":"21100 Dulles Town Circle","state":"VA"},"type":"Feature","geometry":{"type":"Point","coordinates":[-77.426041,39.03046]}},{"properties":{"city":"Tampa","zipcode":"33612","geo_score":0.925,"id":"a64an6kumm0t","geo_precision":"range","address":"2112 E Fowler Ave","state":"FL"},"type":"Feature","geometry":{"type":"Point","coordinates":[-82.435848,28.054499]}},{"properties":{"city":"Holmdel","zipcode":"7733","geo_score":1.0,"id":"a64an6mx4ekg","geo_precision":"range","address":"2130 State Route 35","state":"NJ"},"type":"Feature","geometry":{"type":"Point","coordinates":[-74.141797,40.411805]}},{"properties":{"city":"Oak Brook","zipcode":"60523","geo_score":0.916,"id":"a64an6fitphk","geo_precision":"range","address":"2155 W 22nd St","state":"IL"},"type":"Feature","geometry":{"type":"Point","coordinates":[-87.972023,41.846234]}},{"properties":{"city":"Merrillville","zipcode":"46410","geo_score":0.84,"id":"a64an6ip2vex","geo_precision":"range","address":"2164 E 80th Ave","state":"IN"},"type":"Feature","geometry":{"type":"Point","coordinates":[-87.309958,41.473056]}},{"properties":{"city":"Mansfield","zipcode":"44906","geo_score":0.633,"id":"a64an6dif16j","geo_precision":"street","address":"2166 W 4th St","state":"OH"},"type":"Feature","geometry":{"type":"Point","coordinates":[-82.597242,40.773527]}},{"properties":{"city":"Stamford","zipcode":"6905","geo_score":0.902,"id":"a64an6eg19mv","geo_precision":"range","address":"2175 Summer St","state":"CT"},"type":"Feature","geometry":{"type":"Point","coordinates":[-73.545196,41.06658]}},{"properties":{"city":"Knoxville","zipcode":"37919","geo_score":0.917,"id":"a64an6n5bzrr","geo_precision":"range","address":"218 Morrell Road","state":"TN"},"type":"Feature","geometry":{"type":"Point","coordinates":[-84.034875,35.926272]}},{"properties":{"city":"Watertown","zipcode":"13601","geo_score":0.503,"id":"a64an6k0iitq","geo_precision":"street","address":"21847 Town Center Road","state":"NY"},"type":"Feature","geometry":{"type":"Point","coordinates":[-75.847411,44.006253]}},{"properties":{"city":"Augusta","zipcode":"30909","geo_score":0.92,"id":"a64an6mabibu","geo_precision":"range","address":"219 Robert C Daniel Jr Parkway","state":"GA"},"type":"Feature","geometry":{"type":"Point","coordinates":[-82.070852,33.476285]}},{"properties":{"city":"Naperville","zipcode":"60540","geo_score":0.681,"id":"a64an6h3ikm2","geo_precision":"range","address":"220 S State Route 59","state":"IL"},"type":"Feature","geometry":{"type":"Point","coordinates":[-88.205992,41.749912]}},{"properties":{"city":"Washington","zipcode":"15301","geo_score":0.595,"id":"a64an69va9ml","geo_precision":"zip","address":"2200 Tanger Blvd","state":"PA"},"type":"Feature","geometry":{"type":"Point","coordinates":[-80.287839,40.192849]}},{"properties":{"city":"San Jose","zipcode":"95122","geo_score":0.805,"id":"a64an6gi3kpy","geo_precision":"range","address":"2200 Tully Road","state":"CA"},"type":"Feature","geometry":{"type":"Point","coordinates":[-121.81814,37.327615]}},{"properties":{"city":"Visalia","zipcode":"93277","geo_score":0.805,"id":"a64an6mj1535","geo_precision":"street","address":"2209 S Mooney Blvd","state":"CA"},"type":"Feature","geometry":{"type":"Point","coordinates":[-119.31324,36.272991]}},{"properties":{"city":"Michigan City","zipcode":"46360","geo_score":0.561,"id":"a64an6fqdmxd","geo_precision":"street","address":"221 Lighthouse Place","state":"IN"},"type":"Feature","geometry":{"type":"Point","coordinates":[-87.157305,41.555771]}},{"properties":{"city":"Oklahoma City","zipcode":"73134","geo_score":0.947,"id":"a64an6jl6xmw","geo_precision":"range","address":"2210 W Memorial Dr","state":"OK"},"type":"Feature","geometry":{"type":"Point","coordinates":[-97.550248,35.608513]}},{"properties":{"city":"Alameda","zipcode":"94501","geo_score":0.616,"id":"a64an6hunlyo","geo_precision":"street","address":"2212-A S Shore Centre","state":"CA"},"type":"Feature","geometry":{"type":"Point","coordinates":[-122.252974,37.760211]}},{"properties":{"city":"Fairfield","zipcode":"6825","geo_score":0.43,"id":"a64an6cy3arn","geo_precision":"street","address":"2215 Black Rock Turnpike","state":"CT"},"type":"Feature","geometry":{"type":"Point","coordinates":[-72.826293,41.304092]}},{"properties":{"city":"Chattanooga","zipcode":"37421","geo_score":0.851,"id":"a64an6liu2dd","geo_precision":"range","address":"2220 Hamilton Place Blvd","state":"TN"},"type":"Feature","geometry":{"type":"Point","coordinates":[-85.155123,35.04058]}},{"properties":{"city":"Cumming","zipcode":"30041","geo_score":0.747,"id":"a64an6mdcpwh","geo_precision":"street","address":"2255 Market Place Blvd","state":"GA"},"type":"Feature","geometry":{"type":"Point","coordinates":[-84.128631,34.1879]}},{"properties":{"city":"Duluth","zipcode":"30096","geo_score":0.902,"id":"a64an6pe5b35","geo_precision":"range","address":"2255 Pleasant Hill Road","state":"GA"},"type":"Feature","geometry":{"type":"Point","coordinates":[-84.135659,33.960845]}},{"properties":{"city":"Salina","zipcode":"67402","geo_score":0.707,"id":"a64an6kjp9ag","geo_precision":"range","address":"2259 S 9th St","state":"KS"},"type":"Feature","geometry":{"type":"Point","coordinates":[-97.612682,38.802465]}},{"properties":{"city":"Opelika","zipcode":"36801","geo_score":0.612,"id":"a64an6em3vi1","geo_precision":"zip","address":"2263 Tigertown Parkway","state":"AL"},"type":"Feature","geometry":{"type":"Point","coordinates":[-85.445225,32.42653]}},{"properties":{"city":"Viera","zipcode":"32940","geo_score":0.561,"id":"a64an6j6itoe","geo_precision":"street","address":"2281 Town Center Ave","state":"FL"},"type":"Feature","geometry":{"type":"Point","coordinates":[-80.66381,28.19373]}},{"properties":{"city":"Madison","zipcode":"37115","geo_score":0.915,"id":"a64an6nh6uf7","geo_precision":"range","address":"2295 Gallatin Pike N","state":"TN"},"type":"Feature","geometry":{"type":"Point","coordinates":[-86.684,36.307723]}},{"properties":{"city":"Flowood","zipcode":"39232","geo_score":0.837,"id":"a64an6jwfekc","geo_precision":"range","address":"230 Dogwood Blvd","state":"MS"},"type":"Feature","geometry":{"type":"Point","coordinates":[-90.053948,32.339406]}},{"properties":{"city":"Hanford","zipcode":"93230","geo_score":0.622,"id":"a64an6i4l0mr","geo_precision":"street","address":"230 N 12th Ave","state":"CA"},"type":"Feature","geometry":{"type":"Point","coordinates":[-119.673011,36.313421]}},{"properties":{"city":"Idaho Falls","zipcode":"83404","geo_score":0.916,"id":"a64an6iqd01l","geo_precision":"range","address":"2300 E 17th St","state":"ID"},"type":"Feature","geometry":{"type":"Point","coordinates":[-111.987851,43.482108]}},{"properties":{"city":"Tampa","zipcode":"33609","geo_score":1.0,"id":"a64an6ai7d36","geo_precision":"range","address":"231 Westshore PLZ","state":"FL"},"type":"Feature","geometry":{"type":"Point","coordinates":[-82.527314,27.945914]}},{"properties":{"city":"Vestal","zipcode":"13850","geo_score":0.902,"id":"a64an6haakhw","geo_precision":"range","address":"2317 Vestal Parkway E","state":"NY"},"type":"Feature","geometry":{"type":"Point","coordinates":[-76.015336,42.094051]}},{"properties":{"city":"Manteca","zipcode":"95337","geo_score":0.805,"id":"a64an6mghuet","geo_precision":"street","address":"2320 Daniels St","state":"CA"},"type":"Feature","geometry":{"type":"Point","coordinates":[-121.245426,37.784669]}},{"properties":{"city":"Indiana","zipcode":"15701","geo_score":0.921,"id":"a64an6frjxy9","geo_precision":"range","address":"2334 Oakland Ave","state":"PA"},"type":"Feature","geometry":{"type":"Point","coordinates":[-79.181443,40.607016]}},{"properties":{"city":"Hamden","zipcode":"6514","geo_score":0.922,"id":"a64an6eelknn","geo_precision":"range","address":"2335 Dixwell Ave","state":"CT"},"type":"Feature","geometry":{"type":"Point","coordinates":[-72.916497,41.373703]}},{"properties":{"city":"DeKalb","zipcode":"60115","geo_score":0.919,"id":"a64an6nqsvl9","geo_precision":"range","address":"2347 Sycamore Road","state":"IL"},"type":"Feature","geometry":{"type":"Point","coordinates":[-88.725295,41.952406]}},{"properties":{"city":"Madison","zipcode":"53704","geo_score":0.922,"id":"a64an6bjo2v2","geo_precision":"range","address":"2348 E Springs Dr","state":"WI"},"type":"Feature","geometry":{"type":"Point","coordinates":[-89.294388,43.129404]}},{"properties":{"city":"Clearwater","zipcode":"33765","geo_score":0.963,"id":"a64an6ctpl2j","geo_precision":"range","address":"23672 Us Highway 19 N","state":"FL"},"type":"Feature","geometry":{"type":"Point","coordinates":[-82.729634,27.986998]}},{"properties":{"city":"Chicago Ridge","zipcode":"60415","geo_score":0.902,"id":"a64an69m2ljr","geo_precision":"range","address":"238 Commons Dr","state":"IL"},"type":"Feature","geometry":{"type":"Point","coordinates":[-87.780568,41.710137]}},{"properties":{"city":"Carlisle","zipcode":"17013","geo_score":0.721,"id":"a64an6ftnuwz","geo_precision":"street","address":"238 Westminster Dr","state":"PA"},"type":"Feature","geometry":{"type":"Point","coordinates":[-77.16129,40.190431]}},{"properties":{"city":"Madison","zipcode":"53717","geo_score":1.0,"id":"a64an6a0rpfv","geo_precision":"range","address":"239 Junction Road","state":"WI"},"type":"Feature","geometry":{"type":"Point","coordinates":[-89.525129,43.073249]}},{"properties":{"city":"Bridgeport","zipcode":"26330","geo_score":0.595,"id":"a64an6c9n5dx","geo_precision":"zip","address":"2399 Meadowbrook Road","state":"WV"},"type":"Feature","geometry":{"type":"Point","coordinates":[-80.271197,39.363977]}},{"properties":{"city":"Minot","zipcode":"58701","geo_score":0.837,"id":"a64an6dks3g4","geo_precision":"range","address":"2400 10th St SW","state":"ND"},"type":"Feature","geometry":{"type":"Point","coordinates":[-101.306607,48.207528]}},{"properties":{"city":"Lima","zipcode":"45805","geo_score":1.0,"id":"a64an6heg6ig","geo_precision":"range","address":"2400 Elida Road","state":"OH"},"type":"Feature","geometry":{"type":"Point","coordinates":[-84.148941,40.762759]}},{"properties":{"city":"Leesburg","zipcode":"20176","geo_score":0.955,"id":"a64an6o87e96","geo_precision":"range","address":"241 FT Evans Road NE","state":"VA"},"type":"Feature","geometry":{"type":"Point","coordinates":[-77.538211,39.110451]}},{"properties":{"city":"Lafayette","zipcode":"47905","geo_score":0.902,"id":"a64an69r5d23","geo_precision":"range","address":"2415 Sagamore Parkway S","state":"IN"},"type":"Feature","geometry":{"type":"Point","coordinates":[-86.854562,40.392874]}},{"properties":{"city":"Waco","zipcode":"76711","geo_score":0.499,"id":"a64an6e8jlkm","geo_precision":"street","address":"2416 W Loop 340","state":"TX"},"type":"Feature","geometry":{"type":"Point","coordinates":[-97.108592,31.50619]}},{"properties":{"city":"Wareham","zipcode":"2571","geo_score":0.857,"id":"a64an6imha73","geo_precision":"street","address":"2421 Cranberry Highway","state":"MA"},"type":"Feature","geometry":{"type":"Point","coordinates":[-70.739038,41.775158]}},{"properties":{"city":"Plymouth Meeting","zipcode":"19462","geo_score":0.728,"id":"a64an6j1y9ew","geo_precision":"street","address":"2440 Chemical Road","state":"PA"},"type":"Feature","geometry":{"type":"Point","coordinates":[-75.281477,40.10528]}},{"properties":{"city":"Winchester","zipcode":"22601","geo_score":0.914,"id":"a64an6kujths","geo_precision":"range","address":"2440 Pleasant Valley Road","state":"VA"},"type":"Feature","geometry":{"type":"Point","coordinates":[-78.175568,39.154542]}},{"properties":{"city":"Wichita","zipcode":"67205","geo_score":1.0,"id":"a64an6dkwxfw","geo_precision":"range","address":"2441 N Maize Road","state":"KS"},"type":"Feature","geometry":{"type":"Point","coordinates":[-97.462667,37.727135]}},{"properties":{"city":"Orem","zipcode":"84058","geo_score":1.0,"id":"a64an6gq7q69","geo_precision":"range","address":"246 W 1300 S","state":"UT"},"type":"Feature","geometry":{"type":"Point","coordinates":[-111.699602,40.273578]}},{"properties":{"city":"Dubuque","zipcode":"52002","geo_score":0.683,"id":"a64an6gq8xwv","geo_precision":"zip","address":"2465 NW Arterial","state":"IA"},"type":"Feature","geometry":{"type":"Point","coordinates":[-90.7718,42.532019]}},{"properties":{"city":"Enfield","zipcode":"6082","geo_score":0.909,"id":"a64an6dfdbbi","geo_precision":"range","address":"25 Hazard Ave","state":"CT"},"type":"Feature","geometry":{"type":"Point","coordinates":[-72.583581,41.990083]}},{"properties":{"city":"Mays Landing","zipcode":"8330","geo_score":0.594,"id":"a64an6b9y5pz","geo_precision":"zip","address":"250 Consumer Square","state":"NJ"},"type":"Feature","geometry":{"type":"Point","coordinates":[-74.778776,39.515117]}},{"properties":{"city":"Daytona Beach","zipcode":"32114","geo_score":0.977,"id":"a64an6k04mor","geo_precision":"range","address":"2500 W Internation Speedway Blvd","state":"FL"},"type":"Feature","geometry":{"type":"Point","coordinates":[-81.081516,29.177484]}},{"properties":{"city":"Phoenix","zipcode":"85027","geo_score":0.902,"id":"a64an6gjs6ec","geo_precision":"range","address":"2501 W Happy Valley Road","state":"AZ"},"type":"Feature","geometry":{"type":"Point","coordinates":[-112.113139,33.712894]}},{"properties":{"city":"Bellingham","zipcode":"2019","geo_score":0.911,"id":"a64an6g3s9b5","geo_precision":"range","address":"253 Hartford Ave","state":"MA"},"type":"Feature","geometry":{"type":"Point","coordinates":[-71.466884,42.114188]}},{"properties":{"city":"Matteson","zipcode":"60443","geo_score":0.918,"id":"a64an6ecl4ja","geo_precision":"range","address":"253 Lincoln Mall Dr","state":"IL"},"type":"Feature","geometry":{"type":"Point","coordinates":[-87.724355,41.504359]}},{"properties":{"city":"Annapolis","zipcode":"21401","geo_score":0.741,"id":"a64an6poe0wf","geo_precision":"street","address":"2532 Solomons Island Road","state":"MD"},"type":"Feature","geometry":{"type":"Point","coordinates":[-76.542727,38.971747]}},{"properties":{"city":"Willow Grove","zipcode":"19090","geo_score":0.911,"id":"a64an6n2io3y","geo_precision":"range","address":"2546 W Moreland Road","state":"PA"},"type":"Feature","geometry":{"type":"Point","coordinates":[-75.120883,40.143688]}},{"properties":{"city":"San Antonio","zipcode":"78209","geo_score":0.837,"id":"a64an6cwjo93","geo_precision":"range","address":"255 E Basse Road","state":"TX"},"type":"Feature","geometry":{"type":"Point","coordinates":[-98.479639,29.493537]}},{"properties":{"city":"Orlando","zipcode":"32803","geo_score":1.0,"id":"a64an6np7nxi","geo_precision":"range","address":"2566 E Colonial Dr","state":"FL"},"type":"Feature","geometry":{"type":"Point","coordinates":[-81.350328,28.553211]}},{"properties":{"city":"Bloomington","zipcode":"47404","geo_score":1.0,"id":"a64an6i6kw1j","geo_precision":"range","address":"260 N Gates Dr","state":"IN"},"type":"Feature","geometry":{"type":"Point","coordinates":[-86.576409,39.168448]}},{"properties":{"city":"Bend","zipcode":"97701","geo_score":0.902,"id":"a64an6mddh7w","geo_precision":"range","address":"2600 NE Highway 20","state":"OR"},"type":"Feature","geometry":{"type":"Point","coordinates":[-121.3038,44.076435]}},{"properties":{"city":"Albany","zipcode":"31707","geo_score":1.0,"id":"a64an6c2dsrm","geo_precision":"range","address":"2601 Dawson Road","state":"GA"},"type":"Feature","geometry":{"type":"Point","coordinates":[-84.21587,31.613474]}},{"properties":{"city":"Atlanta","zipcode":"30363","geo_score":0.464,"id":"a64an6loan1k","geo_precision":"street","address":"261 19th St","state":"GA"},"type":"Feature","geometry":{"type":"Point","coordinates":[-84.389094,33.794786]}},{"properties":{"city":"Swansea","zipcode":"2777","geo_score":0.927,"id":"a64an6cyw9z3","geo_precision":"range","address":"262 Swansea Mall Dr","state":"MA"},"type":"Feature","geometry":{"type":"Point","coordinates":[-71.215558,41.755849]}},{"properties":{"city":"Warner Robins","zipcode":"31093","geo_score":0.795,"id":"a64an6ihowx9","geo_precision":"range","address":"2620-A Watson Blvd","state":"GA"},"type":"Feature","geometry":{"type":"Point","coordinates":[-83.666018,32.618291]}},{"properties":{"city":"Bowling Green","zipcode":"42104","geo_score":0.902,"id":"a64an6pn226y","geo_precision":"range","address":"2625 Scottsville Road","state":"KY"},"type":"Feature","geometry":{"type":"Point","coordinates":[-86.425122,36.950402]}},{"properties":{"city":"Whitehall Township","zipcode":"18052","geo_score":0.877,"id":"a64an6co6kvd","geo_precision":"range","address":"2631 MacAurther Road","state":"PA"},"type":"Feature","geometry":{"type":"Point","coordinates":[-75.49304,40.645237]}},{"properties":{"city":"Salisbury","zipcode":"21804","geo_score":0.7,"id":"a64an6dx5r9r","geo_precision":"street","address":"2645 N Salisbury Blvd","state":"MD"},"type":"Feature","geometry":{"type":"Point","coordinates":[-75.594292,38.367592]}},{"properties":{"city":"Murfreesboro","zipcode":"37129","geo_score":0.616,"id":"a64an6eztcn9","geo_precision":"street","address":"2651 Medical Center Parkway","state":"TN"},"type":"Feature","geometry":{"type":"Point","coordinates":[-86.363545,35.858029]}},{"properties":{"city":"Staten Island","zipcode":"10314","geo_score":0.797,"id":"a64an6b51hz2","geo_precision":"range","address":"2655 Richmond Ave","state":"NY"},"type":"Feature","geometry":{"type":"Point","coordinates":[-74.168695,40.584177]}},{"properties":{"city":"Cincinnati","zipcode":"45209","geo_score":0.902,"id":"a64an6pganzl","geo_precision":"range","address":"2695 Edmondson Road","state":"OH"},"type":"Feature","geometry":{"type":"Point","coordinates":[-84.445058,39.149327]}},{"properties":{"city":"Kahului","zipcode":"96732","geo_score":1.0,"id":"a64an6lxqmkt","geo_precision":"range","address":"270 Dairy Road","state":"HI"},"type":"Feature","geometry":{"type":"Point","coordinates":[-156.455353,20.88178]}},{"properties":{"city":"Concord","zipcode":"3301","geo_score":0.805,"id":"a64an6emwqmd","geo_precision":"street","address":"270 Loudon Road","state":"NH"},"type":"Feature","geometry":{"type":"Point","coordinates":[-71.486184,43.226276]}},{"properties":{"city":"Dayton","zipcode":"45459","geo_score":0.922,"id":"a64an6h46wzr","geo_precision":"range","address":"2700 Miamisburg-Centerville Road","state":"OH"},"type":"Feature","geometry":{"type":"Point","coordinates":[-84.22009,39.636962]}},{"properties":{"city":"Woodbridge","zipcode":"22192","geo_score":0.714,"id":"a64an6kg0vjh","geo_precision":"street","address":"2700 Potomac Mills","state":"VA"},"type":"Feature","geometry":{"type":"Point","coordinates":[-77.294153,38.642829]}},{"properties":{"city":"Florence","zipcode":"29501","geo_score":0.544,"id":"a64an6l6ouz9","geo_precision":"street","address":"2701 David Mcleod Blvd","state":"SC"},"type":"Feature","geometry":{"type":"Point","coordinates":[-79.771892,34.187058]}},{"properties":{"city":"Bakersfield","zipcode":"93304","geo_score":1.0,"id":"a64an6eqlud7","geo_precision":"range","address":"2701 Ming Ave","state":"CA"},"type":"Feature","geometry":{"type":"Point","coordinates":[-119.03277,35.33946]}},{"properties":{"city":"Round Rock","zipcode":"78681","geo_score":0.902,"id":"a64an6g41kdu","geo_precision":"range","address":"2701 Parker Road","state":"TX"},"type":"Feature","geometry":{"type":"Point","coordinates":[-97.681215,30.483203]}},{"properties":{"city":"Joliet","zipcode":"60435","geo_score":0.724,"id":"a64an6cpkzh3","geo_precision":"street","address":"2711 Plainfield Road","state":"IL"},"type":"Feature","geometry":{"type":"Point","coordinates":[-88.12136,41.551729]}},{"properties":{"city":"Beavercreek","zipcode":"45431","geo_score":0.92,"id":"a64an6ek3sdn","geo_precision":"range","address":"2720 Towne Dr","state":"OH"},"type":"Feature","geometry":{"type":"Point","coordinates":[-84.050468,39.768499]}},{"properties":{"city":"Gilbert","zipcode":"85297","geo_score":0.522,"id":"a64an6m12h5j","geo_precision":"street","address":"2725 S Market St","state":"AZ"},"type":"Feature","geometry":{"type":"Point","coordinates":[-111.88408,33.276725]}},{"properties":{"city":"Reynoldsburg","zipcode":"43068","geo_score":0.919,"id":"a64an6hde7ry","geo_precision":"range","address":"2736 Brice Road","state":"OH"},"type":"Feature","geometry":{"type":"Point","coordinates":[-82.831255,39.927612]}},{"properties":{"city":"Folsom","zipcode":"95630","geo_score":0.913,"id":"a64an6exuej2","geo_precision":"range","address":"2755 E Bidwell St","state":"CA"},"type":"Feature","geometry":{"type":"Point","coordinates":[-121.153603,38.669266]}},{"properties":{"city":"Exton","zipcode":"19341","geo_score":0.927,"id":"a64an6gqr8sa","geo_precision":"range","address":"277 Main St","state":"PA"},"type":"Feature","geometry":{"type":"Point","coordinates":[-75.628471,40.023714]}},{"properties":{"city":"Foxborough","zipcode":"2035","geo_score":0.656,"id":"a64an6nu4ubl","geo_precision":"street","address":"280 Patriot Place","state":"MA"},"type":"Feature","geometry":{"type":"Point","coordinates":[-71.25308,42.095189]}},{"properties":{"city":"Billings","zipcode":"59102","geo_score":0.708,"id":"a64an6pf2io5","geo_precision":"street","address":"2800 King Ave W","state":"MT"},"type":"Feature","geometry":{"type":"Point","coordinates":[-108.566597,45.755157]}},{"properties":{"city":"Clarksville","zipcode":"37040","geo_score":0.92,"id":"a64an6otdwzc","geo_precision":"range","address":"2801 Wilma Rudolph Blvd","state":"TN"},"type":"Feature","geometry":{"type":"Point","coordinates":[-87.294574,36.586292]}},{"properties":{"city":"Springfield","zipcode":"65804","geo_score":0.932,"id":"a64an6k5hkuv","geo_precision":"range","address":"2825 S Glenstone","state":"MO"},"type":"Feature","geometry":{"type":"Point","coordinates":[-93.262522,37.16255]}},{"properties":{"city":"Bloomington","zipcode":"47401","geo_score":0.819,"id":"a64an6h2pcxh","geo_precision":"range","address":"2828 E 3rd St","state":"IN"},"type":"Feature","geometry":{"type":"Point","coordinates":[-86.496197,39.164215]}},{"properties":{"city":"Santa Clara","zipcode":"95050","geo_score":0.805,"id":"a64an6lyyffv","geo_precision":"range","address":"2855 Stevens Creek Blvd","state":"CA"},"type":"Feature","geometry":{"type":"Point","coordinates":[-121.94452,37.323359]}},{"properties":{"city":"Plainville","zipcode":"6062","geo_score":0.878,"id":"a64an6bwboa6","geo_precision":"range","address":"286 New Britain Ave","state":"CT"},"type":"Feature","geometry":{"type":"Point","coordinates":[-72.833865,41.671628]}},{"properties":{"city":"Janesville","zipcode":"53546","geo_score":1.0,"id":"a64an6l20e93","geo_precision":"range","address":"2900 Deerfield Dr","state":"WI"},"type":"Feature","geometry":{"type":"Point","coordinates":[-88.980195,42.713476]}},{"properties":{"city":"Austin","zipcode":"78746","geo_score":0.925,"id":"a64an6lndhcr","geo_precision":"range","address":"2901 S Capital of Texas Highway","state":"TX"},"type":"Feature","geometry":{"type":"Point","coordinates":[-97.810816,30.256142]}},{"properties":{"city":"Paramus","zipcode":"7652","geo_score":0.681,"id":"a64an69it8q0","geo_precision":"street","address":"299 Garden State Plaza","state":"NJ"},"type":"Feature","geometry":{"type":"Point","coordinates":[-74.088959,40.968823]}},{"properties":{"city":"West Branch","zipcode":"48661","geo_score":0.728,"id":"a64an6dcgota","geo_precision":"street","address":"2990 Cook Road","state":"MI"},"type":"Feature","geometry":{"type":"Point","coordinates":[-84.224741,44.254605]}},{"properties":{"city":"Asheville","zipcode":"28805","geo_score":0.865,"id":"a64an6helep4","geo_precision":"range","address":"3 S Tunnel Road","state":"NC"},"type":"Feature","geometry":{"type":"Point","coordinates":[-82.526225,35.584691]}},{"properties":{"city":"Flanders","zipcode":"7836","geo_score":0.922,"id":"a64an6pghgkm","geo_precision":"range","address":"30 International Dr S","state":"NJ"},"type":"Feature","geometry":{"type":"Point","coordinates":[-74.704779,40.882999]}},{"properties":{"city":"Eugene","zipcode":"97401","geo_score":0.659,"id":"a64an6dm4mda","geo_precision":"street","address":"30 Oakway Ctr","state":"OR"},"type":"Feature","geometry":{"type":"Point","coordinates":[-123.078056,44.069893]}},{"properties":{"city":"Alabaster","zipcode":"35007","geo_score":0.565,"id":"a64an6nv6v07","geo_precision":"street","address":"300 Colonial Promenade Parkway","state":"AL"},"type":"Feature","geometry":{"type":"Point","coordinates":[-86.833945,33.255131]}},{"properties":{"city":"Pennsdale","zipcode":"17756","geo_score":0.913,"id":"a64an6glf5lj","geo_precision":"range","address":"300 Lycoming Mall Circle","state":"PA"},"type":"Feature","geometry":{"type":"Point","coordinates":[-76.828383,41.243251]}},{"properties":{"city":"Township of Bridgewater","zipcode":"8807","geo_score":0.954,"id":"a64an6d35f5i","geo_precision":"range","address":"300 Promenade Blvd","state":"NJ"},"type":"Feature","geometry":{"type":"Point","coordinates":[-74.555071,40.565054]}},{"properties":{"city":"Dedham","zipcode":"2026","geo_score":0.924,"id":"a64an6kv2dvu","geo_precision":"range","address":"300 Providence Highway","state":"MA"},"type":"Feature","geometry":{"type":"Point","coordinates":[-71.216317,42.146021]}},{"properties":{"city":"Branson","zipcode":"65616","geo_score":0.913,"id":"a64an6c01jet","geo_precision":"range","address":"300 Tanger Blvd","state":"MO"},"type":"Feature","geometry":{"type":"Point","coordinates":[-93.264402,36.643852]}},{"properties":{"city":"New York City","zipcode":"10027","geo_score":0.965,"id":"a64an6pkc1we","geo_precision":"range","address":"300 W 125th St","state":"NY"},"type":"Feature","geometry":{"type":"Point","coordinates":[-73.951165,40.810173]}},{"properties":{"city":"San Mateo","zipcode":"94404","geo_score":0.912,"id":"a64an6inhrdn","geo_precision":"range","address":"3000 Bridgepointe Parkway","state":"CA"},"type":"Feature","geometry":{"type":"Point","coordinates":[-122.281794,37.562637]}},{"properties":{"city":"Greensboro","zipcode":"27408","geo_score":0.902,"id":"a64an6be1rgd","geo_precision":"range","address":"3000 Northline Ave","state":"NC"},"type":"Feature","geometry":{"type":"Point","coordinates":[-79.827685,36.086193]}},{"properties":{"city":"Oshkosh","zipcode":"54904","geo_score":0.947,"id":"a64an69i96lk","geo_precision":"range","address":"3001 S Washburn","state":"WI"},"type":"Feature","geometry":{"type":"Point","coordinates":[-88.583224,43.98343]}},{"properties":{"city":"Maplewood","zipcode":"55109","geo_score":0.805,"id":"a64an6igw4r0","geo_precision":"street","address":"3001 White Bear Ave N","state":"MN"},"type":"Feature","geometry":{"type":"Point","coordinates":[-93.023769,45.009718]}},{"properties":{"city":"Huntsville","zipcode":"35806","geo_score":0.382,"id":"a64an6ivbwkt","geo_precision":"street","address":"301 the Bridge St","state":"AL"},"type":"Feature","geometry":{"type":"Point","coordinates":[-86.627391,34.771359]}},{"properties":{"city":"Wilmington","zipcode":"19803","geo_score":0.643,"id":"a64an6dy1q9a","geo_precision":"street","address":"3020 Brandywine Parkway","state":"DE"},"type":"Feature","geometry":{"type":"Point","coordinates":[-75.540431,39.807183]}},{"properties":{"city":"Christiana","zipcode":"19702","geo_score":0.729,"id":"a64an6jfymav","geo_precision":"street","address":"303 W Main St","state":"DE"},"type":"Feature","geometry":{"type":"Point","coordinates":[-75.667362,39.667504]}},{"properties":{"city":"Center Valley","zipcode":"18034","geo_score":0.559,"id":"a64an6k4x0fi","geo_precision":"street","address":"3060 Center Valley Parkway","state":"PA"},"type":"Feature","geometry":{"type":"Point","coordinates":[-75.410798,40.548958]}},{"properties":{"city":"Saratoga Springs","zipcode":"12866","geo_score":0.74,"id":"a64an6hwk9sm","geo_precision":"range","address":"3065 Route 50","state":"NY"},"type":"Feature","geometry":{"type":"Point","coordinates":[-73.741439,43.105184]}},{"properties":{"city":"Birmingham","zipcode":"35243","geo_score":0.707,"id":"a64an6f2dtyy","geo_precision":"street","address":"309 Summit Blvd","state":"AL"},"type":"Feature","geometry":{"type":"Point","coordinates":[-86.730938,33.454152]}},{"properties":{"city":"Atlanta","zipcode":"30339","geo_score":0.967,"id":"a64an6d9pfv9","geo_precision":"range","address":"3101 Cobb Parkway","state":"GA"},"type":"Feature","geometry":{"type":"Point","coordinates":[-84.456972,33.877878]}},{"properties":{"city":"Wichita Falls","zipcode":"76308","geo_score":0.911,"id":"a64an6ky7ict","geo_precision":"range","address":"3111 Midwestern Parkway","state":"TX"},"type":"Feature","geometry":{"type":"Point","coordinates":[-98.5328,33.870493]}},{"properties":{"city":"North Bergen","zipcode":"7047","geo_score":0.92,"id":"a64an6h0n3ya","geo_precision":"range","address":"3115 Kennedy Blvd","state":"NJ"},"type":"Feature","geometry":{"type":"Point","coordinates":[-74.034146,40.774288]}},{"properties":{"city":"Gadsden","zipcode":"35903","geo_score":0.912,"id":"a64an6oxmcy2","geo_precision":"range","address":"312 E Meighan Blvd","state":"AL"},"type":"Feature","geometry":{"type":"Point","coordinates":[-85.989231,34.010023]}},{"properties":{"city":"Plainfield","zipcode":"46168","geo_score":0.661,"id":"a64an6l93a1t","geo_precision":"range","address":"313 Metropolis Mile","state":"IN"},"type":"Feature","geometry":{"type":"Point","coordinates":[-86.402928,39.700213]}},{"properties":{"city":"Mohegan Lake","zipcode":"10547","geo_score":0.878,"id":"a64an69n1z56","geo_precision":"range","address":"3131 E Main St","state":"NY"},"type":"Feature","geometry":{"type":"Point","coordinates":[-73.849925,41.325643]}},{"properties":{"city":"Farmington Hills","zipcode":"48334","geo_score":0.967,"id":"a64an6nfwhwk","geo_precision":"range","address":"31365 Orchard Lake Road","state":"MI"},"type":"Feature","geometry":{"type":"Point","coordinates":[-83.36011,42.528146]}},{"properties":{"city":"Donelson","zipcode":"37214","geo_score":0.919,"id":"a64an6c1836e","geo_precision":"range","address":"3137 Lebanon Pike","state":"TN"},"type":"Feature","geometry":{"type":"Point","coordinates":[-86.639966,36.183108]}},{"properties":{"city":"Westbrook","zipcode":"6498","geo_score":1.0,"id":"a64an6jgu03r","geo_precision":"range","address":"314 Flat Rock Place","state":"CT"},"type":"Feature","geometry":{"type":"Point","coordinates":[-72.439163,41.289557]}},{"properties":{"city":"Jensen Beach","zipcode":"34957","geo_score":1.0,"id":"a64an6f7xq5l","geo_precision":"range","address":"3174 NW Federal Highway","state":"FL"},"type":"Feature","geometry":{"type":"Point","coordinates":[-80.270391,27.240345]}},{"properties":{"city":"Lakewood","zipcode":"14750","geo_score":0.92,"id":"a64an6eyidab","geo_precision":"range","address":"318 E Fairmount Ave","state":"NY"},"type":"Feature","geometry":{"type":"Point","coordinates":[-79.302664,42.099154]}},{"properties":{"city":"Hot Springs","zipcode":"71913","geo_score":0.912,"id":"a64an6bzrtx7","geo_precision":"range","address":"321 Cornerstone Blvd","state":"AR"},"type":"Feature","geometry":{"type":"Point","coordinates":[-93.058562,34.460748]}},{"properties":{"city":"Columbia","zipcode":"29229","geo_score":0.384,"id":"a64an6l5j5d4","geo_precision":"street","address":"321-8 Forum Dr","state":"SC"},"type":"Feature","geometry":{"type":"Point","coordinates":[-80.885616,34.130725]}},{"properties":{"city":"Roseville","zipcode":"48066","geo_score":1.0,"id":"a64an6pa1em1","geo_precision":"range","address":"32387 Gratiot Ave","state":"MI"},"type":"Feature","geometry":{"type":"Point","coordinates":[-82.912452,42.535748]}},{"properties":{"city":"Greenville","zipcode":"29609","geo_score":1.0,"id":"a64an6farwxt","geo_precision":"range","address":"3251 N Pleasantburg Dr","state":"SC"},"type":"Feature","geometry":{"type":"Point","coordinates":[-82.402226,34.890915]}},{"properties":{"city":"Kissimmee","zipcode":"34741","geo_score":1.0,"id":"a64an6axg8i0","geo_precision":"range","address":"3256 N John Young Parkway","state":"FL"},"type":"Feature","geometry":{"type":"Point","coordinates":[-81.419673,28.346443]}},{"properties":{"city":"Allen Park","zipcode":"48101","geo_score":0.806,"id":"a64an6c3i5dx","geo_precision":"street","address":"3260 Fairlane Dr","state":"MI"},"type":"Feature","geometry":{"type":"Point","coordinates":[-83.195732,42.295711]}},{"properties":{"city":"Springfield","zipcode":"62704","geo_score":0.721,"id":"a64an6kk4o1a","geo_precision":"street","address":"3261 S Veterans Parkway","state":"IL"},"type":"Feature","geometry":{"type":"Point","coordinates":[-89.706094,39.75529]}},{"properties":{"city":"North Wales","zipcode":"19454","geo_score":0.922,"id":"a64an6gnxy3q","geo_precision":"range","address":"33 Airport Square","state":"PA"},"type":"Feature","geometry":{"type":"Point","coordinates":[-75.241715,40.239345]}},{"properties":{"city":"Cary","zipcode":"27511","geo_score":0.902,"id":"a64an6m1uehi","geo_precision":"range","address":"330 Crossroads Blvd","state":"NC"},"type":"Feature","geometry":{"type":"Point","coordinates":[-78.737688,35.760564]}},{"properties":{"city":"Winston-Salem","zipcode":"27103","geo_score":0.716,"id":"a64an6ilb4vf","geo_precision":"street","address":"3320 Silas Creek Parkway","state":"NC"},"type":"Feature","geometry":{"type":"Point","coordinates":[-80.258096,36.066033]}},{"properties":{"city":"Enid","zipcode":"73703","geo_score":1.0,"id":"a64an6dmwq6g","geo_precision":"range","address":"3326 W Owen K Garriott Road","state":"OK"},"type":"Feature","geometry":{"type":"Point","coordinates":[-97.920019,36.390816]}},{"properties":{"city":"Buford","zipcode":"30519","geo_score":0.878,"id":"a64an6ltxmwk","geo_precision":"range","address":"3333 Buford Dr","state":"GA"},"type":"Feature","geometry":{"type":"Point","coordinates":[-83.984715,34.07898]}},{"properties":{"city":"Terre Haute","zipcode":"47802","geo_score":0.866,"id":"a64an6a3jm2n","geo_precision":"range","address":"3360 Us Highway 41 S","state":"IN"},"type":"Feature","geometry":{"type":"Point","coordinates":[-87.415989,39.424915]}},{"properties":{"city":"Winter Garden","zipcode":"34787","geo_score":0.805,"id":"a64an6n9tu1d","geo_precision":"street","address":"3361 Daniels Road","state":"FL"},"type":"Feature","geometry":{"type":"Point","coordinates":[-81.583495,28.54748]}},{"properties":{"city":"Norman","zipcode":"73072","geo_score":0.878,"id":"a64an6mm18s4","geo_precision":"range","address":"3367 W Main St","state":"OK"},"type":"Feature","geometry":{"type":"Point","coordinates":[-97.491227,35.21832]}},{"properties":{"city":"Saginaw","zipcode":"48604","geo_score":0.585,"id":"a64an6n1p6ny","geo_precision":"zip","address":"3385 Tittawabassee Road","state":"MI"},"type":"Feature","geometry":{"type":"Point","coordinates":[-83.920529,43.476414]}},{"properties":{"city":"Hadley","zipcode":"1035","geo_score":0.956,"id":"a64an6a9vj90","geo_precision":"range","address":"339 Russell St","state":"MA"},"type":"Feature","geometry":{"type":"Point","coordinates":[-72.553061,42.356645]}},{"properties":{"city":"Cleveland","zipcode":"44109","geo_score":0.683,"id":"a64an6hc6p69","geo_precision":"zip","address":"3399 Steelyard Dr","state":"OH"},"type":"Feature","geometry":{"type":"Point","coordinates":[-81.698483,41.445963]}},{"properties":{"city":"Bronx","zipcode":"10475","geo_score":0.912,"id":"a64an6ij2eyv","geo_precision":"range","address":"340 Baychester Ave","state":"NY"},"type":"Feature","geometry":{"type":"Point","coordinates":[-73.831131,40.867668]}},{"properties":{"city":"Meridian","zipcode":"83642","geo_score":0.927,"id":"a64an6kg5t99","geo_precision":"range","address":"3401 E Fairview","state":"ID"},"type":"Feature","geometry":{"type":"Point","coordinates":[-116.352468,43.619489]}},{"properties":{"city":"DeWitt","zipcode":"13214","geo_score":1.0,"id":"a64an6o03x09","geo_precision":"range","address":"3401 Erie Blvd E","state":"NY"},"type":"Feature","geometry":{"type":"Point","coordinates":[-76.070315,43.048038]}},{"properties":{"city":"Long Island City","zipcode":"11101","geo_score":0.805,"id":"a64an6e2drv2","geo_precision":"range","address":"34-03 48th St","state":"NY"},"type":"Feature","geometry":{"type":"Point","coordinates":[-73.914804,40.752894]}},{"properties":{"city":"Northglenn","zipcode":"80234","geo_score":0.912,"id":"a64an6ozp8oh","geo_precision":"range","address":"341 W 104th Ave","state":"CO"},"type":"Feature","geometry":{"type":"Point","coordinates":[-104.992019,39.885278]}},{"properties":{"city":"Memphis","zipcode":"38111","geo_score":0.902,"id":"a64an6lbe8j4","geo_precision":"range","address":"3440 Poplar Ave","state":"TN"},"type":"Feature","geometry":{"type":"Point","coordinates":[-89.947428,35.128297]}},{"properties":{"city":"Cedar Rapids","zipcode":"52402","geo_score":1.0,"id":"a64an6o89cbw","geo_precision":"range","address":"345 Collins Road NE","state":"IA"},"type":"Feature","geometry":{"type":"Point","coordinates":[-91.634749,42.02801]}},{"properties":{"city":"Bloomingdale","zipcode":"60108","geo_score":0.951,"id":"a64an6dtwy8i","geo_precision":"range","address":"346 W Army Trail Road","state":"IL"},"type":"Feature","geometry":{"type":"Point","coordinates":[-88.109235,41.939229]}},{"properties":{"city":"Salt Lake City","zipcode":"84106","geo_score":0.551,"id":"a64an6hm2v9m","geo_precision":"street","address":"35 N Rio Grande","state":"UT"},"type":"Feature","geometry":{"type":"Point","coordinates":[-111.904093,40.764938]}},{"properties":{"city":"Chicago","zipcode":"60602","geo_score":1.0,"id":"a64an6i0zrf3","geo_precision":"range","address":"35 N State St","state":"IL"},"type":"Feature","geometry":{"type":"Point","coordinates":[-87.627856,41.882725]}},{"properties":{"city":"Hyattsville","zipcode":"20782","geo_score":0.592,"id":"a64an6fphv4r","geo_precision":"zip","address":"3500 E W Highway","state":"MD"},"type":"Feature","geometry":{"type":"Point","coordinates":[-76.941919,38.970388]}},{"properties":{"city":"Dothan","zipcode":"36303","geo_score":0.79,"id":"a64an6f8fjia","geo_precision":"range","address":"3500 Ross Clark Circle","state":"AL"},"type":"Feature","geometry":{"type":"Point","coordinates":[-85.428475,31.245486]}},{"properties":{"city":"Puyallup","zipcode":"98373","geo_score":0.494,"id":"a64an6ixuvc5","geo_precision":"street","address":"3500 So. Meridian","state":"WA"},"type":"Feature","geometry":{"type":"Point","coordinates":[-122.293275,47.165631]}},{"properties":{"city":"Hamilton","zipcode":"45011","geo_score":0.726,"id":"a64an6aii2cn","geo_precision":"street","address":"3505 Princeton Road","state":"OH"},"type":"Feature","geometry":{"type":"Point","coordinates":[-84.495953,39.390291]}},{"properties":{"city":"Camp Hill","zipcode":"17011","geo_score":0.775,"id":"a64an6apeh3c","geo_precision":"street","address":"3507 Capital City Mall Dr","state":"PA"},"type":"Feature","geometry":{"type":"Point","coordinates":[-76.932344,40.225988]}},{"properties":{"city":"York","zipcode":"17404","geo_score":0.913,"id":"a64an6h3ldpy","geo_precision":"range","address":"351 Loucks Road","state":"PA"},"type":"Feature","geometry":{"type":"Point","coordinates":[-76.740025,39.983535]}},{"properties":{"city":"Wilmington","zipcode":"28403","geo_score":0.92,"id":"a64an6bjshgi","geo_precision":"range","address":"352 S College Road","state":"NC"},"type":"Feature","geometry":{"type":"Point","coordinates":[-77.874185,34.234716]}},{"properties":{"city":"Ann Arbor","zipcode":"48104","geo_score":1.0,"id":"a64an6acsux0","geo_precision":"range","address":"3533 Washtenaw Ave","state":"MI"},"type":"Feature","geometry":{"type":"Point","coordinates":[-83.689947,42.25565]}},{"properties":{"city":"Jefferson City","zipcode":"65109","geo_score":1.0,"id":"a64an6fjfdyl","geo_precision":"range","address":"3535 Missouri Blvd","state":"MO"},"type":"Feature","geometry":{"type":"Point","coordinates":[-92.221166,38.582171]}},{"properties":{"city":"Blasdell","zipcode":"14219","geo_score":1.0,"id":"a64an69x7xpt","geo_precision":"range","address":"3540 Mckinley Parkway","state":"NY"},"type":"Feature","geometry":{"type":"Point","coordinates":[-78.811106,42.788647]}},{"properties":{"city":"Levittown","zipcode":"11756","geo_score":0.913,"id":"a64an6b2d1y1","geo_precision":"range","address":"3561 Hempstead Turnpike","state":"NY"},"type":"Feature","geometry":{"type":"Point","coordinates":[-73.50556,40.725554]}},{"properties":{"city":"Sacramento","zipcode":"95834","geo_score":0.902,"id":"a64an6hgmyvx","geo_precision":"range","address":"3581 N Freeway Blvd","state":"CA"},"type":"Feature","geometry":{"type":"Point","coordinates":[-121.480797,38.640858]}},{"properties":{"city":"Avon","zipcode":"44011","geo_score":1.0,"id":"a64an6gw0poy","geo_precision":"range","address":"35852 Detroit Road","state":"OH"},"type":"Feature","geometry":{"type":"Point","coordinates":[-82.015771,41.458587]}},{"properties":{"city":"Abilene","zipcode":"79606","geo_score":1.0,"id":"a64an6p34pi7","geo_precision":"range","address":"3601 Catclaw Dr","state":"TX"},"type":"Feature","geometry":{"type":"Point","coordinates":[-99.776922,32.408051]}},{"properties":{"city":"Alexandria","zipcode":"22305","geo_score":1.0,"id":"a64an6j8ksnn","geo_precision":"range","address":"3621 Jefferson Davis Highway","state":"VA"},"type":"Feature","geometry":{"type":"Point","coordinates":[-77.051883,38.837288]}},{"properties":{"city":"Columbus","zipcode":"43235","geo_score":1.0,"id":"a64an6lvyu2g","geo_precision":"range","address":"3636 W Dublin Granville Road","state":"OH"},"type":"Feature","geometry":{"type":"Point","coordinates":[-83.086958,40.09457]}},{"properties":{"city":"Wausau","zipcode":"54401","geo_score":0.902,"id":"a64an6pbbjnp","geo_precision":"range","address":"3651 Rib Mountain Dr","state":"WI"},"type":"Feature","geometry":{"type":"Point","coordinates":[-89.653108,44.923655]}},{"properties":{"city":"Athens","zipcode":"30606","geo_score":1.0,"id":"a64an6jf19nk","geo_precision":"range","address":"3660 Atlanta Highway","state":"GA"},"type":"Feature","geometry":{"type":"Point","coordinates":[-83.462031,33.939679]}},{"properties":{"city":"East Point","zipcode":"30344","geo_score":0.683,"id":"a64an6djkvxc","geo_precision":"zip","address":"3664 Marketplace Blvd","state":"GA"},"type":"Feature","geometry":{"type":"Point","coordinates":[-84.439372,33.679553]}},{"properties":{"city":"Grand Rapids","zipcode":"49512","geo_score":0.82,"id":"a64an6ortitl","geo_precision":"range","address":"3665 28th St SE Suite 8a","state":"MI"},"type":"Feature","geometry":{"type":"Point","coordinates":[-85.577841,42.912522]}},{"properties":{"city":"Rehoboth Beach","zipcode":"19971","geo_score":0.535,"id":"a64an6mv47jw","geo_precision":"street","address":"36698 Bayside Outlet Dr","state":"DE"},"type":"Feature","geometry":{"type":"Point","coordinates":[-75.072919,38.683243]}},{"properties":{"city":"Fresno","zipcode":"93711","geo_score":1.0,"id":"a64an6ah0v99","geo_precision":"range","address":"3675 W Shaw Ave","state":"CA"},"type":"Feature","geometry":{"type":"Point","coordinates":[-119.858768,36.808278]}},{"properties":{"city":"Cincinnati","zipcode":"45251","geo_score":0.61,"id":"a64an6j0sj3z","geo_precision":"street","address":"3687 Stone Creeek Blvd","state":"OH"},"type":"Feature","geometry":{"type":"Point","coordinates":[-84.613014,39.304497]}},{"properties":{"city":"Columbus","zipcode":"43219","geo_score":1.0,"id":"a64an6ba61z9","geo_precision":"range","address":"3690 Easton Market","state":"OH"},"type":"Feature","geometry":{"type":"Point","coordinates":[-82.92268,40.051363]}},{"properties":{"city":"Gastonia","zipcode":"28056","geo_score":0.878,"id":"a64an6lej5bs","geo_precision":"range","address":"3692 E Franklin Blvd","state":"NC"},"type":"Feature","geometry":{"type":"Point","coordinates":[-81.117034,35.257797]}},{"properties":{"city":"Smithfield","zipcode":"2917","geo_score":0.746,"id":"a64an6li7gch","geo_precision":"street","address":"371 Putnam Pike","state":"RI"},"type":"Feature","geometry":{"type":"Point","coordinates":[-71.522911,41.870186]}},{"properties":{"city":"Freehold","zipcode":"7728","geo_score":0.911,"id":"a64an6mwoo08","geo_precision":"range","address":"3710 Us Highway 9","state":"NJ"},"type":"Feature","geometry":{"type":"Point","coordinates":[-74.285532,40.249755]}},{"properties":{"city":"Kittery","zipcode":"3904","geo_score":0.771,"id":"a64an6f5mszv","geo_precision":"range","address":"375 Us Route 1","state":"ME"},"type":"Feature","geometry":{"type":"Point","coordinates":[-70.726596,43.117343]}},{"properties":{"city":"Cookeville","zipcode":"38501","geo_score":0.922,"id":"a64an6hoysto","geo_precision":"range","address":"377 W Jackson St","state":"TN"},"type":"Feature","geometry":{"type":"Point","coordinates":[-85.5143,36.154607]}},{"properties":{"city":"Youngstown","zipcode":"44512","geo_score":0.922,"id":"a64an6ab4wiq","geo_precision":"range","address":"377a Boardman Poland Road","state":"OH"},"type":"Feature","geometry":{"type":"Point","coordinates":[-80.651179,41.024321]}},{"properties":{"city":"Des Moines","zipcode":"50310","geo_score":1.0,"id":"a64an6j6e9pm","geo_precision":"range","address":"3800 Merle Hay Road","state":"IA"},"type":"Feature","geometry":{"type":"Point","coordinates":[-93.697867,41.629403]}},{"properties":{"city":"Lakeland","zipcode":"33809","geo_score":0.77,"id":"a64an6a3txvr","geo_precision":"street","address":"3800 Us Highway 98 N","state":"FL"},"type":"Feature","geometry":{"type":"Point","coordinates":[-81.97206,28.086791]}},{"properties":{"city":"Lexington","zipcode":"40503","geo_score":0.443,"id":"a64an6khjq7d","geo_precision":"street","address":"3801 Mall Road","state":"KY"},"type":"Feature","geometry":{"type":"Point","coordinates":[-84.506397,38.042904]}},{"properties":{"city":"Brooklyn","zipcode":"11239","geo_score":1.0,"id":"a64an6e1eclo","geo_precision":"range","address":"381 Gateway Dr","state":"NY"},"type":"Feature","geometry":{"type":"Point","coordinates":[-73.86815,40.652088]}},{"properties":{"city":"Fayetteville","zipcode":"72703","geo_score":1.0,"id":"a64an6mpmk3h","geo_precision":"range","address":"3810 N Mall Ave","state":"AR"},"type":"Feature","geometry":{"type":"Point","coordinates":[-94.149854,36.121477]}},{"properties":{"city":"Vineland","zipcode":"8360","geo_score":0.917,"id":"a64an6egef7c","geo_precision":"range","address":"3849 S Delsea Dr","state":"NJ"},"type":"Feature","geometry":{"type":"Point","coordinates":[-75.040339,39.430495]}},{"properties":{"city":"Salisbury","zipcode":"28146","geo_score":1.0,"id":"a64an6fsy6lu","geo_precision":"range","address":"385 Faith Road","state":"NC"},"type":"Feature","geometry":{"type":"Point","coordinates":[-80.458145,35.650309]}},{"properties":{"city":"Tupelo","zipcode":"38804","geo_score":0.537,"id":"a64an6f2y0p9","geo_precision":"range","address":"3858 Market Center Dr","state":"MS"},"type":"Feature","geometry":{"type":"Point","coordinates":[-88.396651,34.35704]}},{"properties":{"city":"Rochester","zipcode":"14626","geo_score":0.929,"id":"a64an6me6uue","geo_precision":"range","address":"386 Greece Ridge Center Dr","state":"NY"},"type":"Feature","geometry":{"type":"Point","coordinates":[-77.695885,43.204689]}},{"properties":{"city":"Traverse City","zipcode":"49684","geo_score":0.856,"id":"a64an6j5g1jz","geo_precision":"range","address":"3875 Market Place Circle","state":"MI"},"type":"Feature","geometry":{"type":"Point","coordinates":[-85.64786,44.731465]}},{"properties":{"city":"Akron","zipcode":"44333","geo_score":0.939,"id":"a64an6jxkgoq","geo_precision":"range","address":"3881 Medina Road","state":"OH"},"type":"Feature","geometry":{"type":"Point","coordinates":[-81.638429,41.135853]}},{"properties":{"city":"North Branch","zipcode":"55056","geo_score":0.716,"id":"a64an6lkapwu","geo_precision":"street","address":"3884 Tanger Dr","state":"MN"},"type":"Feature","geometry":{"type":"Point","coordinates":[-92.994278,45.50111]}},{"properties":{"city":"Sherman","zipcode":"75092","geo_score":0.732,"id":"a64an6iz2ncq","geo_precision":"street","address":"3920 Town Center St","state":"TX"},"type":"Feature","geometry":{"type":"Point","coordinates":[-96.624151,33.626287]}},{"properties":{"city":"North Little Rock","zipcode":"72116","geo_score":0.909,"id":"a64an6gnokl3","geo_precision":"range","address":"3929 Mccain Blvd","state":"AR"},"type":"Feature","geometry":{"type":"Point","coordinates":[-92.227993,34.790715]}},{"properties":{"city":"Gainesville","zipcode":"32608","geo_score":1.0,"id":"a64an6fepf9h","geo_precision":"range","address":"3942 SW Archer Road","state":"FL"},"type":"Feature","geometry":{"type":"Point","coordinates":[-82.384437,29.618109]}},{"properties":{"city":"Saint Cloud","zipcode":"56301","geo_score":0.854,"id":"a64an6g6rjol","geo_precision":"range","address":"3959 2nd St S","state":"MN"},"type":"Feature","geometry":{"type":"Point","coordinates":[-94.206924,45.549689]}},{"properties":{"city":"Nashua","zipcode":"3060","geo_score":0.892,"id":"a64an6ev2cna","geo_precision":"range","address":"4 E Spit Brook Road","state":"NH"},"type":"Feature","geometry":{"type":"Point","coordinates":[-71.439233,42.71044]}},{"properties":{"city":"Ithaca","zipcode":"14850","geo_score":0.919,"id":"a64an6cmvtqz","geo_precision":"range","address":"40 Catherwood Road","state":"NY"},"type":"Feature","geometry":{"type":"Point","coordinates":[-76.489003,42.483816]}},{"properties":{"city":"Warwick","zipcode":"2886","geo_score":0.919,"id":"a64an6e3ndkt","geo_precision":"range","address":"400 Bald Hill Road","state":"RI"},"type":"Feature","geometry":{"type":"Point","coordinates":[-71.480141,41.727575]}},{"properties":{"city":"Springfield","zipcode":"19064","geo_score":0.806,"id":"a64an6fre3y3","geo_precision":"street","address":"400 S State Road","state":"PA"},"type":"Feature","geometry":{"type":"Point","coordinates":[-75.34574,39.939412]}},{"properties":{"city":"Mount Juliet","zipcode":"37122","geo_score":0.508,"id":"a64an6oreauq","geo_precision":"street","address":"401 S MT. Juliet Road","state":"TN"},"type":"Feature","geometry":{"type":"Point","coordinates":[-86.520432,36.21068]}},{"properties":{"city":"Yonkers","zipcode":"10704","geo_score":0.805,"id":"a64an6clvekm","geo_precision":"street","address":"4010 Xavier Dr","state":"NY"},"type":"Feature","geometry":{"type":"Point","coordinates":[-73.853241,40.924617]}},{"properties":{"city":"Davenport","zipcode":"52807","geo_score":0.794,"id":"a64an6gkowr8","geo_precision":"range","address":"4014 E 53rd St","state":"IA"},"type":"Feature","geometry":{"type":"Point","coordinates":[-90.52114,41.574793]}},{"properties":{"city":"San Marcos","zipcode":"78666","geo_score":0.596,"id":"a64an6m8ljj8","geo_precision":"street","address":"4015 S Interstate Highway 35","state":"TX"},"type":"Feature","geometry":{"type":"Point","coordinates":[-97.957814,29.853154]}},{"properties":{"city":"Orlando","zipcode":"32839","geo_score":1.0,"id":"a64an6krhuov","geo_precision":"range","address":"4018 Conroy Road","state":"FL"},"type":"Feature","geometry":{"type":"Point","coordinates":[-81.428444,28.487398]}},{"properties":{"city":"Schenectady","zipcode":"12304","geo_score":1.0,"id":"a64an6k9c05f","geo_precision":"range","address":"402 Balltown Road","state":"NY"},"type":"Feature","geometry":{"type":"Point","coordinates":[-73.893346,42.771079]}},{"properties":{"city":"Sandusky","zipcode":"44870","geo_score":0.962,"id":"a64an6hird6n","geo_precision":"range","address":"4020 Milan Road","state":"OH"},"type":"Feature","geometry":{"type":"Point","coordinates":[-82.676868,41.42094]}},{"properties":{"city":"Morgantown","zipcode":"26505","geo_score":0.586,"id":"a64an6b3alh2","geo_precision":"street","address":"4021 University Town Centre Dr","state":"WV"},"type":"Feature","geometry":{"type":"Point","coordinates":[-79.990837,39.659668]}},{"properties":{"city":"Orlando","zipcode":"32828","geo_score":0.973,"id":"a64an6asmbm6","geo_precision":"range","address":"403 N Alfaya Trail","state":"FL"},"type":"Feature","geometry":{"type":"Point","coordinates":[-81.204359,28.551355]}},{"properties":{"city":"Fort Wayne","zipcode":"46804","geo_score":0.83,"id":"a64an6eh93aw","geo_precision":"range","address":"4030 W Jefferson","state":"IN"},"type":"Feature","geometry":{"type":"Point","coordinates":[-85.193816,41.070569]}},{"properties":{"city":"Bellevue","zipcode":"98006","geo_score":0.795,"id":"a64an6gtc3u2","geo_precision":"range","address":"4037 Factoria Blvd SE","state":"WA"},"type":"Feature","geometry":{"type":"Point","coordinates":[-122.16945,47.573542]}},{"properties":{"city":"Bay City","zipcode":"48706","geo_score":0.805,"id":"a64an6lp96dm","geo_precision":"street","address":"4101 E Wilder Road","state":"MI"},"type":"Feature","geometry":{"type":"Point","coordinates":[-83.850447,43.623298]}},{"properties":{"city":"Chesapeake","zipcode":"23321","geo_score":0.92,"id":"a64an6apaik1","geo_precision":"range","address":"4107 Portsmouth Blvd","state":"VA"},"type":"Feature","geometry":{"type":"Point","coordinates":[-76.410407,36.824041]}},{"properties":{"city":"Monroeville","zipcode":"15146","geo_score":0.945,"id":"a64an6isj2v0","geo_precision":"range","address":"4120 William Penn Highway","state":"PA"},"type":"Feature","geometry":{"type":"Point","coordinates":[-79.765807,40.438869]}},{"properties":{"city":"South Ogden","zipcode":"84405","geo_score":0.92,"id":"a64an6huax5y","geo_precision":"range","address":"4125 Riverdale Road","state":"UT"},"type":"Feature","geometry":{"type":"Point","coordinates":[-111.983376,41.188415]}},{"properties":{"city":"Norridge","zipcode":"60706","geo_score":0.894,"id":"a64an6aytf77","geo_precision":"range","address":"4131 Harlem Ave","state":"IL"},"type":"Feature","geometry":{"type":"Point","coordinates":[-87.807286,41.954531]}},{"properties":{"city":"Fort Smith","zipcode":"72903","geo_score":0.902,"id":"a64an6ofoe1o","geo_precision":"range","address":"4135 Phoenix Ave","state":"AR"},"type":"Feature","geometry":{"type":"Point","coordinates":[-94.388021,35.338674]}},{"properties":{"city":"Clay","zipcode":"13041","geo_score":0.815,"id":"a64an6c4q0p4","geo_precision":"range","address":"4155 State Route 31","state":"NY"},"type":"Feature","geometry":{"type":"Point","coordinates":[-76.231225,43.185583]}},{"properties":{"city":"Oak Park","zipcode":"60301","geo_score":1.0,"id":"a64an6bu7u1j","geo_precision":"range","address":"417 N Harlem Ave","state":"IL"},"type":"Feature","geometry":{"type":"Point","coordinates":[-87.804999,41.887509]}},{"properties":{"city":"Texarkana","zipcode":"75503","geo_score":0.575,"id":"a64an6fhfsdp","geo_precision":"street","address":"4246 Saint Michael Dr","state":"TX"},"type":"Feature","geometry":{"type":"Point","coordinates":[-94.070073,33.44723]}},{"properties":{"city":"Aiken","zipcode":"29803","geo_score":0.913,"id":"a64an6ob48rm","geo_precision":"range","address":"427 Fabian Dr","state":"SC"},"type":"Feature","geometry":{"type":"Point","coordinates":[-81.722405,33.520936]}},{"properties":{"city":"Burlington","zipcode":"1803","geo_score":1.0,"id":"a64an6gl0rqm","geo_precision":"range","address":"43 Middlesex Turnpike","state":"MA"},"type":"Feature","geometry":{"type":"Point","coordinates":[-71.211693,42.471964]}},{"properties":{"city":"Louisville","zipcode":"40241","geo_score":0.456,"id":"a64an6mkpdup","geo_precision":"street","address":"4320 Summit Plaza Dr Suite D5","state":"KY"},"type":"Feature","geometry":{"type":"Point","coordinates":[-85.683002,38.066991]}},{"properties":{"city":"Raleigh","zipcode":"27612","geo_score":1.0,"id":"a64an6bv2y9f","geo_precision":"range","address":"4325 Glenwood Ave","state":"NC"},"type":"Feature","geometry":{"type":"Point","coordinates":[-78.6747,35.838812]}},{"properties":{"city":"Ellicott City","zipcode":"21043","geo_score":0.914,"id":"a64an6plaomh","geo_precision":"range","address":"4350 Montgomery Road","state":"MD"},"type":"Feature","geometry":{"type":"Point","coordinates":[-76.813854,39.251101]}},{"properties":{"city":"Fremont","zipcode":"94538","geo_score":1.0,"id":"a64an6e07jv8","geo_precision":"range","address":"43540 Christy St","state":"CA"},"type":"Feature","geometry":{"type":"Point","coordinates":[-121.970362,37.504649]}},{"properties":{"city":"Wilkes-Barre","zipcode":"18702","geo_score":0.642,"id":"a64an6b1lc2z","geo_precision":"zip","address":"437 Arena Hub PLZ","state":"PA"},"type":"Feature","geometry":{"type":"Point","coordinates":[-75.859458,41.233542]}},{"properties":{"city":"Novi","zipcode":"48377","geo_score":1.0,"id":"a64an6b9osry","geo_precision":"range","address":"43705 W Oaks Dr","state":"MI"},"type":"Feature","geometry":{"type":"Point","coordinates":[-83.477957,42.491083]}},{"properties":{"city":"Lakewood","zipcode":"80226","geo_score":0.915,"id":"a64an6drmnv0","geo_precision":"range","address":"439 S Wadsworth Blvd","state":"CO"},"type":"Feature","geometry":{"type":"Point","coordinates":[-105.08149,39.707031]}},{"properties":{"city":"Queenstown","zipcode":"21658","geo_score":0.805,"id":"a64an6p72vca","geo_precision":"street","address":"441 Outlet Center Dr","state":"MD"},"type":"Feature","geometry":{"type":"Point","coordinates":[-76.158875,38.981851]}},{"properties":{"city":"Ocala","zipcode":"34474","geo_score":1.0,"id":"a64an6lmfqav","geo_precision":"range","address":"4414 SW College Road","state":"FL"},"type":"Feature","geometry":{"type":"Point","coordinates":[-82.195338,29.140247]}},{"properties":{"city":"Edison","zipcode":"8837","geo_score":0.761,"id":"a64an6nqwsfm","geo_precision":"range","address":"447 Menlo Park","state":"NJ"},"type":"Feature","geometry":{"type":"Point","coordinates":[-74.33817,40.548804]}},{"properties":{"city":"Mehlville","zipcode":"63129","geo_score":0.957,"id":"a64an6ngytdt","geo_precision":"range","address":"4498 Lemay Ferry Road","state":"MO"},"type":"Feature","geometry":{"type":"Point","coordinates":[-90.338723,38.498585]}},{"properties":{"city":"Newington","zipcode":"3801","geo_score":0.925,"id":"a64an6ae7ps2","geo_precision":"range","address":"45 Gosling Road","state":"NH"},"type":"Feature","geometry":{"type":"Point","coordinates":[-70.799752,43.091874]}},{"properties":{"city":"Moline","zipcode":"61265","geo_score":0.827,"id":"a64an6dud7qv","geo_precision":"range","address":"4500 16th St","state":"IL"},"type":"Feature","geometry":{"type":"Point","coordinates":[-90.50705,41.467724]}},{"properties":{"city":"Tucson","zipcode":"85705","geo_score":0.919,"id":"a64an6aoz1f7","geo_precision":"range","address":"4500 N Oracle Road","state":"AZ"},"type":"Feature","geometry":{"type":"Point","coordinates":[-110.978192,32.288286]}},{"properties":{"city":"Tacoma","zipcode":"98409","geo_score":0.956,"id":"a64an6niislp","geo_precision":"range","address":"4502 S Steele St","state":"WA"},"type":"Feature","geometry":{"type":"Point","coordinates":[-122.467949,47.218106]}},{"properties":{"city":"Mishawaka","zipcode":"46545","geo_score":1.0,"id":"a64an69stoul","geo_precision":"range","address":"4510 Grape Road","state":"IN"},"type":"Feature","geometry":{"type":"Point","coordinates":[-86.187428,41.700549]}},{"properties":{"city":"California","zipcode":"20619","geo_score":0.807,"id":"a64an6pj4ei8","geo_precision":"street","address":"45215 Worth Ave","state":"MD"},"type":"Feature","geometry":{"type":"Point","coordinates":[-76.517861,38.302745]}},{"properties":{"city":"Calhoun","zipcode":"30701","geo_score":0.717,"id":"a64an6k0khrc","geo_precision":"street","address":"455 Belwood Road SE","state":"GA"},"type":"Feature","geometry":{"type":"Point","coordinates":[-84.915491,34.454986]}},{"properties":{"city":"Phoenix","zipcode":"85044","geo_score":0.913,"id":"a64an6cobg3i","geo_precision":"range","address":"4609 E Ray Road","state":"AZ"},"type":"Feature","geometry":{"type":"Point","coordinates":[-111.984109,33.319831]}},{"properties":{"city":"Anderson","zipcode":"46013","geo_score":0.98,"id":"a64an6p5wf0d","geo_precision":"range","address":"4622 S Scatterfield Road","state":"IN"},"type":"Feature","geometry":{"type":"Point","coordinates":[-85.652746,40.067751]}},{"properties":{"city":"Hicksville","zipcode":"11801","geo_score":0.732,"id":"a64an6jpnll6","geo_precision":"street","address":"464 Broadway Mall","state":"NY"},"type":"Feature","geometry":{"type":"Point","coordinates":[-73.509045,40.756521]}},{"properties":{"city":"Philadelphia","zipcode":"19124","geo_score":0.911,"id":"a64an6dn4tqy","geo_precision":"range","address":"4640 Roosevelt Blvd","state":"PA"},"type":"Feature","geometry":{"type":"Point","coordinates":[-75.099679,40.02832]}},{"properties":{"city":"Macon","zipcode":"31206","geo_score":0.935,"id":"a64an6i41824","geo_precision":"range","address":"4653 Presidential Parkway","state":"GA"},"type":"Feature","geometry":{"type":"Point","coordinates":[-83.713795,32.819694]}},{"properties":{"city":"Chesterfield","zipcode":"63017","geo_score":0.885,"id":"a64an6eqx899","geo_precision":"range","address":"47 E Chesterfield Mall","state":"MO"},"type":"Feature","geometry":{"type":"Point","coordinates":[-90.567511,38.652339]}},{"properties":{"city":"Monroe","zipcode":"71203","geo_score":0.924,"id":"a64an6bukwfi","geo_precision":"range","address":"4700 Millhaven Road","state":"LA"},"type":"Feature","geometry":{"type":"Point","coordinates":[-92.06481,32.500639]}},{"properties":{"city":"Grandville","zipcode":"49418","geo_score":0.947,"id":"a64an6k5qgfr","geo_precision":"range","address":"4700 Wilson Ave","state":"MI"},"type":"Feature","geometry":{"type":"Point","coordinates":[-85.762524,42.878878]}},{"properties":{"city":"Charter Township of Canton","zipcode":"48188","geo_score":0.928,"id":"a64an6bmv6wl","geo_precision":"range","address":"47290 Michigan Ave","state":"MI"},"type":"Feature","geometry":{"type":"Point","coordinates":[-83.50443,42.267419]}},{"properties":{"city":"Town of Grand Chute","zipcode":"54913","geo_score":0.909,"id":"a64an6ff4cxc","geo_precision":"range","address":"4733 W Grande Market Dr","state":"WI"},"type":"Feature","geometry":{"type":"Point","coordinates":[-88.478819,44.263809]}},{"properties":{"city":"New Hartford","zipcode":"13413","geo_score":0.878,"id":"a64an6nslecs","geo_precision":"range","address":"4789 Commercial Dr","state":"NY"},"type":"Feature","geometry":{"type":"Point","coordinates":[-75.310427,43.090142]}},{"properties":{"city":"Bangor","zipcode":"4401","geo_score":0.78,"id":"a64an6baw40s","geo_precision":"street","address":"480 Stillwater Ave","state":"ME"},"type":"Feature","geometry":{"type":"Point","coordinates":[-68.757446,44.825839]}},{"properties":{"city":"Eau Claire","zipcode":"54701","geo_score":0.924,"id":"a64an6ai1ns8","geo_precision":"range","address":"4800 Golf Road","state":"WI"},"type":"Feature","geometry":{"type":"Point","coordinates":[-91.437655,44.774688]}},{"properties":{"city":"Louisville","zipcode":"40219","geo_score":0.925,"id":"a64an6a64nv9","geo_precision":"range","address":"4801 Outer Loop","state":"KY"},"type":"Feature","geometry":{"type":"Point","coordinates":[-85.672044,38.137843]}},{"properties":{"city":"Roanoke","zipcode":"24012","geo_score":0.733,"id":"a64an6moa4da","geo_precision":"street","address":"4802 Valley View Blvd NW","state":"VA"},"type":"Feature","geometry":{"type":"Point","coordinates":[-79.95787,37.30254]}},{"properties":{"city":"North Charleston","zipcode":"29418","geo_score":0.43,"id":"a64an69lafjb","geo_precision":"street","address":"4840 Tanger Outlet Blvd","state":"SC"},"type":"Feature","geometry":{"type":"Point","coordinates":[-80.128519,32.940795]}},{"properties":{"city":"Midlothian","zipcode":"23112","geo_score":0.752,"id":"a64an69osp9a","geo_precision":"street","address":"4848 Commonwealth CTR Prwy","state":"VA"},"type":"Feature","geometry":{"type":"Point","coordinates":[-77.634672,37.419492]}},{"properties":{"city":"Watertown","zipcode":"2472","geo_score":1.0,"id":"a64an6iba7x3","geo_precision":"range","address":"485 Arsenal St","state":"MA"},"type":"Feature","geometry":{"type":"Point","coordinates":[-71.157222,42.362787]}},{"properties":{"city":"Edgewater","zipcode":"7020","geo_score":0.653,"id":"a64an6cc6q46","geo_precision":"street","address":"485 River Road","state":"NJ"},"type":"Feature","geometry":{"type":"Point","coordinates":[-73.984178,40.81378]}},{"properties":{"city":"Calumet City","zipcode":"60409","geo_score":0.941,"id":"a64an6kr0az3","geo_precision":"range","address":"490 River Oaks W","state":"IL"},"type":"Feature","geometry":{"type":"Point","coordinates":[-87.538158,41.599082]}},{"properties":{"city":"Albuquerque","zipcode":"87110","geo_score":1.0,"id":"a64an6kaeh3x","geo_precision":"range","address":"4900 Cutler Ave NE","state":"NM"},"type":"Feature","geometry":{"type":"Point","coordinates":[-106.590207,35.105566]}},{"properties":{"city":"Fort Myers","zipcode":"33907","geo_score":0.977,"id":"a64an6i53137","geo_precision":"range","address":"4901 S Cleveland Ave","state":"FL"},"type":"Feature","geometry":{"type":"Point","coordinates":[-81.871978,26.589574]}},{"properties":{"city":"Waterbury","zipcode":"6706","geo_score":1.0,"id":"a64an6iubigh","geo_precision":"range","address":"495 Union St","state":"CT"},"type":"Feature","geometry":{"type":"Point","coordinates":[-73.026393,41.546113]}},{"properties":{"city":"Stockton","zipcode":"95207","geo_score":0.909,"id":"a64an6eg3oce","geo_precision":"range","address":"4950 Pacific Ave","state":"CA"},"type":"Feature","geometry":{"type":"Point","coordinates":[-121.313621,37.993694]}},{"properties":{"city":"Dublin","zipcode":"94568","geo_score":0.902,"id":"a64an6fc0b4a","geo_precision":"range","address":"4962 Dublin Blvd","state":"CA"},"type":"Feature","geometry":{"type":"Point","coordinates":[-121.884855,37.706118]}},{"properties":{"city":"Hingham","zipcode":"2043","geo_score":0.965,"id":"a64an6lw0kt3","geo_precision":"range","address":"5 Shipyard Dr","state":"MA"},"type":"Feature","geometry":{"type":"Point","coordinates":[-70.922474,42.249289]}},{"properties":{"city":"Rochester","zipcode":"55904","geo_score":0.84,"id":"a64an6ayiw1z","geo_precision":"range","address":"50 25th St SE","state":"MN"},"type":"Feature","geometry":{"type":"Point","coordinates":[-92.459817,43.985476]}},{"properties":{"city":"Holyoke","zipcode":"1040","geo_score":0.912,"id":"a64an6baf0ch","geo_precision":"range","address":"50 Holyoke St","state":"MA"},"type":"Feature","geometry":{"type":"Point","coordinates":[-72.64024,42.172914]}},{"properties":{"city":"Norwalk","zipcode":"6854","geo_score":0.959,"id":"a64an6jmli0i","geo_precision":"range","address":"500 Connecticut Ave","state":"CT"},"type":"Feature","geometry":{"type":"Point","coordinates":[-73.443408,41.098579]}},{"properties":{"city":"Tempe","zipcode":"85282","geo_score":1.0,"id":"a64an6fmmj03","geo_precision":"range","address":"5000 S Arizona Mills Circle","state":"AZ"},"type":"Feature","geometry":{"type":"Point","coordinates":[-111.966967,33.379696]}},{"properties":{"city":"Toledo","zipcode":"43623","geo_score":0.902,"id":"a64an6i7sfwm","geo_precision":"range","address":"5001 Monroe St","state":"OH"},"type":"Feature","geometry":{"type":"Point","coordinates":[-83.640553,41.697837]}},{"properties":{"city":"Sioux City","zipcode":"51106","geo_score":0.717,"id":"a64an6axjyr8","geo_precision":"street","address":"5001 Sergeant Road","state":"IA"},"type":"Feature","geometry":{"type":"Point","coordinates":[-96.344464,42.446585]}},{"properties":{"city":"Phoenix","zipcode":"85027","geo_score":0.494,"id":"a64an6c9erlm","geo_precision":"street","address":"5005 E Market Place Dr","state":"AZ"},"type":"Feature","geometry":{"type":"Point","coordinates":[-112.116098,33.654995]}},{"properties":{"city":"Kearney","zipcode":"68847","geo_score":0.813,"id":"a64an6faho9a","geo_precision":"range","address":"5027 N 2nd Ave","state":"NE"},"type":"Feature","geometry":{"type":"Point","coordinates":[-99.083829,40.723048]}},{"properties":{"city":"New York City","zipcode":"10012","geo_score":0.965,"id":"a64an6cqiyql","geo_precision":"range","address":"503 Broadway","state":"NY"},"type":"Feature","geometry":{"type":"Point","coordinates":[-73.999562,40.722244]}},{"properties":{"city":"Commack","zipcode":"11725","geo_score":1.0,"id":"a64an6biozxf","geo_precision":"range","address":"5041 Jericho Turnpike","state":"NY"},"type":"Feature","geometry":{"type":"Point","coordinates":[-73.313374,40.840527]}},{"properties":{"city":"Williamsburg","zipcode":"52361","geo_score":0.683,"id":"a64an6dr923f","geo_precision":"zip","address":"505 Williamsburg Dr","state":"IA"},"type":"Feature","geometry":{"type":"Point","coordinates":[-92.065181,41.649999]}},{"properties":{"city":"Trumbull","zipcode":"6611","geo_score":0.915,"id":"a64an6cglp7p","geo_precision":"range","address":"5065 Main St","state":"CT"},"type":"Feature","geometry":{"type":"Point","coordinates":[-73.220014,41.230164]}},{"properties":{"city":"Greenwood","zipcode":"29649","geo_score":0.559,"id":"a64an6ifx2cc","geo_precision":"street","address":"507 Bypass 72 NW","state":"SC"},"type":"Feature","geometry":{"type":"Point","coordinates":[-82.175162,34.195952]}},{"properties":{"city":"Seattle","zipcode":"98101","geo_score":1.0,"id":"a64an6exjb32","geo_precision":"range","address":"511 Pine St","state":"WA"},"type":"Feature","geometry":{"type":"Point","coordinates":[-122.33641,47.611717]}},{"properties":{"city":"Harrisburg","zipcode":"17109","geo_score":0.719,"id":"a64an6ec7j8k","geo_precision":"street","address":"5125 Jonestown Road","state":"PA"},"type":"Feature","geometry":{"type":"Point","coordinates":[-76.805437,40.306786]}},{"properties":{"city":"Norcross","zipcode":"30092","geo_score":0.647,"id":"a64an6nsirbm","geo_precision":"street","address":"5135 Peachtree Parkway","state":"GA"},"type":"Feature","geometry":{"type":"Point","coordinates":[-84.220216,33.972412]}},{"properties":{"city":"Brooklyn","zipcode":"11234","geo_score":0.89,"id":"a64an6c83rcx","geo_precision":"range","address":"5141 Kings PLZ","state":"NY"},"type":"Feature","geometry":{"type":"Point","coordinates":[-73.927244,40.635606]}},{"properties":{"city":"New York City","zipcode":"10029","geo_score":0.805,"id":"a64an6gj7s8o","geo_precision":"range","address":"517 E 117th St","state":"NY"},"type":"Feature","geometry":{"type":"Point","coordinates":[-73.932333,40.795544]}},{"properties":{"city":"Bohemia","zipcode":"11716","geo_score":1.0,"id":"a64an6dmlqua","geo_precision":"range","address":"5175 Sunrise Highway","state":"NY"},"type":"Feature","geometry":{"type":"Point","coordinates":[-73.099994,40.76016]}},{"properties":{"city":"Edmond","zipcode":"73034","geo_score":0.654,"id":"a64an6hw6r2t","geo_precision":"street","address":"518 S Bryant","state":"OK"},"type":"Feature","geometry":{"type":"Point","coordinates":[-97.46013,35.769023]}},{"properties":{"city":"Tulsa","zipcode":"74135","geo_score":0.916,"id":"a64an6mozfv8","geo_precision":"range","address":"5201 E 41st St","state":"OK"},"type":"Feature","geometry":{"type":"Point","coordinates":[-95.919237,36.104384]}},{"properties":{"city":"Peoria","zipcode":"61615","geo_score":0.667,"id":"a64an6ke1fm4","geo_precision":"street","address":"5201 W War Memorial Dr","state":"IL"},"type":"Feature","geometry":{"type":"Point","coordinates":[-89.675243,40.776592]}},{"properties":{"city":"Boise","zipcode":"83704","geo_score":0.919,"id":"a64an6glw318","geo_precision":"range","address":"526 N Milwaukee St","state":"ID"},"type":"Feature","geometry":{"type":"Point","coordinates":[-116.283326,43.608061]}},{"properties":{"city":"Norton Shores","zipcode":"49444","geo_score":0.813,"id":"a64an6pveirs","geo_precision":"range","address":"5293 Harvey","state":"MI"},"type":"Feature","geometry":{"type":"Point","coordinates":[-86.205719,43.156126]}},{"properties":{"city":"Greendale","zipcode":"53129","geo_score":0.916,"id":"a64an6ca7wlb","geo_precision":"range","address":"5300 S 76th St","state":"WI"},"type":"Feature","geometry":{"type":"Point","coordinates":[-88.008509,42.947962]}},{"properties":{"city":"Greenville","zipcode":"27858","geo_score":0.927,"id":"a64an6fyadsl","geo_precision":"range","address":"530C SE Greenville Blvd","state":"NC"},"type":"Feature","geometry":{"type":"Point","coordinates":[-77.373759,35.582959]}},{"properties":{"city":"Meriden","zipcode":"6450","geo_score":0.959,"id":"a64an6njnl4v","geo_precision":"range","address":"533 S Broad St","state":"CT"},"type":"Feature","geometry":{"type":"Point","coordinates":[-72.808233,41.508963]}},{"properties":{"city":"Durham","zipcode":"27707","geo_score":0.531,"id":"a64an6nyuuud","geo_precision":"street","address":"5424 New Hope Commons","state":"NC"},"type":"Feature","geometry":{"type":"Point","coordinates":[-78.895367,35.968308]}},{"properties":{"city":"Knoxville","zipcode":"37918","geo_score":0.911,"id":"a64an6ki9yfo","geo_precision":"range","address":"5445 Washington Pike","state":"TN"},"type":"Feature","geometry":{"type":"Point","coordinates":[-83.88689,36.035752]}},{"properties":{"city":"Tempe","zipcode":"85281","geo_score":0.809,"id":"a64an6pkmg93","geo_precision":"street","address":"55 S Mcclintock Dr","state":"AZ"},"type":"Feature","geometry":{"type":"Point","coordinates":[-111.909049,33.429249]}},{"properties":{"city":"Hazelwood","zipcode":"63042","geo_score":0.487,"id":"a64an6annzxn","geo_precision":"street","address":"5555 Saint Louis Mills Blvd","state":"MO"},"type":"Feature","geometry":{"type":"Point","coordinates":[-90.320712,38.791594]}},{"properties":{"city":"Columbus","zipcode":"31909","geo_score":1.0,"id":"a64an6bmt3rz","geo_precision":"range","address":"5555 Whittlesey Blvd","state":"GA"},"type":"Feature","geometry":{"type":"Point","coordinates":[-84.947331,32.54263]}},{"properties":{"city":"Niles","zipcode":"44446","geo_score":0.928,"id":"a64an6gph0rz","geo_precision":"range","address":"5555 Youngstown Warren Road","state":"OH"},"type":"Feature","geometry":{"type":"Point","coordinates":[-80.750519,41.210348]}},{"properties":{"city":"Altoona","zipcode":"16602","geo_score":0.401,"id":"a64an6b9lt0r","geo_precision":"street","address":"5580 Goods Lane","state":"PA"},"type":"Feature","geometry":{"type":"Point","coordinates":[-78.515861,40.646589]}},{"properties":{"city":"Rogers","zipcode":"72756","geo_score":0.847,"id":"a64an6a6ef05","geo_precision":"range","address":"559 N 46th St","state":"AR"},"type":"Feature","geometry":{"type":"Point","coordinates":[-94.179388,36.339594]}},{"properties":{"city":"Homestead","zipcode":"15120","geo_score":0.731,"id":"a64an6pz10nf","geo_precision":"street","address":"560 E Waterfront Dr","state":"PA"},"type":"Feature","geometry":{"type":"Point","coordinates":[-79.916103,40.407348]}},{"properties":{"city":"Leon Valley","zipcode":"78238","geo_score":1.0,"id":"a64an6amd4u6","geo_precision":"range","address":"5601 Bandera Road","state":"TX"},"type":"Feature","geometry":{"type":"Point","coordinates":[-98.595017,29.480707]}},{"properties":{"city":"Sunset Valley","zipcode":"78745","geo_score":1.0,"id":"a64an6jbs0s1","geo_precision":"range","address":"5601 Brodie Lane","state":"TX"},"type":"Feature","geometry":{"type":"Point","coordinates":[-97.821383,30.227556]}},{"properties":{"city":"Triadelphia","zipcode":"26059","geo_score":0.427,"id":"a64an6htq3db","geo_precision":"street","address":"565 Cabela Dr","state":"WV"},"type":"Feature","geometry":{"type":"Point","coordinates":[-80.555923,39.827006]}},{"properties":{"city":"Severna Park","zipcode":"21146","geo_score":0.405,"id":"a64an6blc4hu","geo_precision":"street","address":"571 Ritchie Highway","state":"MD"},"type":"Feature","geometry":{"type":"Point","coordinates":[-76.67523,39.114969]}},{"properties":{"city":"Hixson","zipcode":"37343","geo_score":0.778,"id":"a64an6kv2p00","geo_precision":"range","address":"5756 Highway 153","state":"TN"},"type":"Feature","geometry":{"type":"Point","coordinates":[-85.248567,35.157396]}},{"properties":{"city":"Falls Church","zipcode":"22041","geo_score":0.865,"id":"a64an6acgofj","geo_precision":"range","address":"5800 Crossroads CTR Way","state":"VA"},"type":"Feature","geometry":{"type":"Point","coordinates":[-77.129109,38.852793]}},{"properties":{"city":"Lakewood","zipcode":"98499","geo_score":0.867,"id":"a64an6jwuaa2","geo_precision":"range","address":"5810 Lakewood Towne Center Blvd SW","state":"WA"},"type":"Feature","geometry":{"type":"Point","coordinates":[-122.515148,47.164648]}},{"properties":{"city":"Pueblo","zipcode":"81008","geo_score":0.724,"id":"a64an6kcgkzj","geo_precision":"street","address":"5819 N Elizabeth St","state":"CO"},"type":"Feature","geometry":{"type":"Point","coordinates":[-104.616146,38.325013]}},{"properties":{"city":"Merriam","zipcode":"66202","geo_score":0.92,"id":"a64an6akmqfa","geo_precision":"range","address":"5820 Antioch Road","state":"KS"},"type":"Feature","geometry":{"type":"Point","coordinates":[-94.686457,39.023681]}},{"properties":{"city":"Antioch","zipcode":"94531","geo_score":0.806,"id":"a64an6l6wabz","geo_precision":"street","address":"5869 Lone Tree Way","state":"CA"},"type":"Feature","geometry":{"type":"Point","coordinates":[-121.755975,37.961717]}},{"properties":{"city":"Norfolk","zipcode":"23502","geo_score":0.683,"id":"a64an6cr09lm","geo_precision":"range","address":"5900 E Virgina Blvd","state":"VA"},"type":"Feature","geometry":{"type":"Point","coordinates":[-76.322626,36.945572]}},{"properties":{"city":"Raleigh","zipcode":"27616","geo_score":0.567,"id":"a64an6ajl891","geo_precision":"street","address":"5900 Poyner Place Ave","state":"NC"},"type":"Feature","geometry":{"type":"Point","coordinates":[-78.560773,35.858304]}},{"properties":{"city":"Greenwood Village","zipcode":"80121","geo_score":0.909,"id":"a64an6gywrwk","geo_precision":"range","address":"5900 S University Blvd","state":"CO"},"type":"Feature","geometry":{"type":"Point","coordinates":[-104.960007,39.609733]}},{"properties":{"city":"Newnan","zipcode":"30265","geo_score":0.612,"id":"a64an6e5mpmv","geo_precision":"street","address":"591 Bullsboro Dr","state":"GA"},"type":"Feature","geometry":{"type":"Point","coordinates":[-84.760821,33.395714]}},{"properties":{"city":"Indianapolis","zipcode":"46278","geo_score":0.835,"id":"a64an6ibl3ug","geo_precision":"range","address":"5910 W 86th St","state":"IN"},"type":"Feature","geometry":{"type":"Point","coordinates":[-86.262917,39.910692]}},{"properties":{"city":"Colorado Springs","zipcode":"80922","geo_score":0.61,"id":"a64an6hlw2gs","geo_precision":"street","address":"5924 Barnes Road","state":"CO"},"type":"Feature","geometry":{"type":"Point","coordinates":[-104.725352,38.894843]}},{"properties":{"city":"Wynnewood","zipcode":"19096","geo_score":0.924,"id":"a64an69ryfds","geo_precision":"range","address":"60 E Wynnewood Road","state":"PA"},"type":"Feature","geometry":{"type":"Point","coordinates":[-75.273435,40.002306]}},{"properties":{"city":"Plattsburgh","zipcode":"12901","geo_score":0.902,"id":"a64an6g64gpg","geo_precision":"range","address":"60 Smithfield Blvd","state":"NY"},"type":"Feature","geometry":{"type":"Point","coordinates":[-73.494383,44.702068]}},{"properties":{"city":"Fairview Heights","zipcode":"62208","geo_score":0.922,"id":"a64an6ag0b20","geo_precision":"range","address":"6015 N Illinois St","state":"IL"},"type":"Feature","geometry":{"type":"Point","coordinates":[-89.984859,38.587556]}},{"properties":{"city":"Solon","zipcode":"44139","geo_score":0.922,"id":"a64an6gn0o84","geo_precision":"range","address":"6025 Kruse Dr","state":"OH"},"type":"Feature","geometry":{"type":"Point","coordinates":[-81.444171,41.392575]}},{"properties":{"city":"CINCINNATI","zipcode":"445211","geo_score":0.805,"id":"a64an6ijc6md","geo_precision":"range","address":"6030 GLENWAY AVE","state":"OH"},"type":"Feature","geometry":{"type":"Point","coordinates":[-84.618481,39.14161]}},{"properties":{"city":"Stillwater","zipcode":"74075","geo_score":1.0,"id":"a64an6ilaouk","geo_precision":"range","address":"605 N Main St","state":"OK"},"type":"Feature","geometry":{"type":"Point","coordinates":[-97.058733,36.128167]}},{"properties":{"city":"New York City","zipcode":"10011","geo_score":0.965,"id":"a64an6ba4l0d","geo_precision":"range","address":"610 Ave of the Americas","state":"NY"},"type":"Feature","geometry":{"type":"Point","coordinates":[-73.995176,40.739762]}},{"properties":{"city":"Rutland","zipcode":"5701","geo_score":0.88,"id":"a64an6k0k84i","geo_precision":"range","address":"610 Diamond Run Mall","state":"VT"},"type":"Feature","geometry":{"type":"Point","coordinates":[-72.965314,43.582621]}},{"properties":{"city":"Alpharetta","zipcode":"30022","geo_score":0.912,"id":"a64an6d67wh7","geo_precision":"range","address":"6100 N Point Parkway","state":"GA"},"type":"Feature","geometry":{"type":"Point","coordinates":[-84.260249,34.076435]}},{"properties":{"city":"Quincy","zipcode":"62305","geo_score":0.806,"id":"a64an6geho4o","geo_precision":"street","address":"6110 Broadway St","state":"IL"},"type":"Feature","geometry":{"type":"Point","coordinates":[-91.314637,39.934815]}},{"properties":{"city":"Oxon Hill","zipcode":"20745","geo_score":0.913,"id":"a64an6pd9op2","geo_precision":"range","address":"6127 Oxon Hill Road","state":"MD"},"type":"Feature","geometry":{"type":"Point","coordinates":[-76.977266,38.804881]}},{"properties":{"city":"Hattiesburg","zipcode":"39402","geo_score":0.916,"id":"a64an6pbjrx3","geo_precision":"range","address":"6143 Highway 98","state":"MS"},"type":"Feature","geometry":{"type":"Point","coordinates":[-89.386297,31.32097]}},{"properties":{"city":"Keizer","zipcode":"97307","geo_score":0.397,"id":"a64an6kh8s0v","geo_precision":"street","address":"6190 Ulali Drve NE","state":"OR"},"type":"Feature","geometry":{"type":"Point","coordinates":[-123.04783,44.87884]}},{"properties":{"city":"Brooklyn","zipcode":"11217","geo_score":1.0,"id":"a64an6k2pdhp","geo_precision":"range","address":"625 Atlantic Ave","state":"NY"},"type":"Feature","geometry":{"type":"Point","coordinates":[-73.975845,40.683482]}},{"properties":{"city":"Olympia","zipcode":"98502","geo_score":0.863,"id":"a64an6ec68cr","geo_precision":"range","address":"625 Black Lake Blvd","state":"WA"},"type":"Feature","geometry":{"type":"Point","coordinates":[-122.928806,47.042076]}},{"properties":{"city":"Columbia","zipcode":"21045","geo_score":0.877,"id":"a64an6ojyyhd","geo_precision":"range","address":"6260 Columbia Crossing Dr","state":"MD"},"type":"Feature","geometry":{"type":"Point","coordinates":[-76.8146,39.198401]}},{"properties":{"city":"Bricktown","zipcode":"8723","geo_score":0.776,"id":"a64an6n47tyt","geo_precision":"range","address":"640 Route 70","state":"NJ"},"type":"Feature","geometry":{"type":"Point","coordinates":[-74.145169,40.05825]}},{"properties":{"city":"Albertville","zipcode":"55301","geo_score":1.0,"id":"a64an6bsb77o","geo_precision":"range","address":"6415 Labeaux Ave NE","state":"MN"},"type":"Feature","geometry":{"type":"Point","coordinates":[-93.663293,45.243959]}},{"properties":{"city":"Johnson Creek","zipcode":"53038","geo_score":0.805,"id":"a64an6oyhttj","geo_precision":"street","address":"642 Linmar Lane","state":"WI"},"type":"Feature","geometry":{"type":"Point","coordinates":[-88.758862,43.0899]}},{"properties":{"city":"Aurora","zipcode":"80016","geo_score":0.476,"id":"a64an6movqap","geo_precision":"street","address":"6432 So. Parker Road","state":"CO"},"type":"Feature","geometry":{"type":"Point","coordinates":[-104.809641,39.608661]}},{"properties":{"city":"Linden","zipcode":"7036","geo_score":0.939,"id":"a64an6lg0iqo","geo_precision":"range","address":"649 W Edgar Road","state":"NJ"},"type":"Feature","geometry":{"type":"Point","coordinates":[-74.248367,40.620611]}},{"properties":{"city":"Hyannis","zipcode":"2601","geo_score":0.915,"id":"a64an6dikkyu","geo_precision":"range","address":"65 Independence Dr","state":"MA"},"type":"Feature","geometry":{"type":"Point","coordinates":[-70.299897,41.674426]}},{"properties":{"city":"Elizabeth","zipcode":"7201","geo_score":0.911,"id":"a64an6db9089","geo_precision":"range","address":"651 Kapkowski Road","state":"NJ"},"type":"Feature","geometry":{"type":"Point","coordinates":[-74.174544,40.663343]}},{"properties":{"city":"Waterloo","zipcode":"13165","geo_score":0.84,"id":"a64an6is0yrq","geo_precision":"range","address":"655 Route 318","state":"NY"},"type":"Feature","geometry":{"type":"Point","coordinates":[-76.921626,42.954237]}},{"properties":{"city":"Sarasota","zipcode":"34231","geo_score":0.727,"id":"a64an6bpmi4p","geo_precision":"street","address":"6555 S Tamiami TRL","state":"FL"},"type":"Feature","geometry":{"type":"Point","coordinates":[-82.530739,27.28276]}},{"properties":{"city":"Douglasville","zipcode":"30135","geo_score":1.0,"id":"a64an6o6plsj","geo_precision":"range","address":"6588 Douglas Blvd","state":"GA"},"type":"Feature","geometry":{"type":"Point","coordinates":[-84.761411,33.724776]}},{"properties":{"city":"Edwardsville","zipcode":"62025","geo_score":0.65,"id":"a64an6mwvlrp","geo_precision":"street","address":"6617 Edwardsville Crossing Dr","state":"IL"},"type":"Feature","geometry":{"type":"Point","coordinates":[-89.97764,38.825371]}},{"properties":{"city":"Rockford","zipcode":"61108","geo_score":1.0,"id":"a64an6bkqhl0","geo_precision":"range","address":"6630 E State St","state":"IL"},"type":"Feature","geometry":{"type":"Point","coordinates":[-88.987867,42.268118]}},{"properties":{"city":"North Canton","zipcode":"44720","geo_score":0.925,"id":"a64an6d32lhy","geo_precision":"range","address":"6687 Strip Ave NW","state":"OH"},"type":"Feature","geometry":{"type":"Point","coordinates":[-81.432269,40.878034]}},{"properties":{"city":"Park City","zipcode":"84098","geo_score":1.0,"id":"a64an6p7wnem","geo_precision":"range","address":"6699 Landmark Dr","state":"UT"},"type":"Feature","geometry":{"type":"Point","coordinates":[-111.550367,40.730237]}},{"properties":{"city":"Springfield","zipcode":"22150","geo_score":0.932,"id":"a64an6gheh7t","geo_precision":"range","address":"6711 Frontier Dr","state":"VA"},"type":"Feature","geometry":{"type":"Point","coordinates":[-77.171171,38.771506]}},{"properties":{"city":"Nashville","zipcode":"37209","geo_score":0.97,"id":"a64an6c54rt8","geo_precision":"range","address":"6724 Charlotte Pike","state":"TN"},"type":"Feature","geometry":{"type":"Point","coordinates":[-86.885588,36.135639]}},{"properties":{"city":"Medford","zipcode":"55049","geo_score":0.908,"id":"a64an6g029rb","geo_precision":"range","address":"6750 W Frontage Road","state":"MN"},"type":"Feature","geometry":{"type":"Point","coordinates":[-93.256846,44.156495]}},{"properties":{"city":"Bel Air","zipcode":"21014","geo_score":0.726,"id":"a64an6dr4nsy","geo_precision":"street","address":"678 Bel Air Road","state":"MD"},"type":"Feature","geometry":{"type":"Point","coordinates":[-76.381594,39.507093]}},{"properties":{"city":"American Fork","zipcode":"84003","geo_score":0.919,"id":"a64an6mxoq7j","geo_precision":"range","address":"678 W Main St","state":"UT"},"type":"Feature","geometry":{"type":"Point","coordinates":[-111.817206,40.376863]}},{"properties":{"city":"Kennesaw","zipcode":"30144","geo_score":0.971,"id":"a64an6i7hp4a","geo_precision":"range","address":"680 Ernest W Barrett Parkway NW","state":"GA"},"type":"Feature","geometry":{"type":"Point","coordinates":[-84.56938,34.00892]}},{"properties":{"city":"West Des Moines","zipcode":"50266","geo_score":0.805,"id":"a64an6mdpmfc","geo_precision":"street","address":"6805 Mills Civic Parkway","state":"IA"},"type":"Feature","geometry":{"type":"Point","coordinates":[-93.790527,41.559065]}},{"properties":{"city":"Salinas","zipcode":"93906","geo_score":0.721,"id":"a64an6l57cdw","geo_precision":"street","address":"686 Northridge Mall","state":"CA"},"type":"Feature","geometry":{"type":"Point","coordinates":[-121.653087,36.722702]}},{"properties":{"city":"City of DuBois","zipcode":"15801","geo_score":0.585,"id":"a64an6fruirm","geo_precision":"zip","address":"690 Schaffer Road","state":"PA"},"type":"Feature","geometry":{"type":"Point","coordinates":[-78.786975,41.078951]}},{"properties":{"city":"Saint Petersburg","zipcode":"33710","geo_score":0.927,"id":"a64an6j1jf2s","geo_precision":"range","address":"6901 22nd Ave N","state":"FL"},"type":"Feature","geometry":{"type":"Point","coordinates":[-82.734771,27.791809]}},{"properties":{"city":"Windsor Mill","zipcode":"21244","geo_score":0.869,"id":"a64an6bl5x31","geo_precision":"range","address":"6901 Security Square Blvd","state":"MD"},"type":"Feature","geometry":{"type":"Point","coordinates":[-76.750237,39.312864]}},{"properties":{"city":"New Hyde Park","zipcode":"11040","geo_score":0.911,"id":"a64an6i7998z","geo_precision":"range","address":"697 Hillside Ave","state":"NY"},"type":"Feature","geometry":{"type":"Point","coordinates":[-73.666961,40.752277]}},{"properties":{"city":"Danbury","zipcode":"6810","geo_score":0.925,"id":"a64an6e9ri5n","geo_precision":"range","address":"7 Backus Ave","state":"CT"},"type":"Feature","geometry":{"type":"Point","coordinates":[-73.482415,41.378077]}},{"properties":{"city":"Worcester","zipcode":"1606","geo_score":0.913,"id":"a64an6gnjr3f","geo_precision":"range","address":"7 Neponset St","state":"MA"},"type":"Feature","geometry":{"type":"Point","coordinates":[-71.801872,42.299179]}},{"properties":{"city":"Millbury","zipcode":"1527","geo_score":0.815,"id":"a64an6d43ifs","geo_precision":"street","address":"70 Worcester Providence Turnpike","state":"MA"},"type":"Feature","geometry":{"type":"Point","coordinates":[-71.767217,42.188069]}},{"properties":{"city":"Conway","zipcode":"72032","geo_score":0.585,"id":"a64an6aq94nf","geo_precision":"zip","address":"700 Elsinger Blvd","state":"AR"},"type":"Feature","geometry":{"type":"Point","coordinates":[-92.326542,35.027587]}},{"properties":{"city":"Paramus","zipcode":"7652","geo_score":0.92,"id":"a64an6cchn6c","geo_precision":"range","address":"700 Paramus Park","state":"NJ"},"type":"Feature","geometry":{"type":"Point","coordinates":[-74.090177,40.973539]}},{"properties":{"city":"Hanover","zipcode":"21076","geo_score":0.473,"id":"a64an6e3whzz","geo_precision":"street","address":"7000 Arundel Mills Circle","state":"MD"},"type":"Feature","geometry":{"type":"Point","coordinates":[-76.456115,39.056311]}},{"properties":{"city":"Durham","zipcode":"27713","geo_score":0.958,"id":"a64an6h0ojk0","geo_precision":"range","address":"7001 Fayetteville","state":"NC"},"type":"Feature","geometry":{"type":"Point","coordinates":[-78.939991,35.900647]}},{"properties":{"city":"Jersey City","zipcode":"7304","geo_score":0.737,"id":"a64an6psdfw0","geo_precision":"street","address":"701 State Route 440","state":"NJ"},"type":"Feature","geometry":{"type":"Point","coordinates":[-74.093204,40.720177]}},{"properties":{"city":"Tualatin","zipcode":"97062","geo_score":0.902,"id":"a64an6iux5fl","geo_precision":"range","address":"7087 SW Nyberg St","state":"OR"},"type":"Feature","geometry":{"type":"Point","coordinates":[-122.748072,45.382691]}},{"properties":{"city":"Bethesda","zipcode":"20817","geo_score":0.91,"id":"a64an6kvesrc","geo_precision":"range","address":"7101 Democracy Blvd","state":"MD"},"type":"Feature","geometry":{"type":"Point","coordinates":[-77.147013,39.022054]}},{"properties":{"city":"West Jordan","zipcode":"84084","geo_score":0.672,"id":"a64an6lnqg04","geo_precision":"range","address":"7113 Plaza Center Dr","state":"UT"},"type":"Feature","geometry":{"type":"Point","coordinates":[-112.283351,40.658029]}},{"properties":{"city":"Midvale","zipcode":"84047","geo_score":0.902,"id":"a64an6brnv1a","geo_precision":"range","address":"7123 S 1300 E","state":"UT"},"type":"Feature","geometry":{"type":"Point","coordinates":[-111.855514,40.621982]}},{"properties":{"city":"Champaign","zipcode":"61822","geo_score":1.0,"id":"a64an6brgbk2","geo_precision":"range","address":"716 W Town Center Blvd","state":"IL"},"type":"Feature","geometry":{"type":"Point","coordinates":[-88.253406,40.142626]}},{"properties":{"city":"Fort Wayne","zipcode":"46805","geo_score":0.47,"id":"a64an6c5ekdd","geo_precision":"street","address":"721 Northcrest Shopping CTR","state":"IN"},"type":"Feature","geometry":{"type":"Point","coordinates":[-85.130748,41.121815]}},{"properties":{"city":"Colonial Heights","zipcode":"23834","geo_score":0.909,"id":"a64an6e60zqg","geo_precision":"range","address":"721 Southpark Blvd","state":"VA"},"type":"Feature","geometry":{"type":"Point","coordinates":[-77.389895,37.249776]}},{"properties":{"city":"Brooksville","zipcode":"34613","geo_score":0.53,"id":"a64an6g4hdat","geo_precision":"street","address":"7211 Coastal Blvd","state":"FL"},"type":"Feature","geometry":{"type":"Point","coordinates":[-82.763336,28.008861]}},{"properties":{"city":"Scarsdale","zipcode":"10583","geo_score":0.935,"id":"a64an6advg55","geo_precision":"range","address":"723 White Plains Road","state":"NY"},"type":"Feature","geometry":{"type":"Point","coordinates":[-73.805241,40.971876]}},{"properties":{"city":"Mechanicsville","zipcode":"23111","geo_score":0.915,"id":"a64an6b490wq","geo_precision":"range","address":"7230 Bell Creek Road","state":"VA"},"type":"Feature","geometry":{"type":"Point","coordinates":[-77.348777,37.600905]}},{"properties":{"city":"Fenton","zipcode":"63026","geo_score":0.902,"id":"a64an6okpa7v","geo_precision":"range","address":"725 Gravois Road","state":"MO"},"type":"Feature","geometry":{"type":"Point","coordinates":[-90.446137,38.511639]}},{"properties":{"city":"Marlton","zipcode":"8053","geo_score":0.737,"id":"a64an6okcodo","geo_precision":"range","address":"730 Route 73 S","state":"NJ"},"type":"Feature","geometry":{"type":"Point","coordinates":[-74.921774,39.868819]}},{"properties":{"city":"Mentor","zipcode":"44060","geo_score":0.941,"id":"a64an6ivqman","geo_precision":"range","address":"7317 Mentor Ave","state":"OH"},"type":"Feature","geometry":{"type":"Point","coordinates":[-81.379928,41.65141]}},{"properties":{"city":"Bryant","zipcode":"72022","geo_score":0.805,"id":"a64an6hvaxda","geo_precision":"range","address":"7341 Alcoa Road","state":"AR"},"type":"Feature","geometry":{"type":"Point","coordinates":[-92.534241,34.603601]}},{"properties":{"city":"Peoria","zipcode":"85382","geo_score":0.805,"id":"a64an6pi56zh","geo_precision":"street","address":"7375 W Bell Road","state":"AZ"},"type":"Feature","geometry":{"type":"Point","coordinates":[-112.236032,33.638169]}},{"properties":{"city":"Tucson","zipcode":"85741","geo_score":0.452,"id":"a64an6gkffcr","geo_precision":"street","address":"7401 N la Cholla Blvd","state":"AZ"},"type":"Feature","geometry":{"type":"Point","coordinates":[-110.984469,32.354304]}},{"properties":{"city":"Fresno","zipcode":"93720","geo_score":1.0,"id":"a64an69s1p5k","geo_precision":"range","address":"7418 N Blackstone Ave","state":"CA"},"type":"Feature","geometry":{"type":"Point","coordinates":[-119.790562,36.844931]}},{"properties":{"city":"Gresham","zipcode":"97030","geo_score":0.846,"id":"a64an6off918","geo_precision":"range","address":"747 NW 12th St","state":"OR"},"type":"Feature","geometry":{"type":"Point","coordinates":[-122.440042,45.505845]}},{"properties":{"city":"Greenbelt","zipcode":"20770","geo_score":0.916,"id":"a64an6bq2hwo","geo_precision":"range","address":"7483 Greenbelt Road","state":"MD"},"type":"Feature","geometry":{"type":"Point","coordinates":[-76.878537,38.994196]}},{"properties":{"city":"North Riverside","zipcode":"60546","geo_score":1.0,"id":"a64an6h52q33","geo_precision":"range","address":"7501 W Cermak Road","state":"IL"},"type":"Feature","geometry":{"type":"Point","coordinates":[-87.808078,41.850291]}},{"properties":{"city":"East Brunswick","zipcode":"8816","geo_score":0.925,"id":"a64an6bujcqu","geo_precision":"range","address":"755 State Route 18","state":"NJ"},"type":"Feature","geometry":{"type":"Point","coordinates":[-74.382837,40.427691]}},{"properties":{"city":"Victor","zipcode":"14564","geo_score":0.833,"id":"a64an6iovyil","geo_precision":"range","address":"7556 Commons Blvd","state":"NY"},"type":"Feature","geometry":{"type":"Point","coordinates":[-77.446433,43.033044]}},{"properties":{"city":"Edina","zipcode":"55435","geo_score":0.891,"id":"a64an6iolwbf","geo_precision":"range","address":"7595 France Ave","state":"MN"},"type":"Feature","geometry":{"type":"Point","coordinates":[-93.32888,44.865583]}},{"properties":{"city":"Chicago","zipcode":"60652","geo_score":1.0,"id":"a64an6keew1u","geo_precision":"range","address":"7601 S Cicero Ave","state":"IL"},"type":"Feature","geometry":{"type":"Point","coordinates":[-87.741521,41.754349]}},{"properties":{"city":"Charleston","zipcode":"29406","geo_score":0.751,"id":"a64an6p6chxf","geo_precision":"range","address":"7620 Rivers Ave N","state":"SC"},"type":"Feature","geometry":{"type":"Point","coordinates":[-80.040042,32.940283]}},{"properties":{"city":"Colorado Springs","zipcode":"80920","geo_score":1.0,"id":"a64an6hkvrdy","geo_precision":"range","address":"7665 N Academy Blvd","state":"CO"},"type":"Feature","geometry":{"type":"Point","coordinates":[-104.799835,38.942375]}},{"properties":{"city":"Wichita","zipcode":"67207","geo_score":0.912,"id":"a64an6igb9bu","geo_precision":"range","address":"7700 E Kellogg Dr","state":"KS"},"type":"Feature","geometry":{"type":"Point","coordinates":[-97.247832,37.679508]}},{"properties":{"city":"Florence","zipcode":"41042","geo_score":0.902,"id":"a64an6i7pfef","geo_precision":"range","address":"7719 Mall Road","state":"KY"},"type":"Feature","geometry":{"type":"Point","coordinates":[-84.653585,38.997701]}},{"properties":{"city":"Cincinnati","zipcode":"45236","geo_score":0.912,"id":"a64an6ea722i","geo_precision":"range","address":"7800 Montgomery Road","state":"OH"},"type":"Feature","geometry":{"type":"Point","coordinates":[-84.380414,39.198935]}},{"properties":{"city":"Savannah","zipcode":"31406","geo_score":0.902,"id":"a64an6gme5k3","geo_precision":"range","address":"7804 Abercorn St","state":"GA"},"type":"Feature","geometry":{"type":"Point","coordinates":[-81.118142,32.004523]}},{"properties":{"city":"Louisville","zipcode":"40222","geo_score":0.911,"id":"a64an6n4q6j0","geo_precision":"range","address":"7900 Shelbyville Road","state":"KY"},"type":"Feature","geometry":{"type":"Point","coordinates":[-85.606669,38.248825]}},{"properties":{"city":"Boston","zipcode":"2125","geo_score":0.927,"id":"a64an6fab5ky","geo_precision":"range","address":"8 Allstate Road","state":"MA"},"type":"Feature","geometry":{"type":"Point","coordinates":[-71.06502,42.324741]}},{"properties":{"city":"Evansville","zipcode":"47715","geo_score":1.0,"id":"a64an6m28zu5","geo_precision":"range","address":"800 N Greenriver Road","state":"IN"},"type":"Feature","geometry":{"type":"Point","coordinates":[-87.492684,37.983418]}},{"properties":{"city":"Jeffersonville","zipcode":"43128","geo_score":0.916,"id":"a64an6dte5i1","geo_precision":"range","address":"8000 Factory Shops Blvd","state":"OH"},"type":"Feature","geometry":{"type":"Point","coordinates":[-83.602195,39.616797]}},{"properties":{"city":"Orlando","zipcode":"32809","geo_score":0.911,"id":"a64an6luna60","geo_precision":"range","address":"8001 S Orange Blossom Trail","state":"FL"},"type":"Feature","geometry":{"type":"Point","coordinates":[-81.400877,28.450245]}},{"properties":{"city":"South Windsor","zipcode":"6074","geo_score":0.651,"id":"a64an6hryt3k","geo_precision":"street","address":"801 Evergreen Way","state":"CT"},"type":"Feature","geometry":{"type":"Point","coordinates":[-72.579813,41.812556]}},{"properties":{"city":"Estero","zipcode":"33928","geo_score":0.61,"id":"a64an6bistfu","geo_precision":"street","address":"8018 Mediterranean Dr","state":"FL"},"type":"Feature","geometry":{"type":"Point","coordinates":[-82.058267,26.915025]}},{"properties":{"city":"Maple Grove","zipcode":"55369","geo_score":1.0,"id":"a64an6eq7guf","geo_precision":"range","address":"8020 Wedgewood Lane N","state":"MN"},"type":"Feature","geometry":{"type":"Point","coordinates":[-93.449712,45.100526]}},{"properties":{"city":"Montgomery","zipcode":"36117","geo_score":0.683,"id":"a64an6j92zsn","geo_precision":"zip","address":"8031 Eastchase Parkway","state":"AL"},"type":"Feature","geometry":{"type":"Point","coordinates":[-86.116486,32.370048]}},{"properties":{"city":"Concord","zipcode":"28027","geo_score":1.0,"id":"a64an6b07os2","geo_precision":"range","address":"8111 Concord Mills Blvd","state":"NC"},"type":"Feature","geometry":{"type":"Point","coordinates":[-80.714987,35.36966]}},{"properties":{"city":"Nottingham","zipcode":"21236","geo_score":0.909,"id":"a64an6an263k","geo_precision":"range","address":"8123 Honeygo Blvd","state":"MD"},"type":"Feature","geometry":{"type":"Point","coordinates":[-76.466865,39.371697]}},{"properties":{"city":"Eden Prairie","zipcode":"55344","geo_score":0.805,"id":"a64an6fkoor4","geo_precision":"range","address":"8251 Flying Cloud Dr","state":"MN"},"type":"Feature","geometry":{"type":"Point","coordinates":[-93.429839,44.8541]}},{"properties":{"city":"Vienna","zipcode":"26105","geo_score":1.0,"id":"a64an6ggfgdw","geo_precision":"range","address":"830 Grand Central Ave","state":"WV"},"type":"Feature","geometry":{"type":"Point","coordinates":[-81.55176,39.307083]}},{"properties":{"city":"Woodbury","zipcode":"55125","geo_score":0.69,"id":"a64an6iw6gst","geo_precision":"street","address":"8306 Tamarack Village","state":"MN"},"type":"Feature","geometry":{"type":"Point","coordinates":[-92.936749,44.941559]}},{"properties":{"city":"Saint Louis Park","zipcode":"55426","geo_score":0.761,"id":"a64an6cc11jq","geo_precision":"range","address":"8308 Highway 7","state":"MN"},"type":"Feature","geometry":{"type":"Point","coordinates":[-93.382621,44.935927]}},{"properties":{"city":"Selma","zipcode":"78154","geo_score":0.683,"id":"a64an6hvyb1w","geo_precision":"zip","address":"8328 Agora Parkway","state":"TX"},"type":"Feature","geometry":{"type":"Point","coordinates":[-98.305846,29.584395]}},{"properties":{"city":"Huntington","zipcode":"11743","geo_score":0.922,"id":"a64an6ak9sm3","geo_precision":"range","address":"839-114 New York Ave","state":"NY"},"type":"Feature","geometry":{"type":"Point","coordinates":[-73.417977,40.85914]}},{"properties":{"city":"Elmira","zipcode":"14903","geo_score":0.92,"id":"a64an6jx5uyq","geo_precision":"range","address":"845 County Road 64","state":"NY"},"type":"Feature","geometry":{"type":"Point","coordinates":[-76.883429,42.153882]}},{"properties":{"city":"Bronx","zipcode":"10473","geo_score":0.92,"id":"a64an6heqac3","geo_precision":"range","address":"845 White Plains Road","state":"NY"},"type":"Feature","geometry":{"type":"Point","coordinates":[-73.858657,40.823942]}},{"properties":{"city":"Deer Park","zipcode":"11729","geo_score":0.585,"id":"a64an6ewrgva","geo_precision":"zip","address":"850 Arches Circle","state":"NY"},"type":"Feature","geometry":{"type":"Point","coordinates":[-73.343175,40.776488]}},{"properties":{"city":"Town of Waterford","zipcode":"6385","geo_score":0.909,"id":"a64an6h34a0o","geo_precision":"range","address":"850 Hartford Turnpike","state":"CT"},"type":"Feature","geometry":{"type":"Point","coordinates":[-72.141065,41.374832]}},{"properties":{"city":"Gainesville","zipcode":"30501","geo_score":0.927,"id":"a64an6ezyjcd","geo_precision":"range","address":"855 Dawsonville Highway","state":"GA"},"type":"Feature","geometry":{"type":"Point","coordinates":[-83.852763,34.295516]}},{"properties":{"city":"Denver","zipcode":"80238","geo_score":0.427,"id":"a64an6b53ca2","geo_precision":"street","address":"8560 E 49th St","state":"CO"},"type":"Feature","geometry":{"type":"Point","coordinates":[-104.863296,39.78655]}},{"properties":{"city":"Kansas City","zipcode":"64114","geo_score":1.0,"id":"a64an6bp983w","geo_precision":"range","address":"8600 Ward Parkway","state":"MO"},"type":"Feature","geometry":{"type":"Point","coordinates":[-94.605671,38.972084]}},{"properties":{"city":"Indianapolis","zipcode":"46240","geo_score":0.804,"id":"a64an6fvoetu","geo_precision":"range","address":"8631 River Crossing Blvd","state":"IN"},"type":"Feature","geometry":{"type":"Point","coordinates":[-86.106501,39.912057]}},{"properties":{"city":"Clackamas","zipcode":"97015","geo_score":0.902,"id":"a64an6gu4ht6","geo_precision":"range","address":"8646 SE Sunnyside Road","state":"OR"},"type":"Feature","geometry":{"type":"Point","coordinates":[-122.576092,45.433248]}},{"properties":{"city":"Denver","zipcode":"80214","geo_score":0.589,"id":"a64an6cmzwel","geo_precision":"street","address":"8674 Park Meadows Center Dr","state":"CO"},"type":"Feature","geometry":{"type":"Point","coordinates":[-105.078642,39.728446]}},{"properties":{"city":"Kansas City","zipcode":"64153","geo_score":0.805,"id":"a64an6chmu7h","geo_precision":"street","address":"8677 NW Prairieview Road","state":"MO"},"type":"Feature","geometry":{"type":"Point","coordinates":[-94.664216,39.259563]}},{"properties":{"city":"Tulsa","zipcode":"74133","geo_score":0.916,"id":"a64an6n762nr","geo_precision":"range","address":"8722 E 71st St","state":"OK"},"type":"Feature","geometry":{"type":"Point","coordinates":[-95.879727,36.060888]}},{"properties":{"city":"Bay Shore","zipcode":"11706","geo_score":0.967,"id":"a64an6mv68db","geo_precision":"range","address":"880 Sunrise Highway","state":"NY"},"type":"Feature","geometry":{"type":"Point","coordinates":[-73.286945,40.726177]}},{"properties":{"city":"West Babylon","zipcode":"11704","geo_score":0.973,"id":"a64an6i3gq03","geo_precision":"range","address":"881 W Montauk Highway","state":"NY"},"type":"Feature","geometry":{"type":"Point","coordinates":[-73.348401,40.685108]}},{"properties":{"city":"Ladue","zipcode":"63124","geo_score":1.0,"id":"a64an6hgowkq","geo_precision":"range","address":"8881 Ladue Road","state":"MO"},"type":"Feature","geometry":{"type":"Point","coordinates":[-90.353173,38.653347]}},{"properties":{"city":"Everett","zipcode":"2149","geo_score":0.916,"id":"a64an6ekxsx3","geo_precision":"range","address":"9 Mystic View Road","state":"MA"},"type":"Feature","geometry":{"type":"Point","coordinates":[-71.069913,42.402072]}},{"properties":{"city":"Methuen","zipcode":"1844","geo_score":0.929,"id":"a64an6gpdo5a","geo_precision":"range","address":"90 Pleasant Valley St","state":"MA"},"type":"Feature","geometry":{"type":"Point","coordinates":[-71.179503,42.73271]}},{"properties":{"city":"Walpole","zipcode":"2032","geo_score":0.882,"id":"a64an6mka6fv","geo_precision":"range","address":"90 Providence Highway Route 1","state":"MA"},"type":"Feature","geometry":{"type":"Point","coordinates":[-71.20557,42.15409]}},{"properties":{"city":"Charlotte","zipcode":"28262","geo_score":0.902,"id":"a64an6mei5yz","geo_precision":"range","address":"9000 J M Keynes Blvd","state":"NC"},"type":"Feature","geometry":{"type":"Point","coordinates":[-80.747979,35.310851]}},{"properties":{"city":"Owasso","zipcode":"74055","geo_score":0.805,"id":"a64an6o27psw","geo_precision":"street","address":"9018 N 121st E Ave","state":"OK"},"type":"Feature","geometry":{"type":"Point","coordinates":[-95.840195,36.275722]}},{"properties":{"city":"Syracuse","zipcode":"13290","geo_score":0.937,"id":"a64an6eqaqy3","geo_precision":"range","address":"9090 Carousel CTR","state":"NY"},"type":"Feature","geometry":{"type":"Point","coordinates":[-76.170543,43.066937]}},{"properties":{"city":"Milwaukee","zipcode":"53209","geo_score":0.924,"id":"a64an6hzskch","geo_precision":"range","address":"9094 N Green Bay Road","state":"WI"},"type":"Feature","geometry":{"type":"Point","coordinates":[-87.96355,43.182985]}},{"properties":{"city":"Elk Grove","zipcode":"95758","geo_score":0.684,"id":"a64an6hut3fo","geo_precision":"street","address":"9155 W Stockton Blvd","state":"CA"},"type":"Feature","geometry":{"type":"Point","coordinates":[-121.395079,38.420961]}},{"properties":{"city":"Pittsburgh","zipcode":"15238","geo_score":0.912,"id":"a64an6heaiwy","geo_precision":"range","address":"923 Freeport Road","state":"PA"},"type":"Feature","geometry":{"type":"Point","coordinates":[-79.851728,40.507378]}},{"properties":{"city":"San Jose","zipcode":"95123","geo_score":0.878,"id":"a64an6nehnu2","geo_precision":"range","address":"925 Blossom Hill Road","state":"CA"},"type":"Feature","geometry":{"type":"Point","coordinates":[-121.861696,37.250393]}},{"properties":{"city":"Bismarck","zipcode":"58501","geo_score":0.785,"id":"a64an6b5i8k9","geo_precision":"street","address":"933 W Interstate Ave","state":"ND"},"type":"Feature","geometry":{"type":"Point","coordinates":[-100.774271,46.834507]}},{"properties":{"city":"Onalaska","zipcode":"54650","geo_score":0.729,"id":"a64an6h8gim1","geo_precision":"street","address":"9344 State Road 16","state":"WI"},"type":"Feature","geometry":{"type":"Point","coordinates":[-91.201453,43.867549]}},{"properties":{"city":"Charlottesville","zipcode":"22903","geo_score":0.793,"id":"a64an6q0q0cd","geo_precision":"street","address":"945 Emmet St N","state":"VA"},"type":"Feature","geometry":{"type":"Point","coordinates":[-78.502186,38.049805]}},{"properties":{"city":"Waipahu","zipcode":"96797","geo_score":0.61,"id":"a64an6eizfa3","geo_precision":"street","address":"94-815 Lumiaina St","state":"HI"},"type":"Feature","geometry":{"type":"Point","coordinates":[-158.013443,21.393186]}},{"properties":{"city":"Brookfield","zipcode":"53005","geo_score":1.0,"id":"a64an6e5vum6","geo_precision":"range","address":"95 N Moorland Road","state":"WI"},"type":"Feature","geometry":{"type":"Point","coordinates":[-88.106894,43.032213]}},{"properties":{"city":"Gilroy","zipcode":"95020","geo_score":0.711,"id":"a64an6ltbx6b","geo_precision":"street","address":"950 Renz Lane","state":"CA"},"type":"Feature","geometry":{"type":"Point","coordinates":[-121.55833,37.008459]}},{"properties":{"city":"Silverdale","zipcode":"98383","geo_score":0.911,"id":"a64an6eh9rw4","geo_precision":"range","address":"9551 Ridgetop Blvd NW","state":"WA"},"type":"Feature","geometry":{"type":"Point","coordinates":[-122.679763,47.654098]}},{"properties":{"city":"Charlotte","zipcode":"28273","geo_score":0.382,"id":"a64an6dags5k","geo_precision":"street","address":"9551 S Blvd","state":"NC"},"type":"Feature","geometry":{"type":"Point","coordinates":[-80.830461,35.10651]}},{"properties":{"city":"Rego Park","zipcode":"11374","geo_score":0.64,"id":"a64an6gsmn80","geo_precision":"street","address":"9605 Queens Blvd 3rd FL","state":"NY"},"type":"Feature","geometry":{"type":"Point","coordinates":[-73.861417,40.729817]}},{"properties":{"city":"Austin","zipcode":"78759","geo_score":0.888,"id":"a64an6ftnzii","geo_precision":"range","address":"9607 Research BVD","state":"TX"},"type":"Feature","geometry":{"type":"Point","coordinates":[-97.743791,30.388773]}},{"properties":{"city":"Charlotte","zipcode":"28269","geo_score":0.487,"id":"a64an6c0marf","geo_precision":"street","address":"9729 Northlake Centre Parkway","state":"NC"},"type":"Feature","geometry":{"type":"Point","coordinates":[-80.854013,35.310067]}},{"properties":{"city":"Warminster","zipcode":"18974","geo_score":0.605,"id":"a64an6modboh","geo_precision":"zip","address":"976 W St Road","state":"PA"},"type":"Feature","geometry":{"type":"Point","coordinates":[-75.065726,40.230386]}},{"properties":{"city":"Gillette","zipcode":"7933","geo_score":0.911,"id":"a64an6ejrcoz","geo_precision":"range","address":"977 Valley Road","state":"NJ"},"type":"Feature","geometry":{"type":"Point","coordinates":[-74.476365,40.670764]}},{"properties":{"city":"Charlotte","zipcode":"28277","geo_score":0.805,"id":"a64an6dnqeti","geo_precision":"street","address":"9786 Rea Road","state":"NC"},"type":"Feature","geometry":{"type":"Point","coordinates":[-80.812437,35.058122]}},{"properties":{"city":"Cincinnati","zipcode":"45249","geo_score":0.916,"id":"a64an6ffev70","geo_precision":"range","address":"9883 Waterstone","state":"OH"},"type":"Feature","geometry":{"type":"Point","coordinates":[-84.306227,39.29257]}},{"properties":{"city":"Marlborough","zipcode":"1752","geo_score":0.343,"id":"a64an69wd9ux","geo_precision":"street","address":"Donald Lynch Blvd","state":"MA"},"type":"Feature","geometry":{"type":"Point","coordinates":[-71.362538,42.306349]}},{"properties":{"city":"Stroudsburg","zipcode":"18360","geo_score":0.896,"id":"a64an6eamdmg","geo_precision":"zip","address":"Heller St","state":"PA"},"type":"Feature","geometry":{"type":"Point","coordinates":[-75.243515,40.951761]}},{"properties":{"city":"Marina","zipcode":"93933","geo_score":0.439,"id":"a64an6gxsesk","geo_precision":"street","address":"Light Fighter Dr","state":"CA"},"type":"Feature","geometry":{"type":"Point","coordinates":[-121.821402,36.638855]}},{"properties":{"city":"Alcoa","zipcode":"37701","geo_score":0.76,"id":"a64an6ldqxn6","geo_precision":"street","address":"Highway 129","state":"TN"},"type":"Feature","geometry":{"type":"Point","coordinates":[-83.986623,35.805465]}},{"properties":{"city":"Charlotte","zipcode":"28278","geo_score":0.805,"id":"a64an6bl47a3","geo_precision":"street","address":"Highway 160","state":"NC"},"type":"Feature","geometry":{"type":"Point","coordinates":[-80.959034,35.193626]}},{"properties":{"city":"Papillion","zipcode":"68046","geo_score":0.705,"id":"a64an6nlj8s0","geo_precision":"street","address":"72nd St","state":"NE"},"type":"Feature","geometry":{"type":"Point","coordinates":[-96.023825,41.19065]}},{"properties":{"city":"Robinsonville","zipcode":"38664","geo_score":0.706,"id":"a64an6cg2b20","geo_precision":"street","address":"Highway 61 N","state":"MS"},"type":"Feature","geometry":{"type":"Point","coordinates":[-90.41129,34.565308]}},{"properties":{"city":"Goodyear","zipcode":"85338","geo_score":1.0,"id":"a64an6np32vi","geo_precision":"street","address":"Estrella Parkway","state":"AZ"},"type":"Feature","geometry":{"type":"Point","coordinates":[-112.392526,33.446309]}},{"properties":{"city":"Locust Grove","zipcode":"30248","geo_score":0.883,"id":"a64an6hw45je","geo_precision":"street","address":"Locust Grove Road","state":"GA"},"type":"Feature","geometry":{"type":"Point","coordinates":[-84.139761,33.305749]}},{"properties":{"city":"Township of Hamilton","zipcode":"8691","geo_score":0.865,"id":"a64an6esksts","geo_precision":"zip","address":"Marketplace Blvd","state":"NJ"},"type":"Feature","geometry":{"type":"Point","coordinates":[-74.61599,40.258165]}},{"properties":{"city":"North Conway","zipcode":"3860","geo_score":0.805,"id":"a64an6kmq4w1","geo_precision":"street","address":"Route 16 Main St","state":"NH"},"type":"Feature","geometry":{"type":"Point","coordinates":[-71.124751,44.044574]}},{"properties":{"city":"Greensburg","zipcode":"15601","geo_score":0.643,"id":"a64an6pdfdrp","geo_precision":"street","address":"Route 30 E","state":"PA"},"type":"Feature","geometry":{"type":"Point","coordinates":[-79.472595,40.294252]}},{"properties":{"city":"Hazleton","zipcode":"18201","geo_score":0.87,"id":"a64an6pnc8p9","geo_precision":"zip","address":"Route 93","state":"PA"},"type":"Feature","geometry":{"type":"Point","coordinates":[-75.993537,40.93453]}},{"properties":{"city":"Mooresville","zipcode":"28115","geo_score":0.714,"id":"a64an6izqo9s","geo_precision":"street","address":"Williamson Road","state":"NC"},"type":"Feature","geometry":{"type":"Point","coordinates":[-80.870376,35.592883]}}],"is_temporal":false,"author":{"url":"http://oldnavy.gap.com/customerService/storeLocator.do","metadata":"","contact_name":"","contact_address":"","source":"Old Navy Store Locator","contact_phone":""},"source":"http://oldnavy.gap.com/customerService/storeLocator.do","pagination":{"sort":null,"start":0,"total":722,"limit":1000000},"state":"complete","tags":"oldnavy,retail,store","published":"2011-03-22T20:53:42Z","id":102839}