{"type":"FeatureCollection","data_type":"Dataset","url_type":null,"permissions":[{"permissions":{"download":true,"view":true},"group_id":"everyone"}],"classification":null,"title":"Area School Location List 32311 with discrete address ","count":465,"stream_id":103390,"contributor":{"url":"http://geocommons.com/users/24185","name":"chenao"},"data_attributes":null,"calculation_params":null,"icon_link":null,"link":"http://geocommons.com/overlays/103390.json","extent":[-96.626,38.0692,-94.608,39.5947],"geometry_types":["point"],"unique_name":null,"name":"Area School Location List 32311 with discrete address ","feature_count":465,"description":"","next_feature":null,"is_raster":false,"short_classification":"Y","stats":{},"features":[{"properties":{"city":"Baldwin City","name":"Baldwin Elementary Intermediate Center","zip":"66006","building labels\"1st_line\"":"Dan Wallsmith","geo_score":0.883,"column_8":"66006","2nd_line":"USD 348  BLDG 4151","column_9":"Baldwin City KS 66006","id":"a6fwa9laas9h","geo_precision":"zip","address":"Bullpup Dr.","state":"KS"},"type":"Feature","geometry":{"type":"Point","coordinates":[-95.33442,38.782228]}},{"properties":{"city":"Baldwin City","name":"Baldwin Elementary Primary Center","zip":"66006","building labels\"1st_line\"":"Deb Ehling-Gwin","geo_score":0.798,"column_8":"66006","2nd_line":"USD 348  BLDG 4150","column_9":"Baldwin City KS 66006","id":"a6fwa9f4kd1p","geo_precision":"range","address":"500 Lawrence St.","state":"KS"},"type":"Feature","geometry":{"type":"Point","coordinates":[-95.20498,38.776982]}},{"properties":{"city":"Baldwin City","name":"East Central KS Coop in Educ","zip":"66006","building labels\"1st_line\"":"Principal","geo_score":0.654,"column_8":"66006","2nd_line":"ORG D0614  BLDG 9058","column_9":null,"id":"a6fwa9dwughn","geo_precision":"street","address":"715 Chapel","state":"KS"},"type":"Feature","geometry":{"type":"Point","coordinates":[-95.188865,38.780156]}},{"properties":{"city":"Baldwin City","name":"Marion Springs","zip":"66006","building labels\"1st_line\"":"Gus Wegner","geo_score":0.526,"column_8":"66006","2nd_line":"USD 348  BLDG 4144","column_9":"Baldwin City KS 66006","id":"a6fwa9oof7da","geo_precision":"street","address":"316 E. 900th Rd.","state":"KS"},"type":"Feature","geometry":{"type":"Point","coordinates":[-95.334362,38.767754]}},{"properties":{"city":"Baldwin City","name":"Vinland Elem","zip":"66006","building labels\"1st_line\"":"Gus Wegner","geo_score":0.516,"column_8":"66006","2nd_line":"USD 348  BLDG 4146","column_9":"Baldwin City KS 66006","id":"a6fwa9qcwuel","geo_precision":"street","address":"702 E. 1747th Rd.","state":"KS"},"type":"Feature","geometry":{"type":"Point","coordinates":[-95.178255,38.840511]}},{"properties":{"city":"Baldwin City","name":"Baldwin High School","zip":"66006","building labels\"1st_line\"":"Shaun Moseman","geo_score":0.628,"column_8":"66006-0067","2nd_line":"USD 348  BLDG 4142","column_9":"Baldwin City KS 66006","id":"a6fwa9gv5tm9","geo_precision":"street","address":"415 Eisenhower Rd.","state":"KS"},"type":"Feature","geometry":{"type":"Point","coordinates":[-95.278945,38.732453]}},{"properties":{"city":"Baldwin City","name":"Baldwin Junior High School","zip":"66006","building labels\"1st_line\"":"Tammy Thomasson","geo_score":0.725,"column_8":"66006-0067","2nd_line":"USD 348  BLDG 4141","column_9":"Baldwin City KS 66006","id":"a6fwa9kz2bzl","geo_precision":"street","address":"400 Eisenhower Rd.","state":"KS"},"type":"Feature","geometry":{"type":"Point","coordinates":[-95.278933,38.731736]}},{"properties":{"city":"Basehor","name":"Basehor-Linwood High School","zip":"66007","building labels\"1st_line\"":"Sherry Reeves","geo_score":0.573,"column_8":null,"2nd_line":"USD 458  BLDG 7164","column_9":"Basehor KS 66007","id":"a6fwa9smwomz","geo_precision":"street","address":"2108 N. 155th St.","state":"KS"},"type":"Feature","geometry":{"type":"Point","coordinates":[-94.93889,39.136418]}},{"properties":{"city":"Basehor","name":"Basehor Elem School","zip":"66007","building labels\"1st_line\"":"Teri Boyd","geo_score":0.959,"column_8":null,"2nd_line":"USD 458  BLDG 7160","column_9":"Basehor KS 66007","id":"a6fwa9ehtael","geo_precision":"range","address":"15602 Leavenworth Rd.","state":"KS"},"type":"Feature","geometry":{"type":"Point","coordinates":[-94.940803,39.143209]}},{"properties":{"city":"Bonner Springs","name":"Basehor-Linwood Middle School","zip":"66012","building labels\"1st_line\"":"Michael Wiley","geo_score":0.672,"column_8":null,"2nd_line":"USD 458  BLDG 7172","column_9":null,"id":"a6fwa9evkypp","geo_precision":"street","address":"15950 Conley Road","state":"KS"},"type":"Feature","geometry":{"type":"Point","coordinates":[-94.953657,39.091429]}},{"properties":{"city":"Bonner Springs","name":"Bonner Springs Elementary","zip":"66012","building labels\"1st_line\"":"Kim Mitchell","geo_score":0.852,"column_8":null,"2nd_line":"USD 204  BLDG 0210","column_9":null,"id":"a6fwa9gum0md","geo_precision":"range","address":"212 S Neconi","state":"KS"},"type":"Feature","geometry":{"type":"Point","coordinates":[-94.886647,39.055632]}},{"properties":{"city":"Bonner Springs","name":"Bonner Springs High","zip":"66012","building labels\"1st_line\"":"Joe Hornback","geo_score":0.94,"column_8":null,"2nd_line":"USD 204  BLDG 0214","column_9":"Bonner Springs KS 66012","id":"a6fwa9tvr4ed","geo_precision":"range","address":"100 McDanield St.","state":"KS"},"type":"Feature","geometry":{"type":"Point","coordinates":[-94.893605,39.0583]}},{"properties":{"city":"Bonner Springs","name":"Glenwood Ridge Elementary School","zip":"66012","building labels\"1st_line\"":"Janet Hancock","geo_score":0.749,"column_8":null,"2nd_line":"USD 458  BLDG 7175","column_9":null,"id":"a6fwa9r3fpbo","geo_precision":"street","address":"17550  157th Terrace","state":"KS"},"type":"Feature","geometry":{"type":"Point","coordinates":[-94.942004,39.094601]}},{"properties":{"city":"Bonner Springs","name":"Head Start Bonner Springs","zip":"66012","building labels\"1st_line\"":"Principal","geo_score":0.526,"column_8":null,"2nd_line":"USD 500  BLDG 8364","column_9":null,"id":"a6fwa9o8j4e8","geo_precision":"street","address":"402 N. Neconi","state":"KS"},"type":"Feature","geometry":{"type":"Point","coordinates":[-94.886667,39.056974]}},{"properties":{"city":"Bonner Springs","name":"Mcdanield North Headstart","zip":"66012","building labels\"1st_line\"":"Principal","geo_score":0.852,"column_8":null,"2nd_line":"USD 204  BLDG 0208","column_9":null,"id":"a6fwa9qd1ixl","geo_precision":"range","address":"402 N Neconi","state":"KS"},"type":"Feature","geometry":{"type":"Point","coordinates":[-94.88669,39.063296]}},{"properties":{"city":"Bonner Springs","name":"Robert E Clark Middle","zip":"66012","building labels\"1st_line\"":"Steve Cook","geo_score":0.347,"column_8":null,"2nd_line":"USD 204  BLDG 0221","column_9":null,"id":"a6fwa9pvqpfm","geo_precision":"street","address":"Box 336","state":"KS"},"type":"Feature","geometry":{"type":"Point","coordinates":[-95.370746,38.069241]}},{"properties":{"city":"Bonner Springs","name":"McDanield Education Resource Center","zip":"66012","building labels\"1st_line\"":"Principal","geo_score":0.516,"column_8":"66012-0435","2nd_line":"USD 204  BLDG 0206","column_9":"Bonner Springs KS 66012","id":"a6fwa9ren693","geo_precision":"street","address":"110 S. Nettleton","state":"KS"},"type":"Feature","geometry":{"type":"Point","coordinates":[-94.884904,39.057376]}},{"properties":{"city":"DeSoto","name":"Starside Elem","zip":"66018","building labels\"1st_line\"":"Jessica Dain","geo_score":0.735,"column_8":"66018","2nd_line":"USD 232  BLDG 0837","column_9":null,"id":"a6fwa9n1mh0g","geo_precision":"range","address":"35400 W 91St","state":"KS"},"type":"Feature","geometry":{"type":"Point","coordinates":[-94.988754,38.964107]}},{"properties":{"city":"DeSoto","name":"Lexington Trails Middle School","zip":"66018","building labels\"1st_line\"":"Steve Ludwig","geo_score":0.902,"column_8":"66018-0509","2nd_line":"USD 232  BLDG 0836","column_9":null,"id":"a6fwa9nztumn","geo_precision":"range","address":"8800 Penner Avenue","state":"KS"},"type":"Feature","geometry":{"type":"Point","coordinates":[-94.983129,38.969745]}},{"properties":{"city":"Eudora","name":"Eudora Elementary School","zip":"66025","building labels\"1st_line\"":"Jan Irby","geo_score":0.919,"column_8":null,"2nd_line":"USD 491  BLDG 8022","column_9":"Eudora KS 66025","id":"a6fwa9rvngyj","geo_precision":"range","address":"1310 Winchester Rd.","state":"KS"},"type":"Feature","geometry":{"type":"Point","coordinates":[-95.111952,38.93044]}},{"properties":{"city":"Eudora","name":"Eudora High  School","zip":"66025","building labels\"1st_line\"":"G.A. Buie","geo_score":0.724,"column_8":null,"2nd_line":"USD 491  BLDG 8023","column_9":"Eudora KS 66025","id":"a6fwa9hrmclk","geo_precision":"street","address":"2203 Church St.","state":"KS"},"type":"Feature","geometry":{"type":"Point","coordinates":[-95.094946,38.930343]}},{"properties":{"city":"Fort Leavenworth","name":"Patton Jr High","zip":"66027","building labels\"1st_line\"":"Steve Bock","geo_score":0.683,"column_8":"66027-1251","2nd_line":"USD 207  BLDG 0294","column_9":null,"id":"a6fwa9ow8czw","geo_precision":"zip","address":"1 Patton Circle","state":"KS"},"type":"Feature","geometry":{"type":"Point","coordinates":[-94.931329,39.346798]}},{"properties":{"city":"Fort Leavenworth","name":"Eisenhower Elem","zip":"66027","building labels\"1st_line\"":"Marlene Black","geo_score":0.565,"column_8":"66027-1252","2nd_line":"USD 207  BLDG 0288","column_9":null,"id":"a6fwa9ntsprl","geo_precision":"street","address":"1 Eisenhower Circle","state":"KS"},"type":"Feature","geometry":{"type":"Point","coordinates":[-95.282006,38.631934]}},{"properties":{"city":"Fort Leavenworth","name":"Bradley Elem","zip":"66027","building labels\"1st_line\"":"John Ernst","geo_score":0.522,"column_8":"66027-1415","2nd_line":"USD 207  BLDG 0286","column_9":null,"id":"a6fwa9i8tych","geo_precision":"street","address":"1 Bradley Circle","state":"KS"},"type":"Feature","geometry":{"type":"Point","coordinates":[-94.778748,38.859004]}},{"properties":{"city":"Fort Leavenworth","name":"MacArthur Elem","zip":"66027","building labels\"1st_line\"":"William Bielefeld","geo_score":0.683,"column_8":"66027-1416","2nd_line":"USD 207  BLDG 0290","column_9":null,"id":"a6fwa9qfi0ds","geo_precision":"zip","address":"1 MacArthur Circle","state":"KS"},"type":"Feature","geometry":{"type":"Point","coordinates":[-94.931329,39.346798]}},{"properties":{"city":"Gardner","name":"Madison Elementary","zip":"66030","building labels\"1st_line\"":"Christi Whitter","geo_score":0.614,"column_8":null,"2nd_line":"USD 231  BLDG 0816","column_9":null,"id":"a6fwa9ngxuqs","geo_precision":"street","address":"800 W. Madison St.","state":"KS"},"type":"Feature","geometry":{"type":"Point","coordinates":[-94.946692,38.818152]}},{"properties":{"city":"Gardner","name":"Moonlight Elementary School","zip":"66030","building labels\"1st_line\"":"Ryan Horne","geo_score":1.0,"column_8":null,"2nd_line":"USD 231  BLDG 0815","column_9":null,"id":"a6fwa9mhxtou","geo_precision":"range","address":"17960 S Moonlight Road","state":"KS"},"type":"Feature","geometry":{"type":"Point","coordinates":[-94.908936,38.802626]}},{"properties":{"city":"Gardner","name":"Nike Elementary","zip":"66030","building labels\"1st_line\"":"Lisa Thompson","geo_score":0.614,"column_8":null,"2nd_line":"USD 231  BLDG 0818","column_9":null,"id":"a6fwa9iyjn82","geo_precision":"street","address":"19500 S. Gardner Road","state":"KS"},"type":"Feature","geometry":{"type":"Point","coordinates":[-94.927551,38.854667]}},{"properties":{"city":"Gardner","name":"Pioneer Ridge Middle School","zip":"66030","building labels\"1st_line\"":"Lachelle Sigg","geo_score":0.805,"column_8":null,"2nd_line":"USD 231  BLDG 0817","column_9":null,"id":"a6fwa9kb3zys","geo_precision":"street","address":"16200 Kill Creek Road","state":"KS"},"type":"Feature","geometry":{"type":"Point","coordinates":[-94.955266,38.85481]}},{"properties":{"city":"Gardner","name":"Sunflower Elementary","zip":"66030","building labels\"1st_line\"":"Dustin Mortenson","geo_score":0.935,"column_8":null,"2nd_line":"USD 231  BLDG 0814","column_9":null,"id":"a6fwa9stoo20","geo_precision":"range","address":"775 North Center","state":"KS"},"type":"Feature","geometry":{"type":"Point","coordinates":[-94.927626,38.822141]}},{"properties":{"city":"Gardner","name":"Wheatridge Middle School","zip":"66030","building labels\"1st_line\"":"Heath Sigg","geo_score":0.604,"column_8":null,"2nd_line":"USD 231  BLDG 0819","column_9":null,"id":"a6fwa9epgqom","geo_precision":"street","address":"318 E. Washington Street","state":"KS"},"type":"Feature","geometry":{"type":"Point","coordinates":[-94.927538,38.812816]}},{"properties":{"city":"Gardner","name":"Gardner Edgerton High","zip":"66030","building labels\"1st_line\"":"Tim Brady","geo_score":0.571,"column_8":null,"2nd_line":"USD 231  BLDG 0808","column_9":null,"id":"a6fwa9rg6ona","geo_precision":"street","address":"425 N. Waverly","state":"KS"},"type":"Feature","geometry":{"type":"Point","coordinates":[-94.945852,38.8111]}},{"properties":{"city":"Gardner","name":"Gardner Elem","zip":"66030","building labels\"1st_line\"":"Pam Tate","geo_score":0.941,"column_8":null,"2nd_line":"USD 231  BLDG 0804","column_9":null,"id":"a6fwa9k95fy7","geo_precision":"range","address":"218 E Shawnee","state":"KS"},"type":"Feature","geometry":{"type":"Point","coordinates":[-94.92471,38.811913]}},{"properties":{"city":"Kansas City","name":"Kiddie Kollege Primary Grade","zip":"66101","building labels\"1st_line\"":"Nicolle Jones","geo_score":1.0,"column_8":"66101","2nd_line":"ORG Z0054  BLDG 9677","column_9":null,"id":"a6fwa9m9kkja","geo_precision":"range","address":"2400 Maxine Williams Drive","state":"KS"},"type":"Feature","geometry":{"type":"Point","coordinates":[-94.631313,39.132914]}},{"properties":{"city":"Kansas City","name":"Pleasant Green Community School","zip":"66101","building labels\"1st_line\"":"Gloria Snowden","geo_score":0.722,"column_8":"66101","2nd_line":"ORG Z0041  BLDG 9482","column_9":null,"id":"a6fwa9fqk4zs","geo_precision":"street","address":"340 Oakland","state":"KS"},"type":"Feature","geometry":{"type":"Point","coordinates":[-94.616089,39.120486]}},{"properties":{"city":"Kansas City","name":"Salvation Army Day Care Center (ks City)","zip":"66101","building labels\"1st_line\"":"Principal","geo_score":0.679,"column_8":"66101","2nd_line":"USD 500  BLDG 8367","column_9":null,"id":"a6fwa9q0dhoh","geo_precision":"street","address":"500 N. 7th Street","state":"KS"},"type":"Feature","geometry":{"type":"Point","coordinates":[-94.627046,39.132822]}},{"properties":{"city":"Kansas City","name":"Wyandotte Academy Mental Health/sp Ed","zip":"66101","building labels\"1st_line\"":"Principal","geo_score":0.679,"column_8":"66101","2nd_line":"USD 500  BLDG 8359","column_9":null,"id":"a6fwa9ntx4nc","geo_precision":"street","address":"3016 N. 9th Street","state":"KS"},"type":"Feature","geometry":{"type":"Point","coordinates":[-94.632004,39.102308]}},{"properties":{"city":"Kansas City","name":"Douglass Elem","zip":"66101","building labels\"1st_line\"":"Marguerite Martinez","geo_score":1.0,"column_8":"66101-2014","2nd_line":"USD 500  BLDG 8285","column_9":null,"id":"a6fwa9e9noj4","geo_precision":"range","address":"1310 N 9th Street","state":"KS"},"type":"Feature","geometry":{"type":"Point","coordinates":[-94.63237,39.118651]}},{"properties":{"city":"Kansas City","name":"Sumner Academy of Arts &amp; Science","zip":"66101","building labels\"1st_line\"":"Eugene Fite","geo_score":0.807,"column_8":"66101-2024","2nd_line":"USD 500  BLDG 8322","column_9":null,"id":"a6fwa9qlm3h2","geo_precision":"street","address":"1610 N 8th Street","state":"KS"},"type":"Feature","geometry":{"type":"Point","coordinates":[-94.629582,39.122358]}},{"properties":{"city":"Kansas City","name":"Grant Elem","zip":"66101","building labels\"1st_line\"":"Janice McConnell-Miller","geo_score":1.0,"column_8":"66101-2319","2nd_line":"USD 500  BLDG 8292","column_9":null,"id":"a6fwa9ku1jp9","geo_precision":"range","address":"1510 N 4th St","state":"KS"},"type":"Feature","geometry":{"type":"Point","coordinates":[-94.618722,39.120296]}},{"properties":{"city":"Kansas City","name":"Banneker Elem","zip":"66101","building labels\"1st_line\"":"Angela Brockman","geo_score":1.0,"column_8":"66101-3449","2nd_line":"USD 500  BLDG 8279","column_9":null,"id":"a6fwa9hj50mf","geo_precision":"range","address":"2026 N 4th Street","state":"KS"},"type":"Feature","geometry":{"type":"Point","coordinates":[-94.618745,39.128664]}},{"properties":{"city":"Kansas City","name":"Central Middle","zip":"66101","building labels\"1st_line\"":"Kris Scott","geo_score":0.941,"column_8":"66101-3643","2nd_line":"USD 500  BLDG 8316","column_9":null,"id":"a6fwa9nx40yx","geo_precision":"range","address":"925 Ivandale","state":"KS"},"type":"Feature","geometry":{"type":"Point","coordinates":[-94.63305,39.096303]}},{"properties":{"city":"Kansas City","name":"Bethany Hospital (ks City)","zip":"66102","building labels\"1st_line\"":"Principal","geo_score":1.0,"column_8":"66102","2nd_line":"USD 500  BLDG 8368","column_9":null,"id":"a6fwa9pu5onq","geo_precision":"range","address":"51 North 12th Street","state":"KS"},"type":"Feature","geometry":{"type":"Point","coordinates":[-94.64009,39.104495]}},{"properties":{"city":"Kansas City","name":"Bishop Ward High School","zip":"66102","building labels\"1st_line\"":"Judy Warren","geo_score":0.883,"column_8":"66102","2nd_line":"ORG Z0029  BLDG 8434","column_9":null,"id":"a6fwa9qmgfkb","geo_precision":"range","address":"708 N 18th","state":"KS"},"type":"Feature","geometry":{"type":"Point","coordinates":[-94.649306,39.112755]}},{"properties":{"city":"Kansas City","name":"Education Center","zip":"66102","building labels\"1st_line\"":"Principal","geo_score":1.0,"column_8":"66102","2nd_line":"USD 500  BLDG 8336","column_9":null,"id":"a6fwa9j6fdfc","geo_precision":"range","address":"4601 State Avenue","state":"KS"},"type":"Feature","geometry":{"type":"Point","coordinates":[-94.686142,39.116614]}},{"properties":{"city":"Kansas City","name":"Fairfax Campus","zip":"66102","building labels\"1st_line\"":"Rufus Black","geo_score":0.74,"column_8":"66102","2nd_line":"USD 500  BLDG 8294","column_9":null,"id":"a6fwa9glwli2","geo_precision":"street","address":"813 Barnett","state":"KS"},"type":"Feature","geometry":{"type":"Point","coordinates":[-94.753286,39.111532]}},{"properties":{"city":"Kansas City","name":"Kansas City, Kansas Early Childhood Center","zip":"66102","building labels\"1st_line\"":"Beverly Manlove","geo_score":0.657,"column_8":"66102","2nd_line":"USD 500  BLDG 8362","column_9":null,"id":"a6fwa9ozvhll","geo_precision":"street","address":"1708 N. 55th Street","state":"KS"},"type":"Feature","geometry":{"type":"Point","coordinates":[-94.706053,39.11888]}},{"properties":{"city":"Kansas City","name":"McKinley Elementary School","zip":"66102","building labels\"1st_line\"":"Theresa Schneweis","geo_score":0.657,"column_8":"66102","2nd_line":"USD 500  BLDG 8281","column_9":null,"id":"a6fwa9qhhtac","geo_precision":"street","address":"611 N. 14th Street","state":"KS"},"type":"Feature","geometry":{"type":"Point","coordinates":[-94.644728,39.105925]}},{"properties":{"city":"Kansas City","name":"Prevention Services","zip":"66102","building labels\"1st_line\"":"Principal","geo_score":0.732,"column_8":"66102","2nd_line":"USD 500  BLDG 8283","column_9":null,"id":"a6fwa9o27yw5","geo_precision":"street","address":"4601 State Avenue, Suite 38","state":"KS"},"type":"Feature","geometry":{"type":"Point","coordinates":[-94.621377,39.116547]}},{"properties":{"city":"Kansas City","name":"Resurrection Catholic School at the Cathedral","zip":"66102","building labels\"1st_line\"":"Ann Connor","geo_score":0.657,"column_8":"66102","2nd_line":"ORG Z0029  BLDG 9897","column_9":null,"id":"a6fwa9ijdwrc","geo_precision":"street","address":"422 N. 14th Street","state":"KS"},"type":"Feature","geometry":{"type":"Point","coordinates":[-94.644728,39.105925]}},{"properties":{"city":"Kansas City","name":"School for Blind Elementary","zip":"66102","building labels\"1st_line\"":"Madeleine Burkindine","geo_score":1.0,"column_8":"66102","2nd_line":"ORG S0604  BLDG 8428","column_9":null,"id":"a6fwa9llgkmx","geo_precision":"range","address":"1100 State Avenue","state":"KS"},"type":"Feature","geometry":{"type":"Point","coordinates":[-94.637419,39.116541]}},{"properties":{"city":"Kansas City","name":"Wyandotte Comp Sp Ed Coop","zip":"66102","building labels\"1st_line\"":"Principal","geo_score":0.732,"column_8":"66102","2nd_line":"USD 500  BLDG 8360","column_9":null,"id":"a6fwa9jwp0wx","geo_precision":"street","address":"4601 State Avenue, Suite 38","state":"KS"},"type":"Feature","geometry":{"type":"Point","coordinates":[-94.621377,39.116547]}},{"properties":{"city":"Kansas City","name":"Coronado Middle","zip":"66102","building labels\"1st_line\"":"Jewell Ragsdale","geo_score":1.0,"column_8":"66102-1009","2nd_line":"USD 500  BLDG 8328","column_9":null,"id":"a6fwa9g2lqoo","geo_precision":"range","address":"1735 N 64th Terr","state":"KS"},"type":"Feature","geometry":{"type":"Point","coordinates":[-94.728425,39.124939]}},{"properties":{"city":"Kansas City","name":"Eugene Ware Elem","zip":"66102","building labels\"1st_line\"":"Bobbie Beverlin","geo_score":0.912,"column_8":"66102-1742","2nd_line":"USD 500  BLDG 8311","column_9":null,"id":"a6fwa9mye2b7","geo_precision":"range","address":"4820 Oakland","state":"KS"},"type":"Feature","geometry":{"type":"Point","coordinates":[-94.689773,39.121153]}},{"properties":{"city":"Kansas City","name":"Lindbergh Elem","zip":"66102","building labels\"1st_line\"":"DeeDee Hines","geo_score":1.0,"column_8":"66102-3309","2nd_line":"USD 500  BLDG 8342","column_9":null,"id":"a6fwa9n0aw9e","geo_precision":"range","address":"641 N 57th St","state":"KS"},"type":"Feature","geometry":{"type":"Point","coordinates":[-94.709843,39.110089]}},{"properties":{"city":"Kansas City","name":"Mark Twain Elem","zip":"66102","building labels\"1st_line\"":"Sandra Egidy","geo_score":1.0,"column_8":"66102-4007","2nd_line":"USD 500  BLDG 8298","column_9":null,"id":"a6fwa9ex6wqz","geo_precision":"range","address":"2300 Minnesota Avenue","state":"KS"},"type":"Feature","geometry":{"type":"Point","coordinates":[-94.655027,39.115534]}},{"properties":{"city":"Kansas City","name":"Wyandotte High","zip":"66102","building labels\"1st_line\"":"Mary Stewart","geo_score":0.951,"column_8":"66102-4021","2nd_line":"USD 500  BLDG 8323","column_9":null,"id":"a6fwa9ogmvoy","geo_precision":"range","address":"2501 Minneosta Avenue","state":"KS"},"type":"Feature","geometry":{"type":"Point","coordinates":[-94.656947,39.115445]}},{"properties":{"city":"Kansas City","name":"School for Blind High","zip":"66102","building labels\"1st_line\"":"Madeleine Burkindine","geo_score":1.0,"column_8":"66102-4486","2nd_line":"ORG S0604  BLDG 8432","column_9":null,"id":"a6fwa9ir436a","geo_precision":"range","address":"1100 State Avenue","state":"KS"},"type":"Feature","geometry":{"type":"Point","coordinates":[-94.637419,39.116541]}},{"properties":{"city":"Kansas City","name":"Frances Willard Elem","zip":"66102","building labels\"1st_line\"":"Sarah Pike","geo_score":0.912,"column_8":"66102-4574","2nd_line":"USD 500  BLDG 8315","column_9":null,"id":"a6fwa9eid4ac","geo_precision":"range","address":"3400 Orville","state":"KS"},"type":"Feature","geometry":{"type":"Point","coordinates":[-94.667689,39.109547]}},{"properties":{"city":"Kansas City","name":"M E Pearson Elem","zip":"66102","building labels\"1st_line\"":"Connie Horner","geo_score":1.0,"column_8":"66102-5136","2nd_line":"USD 500  BLDG 8358","column_9":null,"id":"a6fwa9q5ptej","geo_precision":"range","address":"310 N 11th St","state":"KS"},"type":"Feature","geometry":{"type":"Point","coordinates":[-94.638094,39.10838]}},{"properties":{"city":"Kansas City","name":"Whittier Elem","zip":"66102","building labels\"1st_line\"":"Geri Cunningham","geo_score":1.0,"column_8":"66102-5550","2nd_line":"USD 500  BLDG 8313","column_9":null,"id":"a6fwa9mqiipx","geo_precision":"range","address":"295 S 10th Street","state":"KS"},"type":"Feature","geometry":{"type":"Point","coordinates":[-94.635387,39.095137]}},{"properties":{"city":"Kansas City","name":"Franklin Center (ks City)","zip":"66103","building labels\"1st_line\"":"Principal","geo_score":0.743,"column_8":"66103","2nd_line":"USD 500  BLDG 8369","column_9":null,"id":"a6fwa9ktzmva","geo_precision":"street","address":"14th &amp; Metropolitan","state":"KS"},"type":"Feature","geometry":{"type":"Point","coordinates":[-94.644438,39.056515]}},{"properties":{"city":"Kansas City","name":"Holy Name","zip":"66103","building labels\"1st_line\"":"Kathy Rhodes","geo_score":0.683,"column_8":"66103","2nd_line":"ORG Z0029  BLDG 8384","column_9":null,"id":"a6fwa9fsittr","geo_precision":"zip","address":"1007 SW Blvd","state":"KS"},"type":"Feature","geometry":{"type":"Point","coordinates":[-94.628184,39.066804]}},{"properties":{"city":"Kansas City","name":"Noble Prentis Elem","zip":"66103","building labels\"1st_line\"":"James Poplau","geo_score":0.807,"column_8":"66103-1503","2nd_line":"USD 500  BLDG 8303","column_9":null,"id":"a6fwa9knouwl","geo_precision":"street","address":"2337 S 14th Street","state":"KS"},"type":"Feature","geometry":{"type":"Point","coordinates":[-94.644083,39.055496]}},{"properties":{"city":"Kansas City","name":"Rosedale Middle","zip":"66103","building labels\"1st_line\"":"Nanette Coleman","geo_score":0.955,"column_8":"66103-2005","2nd_line":"USD 500  BLDG 8321","column_9":null,"id":"a6fwa9j31b0i","geo_precision":"range","address":"3600 Springfield","state":"KS"},"type":"Feature","geometry":{"type":"Point","coordinates":[-94.614517,39.062357]}},{"properties":{"city":"Kansas City","name":"Thomas A Edison Elem","zip":"66103","building labels\"1st_line\"":"Cynthia Cop","geo_score":1.0,"column_8":"66103-2408","2nd_line":"USD 500  BLDG 8287","column_9":null,"id":"a6fwa9qrhcdh","geo_precision":"range","address":"1000 Locust Street","state":"KS"},"type":"Feature","geometry":{"type":"Point","coordinates":[-94.63516,39.047702]}},{"properties":{"city":"Kansas City","name":"Frank Rushton Elem","zip":"66103","building labels\"1st_line\"":"Mary Welsh","geo_score":1.0,"column_8":"66103-3122","2nd_line":"USD 500  BLDG 8308","column_9":null,"id":"a6fwa9iagc0n","geo_precision":"range","address":"2605 W 43rd Avenue","state":"KS"},"type":"Feature","geometry":{"type":"Point","coordinates":[-94.615894,39.050349]}},{"properties":{"city":"Kansas City","name":"Christ The King [Kansas City]","zip":"66104","building labels\"1st_line\"":"Cathy Fithian","geo_score":1.0,"column_8":"66104","2nd_line":"ORG Z0029  BLDG 8430","column_9":null,"id":"a6fwa9q37z68","geo_precision":"range","address":"3027 N 54th Street","state":"KS"},"type":"Feature","geometry":{"type":"Point","coordinates":[-94.703853,39.141931]}},{"properties":{"city":"Kansas City","name":"Head Start Kansas City","zip":"66104","building labels\"1st_line\"":"Principal","geo_score":0.657,"column_8":"66104","2nd_line":"USD 500  BLDG 8365","column_9":null,"id":"a6fwa9e3cncf","geo_precision":"street","address":"2940 N. 17th Street","state":"KS"},"type":"Feature","geometry":{"type":"Point","coordinates":[-94.647607,39.124075]}},{"properties":{"city":"Kansas City","name":"Kansas City Area Technical School","zip":"66104","building labels\"1st_line\"":"Director","geo_score":0.883,"column_8":"66104","2nd_line":"ORG A0613  BLDG 8439","column_9":null,"id":"a6fwa9mwv9dq","geo_precision":"range","address":"2220 N 59th","state":"KS"},"type":"Feature","geometry":{"type":"Point","coordinates":[-94.715248,39.130997]}},{"properties":{"city":"Kansas City","name":"Kansas City Kitchen Unit","zip":"66104","building labels\"1st_line\"":"Sharon Layman","geo_score":0.689,"column_8":"66104","2nd_line":"USD 500  BLDG 8378","column_9":null,"id":"a6fwa9jmj8p3","geo_precision":"street","address":"2112 N 18th","state":"KS"},"type":"Feature","geometry":{"type":"Point","coordinates":[-94.650154,39.132574]}},{"properties":{"city":"Kansas City","name":"KVC Psychiatric Residential Treatment Center","zip":"66104","building labels\"1st_line\"":"Barb Deane","geo_score":0.683,"column_8":"66104","2nd_line":"USD 500  BLDG 8351","column_9":null,"id":"a6fwa9e9fmca","geo_precision":"zip","address":"4300 Brennen Drive","state":"KS"},"type":"Feature","geometry":{"type":"Point","coordinates":[-94.688896,39.145049]}},{"properties":{"city":"Kansas City","name":"Parker Elementary School","zip":"66104","building labels\"1st_line\"":"Leala Taylor","geo_score":0.912,"column_8":"66104","2nd_line":"USD 500  BLDG 8318","column_9":null,"id":"a6fwa9hszc0k","geo_precision":"range","address":"3334 Haskell","state":"KS"},"type":"Feature","geometry":{"type":"Point","coordinates":[-94.667897,39.132498]}},{"properties":{"city":"Kansas City","name":"West Middle","zip":"66104","building labels\"1st_line\"":"Shelly Beech","geo_score":1.0,"column_8":"66104","2nd_line":"USD 500  BLDG 8319","column_9":null,"id":"a6fwa9fxfz0s","geo_precision":"range","address":"2600 N 44th Street","state":"KS"},"type":"Feature","geometry":{"type":"Point","coordinates":[-94.682014,39.133295]}},{"properties":{"city":"Kansas City","name":"Welborn Elem","zip":"66104","building labels\"1st_line\"":"Cheryl Rainey","geo_score":1.0,"column_8":"66104-2133","2nd_line":"USD 500  BLDG 8352","column_9":null,"id":"a6fwa9tvfxbw","geo_precision":"range","address":"5200 Leavenworth Rd","state":"KS"},"type":"Feature","geometry":{"type":"Point","coordinates":[-94.70006,39.142942]}},{"properties":{"city":"Kansas City","name":"Hazel Grove Elem","zip":"66104","building labels\"1st_line\"":"Sue Elliott","geo_score":0.878,"column_8":"66104-2632","2nd_line":"USD 500  BLDG 8332","column_9":null,"id":"a6fwa9k7i88s","geo_precision":"street","address":"2401 N 67th St","state":"KS"},"type":"Feature","geometry":{"type":"Point","coordinates":[-94.733975,39.133221]}},{"properties":{"city":"Kansas City","name":"F L Schlagle High","zip":"66104","building labels\"1st_line\"":"Maritza Paul-Newby","geo_score":1.0,"column_8":"66104-2821","2nd_line":"USD 500  BLDG 8329","column_9":null,"id":"a6fwa9qw82sn","geo_precision":"range","address":"2214 N 59th St","state":"KS"},"type":"Feature","geometry":{"type":"Point","coordinates":[-94.715248,39.130923]}},{"properties":{"city":"Kansas City","name":"Wm A White Elem","zip":"66104","building labels\"1st_line\"":"Alexis Etier","geo_score":1.0,"column_8":"66104-3461","2nd_line":"USD 500  BLDG 8312","column_9":null,"id":"a6fwa9lkign1","geo_precision":"range","address":"2600 N 43rd Terrace","state":"KS"},"type":"Feature","geometry":{"type":"Point","coordinates":[-94.680792,39.132762]}},{"properties":{"city":"Kansas City","name":"Quindaro Elem","zip":"66104","building labels\"1st_line\"":"Linnie McCluney","geo_score":0.732,"column_8":"66104-3936","2nd_line":"USD 500  BLDG 8305","column_9":null,"id":"a6fwa9r4zfis","geo_precision":"street","address":"2800 Farrow","state":"KS"},"type":"Feature","geometry":{"type":"Point","coordinates":[-94.680203,39.145967]}},{"properties":{"city":"Kansas City","name":"Northwest Middle","zip":"66104","building labels\"1st_line\"":"Carnest (Donnie) Mitchell","geo_score":0.902,"column_8":"66104-4711","2nd_line":"USD 500  BLDG 8317","column_9":null,"id":"a6fwa9u80zuo","geo_precision":"street","address":"2400 N 18th St","state":"KS"},"type":"Feature","geometry":{"type":"Point","coordinates":[-94.650131,39.132923]}},{"properties":{"city":"Kansas City","name":"Chelsea Elem","zip":"66104","building labels\"1st_line\"":"Janice Turner","geo_score":0.875,"column_8":"66104-5346","2nd_line":"USD 500  BLDG 8284","column_9":null,"id":"a6fwa9jvktsq","geo_precision":"range","address":"2500 Wood","state":"KS"},"type":"Feature","geometry":{"type":"Point","coordinates":[-94.657002,39.124055]}},{"properties":{"city":"Kansas City","name":"Bertram Caruthers Elem","zip":"66104","building labels\"1st_line\"":"Stacia Brown","geo_score":0.912,"column_8":"66104-5650","2nd_line":"USD 500  BLDG 8293","column_9":null,"id":"a6fwa9m91fpb","geo_precision":"range","address":"1100 Waverly","state":"KS"},"type":"Feature","geometry":{"type":"Point","coordinates":[-94.63801,39.132056]}},{"properties":{"city":"Kansas City","name":"John Fiske Elem","zip":"66105","building labels\"1st_line\"":"Josie Herrera","geo_score":0.935,"column_8":"66105-1558","2nd_line":"USD 500  BLDG 8290","column_9":null,"id":"a6fwa9hov38g","geo_precision":"range","address":"625 S Valley","state":"KS"},"type":"Feature","geometry":{"type":"Point","coordinates":[-94.642381,39.086563]}},{"properties":{"city":"Kansas City","name":"Junction Elementary","zip":"66106","building labels\"1st_line\"":"Jay Douglas","geo_score":0.92,"column_8":"66106","2nd_line":"USD 202  BLDG 0154","column_9":null,"id":"a6fwa9g0gqzm","geo_precision":"range","address":"2570 South 42nd Street","state":"KS"},"type":"Feature","geometry":{"type":"Point","coordinates":[-94.677152,39.054699]}},{"properties":{"city":"Kansas City","name":"Midland Trail","zip":"66106","building labels\"1st_line\"":"Lynnette Hatfield","geo_score":0.92,"column_8":"66106","2nd_line":"USD 202  BLDG 0157","column_9":null,"id":"a6fwa9e9skzt","geo_precision":"range","address":"3101 South 51st Street","state":"KS"},"type":"Feature","geometry":{"type":"Point","coordinates":[-94.695843,39.046086]}},{"properties":{"city":"Kansas City","name":"New Stanley Elem","zip":"66106","building labels\"1st_line\"":"Sharyn Connor","geo_score":0.683,"column_8":"66106","2nd_line":"USD 500  BLDG 8309","column_9":null,"id":"a6fwa9jr2b4d","geo_precision":"street","address":"3604 Metropolitan","state":"KS"},"type":"Feature","geometry":{"type":"Point","coordinates":[-94.7198,39.072686]}},{"properties":{"city":"Kansas City","name":"Oak Grove Elem","zip":"66106","building labels\"1st_line\"":"Gayle Bertram","geo_score":0.92,"column_8":"66106","2nd_line":"USD 202  BLDG 0160","column_9":null,"id":"a6fwa9i6dujx","geo_precision":"range","address":"5340 Oak Grove Rd","state":"KS"},"type":"Feature","geometry":{"type":"Point","coordinates":[-94.701221,39.054932]}},{"properties":{"city":"Kansas City","name":"Our Lady Of Unity","zip":"66106","building labels\"1st_line\"":"Karen Davis","geo_score":0.92,"column_8":"66106","2nd_line":"ORG Z0029  BLDG 8400","column_9":null,"id":"a6fwa9k5ls0w","geo_precision":"range","address":"2646 S 34th Street","state":"KS"},"type":"Feature","geometry":{"type":"Point","coordinates":[-94.667802,39.053482]}},{"properties":{"city":"Kansas City","name":"Turner Early Learning Center","zip":"66106","building labels\"1st_line\"":"Becky Letcher","geo_score":0.732,"column_8":"66106","2nd_line":"USD 202  BLDG 0155","column_9":null,"id":"a6fwa9mdsch4","geo_precision":"range","address":"6425 Riverview","state":"KS"},"type":"Feature","geometry":{"type":"Point","coordinates":[-94.726653,39.102209]}},{"properties":{"city":"Kansas City","name":"Turner Elem","zip":"66106","building labels\"1st_line\"":"Kevin Hansford","geo_score":0.579,"column_8":"66106","2nd_line":"USD 202  BLDG 0164","column_9":null,"id":"a6fwa9t5i0ae","geo_precision":"street","address":"1800 South 55th","state":"KS"},"type":"Feature","geometry":{"type":"Point","coordinates":[-94.706817,39.07783]}},{"properties":{"city":"Kansas City","name":"Turner High","zip":"66106","building labels\"1st_line\"":"Paul Colwell","geo_score":0.579,"column_8":"66106","2nd_line":"USD 202  BLDG 0168","column_9":null,"id":"a6fwa9j1rfxh","geo_precision":"street","address":"2211 South 55th","state":"KS"},"type":"Feature","geometry":{"type":"Point","coordinates":[-94.706865,39.046034]}},{"properties":{"city":"Kansas City","name":"Turner Middle School","zip":"66106","building labels\"1st_line\"":"Ben Pretz","geo_score":0.58,"column_8":"66106","2nd_line":"USD 202  BLDG 0167","column_9":null,"id":"a6fwa9nad6rh","geo_precision":"street","address":"1312 South 55th","state":"KS"},"type":"Feature","geometry":{"type":"Point","coordinates":[-94.706817,39.07783]}},{"properties":{"city":"Kansas City","name":"Emerson Elem","zip":"66106","building labels\"1st_line\"":"Brett Bernard","geo_score":0.803,"column_8":"66106-2132","2nd_line":"USD 500  BLDG 8288","column_9":null,"id":"a6fwa9fizrrh","geo_precision":"range","address":"1429 S 29th","state":"KS"},"type":"Feature","geometry":{"type":"Point","coordinates":[-94.662519,39.074607]}},{"properties":{"city":"Kansas City","name":"Silver City Elem","zip":"66106","building labels\"1st_line\"":"John Rios","geo_score":0.92,"column_8":"66106-2951","2nd_line":"USD 500  BLDG 8282","column_9":null,"id":"a6fwa9fp1w1d","geo_precision":"range","address":"2515 Lawrence Ave","state":"KS"},"type":"Feature","geometry":{"type":"Point","coordinates":[-94.657653,39.067749]}},{"properties":{"city":"Kansas City","name":"Argentine Middle","zip":"66106","building labels\"1st_line\"":"Jereme Brueggeman","geo_score":0.92,"column_8":"66106-2990","2nd_line":"USD 500  BLDG 8320","column_9":null,"id":"a6fwa9thi0gb","geo_precision":"range","address":"2123 Ruby Avenue","state":"KS"},"type":"Feature","geometry":{"type":"Point","coordinates":[-94.652037,39.071545]}},{"properties":{"city":"Kansas City","name":"J C Harmon High","zip":"66106","building labels\"1st_line\"":"Sylvia Parra","geo_score":0.92,"column_8":"66106-4318","2nd_line":"USD 500  BLDG 8327","column_9":null,"id":"a6fwa9shfzm9","geo_precision":"range","address":"2400 Steele Rd","state":"KS"},"type":"Feature","geometry":{"type":"Point","coordinates":[-94.655756,39.062336]}},{"properties":{"city":"Kansas City","name":"Piper Elementary School","zip":"66109","building labels\"1st_line\"":"Allan Amos","geo_score":0.922,"column_8":"66109","2nd_line":"USD 203  BLDG 0181","column_9":null,"id":"a6fwa9jhybsh","geo_precision":"range","address":"12036 Leavenworth Road","state":"KS"},"type":"Feature","geometry":{"type":"Point","coordinates":[-94.857731,39.143153]}},{"properties":{"city":"Kansas City","name":"Piper High","zip":"66109","building labels\"1st_line\"":"Tim Conrad","geo_score":0.922,"column_8":"66109","2nd_line":"USD 203  BLDG 0190","column_9":null,"id":"a6fwa9l27wbi","geo_precision":"range","address":"4400 North 107 Street","state":"KS"},"type":"Feature","geometry":{"type":"Point","coordinates":[-94.82674,39.166965]}},{"properties":{"city":"Kansas City","name":"Piper Middle","zip":"66109","building labels\"1st_line\"":"Laurence Breedlove Jr.","geo_score":0.922,"column_8":"66109","2nd_line":"USD 203  BLDG 0189","column_9":null,"id":"a6fwa9p079e8","geo_precision":"range","address":"4420 North 107 Street","state":"KS"},"type":"Feature","geometry":{"type":"Point","coordinates":[-94.826737,39.167291]}},{"properties":{"city":"Kansas City","name":"Washington High","zip":"66109","building labels\"1st_line\"":"Kelli Lorton","geo_score":0.922,"column_8":"66109-1226","2nd_line":"USD 500  BLDG 8350","column_9":null,"id":"a6fwa9rxr8ln","geo_precision":"range","address":"7340 Leavenworth Road","state":"KS"},"type":"Feature","geometry":{"type":"Point","coordinates":[-94.748576,39.14314]}},{"properties":{"city":"Kansas City","name":"Bethel Elem","zip":"66109","building labels\"1st_line\"":"Fayette Thicklin","geo_score":0.824,"column_8":"66109-1658","2nd_line":"USD 500  BLDG 8326","column_9":null,"id":"a6fwa9mwkhzh","geo_precision":"range","address":"7850 Yecker","state":"KS"},"type":"Feature","geometry":{"type":"Point","coordinates":[-94.758367,39.137867]}},{"properties":{"city":"Kansas City","name":"White Church Elem","zip":"66109","building labels\"1st_line\"":"Bruce Haber","geo_score":0.922,"column_8":"66109-2016","2nd_line":"USD 500  BLDG 8354","column_9":null,"id":"a6fwa9l9985q","geo_precision":"range","address":"2226 N 85th St","state":"KS"},"type":"Feature","geometry":{"type":"Point","coordinates":[-94.775719,39.130309]}},{"properties":{"city":"Kansas City","name":"John F Kennedy Elem","zip":"66109","building labels\"1st_line\"":"Vicki Smothers","geo_score":0.922,"column_8":"66109-2541","2nd_line":"USD 500  BLDG 8340","column_9":null,"id":"a6fwa9qsinrx","geo_precision":"range","address":"2600 N 72nd St","state":"KS"},"type":"Feature","geometry":{"type":"Point","coordinates":[-94.74553,39.134747]}},{"properties":{"city":"Kansas City","name":"D D Eisenhower Middle","zip":"66109","building labels\"1st_line\"":"Freda Ogburn","geo_score":0.922,"column_8":"66109-8331","2nd_line":"USD 500  BLDG 8331","column_9":null,"id":"a6fwa9g32k0w","geo_precision":"range","address":"2901 N 72nd St","state":"KS"},"type":"Feature","geometry":{"type":"Point","coordinates":[-94.745419,39.13934]}},{"properties":{"city":"Kansas City","name":"Stony Point Christian School","zip":"66111","building labels\"1st_line\"":"Kristy Mader","geo_score":0.527,"column_8":"66111","2nd_line":"ORG X0323  BLDG 9412","column_9":null,"id":"a6fwa9eok5pb","geo_precision":"street","address":"149 S. 78th Street","state":"KS"},"type":"Feature","geometry":{"type":"Point","coordinates":[-94.760482,39.095856]}},{"properties":{"city":"Kansas City","name":"Stony Point South","zip":"66111","building labels\"1st_line\"":"Lori Cooper","geo_score":0.911,"column_8":"66111-2910","2nd_line":"USD 500  BLDG 8346","column_9":null,"id":"a6fwa9iq9coz","geo_precision":"range","address":"150 South 78th St","state":"KS"},"type":"Feature","geometry":{"type":"Point","coordinates":[-94.760477,39.095275]}},{"properties":{"city":"Kansas City","name":"Kansas City Kansas Comm College","zip":"66112","building labels\"1st_line\"":"President","geo_score":1.0,"column_8":"66112","2nd_line":"ORG J0814  BLDG 8438","column_9":null,"id":"a6fwa9kip570","geo_precision":"range","address":"7250 State Avenue","state":"KS"},"type":"Feature","geometry":{"type":"Point","coordinates":[-94.745756,39.116674]}},{"properties":{"city":"Kansas City","name":"St. Patrick Elementary","zip":"66112","building labels\"1st_line\"":"Mary Staley","geo_score":1.0,"column_8":"66112","2nd_line":"ORG Z0029  BLDG 8421","column_9":null,"id":"a6fwa9k3k9fv","geo_precision":"range","address":"1066 N 94th St","state":"KS"},"type":"Feature","geometry":{"type":"Point","coordinates":[-94.797732,39.114574]}},{"properties":{"city":"Kansas City","name":"Claude A Huyck Elem","zip":"66112","building labels\"1st_line\"":"Colleen Dudley","geo_score":1.0,"column_8":"66112-1712","2nd_line":"USD 500  BLDG 8330","column_9":null,"id":"a6fwa9qsbaxg","geo_precision":"range","address":"1530 N 83rd Street","state":"KS"},"type":"Feature","geometry":{"type":"Point","coordinates":[-94.771998,39.121373]}},{"properties":{"city":"Kansas City","name":"Arrowhead Middle","zip":"66112","building labels\"1st_line\"":"Laurie Boyd","geo_score":1.0,"column_8":"66112-2003","2nd_line":"USD 500  BLDG 8324","column_9":null,"id":"a6fwa9sll6qe","geo_precision":"range","address":"1715 N 82nd Street","state":"KS"},"type":"Feature","geometry":{"type":"Point","coordinates":[-94.769836,39.124437]}},{"properties":{"city":"Kansas City","name":"Stony Point North","zip":"66112","building labels\"1st_line\"":"Michael Windes","geo_score":0.752,"column_8":"66112-2601","2nd_line":"USD 500  BLDG 8348","column_9":null,"id":"a6fwa9n7h0oe","geo_precision":"street","address":"8200 Elizabeth","state":"KS"},"type":"Feature","geometry":{"type":"Point","coordinates":[-94.755783,39.10751]}},{"properties":{"city":"Kansas City","name":"Delaware Ridge Elementary","zip":"66115","building labels\"1st_line\"":"Cindy Kapeller","geo_score":0.595,"column_8":"66115","2nd_line":"USD 204  BLDG 0228","column_9":null,"id":"a6fwa9potkc5","geo_precision":"zip","address":"1601 North 130th Street","state":"KS"},"type":"Feature","geometry":{"type":"Point","coordinates":[-94.612734,39.14167]}},{"properties":{"city":"Kansas City","name":"Project Eagle Kans City","zip":"66101","building labels\"1st_line\"":"Principal","geo_score":0.902,"column_8":null,"2nd_line":"USD 500  BLDG 8366","column_9":null,"id":"a6fwa9qsdwwa","geo_precision":"range","address":"400 State Avenue","state":"KS"},"type":"Feature","geometry":{"type":"Point","coordinates":[-94.61903,39.116589]}},{"properties":{"city":"Lawrence","name":"Haskell Indian Nations University","zip":"66044","building labels\"1st_line\"":"Karen Swisher","geo_score":0.669,"column_8":null,"2nd_line":"ORG T0320  BLDG 9845","column_9":null,"id":"a6fwa9rv6529","geo_precision":"street","address":"155 Indian Avenue","state":"KS"},"type":"Feature","geometry":{"type":"Point","coordinates":[-95.243348,38.980467]}},{"properties":{"city":"Lawrence","name":"St. John Catholic School","zip":"66044","building labels\"1st_line\"":"Patricia Newton","geo_score":0.866,"column_8":null,"2nd_line":"ORG Z0029  BLDG 9895","column_9":null,"id":"a6fwa9mpozt3","geo_precision":"range","address":"1208 Kentucky","state":"KS"},"type":"Feature","geometry":{"type":"Point","coordinates":[-95.238276,38.961729]}},{"properties":{"city":"Lawrence","name":"Veritas Christian School","zip":"66044","building labels\"1st_line\"":"Principal","geo_score":0.504,"column_8":null,"2nd_line":"ORG X0320  BLDG 9812","column_9":null,"id":"a6fwa9h7qkd5","geo_precision":"street","address":"256 N. Michigan","state":"KS"},"type":"Feature","geometry":{"type":"Point","coordinates":[-95.25115,38.982417]}},{"properties":{"city":"Lawrence","name":"Pinckney Elem","zip":"66044","building labels\"1st_line\"":"Lesa Frantz","geo_score":0.827,"column_8":null,"2nd_line":"USD 497  BLDG 8206","column_9":null,"id":"a6fwa9t9rnoa","geo_precision":"range","address":"810 W 6 Street","state":"KS"},"type":"Feature","geometry":{"type":"Point","coordinates":[-95.244163,38.973147]}},{"properties":{"city":"Lawrence","name":"New York Elem","zip":"66044","building labels\"1st_line\"":"Nancy DeGarmo","geo_score":0.925,"column_8":null,"2nd_line":"USD 497  BLDG 8204","column_9":null,"id":"a6fwa9t05nm8","geo_precision":"range","address":"936 New York Street","state":"KS"},"type":"Feature","geometry":{"type":"Point","coordinates":[-95.231228,38.966834]}},{"properties":{"city":"Lawrence","name":"Lawrence Central Jr Hi","zip":"66044","building labels\"1st_line\"":"Anna Stubblefield","geo_score":0.925,"column_8":null,"2nd_line":"USD 497  BLDG 8214","column_9":null,"id":"a6fwa9t78u6k","geo_precision":"range","address":"1400 Massachusetts St","state":"KS"},"type":"Feature","geometry":{"type":"Point","coordinates":[-95.235902,38.958175]}},{"properties":{"city":"Lawrence","name":"Cordley Elem","zip":"66044","building labels\"1st_line\"":"Scott Cinnamon","geo_score":0.925,"column_8":null,"2nd_line":"USD 497  BLDG 8194","column_9":null,"id":"a6fwa9i3uka8","geo_precision":"range","address":"1837 Vermont St","state":"KS"},"type":"Feature","geometry":{"type":"Point","coordinates":[-95.237095,38.951223]}},{"properties":{"city":"Lawrence","name":"Hillcrest Elem","zip":"66044","building labels\"1st_line\"":"Tammy Becker","geo_score":0.925,"column_8":null,"2nd_line":"USD 497  BLDG 8198","column_9":null,"id":"a6fwa9jcnbg1","geo_precision":"range","address":"1045 Hilltop Dr","state":"KS"},"type":"Feature","geometry":{"type":"Point","coordinates":[-95.257935,38.965169]}},{"properties":{"city":"Lawrence","name":"Woodlawn Elem","zip":"66044","building labels\"1st_line\"":"Jeanne Fridell","geo_score":0.925,"column_8":null,"2nd_line":"USD 497  BLDG 8212","column_9":null,"id":"a6fwa9hgg1gq","geo_precision":"range","address":"508 Elm St","state":"KS"},"type":"Feature","geometry":{"type":"Point","coordinates":[-95.228763,38.976977]}},{"properties":{"city":"Lawrence","name":"University of Kansas","zip":"66045","building labels\"1st_line\"":"Principal","geo_score":1.0,"column_8":null,"2nd_line":"ORG S0682  BLDG 9125","column_9":null,"id":"a6fwa9nsqjk1","geo_precision":"range","address":"1450 Jayhawk Blvd","state":"KS"},"type":"Feature","geometry":{"type":"Point","coordinates":[-95.248926,38.958358]}},{"properties":{"city":"Lawrence","name":"Lawrence Virtual High School","zip":"66046","building labels\"1st_line\"":"Gary Lewis","geo_score":0.947,"column_8":null,"2nd_line":"USD 497  BLDG 8211","column_9":null,"id":"a6fwa9dyrju6","geo_precision":"range","address":"2145 Louisiana","state":"KS"},"type":"Feature","geometry":{"type":"Point","coordinates":[-95.241814,38.945679]}},{"properties":{"city":"Lawrence","name":"Lawrence Virtual School","zip":"66046","building labels\"1st_line\"":"Gary Lewis","geo_score":0.947,"column_8":null,"2nd_line":"USD 497  BLDG 8185","column_9":null,"id":"a6fwa9rx4ob7","geo_precision":"range","address":"2145 Louisiana","state":"KS"},"type":"Feature","geometry":{"type":"Point","coordinates":[-95.241814,38.945679]}},{"properties":{"city":"Lawrence","name":"Schwegler Elem","zip":"66046","building labels\"1st_line\"":"Jared Comfort","geo_score":1.0,"column_8":null,"2nd_line":"USD 497  BLDG 8208","column_9":null,"id":"a6fwa9l7ulqo","geo_precision":"range","address":"2201 Ousdahl Rd","state":"KS"},"type":"Feature","geometry":{"type":"Point","coordinates":[-95.255838,38.943285]}},{"properties":{"city":"Lawrence","name":"Lawrence High","zip":"66046","building labels\"1st_line\"":"Matt Brungardt","geo_score":1.0,"column_8":null,"2nd_line":"USD 497  BLDG 8218","column_9":null,"id":"a6fwa9szq60y","geo_precision":"range","address":"1901 Louisiana St","state":"KS"},"type":"Feature","geometry":{"type":"Point","coordinates":[-95.241801,38.950114]}},{"properties":{"city":"Lawrence","name":"Kennedy Elem","zip":"66046","building labels\"1st_line\"":"Cris Anderson","geo_score":1.0,"column_8":null,"2nd_line":"USD 497  BLDG 8200","column_9":null,"id":"a6fwa9o04so2","geo_precision":"range","address":"1605 Davis Rd","state":"KS"},"type":"Feature","geometry":{"type":"Point","coordinates":[-95.215455,38.947711]}},{"properties":{"city":"Lawrence","name":"Broken Arrow Elem","zip":"66046","building labels\"1st_line\"":"Brian McCaffrey","geo_score":1.0,"column_8":null,"2nd_line":"USD 497  BLDG 8191","column_9":null,"id":"a6fwa9rho8em","geo_precision":"range","address":"2704 Louisiana St","state":"KS"},"type":"Feature","geometry":{"type":"Point","coordinates":[-95.24181,38.935375]}},{"properties":{"city":"Lawrence","name":"Lawrence South Jr Hi","zip":"66046","building labels\"1st_line\"":"Will Fernandez","geo_score":1.0,"column_8":null,"2nd_line":"USD 497  BLDG 8215","column_9":null,"id":"a6fwa9mnz9jb","geo_precision":"range","address":"2734 Louisiana St","state":"KS"},"type":"Feature","geometry":{"type":"Point","coordinates":[-95.241811,38.934595]}},{"properties":{"city":"Lawrence","name":"Prairie Park Elem","zip":"66046","building labels\"1st_line\"":"David Williams","geo_score":1.0,"column_8":null,"2nd_line":"USD 497  BLDG 8190","column_9":null,"id":"a6fwa9q5iha9","geo_precision":"range","address":"2711 Kensington Road","state":"KS"},"type":"Feature","geometry":{"type":"Point","coordinates":[-95.209569,38.935207]}},{"properties":{"city":"Lawrence","name":"Bishop Seabury Academy","zip":"66047","building labels\"1st_line\"":"Don Schawang","geo_score":0.937,"column_8":null,"2nd_line":"ORG X0326  BLDG 9398","column_9":null,"id":"a6fwa9rjnwsn","geo_precision":"range","address":"4120 Clinton Parkway Ave","state":"KS"},"type":"Feature","geometry":{"type":"Point","coordinates":[-95.290717,38.942661]}},{"properties":{"city":"Lawrence","name":"Raintree Montessori (lawrence)","zip":"66047","building labels\"1st_line\"":"Principal","geo_score":1.0,"column_8":null,"2nd_line":"ORG X0327  BLDG 9648","column_9":null,"id":"a6fwa9qq5p4q","geo_precision":"range","address":"4601 Clinton Parkway","state":"KS"},"type":"Feature","geometry":{"type":"Point","coordinates":[-95.295906,38.94266]}},{"properties":{"city":"Lawrence","name":"Southwest Jr High","zip":"66047","building labels\"1st_line\"":"Trish Bransky","geo_score":1.0,"column_8":null,"2nd_line":"USD 497  BLDG 8217","column_9":null,"id":"a6fwa9e3vtjb","geo_precision":"range","address":"2511 Inverness Drive","state":"KS"},"type":"Feature","geometry":{"type":"Point","coordinates":[-95.298205,38.951596]}},{"properties":{"city":"Lawrence","name":"Sunflower Elementary","zip":"66047","building labels\"1st_line\"":"Sue Hosey","geo_score":1.0,"column_8":null,"2nd_line":"USD 497  BLDG 8189","column_9":null,"id":"a6fwa9gjrnh5","geo_precision":"range","address":"2521 Inverness Drive","state":"KS"},"type":"Feature","geometry":{"type":"Point","coordinates":[-95.29816,38.951564]}},{"properties":{"city":"Lawrence","name":"Wakarusa Valley Elem","zip":"66047","building labels\"1st_line\"":"Brian McCaffrey","geo_score":1.0,"column_8":null,"2nd_line":"USD 497  BLDG 8222","column_9":null,"id":"a6fwa9ear9es","geo_precision":"range","address":"1104 E 1000 Rd","state":"KS"},"type":"Feature","geometry":{"type":"Point","coordinates":[-95.316633,38.899575]}},{"properties":{"city":"Lawrence","name":"Corpus Christi Catholic School","zip":"66049","building labels\"1st_line\"":"Mary Mattern","geo_score":0.805,"column_8":null,"2nd_line":"ORG Z0029  BLDG 9892","column_9":null,"id":"a6fwa9sxvpmv","geo_precision":"street","address":"6001 Bob Billings Pkwy.","state":"KS"},"type":"Feature","geometry":{"type":"Point","coordinates":[-95.273635,38.957017]}},{"properties":{"city":"Lawrence","name":"Deerfield Elem","zip":"66049","building labels\"1st_line\"":"Joni Appleman","geo_score":1.0,"column_8":null,"2nd_line":"USD 497  BLDG 8195","column_9":null,"id":"a6fwa9na9u4n","geo_precision":"range","address":"101 Lawrence Avenue","state":"KS"},"type":"Feature","geometry":{"type":"Point","coordinates":[-95.270015,38.983674]}},{"properties":{"city":"Lawrence","name":"Lawrence West Jr Hi","zip":"66049","building labels\"1st_line\"":"Myron Melton","geo_score":1.0,"column_8":null,"2nd_line":"USD 497  BLDG 8216","column_9":null,"id":"a6fwa9jcnxos","geo_precision":"range","address":"2700 Harvard Road","state":"KS"},"type":"Feature","geometry":{"type":"Point","coordinates":[-95.267989,38.964742]}},{"properties":{"city":"Lawrence","name":"Sunset Hill Elem","zip":"66049","building labels\"1st_line\"":"Chris Bay","geo_score":1.0,"column_8":null,"2nd_line":"USD 497  BLDG 8210","column_9":null,"id":"a6fwa9ofjx7k","geo_precision":"range","address":"901 Schwarz Rd","state":"KS"},"type":"Feature","geometry":{"type":"Point","coordinates":[-95.269672,38.967974]}},{"properties":{"city":"Lawrence","name":"Quail Run Elementary","zip":"66049","building labels\"1st_line\"":"Debbie Tann","geo_score":1.0,"column_8":null,"2nd_line":"USD 497  BLDG 8202","column_9":null,"id":"a6fwa9t1ohgl","geo_precision":"range","address":"1130 Inverness Drive","state":"KS"},"type":"Feature","geometry":{"type":"Point","coordinates":[-95.305443,38.96297]}},{"properties":{"city":"Lawrence","name":"Lawrence Free State High","zip":"66049","building labels\"1st_line\"":"Ed West","geo_score":1.0,"column_8":null,"2nd_line":"USD 497  BLDG 8224","column_9":null,"id":"a6fwa9habjgd","geo_precision":"range","address":"4700 Overland Drive","state":"KS"},"type":"Feature","geometry":{"type":"Point","coordinates":[-95.304029,38.973919]}},{"properties":{"city":"Lawrence","name":"Langston Hughes Elem","zip":"66049","building labels\"1st_line\"":"Jackie Mickel","geo_score":0.455,"column_8":null,"2nd_line":"USD 497  BLDG 8213","column_9":null,"id":"a6fwa9r3urmk","geo_precision":"street","address":"1101 George Williams Way","state":"KS"},"type":"Feature","geometry":{"type":"Point","coordinates":[-94.945512,39.338992]}},{"properties":{"city":"Leavenworth","name":"Anthony Elementary","zip":"66048","building labels\"1st_line\"":"Bernice Gregory","geo_score":0.814,"column_8":null,"2nd_line":"USD 453  BLDG 7029","column_9":null,"id":"a6fwa9mqvx3r","geo_precision":"range","address":"200 N 4th St","state":"KS"},"type":"Feature","geometry":{"type":"Point","coordinates":[-94.914155,39.319931]}},{"properties":{"city":"Leavenworth","name":"David Brewer Elementary","zip":"66048","building labels\"1st_line\"":"Jofee Tremain","geo_score":0.828,"column_8":null,"2nd_line":"USD 453  BLDG 7031","column_9":null,"id":"a6fwa9ppg9ci","geo_precision":"range","address":"401 N 17th Street","state":"KS"},"type":"Feature","geometry":{"type":"Point","coordinates":[-94.943641,39.320529]}},{"properties":{"city":"Leavenworth","name":"Earl Lawson Elementary","zip":"66048","building labels\"1st_line\"":"Pamela Robinson","geo_score":0.911,"column_8":null,"2nd_line":"USD 453  BLDG 7037","column_9":null,"id":"a6fwa9elwrhz","geo_precision":"range","address":"820 N 5th Street","state":"KS"},"type":"Feature","geometry":{"type":"Point","coordinates":[-94.916878,39.325217]}},{"properties":{"city":"Leavenworth","name":"Henry Leavenworth","zip":"66048","building labels\"1st_line\"":"Stacy Graff","geo_score":0.828,"column_8":null,"2nd_line":"USD 453  BLDG 7028","column_9":null,"id":"a6fwa9j6mtw7","geo_precision":"range","address":"1925 Vilas","state":"KS"},"type":"Feature","geometry":{"type":"Point","coordinates":[-94.949854,39.290326]}},{"properties":{"city":"Leavenworth","name":"Immaculata High","zip":"66048","building labels\"1st_line\"":"Helen Schwinn","geo_score":0.911,"column_8":null,"2nd_line":"ORG Z0029  BLDG 7044","column_9":null,"id":"a6fwa9stps24","geo_precision":"range","address":"600 Shawnee St.","state":"KS"},"type":"Feature","geometry":{"type":"Point","coordinates":[-94.917088,39.318675]}},{"properties":{"city":"Leavenworth","name":"Leavenworth Sr High","zip":"66048","building labels\"1st_line\"":"John Parker","geo_score":0.828,"column_8":null,"2nd_line":"USD 453  BLDG 7020","column_9":null,"id":"a6fwa9m2r1c3","geo_precision":"range","address":"2012 10th Ave","state":"KS"},"type":"Feature","geometry":{"type":"Point","coordinates":[-94.927679,39.297398]}},{"properties":{"city":"Leavenworth","name":"Leavenworth Virtual School","zip":"66048","building labels\"1st_line\"":"Kevin Lunsford","geo_score":0.911,"column_8":null,"2nd_line":"USD 453  BLDG 7026","column_9":"Leavenworth KS 66048","id":"a6fwa9nlb6uh","geo_precision":"range","address":"1000 3rd Ave.","state":"KS"},"type":"Feature","geometry":{"type":"Point","coordinates":[-94.91487,39.309281]}},{"properties":{"city":"Leavenworth","name":"Richard Warren Middle School","zip":"66048","building labels\"1st_line\"":"Leeann Fitzgerald","geo_score":0.814,"column_8":null,"2nd_line":"USD 453  BLDG 7033","column_9":null,"id":"a6fwa9tky6ey","geo_precision":"range","address":"200 N 4th St","state":"KS"},"type":"Feature","geometry":{"type":"Point","coordinates":[-94.914155,39.319931]}},{"properties":{"city":"Leavenworth","name":"Salt Creek Valley Intermediate","zip":"66048","building labels\"1st_line\"":"Nancy Wilson","geo_score":0.911,"column_8":null,"2nd_line":"USD 449  BLDG 6924","column_9":null,"id":"a6fwa9j16bxc","geo_precision":"range","address":"32325 167th St.","state":"KS"},"type":"Feature","geometry":{"type":"Point","coordinates":[-94.964365,39.354969]}},{"properties":{"city":"Leavenworth","name":"Service Center Leavenworth","zip":"66048","building labels\"1st_line\"":"Principal","geo_score":0.911,"column_8":null,"2nd_line":"USD 453  BLDG 7024","column_9":null,"id":"a6fwa9qqgohi","geo_precision":"range","address":"401 S 3rd Street","state":"KS"},"type":"Feature","geometry":{"type":"Point","coordinates":[-94.911812,39.316458]}},{"properties":{"city":"Leavenworth","name":"West Intermediate","zip":"66048","building labels\"1st_line\"":"Kelly Ott","geo_score":0.814,"column_8":null,"2nd_line":"USD 453  BLDG 7032","column_9":null,"id":"a6fwa9qi9ukx","geo_precision":"range","address":"200 N 4th St","state":"KS"},"type":"Feature","geometry":{"type":"Point","coordinates":[-94.914155,39.319931]}},{"properties":{"city":"Leavenworth","name":"Xavier Elem","zip":"66048","building labels\"1st_line\"":"Scott Hulshoff","geo_score":0.802,"column_8":null,"2nd_line":"ORG Z0029  BLDG 7036","column_9":null,"id":"a6fwa9o1904a","geo_precision":"range","address":"721 Osage Ave","state":"KS"},"type":"Feature","geometry":{"type":"Point","coordinates":[-94.920076,39.320967]}},{"properties":{"city":"Leavenworth","name":"St Paul Lutheran Elem [Leavenworth]","zip":"66048","building labels\"1st_line\"":"Jay Floetke","geo_score":0.765,"column_8":null,"2nd_line":"ORG Z0026  BLDG 7042","column_9":null,"id":"a6fwa9glgfcu","geo_precision":"range","address":"320 N 7th","state":"KS"},"type":"Feature","geometry":{"type":"Point","coordinates":[-94.919026,39.320395]}},{"properties":{"city":"Leawood","name":"Cure Of Ars Elem","zip":"66206","building labels\"1st_line\"":"Marlene Rowe","geo_score":0.923,"column_8":null,"2nd_line":"ORG Z0029  BLDG 9002","column_9":null,"id":"a6fwa9mpm73f","geo_precision":"range","address":"9403 Mission Rd","state":"KS"},"type":"Feature","geometry":{"type":"Point","coordinates":[-94.630392,38.959008]}},{"properties":{"city":"Leawood","name":"Nativity Parish School","zip":"66209","building labels\"1st_line\"":"Maureen Huppe","geo_score":1.0,"column_8":null,"2nd_line":"ORG Z0029  BLDG 9013","column_9":null,"id":"a6fwa9ld72uh","geo_precision":"range","address":"3700 W 119th St","state":"KS"},"type":"Feature","geometry":{"type":"Point","coordinates":[-94.6287,38.912911]}},{"properties":{"city":"Leawood","name":"Leawood Middle","zip":"66209","building labels\"1st_line\"":"Marcia Weseman","geo_score":0.625,"column_8":null,"2nd_line":"USD 229  BLDG 0778","column_9":null,"id":"a6fwa9ol9x7f","geo_precision":"street","address":"2410 W. 123rd St.","state":"KS"},"type":"Feature","geometry":{"type":"Point","coordinates":[-94.60953,38.904074]}},{"properties":{"city":"Leawood","name":"Leawood Elementary","zip":"66209","building labels\"1st_line\"":"Joe Palmer","geo_score":0.625,"column_8":null,"2nd_line":"USD 229  BLDG 0773","column_9":null,"id":"a6fwa9lctaz3","geo_precision":"street","address":"2400 W. 123rd St.","state":"KS"},"type":"Feature","geometry":{"type":"Point","coordinates":[-94.60953,38.904074]}},{"properties":{"city":"Leawood","name":"Mission Trail Elementary","zip":"66209","building labels\"1st_line\"":"Debra Bond","geo_score":1.0,"column_8":null,"2nd_line":"USD 229  BLDG 0777","column_9":null,"id":"a6fwa9ox0air","geo_precision":"range","address":"13200 Mission Road","state":"KS"},"type":"Feature","geometry":{"type":"Point","coordinates":[-94.630546,38.888857]}},{"properties":{"city":"Leawood","name":"St Michael the Archangel Catholic School","zip":"66223","building labels\"1st_line\"":"Michael Cullinan","geo_score":0.916,"column_8":null,"2nd_line":"ORG Z0029  BLDG 9887","column_9":null,"id":"a6fwa9ini8yb","geo_precision":"range","address":"14201 Nall Ave","state":"KS"},"type":"Feature","geometry":{"type":"Point","coordinates":[-94.649229,38.871162]}},{"properties":{"city":"Leawood","name":"Prairie Star Elementary","zip":"66224","building labels\"1st_line\"":"Amy Farthing","geo_score":0.513,"column_8":null,"2nd_line":"USD 229  BLDG 7773","column_9":null,"id":"a6fwa9gg8spn","geo_precision":"street","address":"3800 W. 143rd St.","state":"KS"},"type":"Feature","geometry":{"type":"Point","coordinates":[-94.608032,38.869749]}},{"properties":{"city":"Leawood","name":"Prairie Star Middle","zip":"66224","building labels\"1st_line\"":"Lyn Rantz","geo_score":0.923,"column_8":null,"2nd_line":"USD 229  BLDG 7776","column_9":null,"id":"a6fwa9mmgw7s","geo_precision":"range","address":"14201 Mission Road","state":"KS"},"type":"Feature","geometry":{"type":"Point","coordinates":[-94.630591,38.871954]}},{"properties":{"city":"Lecompton","name":"Lecompton Elem","zip":"66050","building labels\"1st_line\"":"Connie Thornton","geo_score":0.902,"column_8":null,"2nd_line":"USD 343  BLDG 4022","column_9":"Lecompton KS 66050","id":"a6fwa9ks9ar2","geo_precision":"range","address":"626 Whitfield St.","state":"KS"},"type":"Feature","geometry":{"type":"Point","coordinates":[-95.396901,39.03824]}},{"properties":{"city":"Lenexa","name":"Holy Trinity Elem [Lenexa]","zip":"66215","building labels\"1st_line\"":"Martha Concannon","geo_score":0.735,"column_8":null,"2nd_line":"ORG Z0029  BLDG 9006","column_9":null,"id":"a6fwa9n1je5l","geo_precision":"range","address":"13600 W 92nd","state":"KS"},"type":"Feature","geometry":{"type":"Point","coordinates":[-94.743457,38.961708]}},{"properties":{"city":"Lenexa","name":"Manchester Park Elementary","zip":"66220","building labels\"1st_line\"":"Susan DeGroot","geo_score":0.484,"column_8":null,"2nd_line":"USD 233  BLDG 9304","column_9":null,"id":"a6fwa9tgz6bd","geo_precision":"street","address":"9810 Prairie Creek Rd","state":"KS"},"type":"Feature","geometry":{"type":"Point","coordinates":[-94.871314,39.042603]}},{"properties":{"city":"Lenexa","name":"Mill Creek Middle School","zip":"66227","building labels\"1st_line\"":"Tim Drake","geo_score":0.807,"column_8":null,"2nd_line":"USD 232  BLDG 0844","column_9":null,"id":"a6fwa9nc7qr9","geo_precision":"range","address":"8001 Mize Boulevard","state":"KS"},"type":"Feature","geometry":{"type":"Point","coordinates":[-94.881537,38.983455]}},{"properties":{"city":"Lenexa","name":"St. James Academy","zip":"66227","building labels\"1st_line\"":"Andy Tylicki","geo_score":0.61,"column_8":null,"2nd_line":"ORG Z0029  BLDG 8999","column_9":null,"id":"a6fwa9ftnmxi","geo_precision":"street","address":"24505 Prairie Star Parkway","state":"KS"},"type":"Feature","geometry":{"type":"Point","coordinates":[-94.834611,38.952178]}},{"properties":{"city":"Louisburg","name":"Broadmoor Elementary","zip":"66053","building labels\"1st_line\"":"Chris McLean","geo_score":0.643,"column_8":null,"2nd_line":"USD 416  BLDG 5970","column_9":"Louisburg KS 66053","id":"a6fwa9md1f3t","geo_precision":"street","address":"105 S. 5th St.","state":"KS"},"type":"Feature","geometry":{"type":"Point","coordinates":[-94.677206,38.616861]}},{"properties":{"city":"Louisburg","name":"Peoria Street Learning Center","zip":"66053","building labels\"1st_line\"":"John Brooks","geo_score":0.618,"column_8":null,"2nd_line":"USD 416  BLDG 5979","column_9":null,"id":"a6fwa9g2oirn","geo_precision":"street","address":"146 Harvest Drive","state":"KS"},"type":"Feature","geometry":{"type":"Point","coordinates":[-94.661633,38.621359]}},{"properties":{"city":"Louisburg","name":"Rockville Elementary School","zip":"66053","building labels\"1st_line\"":"Becky Bowes","geo_score":0.571,"column_8":null,"2nd_line":"USD 416  BLDG 5980","column_9":"Louisburg KS 66053","id":"a6fwa9j6jwsr","geo_precision":"street","address":"977 N. Rockville Rd.","state":"KS"},"type":"Feature","geometry":{"type":"Point","coordinates":[-94.64904,38.696281]}},{"properties":{"city":"Louisburg","name":"Louisburg Middle","zip":"66053","building labels\"1st_line\"":"Brian Biermann","geo_score":0.625,"column_8":null,"2nd_line":"USD 416  BLDG 5978","column_9":"Louisburg KS 66053","id":"a6fwa9k9r2yp","geo_precision":"street","address":"505 E. Amity St.","state":"KS"},"type":"Feature","geometry":{"type":"Point","coordinates":[-94.674095,38.620867]}},{"properties":{"city":"Louisburg","name":"Louisburg High","zip":"66053","building labels\"1st_line\"":"Dave Tappan","geo_score":0.683,"column_8":null,"2nd_line":"USD 416  BLDG 5972","column_9":"Louisburg KS 66053","id":"a6fwa9tha197","geo_precision":"zip","address":"202 Aquatic Dr.","state":"KS"},"type":"Feature","geometry":{"type":"Point","coordinates":[-94.689876,38.587195]}},{"properties":{"city":"Manhattan","name":"Manhattan Area Technical School","zip":"66052","building labels\"1st_line\"":"Director","geo_score":0.503,"column_8":null,"2nd_line":"ORG A0609  BLDG 5154","column_9":null,"id":"a6fwa9lvpckf","geo_precision":"street","address":"3136 Dickens Avenue","state":"KS"},"type":"Feature","geometry":{"type":"Point","coordinates":[-95.424101,39.594737]}},{"properties":{"city":"Manhattan","name":"Adult Literacy and Family Services","zip":"66502","building labels\"1st_line\"":"Lois Merriman","geo_score":0.924,"column_8":null,"2nd_line":"USD 383  BLDG 5140","column_9":null,"id":"a6fwa9pfc7lx","geo_precision":"range","address":"801 Poyntz Ave","state":"KS"},"type":"Feature","geometry":{"type":"Point","coordinates":[-96.568447,39.179415]}},{"properties":{"city":"Manhattan","name":"American Institute of Baking","zip":"66502","building labels\"1st_line\"":"Principal","geo_score":0.924,"column_8":null,"2nd_line":"ORG T0025  BLDG 9800","column_9":null,"id":"a6fwa9fbzahx","geo_precision":"range","address":"1213 Bakers Way","state":"KS"},"type":"Feature","geometry":{"type":"Point","coordinates":[-96.574242,39.199167]}},{"properties":{"city":"Manhattan","name":"Bluemont Elementary School","zip":"66502","building labels\"1st_line\"":"Kathy Stitt","geo_score":0.924,"column_8":null,"2nd_line":"USD 383  BLDG 5114","column_9":null,"id":"a6fwa9h4ig5t","geo_precision":"range","address":"714 Bluemont Ave.","state":"KS"},"type":"Feature","geometry":{"type":"Point","coordinates":[-96.566799,39.186723]}},{"properties":{"city":"Manhattan","name":"Dwight D Eisenhower Middle School","zip":"66502","building labels\"1st_line\"":"Greg Hoyt","geo_score":0.924,"column_8":null,"2nd_line":"USD 383  BLDG 5137","column_9":null,"id":"a6fwa9tidw13","geo_precision":"range","address":"800 Walters Dr","state":"KS"},"type":"Feature","geometry":{"type":"Point","coordinates":[-96.569139,39.215751]}},{"properties":{"city":"Manhattan","name":"Flint Hills Christian School","zip":"66502","building labels\"1st_line\"":"Warren Holmes","geo_score":0.924,"column_8":null,"2nd_line":"ORG X0201  BLDG 9921","column_9":null,"id":"a6fwa9nkdxwn","geo_precision":"range","address":"3905 Green Valley Road","state":"KS"},"type":"Feature","geometry":{"type":"Point","coordinates":[-96.51063,39.200295]}},{"properties":{"city":"Manhattan","name":"Head Start Manhattan","zip":"66502","building labels\"1st_line\"":"Principal","geo_score":0.879,"column_8":null,"2nd_line":"USD 383  BLDG 5125","column_9":null,"id":"a6fwa9gwmyjq","geo_precision":"range","address":"1700 Leavenworth","state":"KS"},"type":"Feature","geometry":{"type":"Point","coordinates":[-96.583182,39.181658]}},{"properties":{"city":"Manhattan","name":"Lee Elem","zip":"66502","building labels\"1st_line\"":"Nancy Kole","geo_score":0.924,"column_8":null,"2nd_line":"USD 383  BLDG 5124","column_9":null,"id":"a6fwa9g9b0dh","geo_precision":"range","address":"701 Lee Street","state":"KS"},"type":"Feature","geometry":{"type":"Point","coordinates":[-96.592297,39.186205]}},{"properties":{"city":"Manhattan","name":"Manhattan Catholic Schools","zip":"66502","building labels\"1st_line\"":"Linda Roggenkamp","geo_score":0.851,"column_8":null,"2nd_line":"ORG Z0030  BLDG 5152","column_9":null,"id":"a6fwa9easd9x","geo_precision":"range","address":"306 S Juliette","state":"KS"},"type":"Feature","geometry":{"type":"Point","coordinates":[-96.566793,39.177216]}},{"properties":{"city":"Manhattan","name":"Manhattan High School West/East Campus","zip":"66502","building labels\"1st_line\"":"Terry McCarty","geo_score":0.924,"column_8":null,"2nd_line":"USD 383  BLDG 5136","column_9":null,"id":"a6fwa9rt93ly","geo_precision":"range","address":"2100 Poyntz Avenue","state":"KS"},"type":"Feature","geometry":{"type":"Point","coordinates":[-96.589131,39.17961]}},{"properties":{"city":"Manhattan","name":"Marlatt Elem","zip":"66502","building labels\"1st_line\"":"Claudia Conner","geo_score":0.84,"column_8":null,"2nd_line":"USD 383  BLDG 5126","column_9":null,"id":"a6fwa9u1qii3","geo_precision":"range","address":"2715 Hobbs","state":"KS"},"type":"Feature","geometry":{"type":"Point","coordinates":[-96.606997,39.198204]}},{"properties":{"city":"Manhattan","name":"Northview Elem","zip":"66502","building labels\"1st_line\"":"Shelley Aistrup","geo_score":0.924,"column_8":null,"2nd_line":"USD 383  BLDG 5128","column_9":null,"id":"a6fwa9os7077","geo_precision":"range","address":"300 Griffith Dr","state":"KS"},"type":"Feature","geometry":{"type":"Point","coordinates":[-96.560628,39.207706]}},{"properties":{"city":"Manhattan","name":"Susan B Anthony Middle School","zip":"66502","building labels\"1st_line\"":"Vickie Kline","geo_score":0.844,"column_8":null,"2nd_line":"USD 383  BLDG 5135","column_9":null,"id":"a6fwa9q5kwkj","geo_precision":"range","address":"2501 Browning","state":"KS"},"type":"Feature","geometry":{"type":"Point","coordinates":[-96.607469,39.211006]}},{"properties":{"city":"Manhattan","name":"Theo Roosevelt Elem","zip":"66502","building labels\"1st_line\"":"Andrea Tiede","geo_score":0.924,"column_8":null,"2nd_line":"USD 383  BLDG 5130","column_9":null,"id":"a6fwa9hlx95u","geo_precision":"range","address":"1401 Houston Street","state":"KS"},"type":"Feature","geometry":{"type":"Point","coordinates":[-96.578368,39.178416]}},{"properties":{"city":"Manhattan","name":"Woodrow Wilson Elem","zip":"66502","building labels\"1st_line\"":"Eric Koppes","geo_score":0.924,"column_8":null,"2nd_line":"USD 383  BLDG 5132","column_9":null,"id":"a6fwa9pc1hyb","geo_precision":"range","address":"312 N Juliette Avenue","state":"KS"},"type":"Feature","geometry":{"type":"Point","coordinates":[-96.566713,39.181642]}},{"properties":{"city":"Manhattan","name":"Amanda Arnold Elem","zip":"66503","building labels\"1st_line\"":"Larry Liotta","geo_score":0.902,"column_8":null,"2nd_line":"USD 383  BLDG 5112","column_9":null,"id":"a6fwa9f8ycnw","geo_precision":"range","address":"1435 Hudson","state":"KS"},"type":"Feature","geometry":{"type":"Point","coordinates":[-96.626014,39.193567]}},{"properties":{"city":"Manhattan","name":"Frank V Bergman Elem","zip":"66503","building labels\"1st_line\"":"Lori Martin","geo_score":0.935,"column_8":null,"2nd_line":"USD 383  BLDG 5113","column_9":null,"id":"a6fwa9kkksky","geo_precision":"range","address":"3430 Lombard","state":"KS"},"type":"Feature","geometry":{"type":"Point","coordinates":[-96.621754,39.211724]}},{"properties":{"city":"Manhattan","name":"Kansas State University","zip":"66506","building labels\"1st_line\"":"Principal","geo_score":0.607,"column_8":null,"2nd_line":"ORG S0367  BLDG 9105","column_9":null,"id":"a6fwa9hbre4u","geo_precision":"street","address":"Anderson Hall","state":"KS"},"type":"Feature","geometry":{"type":"Point","coordinates":[-96.580771,39.186059]}},{"properties":{"city":"Olathe","name":"Cedar Creek Elem","zip":"66061","building labels\"1st_line\"":"Stephanie Prichard","geo_score":0.919,"column_8":null,"2nd_line":"USD 233  BLDG 2787","column_9":null,"id":"a6fwa9ntwmsm","geo_precision":"range","address":"11150 S Clare Rd","state":"KS"},"type":"Feature","geometry":{"type":"Point","coordinates":[-94.871272,38.925998]}},{"properties":{"city":"Olathe","name":"Clearwater Creek Elementary","zip":"66061","building labels\"1st_line\"":"Randy Smith","geo_score":0.713,"column_8":null,"2nd_line":"USD 233  BLDG 9305","column_9":null,"id":"a6fwa9okdtzp","geo_precision":"street","address":"930 Clearwater Creek Drive","state":"KS"},"type":"Feature","geometry":{"type":"Point","coordinates":[-94.851121,38.8711]}},{"properties":{"city":"Olathe","name":"Johnson County Juvenile Detention Center","zip":"66061","building labels\"1st_line\"":"Principal","geo_score":0.854,"column_8":null,"2nd_line":"ORG X0620  BLDG 9028","column_9":null,"id":"a6fwa9loxutd","geo_precision":"range","address":"915 W Spruce","state":"KS"},"type":"Feature","geometry":{"type":"Point","coordinates":[-94.830176,38.887311]}},{"properties":{"city":"Olathe","name":"Mission Trail Middle School","zip":"66061","building labels\"1st_line\"":"Jim McMullen","geo_score":0.491,"column_8":null,"2nd_line":"USD 233  BLDG 0913","column_9":null,"id":"a6fwa9dwte1m","geo_precision":"street","address":"1001 N. Persimmon Drive","state":"KS"},"type":"Feature","geometry":{"type":"Point","coordinates":[-94.860958,38.891407]}},{"properties":{"city":"Olathe","name":"Olathe Northwest High School","zip":"66061","building labels\"1st_line\"":"Gwen Poss","geo_score":0.919,"column_8":null,"2nd_line":"USD 233  BLDG 0845","column_9":null,"id":"a6fwa9m6ajns","geo_precision":"range","address":"21300 College Blvd","state":"KS"},"type":"Feature","geometry":{"type":"Point","coordinates":[-94.831985,38.927303]}},{"properties":{"city":"Olathe","name":"Prairie Learning Center","zip":"66061","building labels\"1st_line\"":"David Sasser","geo_score":0.889,"column_8":null,"2nd_line":"USD 233  BLDG 2788","column_9":null,"id":"a6fwa9jdyo91","geo_precision":"range","address":"10975 Lone Elm Road","state":"KS"},"type":"Feature","geometry":{"type":"Point","coordinates":[-94.834606,38.929155]}},{"properties":{"city":"Olathe","name":"Prairie Trail Middle School","zip":"66061","building labels\"1st_line\"":"Stacey Yurkovich","geo_score":0.65,"column_8":null,"2nd_line":"USD 233  BLDG 9306","column_9":null,"id":"a6fwa9jwr6ts","geo_precision":"street","address":"21600 W 107th","state":"KS"},"type":"Feature","geometry":{"type":"Point","coordinates":[-94.895322,38.93462]}},{"properties":{"city":"Olathe","name":"Ravenwood Elementary","zip":"66061","building labels\"1st_line\"":"Jim Brockway","geo_score":0.5,"column_8":null,"2nd_line":"USD 233  BLDG 9307","column_9":null,"id":"a6fwa9qsrtq2","geo_precision":"street","address":"12211 S. Clinton","state":"KS"},"type":"Feature","geometry":{"type":"Point","coordinates":[-94.828977,38.899515]}},{"properties":{"city":"Olathe","name":"School for Deaf Elementary","zip":"66061","building labels\"1st_line\"":"Luanne Barron","geo_score":0.919,"column_8":null,"2nd_line":"ORG S0610  BLDG 0884","column_9":null,"id":"a6fwa9s9lnr0","geo_precision":"range","address":"450 East Park Street","state":"KS"},"type":"Feature","geometry":{"type":"Point","coordinates":[-94.81398,38.882016]}},{"properties":{"city":"Olathe","name":"School for Deaf High","zip":"66061","building labels\"1st_line\"":"Luanne Barron","geo_score":0.919,"column_8":null,"2nd_line":"ORG S0610  BLDG 0886","column_9":null,"id":"a6fwa9gl16wr","geo_precision":"range","address":"450 East Park Street","state":"KS"},"type":"Feature","geometry":{"type":"Point","coordinates":[-94.81398,38.882016]}},{"properties":{"city":"Olathe","name":"St. Paul Elementary","zip":"66061","building labels\"1st_line\"":"Stephanie Hill","geo_score":0.856,"column_8":null,"2nd_line":"ORG Z0029  BLDG 0882","column_9":null,"id":"a6fwa9i8lql5","geo_precision":"range","address":"920 West Honeysuckle","state":"KS"},"type":"Feature","geometry":{"type":"Point","coordinates":[-94.832144,38.87049]}},{"properties":{"city":"Olathe","name":"Woodland Elem","zip":"66061","building labels\"1st_line\"":"Stacy Shipley","geo_score":0.491,"column_8":null,"2nd_line":"USD 233  BLDG 2790","column_9":null,"id":"a6fwa9qr33xu","geo_precision":"street","address":"11601 S. Woodland Road","state":"KS"},"type":"Feature","geometry":{"type":"Point","coordinates":[-94.816007,38.883565]}},{"properties":{"city":"Olathe","name":"Fairview Elem","zip":"66061","building labels\"1st_line\"":"Brent Yeager","geo_score":0.854,"column_8":null,"2nd_line":"USD 233  BLDG 0852","column_9":null,"id":"a6fwa9ias6u9","geo_precision":"range","address":"600 N Marion","state":"KS"},"type":"Feature","geometry":{"type":"Point","coordinates":[-94.832182,38.889185]}},{"properties":{"city":"Olathe","name":"Mahaffie Elem","zip":"66061","building labels\"1st_line\"":"Peggy Head","geo_score":0.919,"column_8":null,"2nd_line":"USD 233  BLDG 2782","column_9":null,"id":"a6fwa9g7q0v0","geo_precision":"range","address":"1300 N Nelson Rd","state":"KS"},"type":"Feature","geometry":{"type":"Point","coordinates":[-94.806724,38.904103]}},{"properties":{"city":"Olathe","name":"Northview Elem","zip":"66061","building labels\"1st_line\"":"Todd Wheat","geo_score":0.725,"column_8":null,"2nd_line":"USD 233  BLDG 0871","column_9":null,"id":"a6fwa9fq7vmb","geo_precision":"street","address":"905 N Walker","state":"KS"},"type":"Feature","geometry":{"type":"Point","coordinates":[-94.813693,38.890868]}},{"properties":{"city":"Olathe","name":"Santa Fe Trail Middle School","zip":"66061","building labels\"1st_line\"":"Kerry Lane","geo_score":0.919,"column_8":null,"2nd_line":"USD 233  BLDG 0861","column_9":null,"id":"a6fwa9u4h5bg","geo_precision":"range","address":"1100 N Ridgeview Rd","state":"KS"},"type":"Feature","geometry":{"type":"Point","coordinates":[-94.797319,38.897993]}},{"properties":{"city":"Olathe","name":"Washington Elem","zip":"66061","building labels\"1st_line\"":"Christi Gottschalk","geo_score":0.87,"column_8":null,"2nd_line":"USD 233  BLDG 0858","column_9":null,"id":"a6fwa9kw7ejw","geo_precision":"range","address":"1202 N Ridgeview","state":"KS"},"type":"Feature","geometry":{"type":"Point","coordinates":[-94.797306,38.899377]}},{"properties":{"city":"Olathe","name":"Olathe North Sr High","zip":"66061","building labels\"1st_line\"":"Connie Heinen","geo_score":0.86,"column_8":null,"2nd_line":"USD 233  BLDG 0864","column_9":null,"id":"a6fwa9gavwgd","geo_precision":"range","address":"600 E Prairie","state":"KS"},"type":"Feature","geometry":{"type":"Point","coordinates":[-94.810544,38.887227]}},{"properties":{"city":"Olathe","name":"Rolling Ridge Elem","zip":"66061","building labels\"1st_line\"":"Lori Fielder","geo_score":0.919,"column_8":null,"2nd_line":"USD 233  BLDG 0870","column_9":null,"id":"a6fwa9ex6l3y","geo_precision":"range","address":"1500 W Elm Terr","state":"KS"},"type":"Feature","geometry":{"type":"Point","coordinates":[-94.843145,38.876861]}},{"properties":{"city":"Olathe","name":"Heartland Early Childhood Center","zip":"66061","building labels\"1st_line\"":"Principal","geo_score":0.865,"column_8":null,"2nd_line":"USD 233  BLDG 0867","column_9":null,"id":"a6fwa9g3vyu9","geo_precision":"range","address":"1700 W Sheridan","state":"KS"},"type":"Feature","geometry":{"type":"Point","coordinates":[-94.844767,38.87229]}},{"properties":{"city":"Olathe","name":"Westview Elem","zip":"66061","building labels\"1st_line\"":"John Harriss","geo_score":0.751,"column_8":null,"2nd_line":"USD 233  BLDG 0860","column_9":null,"id":"a6fwa9hirb5n","geo_precision":"range","address":"601 Lee","state":"KS"},"type":"Feature","geometry":{"type":"Point","coordinates":[-94.82976,38.875295]}},{"properties":{"city":"Olathe","name":"Central Elem","zip":"66061","building labels\"1st_line\"":"Stephanie Dancso","geo_score":0.846,"column_8":null,"2nd_line":"USD 233  BLDG 0850","column_9":null,"id":"a6fwa9kdzv34","geo_precision":"range","address":"324 S Water","state":"KS"},"type":"Feature","geometry":{"type":"Point","coordinates":[-94.817071,38.878747]}},{"properties":{"city":"Olathe","name":"Ridgeview Elem","zip":"66061","building labels\"1st_line\"":"Kim Thorup","geo_score":0.821,"column_8":null,"2nd_line":"USD 233  BLDG 0854","column_9":null,"id":"a6fwa9i2kmej","geo_precision":"range","address":"1201 E Elm","state":"KS"},"type":"Feature","geometry":{"type":"Point","coordinates":[-94.79905,38.877702]}},{"properties":{"city":"Olathe","name":"Oregon Trail Middle School","zip":"66061","building labels\"1st_line\"":"Steve Massey","geo_score":0.659,"column_8":null,"2nd_line":"USD 233  BLDG 0862","column_9":null,"id":"a6fwa9lljzer","geo_precision":"street","address":"1800 W Dennis","state":"KS"},"type":"Feature","geometry":{"type":"Point","coordinates":[-94.832269,38.868688]}},{"properties":{"city":"Olathe","name":"Prairie Center Elem","zip":"66061","building labels\"1st_line\"":"Natalie Browning","geo_score":0.87,"column_8":null,"2nd_line":"USD 233  BLDG 0856","column_9":null,"id":"a6fwa9g87ni0","geo_precision":"range","address":"629 N Persimmon","state":"KS"},"type":"Feature","geometry":{"type":"Point","coordinates":[-94.860567,38.891427]}},{"properties":{"city":"Olathe","name":"Meadow Lane Elem","zip":"66061","building labels\"1st_line\"":"Brian Lowe","geo_score":0.846,"column_8":null,"2nd_line":"USD 233  BLDG 0868","column_9":null,"id":"a6fwa9i0gky4","geo_precision":"range","address":"21880 W 111th","state":"KS"},"type":"Feature","geometry":{"type":"Point","coordinates":[-94.838636,38.927288]}},{"properties":{"city":"Olathe","name":"Arbor Creek Elementary","zip":"66062","building labels\"1st_line\"":"Melanie DeMoss","geo_score":0.753,"column_8":null,"2nd_line":"USD 233  BLDG 9302","column_9":null,"id":"a6fwa9tk1l6m","geo_precision":"street","address":"16150 S Brougham","state":"KS"},"type":"Feature","geometry":{"type":"Point","coordinates":[-94.771304,38.838699]}},{"properties":{"city":"Olathe","name":"Berean Christian School","zip":"66062","building labels\"1st_line\"":"Principal","geo_score":0.61,"column_8":null,"2nd_line":"ORG X0321  BLDG 9408","column_9":null,"id":"a6fwa9n1g69o","geo_precision":"street","address":"16000 S. Black Bob Rd.","state":"KS"},"type":"Feature","geometry":{"type":"Point","coordinates":[-94.761031,38.912777]}},{"properties":{"city":"Olathe","name":"California Trail Middle School","zip":"66062","building labels\"1st_line\"":"Connie Viebrock","geo_score":0.927,"column_8":null,"2nd_line":"USD 233  BLDG 2786","column_9":null,"id":"a6fwa9lf5bpc","geo_precision":"range","address":"13775 W 133 Street","state":"KS"},"type":"Feature","geometry":{"type":"Point","coordinates":[-94.746029,38.887294]}},{"properties":{"city":"Olathe","name":"Chisholm Trail Middle School","zip":"66062","building labels\"1st_line\"":"Bill Weber","geo_score":0.625,"column_8":null,"2nd_line":"USD 233  BLDG 9301","column_9":null,"id":"a6fwa9sjb75p","geo_precision":"street","address":"16700 W. 159th Street","state":"KS"},"type":"Feature","geometry":{"type":"Point","coordinates":[-94.707528,38.840067]}},{"properties":{"city":"Olathe","name":"Harmony Early Childhood Center","zip":"66062","building labels\"1st_line\"":"Principal","geo_score":0.61,"column_8":null,"2nd_line":"USD 233  BLDG 9308","column_9":null,"id":"a6fwa9u8som5","geo_precision":"street","address":"14030 S. Black Bob Road","state":"KS"},"type":"Feature","geometry":{"type":"Point","coordinates":[-94.761031,38.912777]}},{"properties":{"city":"Olathe","name":"Heatherstone Elem","zip":"66062","building labels\"1st_line\"":"Ruth Ann Gharst Waggoner","geo_score":0.756,"column_8":null,"2nd_line":"USD 233  BLDG 2784","column_9":null,"id":"a6fwa9olzvgg","geo_precision":"street","address":"13745 W 123rd","state":"KS"},"type":"Feature","geometry":{"type":"Point","coordinates":[-94.75229,38.90661]}},{"properties":{"city":"Olathe","name":"Insight School of KS at Hilltop Ed Center","zip":"66062","building labels\"1st_line\"":"Pauline Hintz","geo_score":0.927,"column_8":null,"2nd_line":"USD 230  BLDG 0794","column_9":null,"id":"a6fwa9qahjvu","geo_precision":"range","address":"16740 W 175th","state":"KS"},"type":"Feature","geometry":{"type":"Point","coordinates":[-94.779912,38.811073]}},{"properties":{"city":"Olathe","name":"Instructional Resource Center","zip":"66062","building labels\"1st_line\"":"Kim Gillespie","geo_score":0.973,"column_8":null,"2nd_line":"USD 233  BLDG 0914","column_9":null,"id":"a6fwa9tk3069","geo_precision":"range","address":"14090 Black Bob Rd.","state":"KS"},"type":"Feature","geometry":{"type":"Point","coordinates":[-94.760965,38.872024]}},{"properties":{"city":"Olathe","name":"Madison Place Elementary","zip":"66062","building labels\"1st_line\"":"Gary Stevenson","geo_score":0.614,"column_8":null,"2nd_line":"USD 233  BLDG 2789","column_9":null,"id":"a6fwa9hebceg","geo_precision":"street","address":"16651 S. Warwick","state":"KS"},"type":"Feature","geometry":{"type":"Point","coordinates":[-94.804043,38.833962]}},{"properties":{"city":"Olathe","name":"Olathe Wesleyan Church","zip":"66062","building labels\"1st_line\"":"Principal","geo_score":0.571,"column_8":null,"2nd_line":"ORG X0325  BLDG 9399","column_9":null,"id":"a6fwa9j3q1jl","geo_precision":"street","address":"15320 S. Ridgeview Rd.","state":"KS"},"type":"Feature","geometry":{"type":"Point","coordinates":[-94.794215,38.871945]}},{"properties":{"city":"Olathe","name":"Prairie Creek Elementary","zip":"66062","building labels\"1st_line\"":"Jody Cole","geo_score":0.61,"column_8":null,"2nd_line":"USD 230  BLDG 0793","column_9":null,"id":"a6fwa9kbj7a8","geo_precision":"street","address":"17077 W 165th St","state":"KS"},"type":"Feature","geometry":{"type":"Point","coordinates":[-94.695622,38.829293]}},{"properties":{"city":"Olathe","name":"Prince Of Peace","zip":"66062","building labels\"1st_line\"":"Jane Shriver","geo_score":1.0,"column_8":null,"2nd_line":"ORG Z0029  BLDG 9025","column_9":null,"id":"a6fwa9pyk6yl","geo_precision":"range","address":"16000 W 143rd St","state":"KS"},"type":"Feature","geometry":{"type":"Point","coordinates":[-94.771091,38.869091]}},{"properties":{"city":"Olathe","name":"Regency Place Elementary","zip":"66062","building labels\"1st_line\"":"Greg Oborny","geo_score":0.776,"column_8":null,"2nd_line":"USD 233  BLDG 0846","column_9":null,"id":"a6fwa9lu47fw","geo_precision":"street","address":"13250 S Greenwood","state":"KS"},"type":"Feature","geometry":{"type":"Point","coordinates":[-94.75626,38.9125]}},{"properties":{"city":"Olathe","name":"Sunnyside Elementary School","zip":"66062","building labels\"1st_line\"":"David Kearney","geo_score":0.604,"column_8":null,"2nd_line":"USD 233  BLDG 9300","column_9":null,"id":"a6fwa9pr6jky","geo_precision":"street","address":"16025 S. Lindenwood","state":"KS"},"type":"Feature","geometry":{"type":"Point","coordinates":[-94.784201,38.881668]}},{"properties":{"city":"Olathe","name":"Countryside Elementary","zip":"66062","building labels\"1st_line\"":"Amy Hercules","geo_score":1.0,"column_8":null,"2nd_line":"USD 233  BLDG 0859","column_9":null,"id":"a6fwa9qaelbq","geo_precision":"range","address":"15800 W 124th Terr","state":"KS"},"type":"Feature","geometry":{"type":"Point","coordinates":[-94.775278,38.902341]}},{"properties":{"city":"Olathe","name":"Pioneer Trail Middle School","zip":"66062","building labels\"1st_line\"":"Michael Wolgast","geo_score":0.927,"column_8":null,"2nd_line":"USD 233  BLDG 0857","column_9":null,"id":"a6fwa9ms14tf","geo_precision":"range","address":"15100 West 127th","state":"KS"},"type":"Feature","geometry":{"type":"Point","coordinates":[-94.761015,38.89817]}},{"properties":{"city":"Olathe","name":"Olathe East Sr High","zip":"66062","building labels\"1st_line\"":"Tom Barry","geo_score":0.927,"column_8":null,"2nd_line":"USD 233  BLDG 0885","column_9":null,"id":"a6fwa9pvw607","geo_precision":"range","address":"14545 W 127th","state":"KS"},"type":"Feature","geometry":{"type":"Point","coordinates":[-94.755382,38.898129]}},{"properties":{"city":"Olathe","name":"Tomahawk Elem","zip":"66062","building labels\"1st_line\"":"Linda Armstrong","geo_score":1.0,"column_8":null,"2nd_line":"USD 233  BLDG 0877","column_9":null,"id":"a6fwa9p50yls","geo_precision":"range","address":"13820 S Brougham Dr","state":"KS"},"type":"Feature","geometry":{"type":"Point","coordinates":[-94.769224,38.877683]}},{"properties":{"city":"Olathe","name":"Food Production Center","zip":"66062","building labels\"1st_line\"":"Principal","geo_score":0.92,"column_8":null,"2nd_line":"USD 233  BLDG 0880","column_9":null,"id":"a6fwa9p6e6a4","geo_precision":"range","address":"14140 Black Bob","state":"KS"},"type":"Feature","geometry":{"type":"Point","coordinates":[-94.760954,38.871272]}},{"properties":{"city":"Olathe","name":"Frontier Trail Middle School","zip":"66062","building labels\"1st_line\"":"Rod Smith","geo_score":1.0,"column_8":null,"2nd_line":"USD 233  BLDG 0847","column_9":null,"id":"a6fwa9szhn2h","geo_precision":"range","address":"15300 W 143rd Street","state":"KS"},"type":"Feature","geometry":{"type":"Point","coordinates":[-94.763444,38.869086]}},{"properties":{"city":"Olathe","name":"Briarwood Elem","zip":"66062","building labels\"1st_line\"":"Julie Richards","geo_score":1.0,"column_8":null,"2nd_line":"USD 233  BLDG 0853","column_9":null,"id":"a6fwa9no9g8u","geo_precision":"range","address":"14101 S Brougham Dr","state":"KS"},"type":"Feature","geometry":{"type":"Point","coordinates":[-94.765615,38.872763]}},{"properties":{"city":"Olathe","name":"Havencroft Elem","zip":"66062","building labels\"1st_line\"":"Angela Thrasher","geo_score":0.947,"column_8":null,"2nd_line":"USD 233  BLDG 0872","column_9":null,"id":"a6fwa9u67wwj","geo_precision":"range","address":"1700 E Sheridan","state":"KS"},"type":"Feature","geometry":{"type":"Point","coordinates":[-94.791535,38.869419]}},{"properties":{"city":"Olathe","name":"Black Bob Elem","zip":"66062","building labels\"1st_line\"":"Barry Cook","geo_score":1.0,"column_8":null,"2nd_line":"USD 233  BLDG 0876","column_9":null,"id":"a6fwa9hlanaf","geo_precision":"range","address":"14701 S Brougham Dr","state":"KS"},"type":"Feature","geometry":{"type":"Point","coordinates":[-94.769662,38.861719]}},{"properties":{"city":"Olathe","name":"Olathe South Sr High","zip":"66062","building labels\"1st_line\"":"Phil Clark","geo_score":1.0,"column_8":null,"2nd_line":"USD 233  BLDG 0865","column_9":null,"id":"a6fwa9mw3diu","geo_precision":"range","address":"1640 E 151st St","state":"KS"},"type":"Feature","geometry":{"type":"Point","coordinates":[-94.790648,38.854683]}},{"properties":{"city":"Olathe","name":"Indian Trail Middle School","zip":"66062","building labels\"1st_line\"":"Becky Vrbas","geo_score":1.0,"column_8":null,"2nd_line":"USD 233  BLDG 0863","column_9":null,"id":"a6fwa9efh2a5","geo_precision":"range","address":"1440 E 151st St","state":"KS"},"type":"Feature","geometry":{"type":"Point","coordinates":[-94.794489,38.854632]}},{"properties":{"city":"Olathe","name":"Scarborough Elem","zip":"66062","building labels\"1st_line\"":"Jami Veatch","geo_score":0.932,"column_8":null,"2nd_line":"USD 233  BLDG 0874","column_9":null,"id":"a6fwa9fp7rvm","geo_precision":"range","address":"2000 Lindenwood","state":"KS"},"type":"Feature","geometry":{"type":"Point","coordinates":[-94.790027,38.849895]}},{"properties":{"city":"Olathe","name":"Brougham Elem","zip":"66062","building labels\"1st_line\"":"Stephanie Conklin","geo_score":1.0,"column_8":null,"2nd_line":"USD 233  BLDG 0849","column_9":null,"id":"a6fwa9dwjkcx","geo_precision":"range","address":"15500 S Brougham Dr","state":"KS"},"type":"Feature","geometry":{"type":"Point","coordinates":[-94.771548,38.847059]}},{"properties":{"city":"Olathe","name":"Heritage Elementary","zip":"66062","building labels\"1st_line\"":"Tim Reves","geo_score":1.0,"column_8":null,"2nd_line":"USD 233  BLDG 0875","column_9":null,"id":"a6fwa9p2742h","geo_precision":"range","address":"1700 E Pawnee Dr","state":"KS"},"type":"Feature","geometry":{"type":"Point","coordinates":[-94.787922,38.859097]}},{"properties":{"city":"Olathe","name":"Liberty View Elementary","zip":"66062","building labels\"1st_line\"":"Susan Lonergan","geo_score":0.61,"column_8":null,"2nd_line":"USD 229  BLDG 0765","column_9":null,"id":"a6fwa9er5j4q","geo_precision":"street","address":"14800 S. Greenwood St.","state":"KS"},"type":"Feature","geometry":{"type":"Point","coordinates":[-94.749916,38.927372]}},{"properties":{"city":"Olathe","name":"Indian Creek Elem","zip":"66062","building labels\"1st_line\"":"Linda Voyles","geo_score":0.982,"column_8":null,"2nd_line":"USD 233  BLDG 0851","column_9":null,"id":"a6fwa9uc5ghr","geo_precision":"range","address":"15800 W Indian Creek Pkwy","state":"KS"},"type":"Feature","geometry":{"type":"Point","coordinates":[-94.761016,38.89469]}},{"properties":{"city":"Olathe","name":"Green Springs Elem","zip":"66062","building labels\"1st_line\"":"Brenda Traughber","geo_score":0.927,"column_8":null,"2nd_line":"USD 233  BLDG 2781","column_9":null,"id":"a6fwa9sac7w1","geo_precision":"range","address":"14675 S Alden","state":"KS"},"type":"Feature","geometry":{"type":"Point","coordinates":[-94.756885,38.862342]}},{"properties":{"city":"Olathe","name":"Walnut Grove Elem","zip":"66062","building labels\"1st_line\"":"Lynne Ann Borchers","geo_score":1.0,"column_8":null,"2nd_line":"USD 233  BLDG 0855","column_9":null,"id":"a6fwa9o31bq5","geo_precision":"range","address":"11800 S Pflumm Road","state":"KS"},"type":"Feature","geometry":{"type":"Point","coordinates":[-94.742479,38.914553]}},{"properties":{"city":"Olathe","name":"Forest View Elem","zip":"66063","building labels\"1st_line\"":"Mark Heck","geo_score":0.339,"column_8":null,"2nd_line":"USD 233  BLDG 9311","column_9":"Olathe KS 66061","id":"a6fwa9n7721h","geo_precision":"street","address":"12567 S. Canyon Dr.","state":"KS"},"type":"Feature","geometry":{"type":"Point","coordinates":[-95.51777,38.173005]}},{"properties":{"city":"Olathe","name":"Millcreek Center","zip":"66063","building labels\"1st_line\"":"Principal","geo_score":0.347,"column_8":null,"2nd_line":"USD 233  BLDG 2791","column_9":"Olathe KS 66061","id":"a6fwa9f9j6qt","geo_precision":"street","address":"311 E. Park","state":"KS"},"type":"Feature","geometry":{"type":"Point","coordinates":[-95.238498,38.288157]}},{"properties":{"city":"Osawatomie","name":"Osawatomie Middle School","zip":"66064","building labels\"1st_line\"":"Dan Welch","geo_score":0.672,"column_8":null,"2nd_line":"USD 367  BLDG 4665","column_9":null,"id":"a6fwa9qqsm19","geo_precision":"street","address":"428 Pacific","state":"KS"},"type":"Feature","geometry":{"type":"Point","coordinates":[-94.967945,38.494442]}},{"properties":{"city":"Osawatomie","name":"Trojan Elem","zip":"66064","building labels\"1st_line\"":"Jeff White","geo_score":0.932,"column_8":null,"2nd_line":"USD 367  BLDG 4662","column_9":null,"id":"a6fwa9loq2w6","geo_precision":"range","address":"1901 Parker Ave","state":"KS"},"type":"Feature","geometry":{"type":"Point","coordinates":[-94.977055,38.4987]}},{"properties":{"city":"Osawatomie","name":"Swenson Early Childhood Education Center","zip":"66064","building labels\"1st_line\"":"Andrea Manes","geo_score":0.834,"column_8":null,"2nd_line":"USD 367  BLDG 4664","column_9":null,"id":"a6fwa9hillle","geo_precision":"range","address":"608 10th Street","state":"KS"},"type":"Feature","geometry":{"type":"Point","coordinates":[-94.958376,38.496503]}},{"properties":{"city":"Osawatomie","name":"Osawatomie High","zip":"66064","building labels\"1st_line\"":"Doug Chisam","geo_score":0.615,"column_8":null,"2nd_line":"USD 367  BLDG 4666","column_9":null,"id":"a6fwa9qps07b","geo_precision":"zip","address":"1200 Trojan Dr","state":"KS"},"type":"Feature","geometry":{"type":"Point","coordinates":[-95.054413,38.543347]}},{"properties":{"city":"Ottawa","name":"Eugene Field Elem","zip":"66067","building labels\"1st_line\"":"Josh Robinson","geo_score":0.796,"column_8":null,"2nd_line":"USD 290  BLDG 2642","column_9":null,"id":"a6fwa9hcu267","geo_precision":"range","address":"720 Tremont","state":"KS"},"type":"Feature","geometry":{"type":"Point","coordinates":[-95.273719,38.608109]}},{"properties":{"city":"Ottawa","name":"Franklin Co Opportunity Ctr","zip":"66067","building labels\"1st_line\"":"Rick Johnson","geo_score":0.476,"column_8":null,"2nd_line":"USD 290  BLDG 2655","column_9":null,"id":"a6fwa9ounkp6","geo_precision":"street","address":"421 S. Hickory St","state":"KS"},"type":"Feature","geometry":{"type":"Point","coordinates":[-95.26713,38.617795]}},{"properties":{"city":"Ottawa","name":"Ottawa Christian Academy","zip":"66067","building labels\"1st_line\"":"Principal","geo_score":0.902,"column_8":null,"2nd_line":"ORG X0322  BLDG 9410","column_9":null,"id":"a6fwa9q3p1db","geo_precision":"range","address":"2749 Montana Road","state":"KS"},"type":"Feature","geometry":{"type":"Point","coordinates":[-95.249359,38.582665]}},{"properties":{"city":"Ottawa","name":"Ottawa Middle School","zip":"66067","building labels\"1st_line\"":"Carmen Schaefer","geo_score":0.805,"column_8":null,"2nd_line":"USD 290  BLDG 2650","column_9":null,"id":"a6fwa9t2m8nl","geo_precision":"range","address":"1230 South Ash","state":"KS"},"type":"Feature","geometry":{"type":"Point","coordinates":[-95.277051,38.598833]}},{"properties":{"city":"Ottawa","name":"Ottawa Sr High","zip":"66067","building labels\"1st_line\"":"Rick Johnson","geo_score":0.805,"column_8":null,"2nd_line":"USD 290  BLDG 2652","column_9":null,"id":"a6fwa9iwgcyp","geo_precision":"range","address":"1120 South Ash","state":"KS"},"type":"Feature","geometry":{"type":"Point","coordinates":[-95.277057,38.600847]}},{"properties":{"city":"Ottawa","name":"Sacred Heart Elem [Ottawa]","zip":"66067","building labels\"1st_line\"":"Diane Chapman","geo_score":0.49,"column_8":null,"2nd_line":"ORG Z0029  BLDG 2662","column_9":null,"id":"a6fwa9tfxew1","geo_precision":"street","address":"426 S. Cedar","state":"KS"},"type":"Feature","geometry":{"type":"Point","coordinates":[-95.266754,38.579345]}},{"properties":{"city":"Ottawa","name":"Lincoln Elem","zip":"66067","building labels\"1st_line\"":"Vicki Schweinler","geo_score":0.805,"column_8":null,"2nd_line":"USD 290  BLDG 2648","column_9":null,"id":"a6fwa9oj85i1","geo_precision":"range","address":"1102 Milner","state":"KS"},"type":"Feature","geometry":{"type":"Point","coordinates":[-95.253784,38.631973]}},{"properties":{"city":"Ottawa","name":"Career Technology Educational Coop","zip":"66067","building labels\"1st_line\"":"Rick Johnson","geo_score":0.697,"column_8":null,"2nd_line":"USD 290  BLDG 2654","column_9":null,"id":"a6fwa9u6thhl","geo_precision":"range","address":"908 W 11th Street","state":"KS"},"type":"Feature","geometry":{"type":"Point","coordinates":[-95.27947,38.601134]}},{"properties":{"city":"Ottawa","name":"Eisenhower Elem","zip":"66067","building labels\"1st_line\"":"Nancy Johnson","geo_score":0.805,"column_8":null,"2nd_line":"USD 290  BLDG 2641","column_9":null,"id":"a6fwa9lezo9w","geo_precision":"range","address":"1404 South Ash","state":"KS"},"type":"Feature","geometry":{"type":"Point","coordinates":[-95.277014,38.595835]}},{"properties":{"city":"Ottawa","name":"Garfield Elem","zip":"66067","building labels\"1st_line\"":"Jeff Green","geo_score":0.815,"column_8":null,"2nd_line":"USD 290  BLDG 2644","column_9":null,"id":"a6fwa9tjy6ay","geo_precision":"range","address":"1213 College","state":"KS"},"type":"Feature","geometry":{"type":"Point","coordinates":[-95.26383,38.598904]}},{"properties":{"city":"Overland Park","name":"Accelerated Elem","zip":"64113","building labels\"1st_line\"":"James Neihart","geo_score":0.477,"column_8":"64113","2nd_line":"ORG Z0060  BLDG 9193","column_9":null,"id":"a6fwa9ofskf6","geo_precision":"street","address":"10713 Barkley","state":"KS"},"type":"Feature","geometry":{"type":"Point","coordinates":[-94.660547,39.241068]}},{"properties":{"city":"Overland Park","name":"Blue Valley Southwest High School","zip":"66062","building labels\"1st_line\"":"Scott Roberts","geo_score":0.927,"column_8":"66062","2nd_line":"USD 229  BLDG 0820","column_9":null,"id":"a6fwa9t26x7i","geo_precision":"range","address":"17600 Quivira Road","state":"KS"},"type":"Feature","geometry":{"type":"Point","coordinates":[-94.72369,38.809379]}},{"properties":{"city":"Overland Park","name":"Timber Creek Elementary School","zip":"66062","building labels\"1st_line\"":"Pam Bakke","geo_score":0.61,"column_8":"66062","2nd_line":"USD 229  BLDG 0759","column_9":null,"id":"a6fwa9t3fy7v","geo_precision":"street","address":"16451 Flint St","state":"KS"},"type":"Feature","geometry":{"type":"Point","coordinates":[-94.715457,38.781799]}},{"properties":{"city":"Overland Park","name":"Pleasant Ridge Middle","zip":"66085","building labels\"1st_line\"":"Diana Tate","geo_score":0.506,"column_8":"66085-9073","2nd_line":"USD 229  BLDG 7787","column_9":null,"id":"a6fwa9r3kxp8","geo_precision":"street","address":"9000 W. 165th St.","state":"KS"},"type":"Feature","geometry":{"type":"Point","coordinates":[-94.653463,38.828817]}},{"properties":{"city":"Overland Park","name":"Blue Valley West High","zip":"66085","building labels\"1st_line\"":"Tony Lake","geo_score":0.919,"column_8":"66085-9382","2nd_line":"USD 229  BLDG 7777","column_9":null,"id":"a6fwa9km35dq","geo_precision":"range","address":"16200 Antioch Road","state":"KS"},"type":"Feature","geometry":{"type":"Point","coordinates":[-94.686346,38.833162]}},{"properties":{"city":"Overland Park","name":"Cedar Hills Elementary","zip":"66085","building labels\"1st_line\"":"Steve Marsh","geo_score":0.506,"column_8":"66085-9382","2nd_line":"USD 229  BLDG 0758","column_9":null,"id":"a6fwa9o0t0m8","geo_precision":"street","address":"9100 W. 165th St.","state":"KS"},"type":"Feature","geometry":{"type":"Point","coordinates":[-94.653463,38.828817]}},{"properties":{"city":"Overland Park","name":"Blue River Elementary","zip":"66085","building labels\"1st_line\"":"Deborah Kelly","geo_score":0.506,"column_8":"66085-9383","2nd_line":"USD 229  BLDG 7786","column_9":null,"id":"a6fwa9rwu8wu","geo_precision":"street","address":"5101 W. 163rd Terrace","state":"KS"},"type":"Feature","geometry":{"type":"Point","coordinates":[-94.643267,38.83418]}},{"properties":{"city":"Overland Park","name":"Blue Valley Middle","zip":"66085","building labels\"1st_line\"":"Roxana Rogers","geo_score":0.506,"column_8":"66085-9385","2nd_line":"USD 229  BLDG 0776","column_9":null,"id":"a6fwa9p9hazz","geo_precision":"street","address":"5001 W. 163rd Terrace","state":"KS"},"type":"Feature","geometry":{"type":"Point","coordinates":[-94.643267,38.83418]}},{"properties":{"city":"Overland Park","name":"John Paul II Catholic School","zip":"66204","building labels\"1st_line\"":"Susie English","geo_score":0.514,"column_8":"66204","2nd_line":"ORG Z0029  BLDG 9893","column_9":null,"id":"a6fwa9qb95xe","geo_precision":"street","address":"6915 W. 71st Street","state":"KS"},"type":"Feature","geometry":{"type":"Point","coordinates":[-94.651409,39.000353]}},{"properties":{"city":"Overland Park","name":"Kansas City Bible Coll High","zip":"66204","building labels\"1st_line\"":"Greg Blake","geo_score":0.54,"column_8":"66204-1975","2nd_line":"ORG Z0010  BLDG 9008","column_9":null,"id":"a6fwa9ml528v","geo_precision":"street","address":"7401 Metcalf","state":"KS"},"type":"Feature","geometry":{"type":"Point","coordinates":[-94.667854,38.997904]}},{"properties":{"city":"Overland Park","name":"Bethany Lutheran School","zip":"66207","building labels\"1st_line\"":"Greg Hasseldahl","geo_score":0.793,"column_8":"66207-2452","2nd_line":"ORG Z0026  BLDG 9710","column_9":null,"id":"a6fwa9ey61rm","geo_precision":"range","address":"9101 Lamar","state":"KS"},"type":"Feature","geometry":{"type":"Point","coordinates":[-94.658324,38.964037]}},{"properties":{"city":"Overland Park","name":"Oxford Park Acd. Elem","zip":"66209","building labels\"1st_line\"":"Principal","geo_score":0.793,"column_8":"66209-0662","2nd_line":"ORG X0324  BLDG 9480","column_9":null,"id":"a6fwa9fldsvd","geo_precision":"range","address":"13200 Nall","state":"KS"},"type":"Feature","geometry":{"type":"Point","coordinates":[-94.649193,38.889173]}},{"properties":{"city":"Overland Park","name":"Valley Park Elementary","zip":"66209","building labels\"1st_line\"":"Marlene Wedel","geo_score":0.919,"column_8":"66209-2702","2nd_line":"USD 229  BLDG 0772","column_9":null,"id":"a6fwa9mmuawo","geo_precision":"range","address":"12301 Lamar Ave.","state":"KS"},"type":"Feature","geometry":{"type":"Point","coordinates":[-94.658754,38.905564]}},{"properties":{"city":"Overland Park","name":"Blue Valley North High","zip":"66209","building labels\"1st_line\"":"Tonya Merrigan","geo_score":0.919,"column_8":"66209-2711","2nd_line":"USD 229  BLDG 0769","column_9":null,"id":"a6fwa9k2r0i2","geo_precision":"range","address":"12200 Lamar Ave.","state":"KS"},"type":"Feature","geometry":{"type":"Point","coordinates":[-94.658317,38.907423]}},{"properties":{"city":"Overland Park","name":"Overland Trail Elementary","zip":"66209","building labels\"1st_line\"":"Doris Moore","geo_score":0.506,"column_8":"66209-3938","2nd_line":"USD 229  BLDG 0779","column_9":null,"id":"a6fwa9l3pysz","geo_precision":"street","address":"6225 W. 133rd St.","state":"KS"},"type":"Feature","geometry":{"type":"Point","coordinates":[-94.648721,38.886987]}},{"properties":{"city":"Overland Park","name":"Overland Trail Middle","zip":"66209","building labels\"1st_line\"":"Phoebe Lewis","geo_score":0.506,"column_8":"66209-3939","2nd_line":"USD 229  BLDG 0781","column_9":null,"id":"a6fwa9j3a77e","geo_precision":"street","address":"6201 W. 133rd St.","state":"KS"},"type":"Feature","geometry":{"type":"Point","coordinates":[-94.648721,38.886987]}},{"properties":{"city":"Overland Park","name":"Johnson Co Area Vo Tech School","zip":"66210","building labels\"1st_line\"":"Director","geo_score":0.902,"column_8":"66210","2nd_line":"ORG A0614  BLDG 9027","column_9":null,"id":"a6fwa9rx93sw","geo_precision":"range","address":"12345 College Blvd.","state":"KS"},"type":"Feature","geometry":{"type":"Point","coordinates":[-94.729504,38.927442]}},{"properties":{"city":"Overland Park","name":"Johnson Co Comm College","zip":"66210","building labels\"1st_line\"":"President","geo_score":0.902,"column_8":"66210","2nd_line":"ORG J0813  BLDG 9030","column_9":null,"id":"a6fwa9st1gxw","geo_precision":"range","address":"12345 College Boulevard","state":"KS"},"type":"Feature","geometry":{"type":"Point","coordinates":[-94.729504,38.927442]}},{"properties":{"city":"Overland Park","name":"Indian Valley Elementary","zip":"66210","building labels\"1st_line\"":"Stephen Heinauer","geo_score":0.902,"column_8":"66210-3608","2nd_line":"USD 229  BLDG 0780","column_9":null,"id":"a6fwa9edgeoc","geo_precision":"range","address":"11600 Knox St.","state":"KS"},"type":"Feature","geometry":{"type":"Point","coordinates":[-94.697999,38.919604]}},{"properties":{"city":"Overland Park","name":"Christ Lutheran School","zip":"66210","building labels\"1st_line\"":"Principal","geo_score":0.708,"column_8":"66210-4308","2nd_line":"ORG Z0026  BLDG 9889","column_9":null,"id":"a6fwa9exjtpk","geo_precision":"street","address":"11720 Nieman","state":"KS"},"type":"Feature","geometry":{"type":"Point","coordinates":[-94.715026,38.926485]}},{"properties":{"city":"Overland Park","name":"Accelerated High","zip":"66211","building labels\"1st_line\"":"James Neihart","geo_score":0.837,"column_8":"66211","2nd_line":"ORG Z0060  BLDG 9194","column_9":null,"id":"a6fwa9tet84c","geo_precision":"range","address":"10713 Barkley","state":"KS"},"type":"Feature","geometry":{"type":"Point","coordinates":[-94.663758,38.9342]}},{"properties":{"city":"Overland Park","name":"Hyman Brand Hebrew Academy","zip":"66211","building labels\"1st_line\"":"Principal","geo_score":0.482,"column_8":"66211","2nd_line":"ORG Z0008  BLDG 9114","column_9":null,"id":"a6fwa9kmnf6w","geo_precision":"street","address":"5801 W.115th Street","state":"KS"},"type":"Feature","geometry":{"type":"Point","coordinates":[-94.610419,38.919672]}},{"properties":{"city":"Overland Park","name":"Brookridge Day School","zip":"66212","building labels\"1st_line\"":"Barbara Brown","geo_score":0.829,"column_8":"66212","2nd_line":"ORG Z0006  BLDG 9001","column_9":null,"id":"a6fwa9kyp60y","geo_precision":"range","address":"9555 Hadley","state":"KS"},"type":"Feature","geometry":{"type":"Point","coordinates":[-94.682737,38.955811]}},{"properties":{"city":"Overland Park","name":"Holy Cross Catholic","zip":"66212","building labels\"1st_line\"":"Mary Jo Gates","geo_score":0.735,"column_8":"66212","2nd_line":"ORG Z0029  BLDG 9023","column_9":null,"id":"a6fwa9s042ns","geo_precision":"range","address":"8101 West 95th","state":"KS"},"type":"Feature","geometry":{"type":"Point","coordinates":[-94.679666,38.95669]}},{"properties":{"city":"Overland Park","name":"Ascension School","zip":"66213","building labels\"1st_line\"":"Margaret Sachs","geo_score":0.902,"column_8":"66213","2nd_line":"ORG Z0029  BLDG 7784","column_9":null,"id":"a6fwa9jl2egn","geo_precision":"range","address":"9510 W 127th Street","state":"KS"},"type":"Feature","geometry":{"type":"Point","coordinates":[-94.696011,38.898276]}},{"properties":{"city":"Overland Park","name":"Bentwood Elem","zip":"66213","building labels\"1st_line\"":"Cathy McDonald","geo_score":0.902,"column_8":"66213","2nd_line":"USD 233  BLDG 2785","column_9":null,"id":"a6fwa9jy81te","geo_precision":"range","address":"13000 Bond St","state":"KS"},"type":"Feature","geometry":{"type":"Point","coordinates":[-94.72043,38.891368]}},{"properties":{"city":"Overland Park","name":"Pleasant Ridge Elem","zip":"66213","building labels\"1st_line\"":"Krystal Actkinson","geo_score":0.844,"column_8":"66213","2nd_line":"USD 233  BLDG 2783","column_9":null,"id":"a6fwa9njwv7z","geo_precision":"range","address":"12235 Rosehill Rd","state":"KS"},"type":"Feature","geometry":{"type":"Point","coordinates":[-94.735681,38.907371]}},{"properties":{"city":"Overland Park","name":"Oxford Middle","zip":"66213","building labels\"1st_line\"":"Linda Crosthwait","geo_score":0.902,"column_8":"66213-1804","2nd_line":"USD 229  BLDG 0767","column_9":null,"id":"a6fwa9oprb7j","geo_precision":"range","address":"12500 Switzer Road","state":"KS"},"type":"Feature","geometry":{"type":"Point","coordinates":[-94.705132,38.902217]}},{"properties":{"city":"Overland Park","name":"Oak Hill Elementary","zip":"66213","building labels\"1st_line\"":"Gretchen Anderson","geo_score":0.482,"column_8":"66213-1875","2nd_line":"USD 229  BLDG 0782","column_9":null,"id":"a6fwa9i7cbz6","geo_precision":"street","address":"10200 W. 124th St.","state":"KS"},"type":"Feature","geometry":{"type":"Point","coordinates":[-94.679926,38.905617]}},{"properties":{"city":"Overland Park","name":"Heartland Elementary","zip":"66213","building labels\"1st_line\"":"Sherry Sims","geo_score":0.902,"column_8":"66213-2786","2nd_line":"USD 229  BLDG 7775","column_9":null,"id":"a6fwa9mi37st","geo_precision":"range","address":"12775 Goodman St.","state":"KS"},"type":"Feature","geometry":{"type":"Point","coordinates":[-94.680595,38.896497]}},{"properties":{"city":"Overland Park","name":"Blue Valley Northwest High","zip":"66213","building labels\"1st_line\"":"Amy Murphy","geo_score":0.902,"column_8":"66213-3306","2nd_line":"USD 229  BLDG 7774","column_9":null,"id":"a6fwa9otob25","geo_precision":"range","address":"13260 Switzer Road","state":"KS"},"type":"Feature","geometry":{"type":"Point","coordinates":[-94.700484,38.887689]}},{"properties":{"city":"Overland Park","name":"Cottonwood Point Elementary","zip":"66213","building labels\"1st_line\"":"Jill Smith","geo_score":0.482,"column_8":"66213-3459","2nd_line":"USD 229  BLDG 0783","column_9":null,"id":"a6fwa9perpwr","geo_precision":"street","address":"10521 W. 129th St.","state":"KS"},"type":"Feature","geometry":{"type":"Point","coordinates":[-94.680174,38.895]}},{"properties":{"city":"Overland Park","name":"Holy Spirit Catholic","zip":"66214","building labels\"1st_line\"":"Michele Watson","geo_score":0.829,"column_8":"66214","2nd_line":"ORG Z0029  BLDG 9019","column_9":null,"id":"a6fwa9pxbbas","geo_precision":"range","address":"11300 West 103rd","state":"KS"},"type":"Feature","geometry":{"type":"Point","coordinates":[-94.715767,38.942047]}},{"properties":{"city":"Overland Park","name":"St Thomas Aquinas High School","zip":"66215","building labels\"1st_line\"":"Rebecca Heidlage","geo_score":0.919,"column_8":"66215","2nd_line":"ORG Z0029  BLDG 9020","column_9":null,"id":"a6fwa9q1t50e","geo_precision":"range","address":"11411 Pflumm Rd","state":"KS"},"type":"Feature","geometry":{"type":"Point","coordinates":[-94.742211,38.923179]}},{"properties":{"city":"Overland Park","name":"St Thomas Aquinas High School","zip":"66215","building labels\"1st_line\"":"Mike Sullivan","geo_score":0.919,"column_8":"66215","2nd_line":"ORG Z0029  BLDG 9020","column_9":null,"id":"a6fwa9psc14s","geo_precision":"range","address":"11411 Pflumm Rd","state":"KS"},"type":"Feature","geometry":{"type":"Point","coordinates":[-94.742211,38.923179]}},{"properties":{"city":"Overland Park","name":"Westminster Academy","zip":"66221","building labels\"1st_line\"":"Principal","geo_score":0.902,"column_8":"66221","2nd_line":"ORG X0317  BLDG 9375","column_9":null,"id":"a6fwa9j3kjtf","geo_precision":"range","address":"9333 W 159th St","state":"KS"},"type":"Feature","geometry":{"type":"Point","coordinates":[-94.69298,38.840043]}},{"properties":{"city":"Overland Park","name":"Harmony Elementary","zip":"66221","building labels\"1st_line\"":"Catherine Austin","geo_score":0.902,"column_8":"66221-2148","2nd_line":"USD 229  BLDG 0785","column_9":null,"id":"a6fwa9nq78gr","geo_precision":"range","address":"14140 Grant St.","state":"KS"},"type":"Feature","geometry":{"type":"Point","coordinates":[-94.69458,38.870639]}},{"properties":{"city":"Overland Park","name":"Harmony Middle","zip":"66221","building labels\"1st_line\"":"Sheila Albers","geo_score":0.482,"column_8":"66221-2165","2nd_line":"USD 229  BLDG 0784","column_9":null,"id":"a6fwa9rc8jp0","geo_precision":"street","address":"10101 W. 141st St.","state":"KS"},"type":"Feature","geometry":{"type":"Point","coordinates":[-94.687702,38.873937]}},{"properties":{"city":"Overland Park","name":"Sunset Ridge Elementary","zip":"66221","building labels\"1st_line\"":"Mandy Shoemaker","geo_score":0.902,"column_8":"66221-2273","2nd_line":"USD 229  BLDG 7788","column_9":null,"id":"a6fwa9igt62t","geo_precision":"range","address":"14901 England St.","state":"KS"},"type":"Feature","geometry":{"type":"Point","coordinates":[-94.693951,38.856928]}},{"properties":{"city":"Overland Park","name":"Morse Elementary","zip":"66221","building labels\"1st_line\"":"Mark Lange","geo_score":0.902,"column_8":"66221-2369","2nd_line":"USD 229  BLDG 0771","column_9":null,"id":"a6fwa9pbvdza","geo_precision":"range","address":"15201 Monrovia St.","state":"KS"},"type":"Feature","geometry":{"type":"Point","coordinates":[-94.726338,38.85254]}},{"properties":{"city":"Overland Park","name":"Center for Advanced Professional Studies","zip":"66223","building labels\"1st_line\"":"Principal","geo_score":0.506,"column_8":"66223","2nd_line":"USD 229  BLDG 0821","column_9":null,"id":"a6fwa9mtun2g","geo_precision":"street","address":"7511 W. 149th Terrace","state":"KS"},"type":"Feature","geometry":{"type":"Point","coordinates":[-94.661666,38.857741]}},{"properties":{"city":"Overland Park","name":"Small Beginnings Montessori","zip":"66223","building labels\"1st_line\"":"Principal","geo_score":0.831,"column_8":"66223","2nd_line":"ORG Z0062  BLDG 9017","column_9":null,"id":"a6fwa9rvxact","geo_precision":"range","address":"15801 Metcalf","state":"KS"},"type":"Feature","geometry":{"type":"Point","coordinates":[-94.667722,38.84208]}},{"properties":{"city":"Overland Park","name":"Blue Valley Academy","zip":"66223","building labels\"1st_line\"":"Valerie Jennings","geo_score":0.506,"column_8":"66223-2236","2nd_line":"USD 229  BLDG 7789","column_9":null,"id":"a6fwa9fxkws1","geo_precision":"street","address":"7500 W.149th Terrace","state":"KS"},"type":"Feature","geometry":{"type":"Point","coordinates":[-94.661666,38.857741]}},{"properties":{"city":"Overland Park","name":"Lakewood Middle","zip":"66223","building labels\"1st_line\"":"Scott Currier","geo_score":0.602,"column_8":"66223-2465","2nd_line":"USD 229  BLDG 0757","column_9":null,"id":"a6fwa9ipulhg","geo_precision":"street","address":"6601 Edgewater Drive","state":"KS"},"type":"Feature","geometry":{"type":"Point","coordinates":[-94.65596,38.865825]}},{"properties":{"city":"Overland Park","name":"Stanley Elementary","zip":"66223","building labels\"1st_line\"":"Andrea Eisner","geo_score":0.506,"column_8":"66223-3474","2nd_line":"USD 229  BLDG 0768","column_9":null,"id":"a6fwa9iikuan","geo_precision":"street","address":"6121 W. 158th St.","state":"KS"},"type":"Feature","geometry":{"type":"Point","coordinates":[-94.66044,38.840699]}},{"properties":{"city":"Overland Park","name":"Lakewood Elementary","zip":"66223","building labels\"1st_line\"":"Nancy Layton","geo_score":0.919,"column_8":"66223-9998","2nd_line":"USD 229  BLDG 0756","column_9":null,"id":"a6fwa9mbndgv","geo_precision":"range","address":"14600 Lamar Ave.","state":"KS"},"type":"Feature","geometry":{"type":"Point","coordinates":[-94.659652,38.863937]}},{"properties":{"city":"Overland Park","name":"Sunrise Point Elementary","zip":"66224","building labels\"1st_line\"":"David Sanders","geo_score":0.707,"column_8":"66224","2nd_line":"USD 229  BLDG 7790","column_9":null,"id":"a6fwa9joutlm","geo_precision":"street","address":"15800 Roe Ave.","state":"KS"},"type":"Feature","geometry":{"type":"Point","coordinates":[-94.639913,38.872775]}},{"properties":{"city":"Prairie Village","name":"St Ann Elem","zip":"66208","building labels\"1st_line\"":"Becky Akright","geo_score":0.923,"column_8":"66208","2nd_line":"ORG Z0029  BLDG 9016","column_9":null,"id":"a6fwa9ph1hq2","geo_precision":"range","address":"7241 Mission Rd","state":"KS"},"type":"Feature","geometry":{"type":"Point","coordinates":[-94.630412,38.997253]}},{"properties":{"city":"Roeland Park","name":"Horizon Academy Elem","zip":"66205","building labels\"1st_line\"":"Principal","geo_score":0.91,"column_8":"66205-1507","2nd_line":"ORG Z0061  BLDG 9708","column_9":null,"id":"a6fwa9s3tdu4","geo_precision":"range","address":"4901 Reinhardt Drive","state":"KS"},"type":"Feature","geometry":{"type":"Point","coordinates":[-94.625357,39.039705]}},{"properties":{"city":"Roeland Park","name":"Horizon Academy Jr./Sr. High","zip":"66205","building labels\"1st_line\"":"Principal","geo_score":0.857,"column_8":"66205-1507","2nd_line":"ORG Z0061  BLDG 9711","column_9":null,"id":"a6fwa9p4yjt0","geo_precision":"range","address":"4901 Reinhardt","state":"KS"},"type":"Feature","geometry":{"type":"Point","coordinates":[-94.625357,39.039705]}},{"properties":{"city":"Shawnee","name":"St. Joseph Elementary - Shawnee","zip":"66203","building labels\"1st_line\"":"Sue Carter","geo_score":0.805,"column_8":null,"2nd_line":"ORG Z0029  BLDG 9018","column_9":null,"id":"a6fwa9s1r0a5","geo_precision":"street","address":"5901 Flint","state":"KS"},"type":"Feature","geometry":{"type":"Point","coordinates":[-94.717146,38.998785]}},{"properties":{"city":"Shawnee","name":"Good Shepherd School","zip":"66216","building labels\"1st_line\"":"Ann McGuff","geo_score":0.868,"column_8":null,"2nd_line":"ORG Z0029  BLDG 9015","column_9":null,"id":"a6fwa9r24dfc","geo_precision":"range","address":"12800 West 75th Street","state":"KS"},"type":"Feature","geometry":{"type":"Point","coordinates":[-94.733898,38.992838]}},{"properties":{"city":"Shawnee","name":"Hope Lutheran","zip":"66216","building labels\"1st_line\"":"Richard Hanebutt","geo_score":0.951,"column_8":null,"2nd_line":"ORG Z0026  BLDG 9021","column_9":null,"id":"a6fwa9o0r3mj","geo_precision":"range","address":"6308 Quivira Rd","state":"KS"},"type":"Feature","geometry":{"type":"Point","coordinates":[-94.723859,39.014592]}},{"properties":{"city":"Shawnee","name":"Maranatha Academy (Preschool-12)","zip":"66217","building labels\"1st_line\"":"Boyd Beck 7-12","geo_score":0.823,"column_8":null,"2nd_line":"ORG X0143  BLDG 9611","column_9":null,"id":"a6fwa9o5chpr","geo_precision":"range","address":"6826 Lackman Rd-West Campus","state":"KS"},"type":"Feature","geometry":{"type":"Point","coordinates":[-94.761172,39.005058]}},{"properties":{"city":"Shawnee","name":"Maranatha Academy (Preschool-12)","zip":"66217","building labels\"1st_line\"":"Lauri Burch K-6","geo_score":0.823,"column_8":null,"2nd_line":"ORG X0143  BLDG 9611","column_9":null,"id":"a6fwa9fgmd8e","geo_precision":"range","address":"6826 Lackman Rd-West Campus","state":"KS"},"type":"Feature","geometry":{"type":"Point","coordinates":[-94.761172,39.005058]}},{"properties":{"city":"Shawnee","name":"Midland Adventist Academy","zip":"66217","building labels\"1st_line\"":"Gary Kruger","geo_score":0.951,"column_8":null,"2nd_line":"ORG Z0027  BLDG 9009","column_9":null,"id":"a6fwa9lrmcf7","geo_precision":"range","address":"6915 Maurer Rd","state":"KS"},"type":"Feature","geometry":{"type":"Point","coordinates":[-94.770561,39.001339]}},{"properties":{"city":"Shawnee","name":"Belmont Elementary School","zip":"66226","building labels\"1st_line\"":"Pam Hargrove","geo_score":0.724,"column_8":null,"2nd_line":"USD 232  BLDG 0912","column_9":null,"id":"a6fwa9qb19oo","geo_precision":"street","address":"5805 Belmont Dr","state":"KS"},"type":"Feature","geometry":{"type":"Point","coordinates":[-94.867661,39.025467]}},{"properties":{"city":"Shawnee","name":"Clear Creek Elem","zip":"66226","building labels\"1st_line\"":"Carrie Handy","geo_score":0.951,"column_8":null,"2nd_line":"USD 232  BLDG 0825","column_9":null,"id":"a6fwa9s3jhrn","geo_precision":"range","address":"5815 Monticello Rd","state":"KS"},"type":"Feature","geometry":{"type":"Point","coordinates":[-94.839445,39.022896]}},{"properties":{"city":"Shawnee","name":"Mill Valley High School","zip":"66226","building labels\"1st_line\"":"Tobie Waldeck","geo_score":0.951,"column_8":null,"2nd_line":"USD 232  BLDG 0833","column_9":null,"id":"a6fwa9ij7xut","geo_precision":"range","address":"5900 Monticello Road","state":"KS"},"type":"Feature","geometry":{"type":"Point","coordinates":[-94.839448,39.021661]}},{"properties":{"city":"Shawnee","name":"Prairie Ridge Elementary School","zip":"66226","building labels\"1st_line\"":"Michelle Hite","geo_score":0.568,"column_8":null,"2nd_line":"USD 232  BLDG 0841","column_9":null,"id":"a6fwa9ismzt7","geo_precision":"street","address":"22405 Clear Creek Parkway","state":"KS"},"type":"Feature","geometry":{"type":"Point","coordinates":[-94.872238,39.000001]}},{"properties":{"city":"Shawnee","name":"Riverview Elementary","zip":"66226","building labels\"1st_line\"":"Mark Dodge","geo_score":0.868,"column_8":null,"2nd_line":"USD 232  BLDG 0843","column_9":null,"id":"a6fwa9sobvvk","geo_precision":"range","address":"21550 West 47th Street","state":"KS"},"type":"Feature","geometry":{"type":"Point","coordinates":[-94.835216,39.043534]}},{"properties":{"city":"Shawnee","name":"Sacred Heart Elem","zip":"66226","building labels\"1st_line\"":"Nick Antista","geo_score":0.61,"column_8":null,"2nd_line":"ORG Z0029  BLDG 0234","column_9":null,"id":"a6fwa9nax5kf","geo_precision":"street","address":"21801 Johnson Dr.","state":"KS"},"type":"Feature","geometry":{"type":"Point","coordinates":[-94.834747,39.029007]}},{"properties":{"city":"Shawnee","name":"Monticello Trails Middle School","zip":"66226","building labels\"1st_line\"":"Brian Schwanz","geo_score":0.951,"column_8":null,"2nd_line":"USD 232  BLDG 0835","column_9":null,"id":"a6fwa9qthjoj","geo_precision":"range","address":"6100 Monticello Rd","state":"KS"},"type":"Feature","geometry":{"type":"Point","coordinates":[-94.83943,39.019118]}},{"properties":{"city":"Shawnee","name":"Horizon Elementary","zip":"66227","building labels\"1st_line\"":"Kim Gracy","geo_score":0.551,"column_8":null,"2nd_line":"USD 232  BLDG 0829","column_9":null,"id":"a6fwa9gms0jr","geo_precision":"street","address":"7210 Chouteau","state":"KS"},"type":"Feature","geometry":{"type":"Point","coordinates":[-94.845035,39.011697]}},{"properties":{"city":"Shawnee","name":"Mize Elementary School","zip":"66227","building labels\"1st_line\"":"Lori Bradley","geo_score":0.951,"column_8":null,"2nd_line":"USD 232  BLDG 0842","column_9":null,"id":"a6fwa9rwp4f5","geo_precision":"range","address":"7301 Mize Road","state":"KS"},"type":"Feature","geometry":{"type":"Point","coordinates":[-94.881795,38.996148]}},{"properties":{"city":"Shawnee Mission","name":"Rushton Elem","zip":"66202","building labels\"1st_line\"":"Pam Carter","geo_score":0.826,"column_8":"66202-1699","2nd_line":"USD 512  BLDG 8844","column_9":null,"id":"a6fwa9kcvq9p","geo_precision":"range","address":"6001 W 52nd St","state":"KS"},"type":"Feature","geometry":{"type":"Point","coordinates":[-94.655414,39.03551]}},{"properties":{"city":"Shawnee Mission","name":"Shawnee Mission North High","zip":"66202","building labels\"1st_line\"":"Richard Kramer","geo_score":0.787,"column_8":"66202-2394","2nd_line":"USD 512  BLDG 8888","column_9":null,"id":"a6fwa9p1yia5","geo_precision":"range","address":"7401 Johnson Drive","state":"KS"},"type":"Feature","geometry":{"type":"Point","coordinates":[-94.671214,39.022237]}},{"properties":{"city":"Shawnee Mission","name":"Crestview Elem","zip":"66202","building labels\"1st_line\"":"Kristal Leiker","geo_score":0.826,"column_8":"66202-3037","2nd_line":"USD 512  BLDG 8796","column_9":null,"id":"a6fwa9s2gax1","geo_precision":"range","address":"6101 Craig Rd","state":"KS"},"type":"Feature","geometry":{"type":"Point","coordinates":[-94.678297,39.018602]}},{"properties":{"city":"Shawnee Mission","name":"North Developmental Center","zip":"66202","building labels\"1st_line\"":"Maureen Markland","geo_score":0.909,"column_8":"66202-3925","2nd_line":"USD 512  BLDG 8883","column_9":null,"id":"a6fwa9j11kbd","geo_precision":"range","address":"6601 Santa Fe Drive","state":"KS"},"type":"Feature","geometry":{"type":"Point","coordinates":[-94.672252,39.009557]}},{"properties":{"city":"Shawnee Mission","name":"Merriam Park Elementary","zip":"66203","building labels\"1st_line\"":"Darla Berry","geo_score":0.878,"column_8":"66203","2nd_line":"USD 512  BLDG 8815","column_9":null,"id":"a6fwa9o4nzmr","geo_precision":"range","address":"6100 Mastin","state":"KS"},"type":"Feature","geometry":{"type":"Point","coordinates":[-94.702924,39.018499]}},{"properties":{"city":"Shawnee Mission","name":"Bluejacket-Flint","zip":"66203","building labels\"1st_line\"":"Linda Tinsley","geo_score":0.878,"column_8":"66203-1099","2nd_line":"USD 512  BLDG 8784","column_9":null,"id":"a6fwa9i5v67q","geo_precision":"range","address":"11615 W 49th Ter","state":"KS"},"type":"Feature","geometry":{"type":"Point","coordinates":[-94.720912,39.039041]}},{"properties":{"city":"Shawnee Mission","name":"Hocker Grove Middle","zip":"66203","building labels\"1st_line\"":"Deborah Pfortmiller","geo_score":0.951,"column_8":"66203-2895","2nd_line":"USD 512  BLDG 8870","column_9":null,"id":"a6fwa9owhivz","geo_precision":"range","address":"10400 Johnson Drive","state":"KS"},"type":"Feature","geometry":{"type":"Point","coordinates":[-94.70574,39.022349]}},{"properties":{"city":"Shawnee Mission","name":"Nieman Elem","zip":"66203","building labels\"1st_line\"":"Stan Anderson","geo_score":0.868,"column_8":"66203-3898","2nd_line":"USD 512  BLDG 8822","column_9":null,"id":"a6fwa9lg6txa","geo_precision":"range","address":"10917 W 67th St","state":"KS"},"type":"Feature","geometry":{"type":"Point","coordinates":[-94.711243,39.007486]}},{"properties":{"city":"Shawnee Mission","name":"Antioch Middle","zip":"66204","building labels\"1st_line\"":"Scott Sherman","geo_score":0.833,"column_8":"66204-1715","2nd_line":"USD 512  BLDG 8878","column_9":null,"id":"a6fwa9emegsg","geo_precision":"range","address":"8200 W 71st St","state":"KS"},"type":"Feature","geometry":{"type":"Point","coordinates":[-94.680313,39.0004]}},{"properties":{"city":"Shawnee Mission","name":"East Antioch Elem","zip":"66204","building labels\"1st_line\"":"Karen Metz","geo_score":0.653,"column_8":"66204-1832","2nd_line":"USD 512  BLDG 8774","column_9":null,"id":"a6fwa9s8voxk","geo_precision":"street","address":"7342 Lowell","state":"KS"},"type":"Feature","geometry":{"type":"Point","coordinates":[-94.677049,38.996241]}},{"properties":{"city":"Shawnee Mission","name":"Santa Fe Trail Elem","zip":"66204","building labels\"1st_line\"":"Steven Vandemark","geo_score":0.807,"column_8":"66204-2199","2nd_line":"USD 512  BLDG 8846","column_9":null,"id":"a6fwa9jpqmkw","geo_precision":"range","address":"7100 Lamar","state":"KS"},"type":"Feature","geometry":{"type":"Point","coordinates":[-94.658377,39.00037]}},{"properties":{"city":"Shawnee Mission","name":"Tomahawk Elem","zip":"66204","building labels\"1st_line\"":"David Conrady","geo_score":0.833,"column_8":"66204-3199","2nd_line":"USD 512  BLDG 8858","column_9":null,"id":"a6fwa9h8bk43","geo_precision":"range","address":"6301 W 78th St","state":"KS"},"type":"Feature","geometry":{"type":"Point","coordinates":[-94.658377,38.987673]}},{"properties":{"city":"Shawnee Mission","name":"Overland Park Elem","zip":"66204","building labels\"1st_line\"":"Leah Debner","geo_score":0.916,"column_8":"66204-3608","2nd_line":"USD 512  BLDG 8826","column_9":null,"id":"a6fwa9fb17c8","geo_precision":"range","address":"8150 Santa Fe Dr","state":"KS"},"type":"Feature","geometry":{"type":"Point","coordinates":[-94.674127,38.981657]}},{"properties":{"city":"Shawnee Mission","name":"Broadmoor Multi-Use Center","zip":"66204","building labels\"1st_line\"":"Julia Crain","geo_score":0.833,"column_8":"66204-3900","2nd_line":"USD 512  BLDG 8866","column_9":null,"id":"a6fwa9u07ocy","geo_precision":"range","address":"6701 W 83rd Street","state":"KS"},"type":"Feature","geometry":{"type":"Point","coordinates":[-94.662967,38.978556]}},{"properties":{"city":"Shawnee Mission","name":"Bishop Miege High","zip":"66205","building labels\"1st_line\"":"Stan Herbic","geo_score":0.909,"column_8":"66205","2nd_line":"ORG Z0029  BLDG 9000","column_9":null,"id":"a6fwa9osbkcr","geo_precision":"range","address":"5041 Reinhardt Dr","state":"KS"},"type":"Feature","geometry":{"type":"Point","coordinates":[-94.625347,39.037595]}},{"properties":{"city":"Shawnee Mission","name":"St Agnes Elem","zip":"66205","building labels\"1st_line\"":"Kim Hammers","geo_score":0.909,"column_8":"66205","2nd_line":"ORG Z0029  BLDG 9014","column_9":null,"id":"a6fwa9u55l4l","geo_precision":"range","address":"5130 Mission Rd","state":"KS"},"type":"Feature","geometry":{"type":"Point","coordinates":[-94.621216,39.03535]}},{"properties":{"city":"Shawnee Mission","name":"Roesland Elem","zip":"66205","building labels\"1st_line\"":"Mark Kelly","geo_score":0.909,"column_8":"66205-1370","2nd_line":"USD 512  BLDG 8838","column_9":null,"id":"a6fwa9qmlf6o","geo_precision":"range","address":"4900 Parish Dr","state":"KS"},"type":"Feature","geometry":{"type":"Point","coordinates":[-94.6347,39.041132]}},{"properties":{"city":"Shawnee Mission","name":"Westwood View Elem","zip":"66205","building labels\"1st_line\"":"Susan Knight","geo_score":0.826,"column_8":"66205-2031","2nd_line":"USD 512  BLDG 8864","column_9":null,"id":"a6fwa9ofthhh","geo_precision":"range","address":"2511 W 50th St","state":"KS"},"type":"Feature","geometry":{"type":"Point","coordinates":[-94.612896,39.037379]}},{"properties":{"city":"Shawnee Mission","name":"Highlands Elem","zip":"66205","building labels\"1st_line\"":"Jennifer Spencer","geo_score":0.597,"column_8":"66205-3052","2nd_line":"USD 512  BLDG 8806","column_9":null,"id":"a6fwa9qgqqna","geo_precision":"street","address":"6200 Roe","state":"KS"},"type":"Feature","geometry":{"type":"Point","coordinates":[-94.638801,39.037774]}},{"properties":{"city":"Shawnee Mission","name":"Corinth Elem","zip":"66206","building labels\"1st_line\"":"Ken Emley","geo_score":1.0,"column_8":"66206-1386","2nd_line":"USD 512  BLDG 8794","column_9":null,"id":"a6fwa9eso2u0","geo_precision":"range","address":"8301 Mission Road","state":"KS"},"type":"Feature","geometry":{"type":"Point","coordinates":[-94.630319,38.978704]}},{"properties":{"city":"Shawnee Mission","name":"Mission Valley Middle","zip":"66206","building labels\"1st_line\"":"Susie Ostmeyer","geo_score":1.0,"column_8":"66206-1389","2nd_line":"USD 512  BLDG 8876","column_9":null,"id":"a6fwa9qljrbb","geo_precision":"range","address":"8500 Mission Rd","state":"KS"},"type":"Feature","geometry":{"type":"Point","coordinates":[-94.630282,38.974408]}},{"properties":{"city":"Shawnee Mission","name":"Brookwood Elem","zip":"66206","building labels\"1st_line\"":"Teddi Pendland","geo_score":1.0,"column_8":"66206-2597","2nd_line":"USD 512  BLDG 8790","column_9":null,"id":"a6fwa9fcmtlb","geo_precision":"range","address":"3411 West 103rd Street","state":"KS"},"type":"Feature","geometry":{"type":"Point","coordinates":[-94.624024,38.942174]}},{"properties":{"city":"Shawnee Mission","name":"Briarwood Elem","zip":"66207","building labels\"1st_line\"":"Steve Frazell","geo_score":0.916,"column_8":"66207-1799","2nd_line":"USD 512  BLDG 8786","column_9":null,"id":"a6fwa9jiveks","geo_precision":"range","address":"5300 W 86th St","state":"KS"},"type":"Feature","geometry":{"type":"Point","coordinates":[-94.64504,38.973232]}},{"properties":{"city":"Shawnee Mission","name":"Shawnee Mission South High","zip":"66207","building labels\"1st_line\"":"Joe Gilhaus","geo_score":1.0,"column_8":"66207-2599","2nd_line":"USD 512  BLDG 8892","column_9":null,"id":"a6fwa9tuqh5t","geo_precision":"range","address":"5800 W 107th St","state":"KS"},"type":"Feature","geometry":{"type":"Point","coordinates":[-94.652391,38.934791]}},{"properties":{"city":"Shawnee Mission","name":"Indian Woods Middle","zip":"66207","building labels\"1st_line\"":"Jim Wink","geo_score":0.935,"column_8":"66207-2800","2nd_line":"USD 512  BLDG 8880","column_9":null,"id":"a6fwa9lcjrgw","geo_precision":"range","address":"9700 Woodson","state":"KS"},"type":"Feature","geometry":{"type":"Point","coordinates":[-94.653945,38.953086]}},{"properties":{"city":"Shawnee Mission","name":"John Diemer Elem","zip":"66207","building labels\"1st_line\"":"Janet Turner","geo_score":0.89,"column_8":"66207-2832","2nd_line":"USD 512  BLDG 8808","column_9":null,"id":"a6fwa9qarwxn","geo_precision":"range","address":"9600 Lamar","state":"KS"},"type":"Feature","geometry":{"type":"Point","coordinates":[-94.658329,38.954761]}},{"properties":{"city":"Shawnee Mission","name":"Trailwood Elem","zip":"66207","building labels\"1st_line\"":"Michael Stouffer","geo_score":0.916,"column_8":"66207-3399","2nd_line":"USD 512  BLDG 8860","column_9":null,"id":"a6fwa9f6tg7n","geo_precision":"range","address":"5101 W 95th St","state":"KS"},"type":"Feature","geometry":{"type":"Point","coordinates":[-94.643431,38.956793]}},{"properties":{"city":"Shawnee Mission","name":"Indian Creek Technology Center","zip":"66207","building labels\"1st_line\"":"Principal","geo_score":1.0,"column_8":"66207-3618","2nd_line":"USD 512  BLDG 8872","column_9":null,"id":"a6fwa9krsdsp","geo_precision":"range","address":"4401 W 103rd Street","state":"KS"},"type":"Feature","geometry":{"type":"Point","coordinates":[-94.637142,38.94215]}},{"properties":{"city":"Shawnee Mission","name":"Indian Hills Middle","zip":"66208","building labels\"1st_line\"":"Carla Allen","geo_score":0.916,"column_8":"66208-1700","2nd_line":"USD 512  BLDG 8874","column_9":null,"id":"a6fwa9mmtj7l","geo_precision":"range","address":"6400 Mission Rd","state":"KS"},"type":"Feature","geometry":{"type":"Point","coordinates":[-94.630443,39.013593]}},{"properties":{"city":"Shawnee Mission","name":"Prairie Elem","zip":"66208","building labels\"1st_line\"":"Scott Merfen","geo_score":0.916,"column_8":"66208-1796","2nd_line":"USD 512  BLDG 8832","column_9":null,"id":"a6fwa9q78xjq","geo_precision":"range","address":"6642 Mission Road","state":"KS"},"type":"Feature","geometry":{"type":"Point","coordinates":[-94.630418,39.008741]}},{"properties":{"city":"Shawnee Mission","name":"Belinder Elem","zip":"66208","building labels\"1st_line\"":"Karen Faucher","geo_score":0.721,"column_8":"66208-3302","2nd_line":"USD 512  BLDG 8782","column_9":null,"id":"a6fwa9lyeng7","geo_precision":"street","address":"7230 Belinder Rd","state":"KS"},"type":"Feature","geometry":{"type":"Point","coordinates":[-94.616508,39.026173]}},{"properties":{"city":"Shawnee Mission","name":"Shawnee Mission East High","zip":"66208","building labels\"1st_line\"":"Karl Krawitz","geo_score":0.916,"column_8":"66208-4298","2nd_line":"USD 512  BLDG 8886","column_9":null,"id":"a6fwa9ogjaf0","geo_precision":"range","address":"7500 Mission Rd","state":"KS"},"type":"Feature","geometry":{"type":"Point","coordinates":[-94.630408,38.993261]}},{"properties":{"city":"Shawnee Mission","name":"Comanche Elem","zip":"66212","building labels\"1st_line\"":"Rob Bell","geo_score":0.819,"column_8":"66212-3299","2nd_line":"USD 512  BLDG 8793","column_9":null,"id":"a6fwa9p0szq5","geo_precision":"street","address":"8200 Grant","state":"KS"},"type":"Feature","geometry":{"type":"Point","coordinates":[-94.695704,38.981286]}},{"properties":{"city":"Shawnee Mission","name":"Brookridge Elem","zip":"66212","building labels\"1st_line\"":"Sue Adams","geo_score":0.902,"column_8":"66212-3487","2nd_line":"USD 512  BLDG 8788","column_9":null,"id":"a6fwa9ky2a3x","geo_precision":"range","address":"9920 Lowell","state":"KS"},"type":"Feature","geometry":{"type":"Point","coordinates":[-94.676932,38.949044]}},{"properties":{"city":"Shawnee Mission","name":"Shawnee Mission West High","zip":"66212","building labels\"1st_line\"":"Charles McLean","geo_score":0.916,"column_8":"66212-3898","2nd_line":"USD 512  BLDG 8894","column_9":null,"id":"a6fwa9sz2959","geo_precision":"range","address":"8800 W 85th St","state":"KS"},"type":"Feature","geometry":{"type":"Point","coordinates":[-94.687145,38.974877]}},{"properties":{"city":"Shawnee Mission","name":"Pawnee Elem","zip":"66212","building labels\"1st_line\"":"Justin Green","geo_score":0.916,"column_8":"66212-4738","2nd_line":"USD 512  BLDG 8828","column_9":null,"id":"a6fwa9glpzns","geo_precision":"range","address":"9501 W 91st St","state":"KS"},"type":"Feature","geometry":{"type":"Point","coordinates":[-94.695107,38.96391]}},{"properties":{"city":"Shawnee Mission","name":"Dorothy Moody Elem","zip":"66212","building labels\"1st_line\"":"Marilyn Webb","geo_score":0.935,"column_8":"66212-5329","2nd_line":"USD 512  BLDG 8798","column_9":null,"id":"a6fwa9rxshim","geo_precision":"range","address":"10101 England","state":"KS"},"type":"Feature","geometry":{"type":"Point","coordinates":[-94.695073,38.946177]}},{"properties":{"city":"Shawnee Mission","name":"Oak Park-Carpenter Elementary","zip":"66214","building labels\"1st_line\"":"Jennifer Gill","geo_score":0.927,"column_8":"66214","2nd_line":"USD 512  BLDG 8824","column_9":null,"id":"a6fwa9grmvww","geo_precision":"range","address":"10000 Nieman","state":"KS"},"type":"Feature","geometry":{"type":"Point","coordinates":[-94.714092,38.947274]}},{"properties":{"city":"Shawnee Mission","name":"Shawanoe Elem","zip":"66214","building labels\"1st_line\"":"Vickie Zirbel","geo_score":0.833,"column_8":"66214-1203","2nd_line":"USD 512  BLDG 8812","column_9":null,"id":"a6fwa9tse9ki","geo_precision":"range","address":"11230 W 75th","state":"KS"},"type":"Feature","geometry":{"type":"Point","coordinates":[-94.715621,38.992889]}},{"properties":{"city":"Shawnee Mission","name":"Westridge Middle","zip":"66214","building labels\"1st_line\"":"Matt Johnson","geo_score":1.0,"column_8":"66214-1855","2nd_line":"USD 512  BLDG 8868","column_9":null,"id":"a6fwa9dz3niu","geo_precision":"range","address":"9300 Nieman Rd","state":"KS"},"type":"Feature","geometry":{"type":"Point","coordinates":[-94.714883,38.956556]}},{"properties":{"city":"Shawnee Mission","name":"Apache Elem","zip":"66214","building labels\"1st_line\"":"Jennifer Griffith","geo_score":0.683,"column_8":"66214-1998","2nd_line":"USD 512  BLDG 8776","column_9":null,"id":"a6fwa9fe9a2q","geo_precision":"street","address":"8910 Goddard","state":"KS"},"type":"Feature","geometry":{"type":"Point","coordinates":[-94.708156,38.992445]}},{"properties":{"city":"Shawnee Mission","name":"Rosehill Elem","zip":"66215","building labels\"1st_line\"":"Greg Lawrence","geo_score":0.851,"column_8":"66215-1499","2nd_line":"USD 512  BLDG 8842","column_9":null,"id":"a6fwa9tq1wx8","geo_precision":"range","address":"9801 Rosehill","state":"KS"},"type":"Feature","geometry":{"type":"Point","coordinates":[-94.732898,38.951057]}},{"properties":{"city":"Shawnee Mission","name":"Bonjour Elem","zip":"66215","building labels\"1st_line\"":"Alejandro Schlagel","geo_score":0.909,"column_8":"66215-3399","2nd_line":"USD 512  BLDG 8814","column_9":null,"id":"a6fwa9glecdp","geo_precision":"range","address":"9400 Pflumm Rd","state":"KS"},"type":"Feature","geometry":{"type":"Point","coordinates":[-94.74222,38.960036]}},{"properties":{"city":"Shawnee Mission","name":"Mill Creek Elem","zip":"66215","building labels\"1st_line\"":"John Bartel","geo_score":0.704,"column_8":"66215-5300","2nd_line":"USD 512  BLDG 8819","column_9":null,"id":"a6fwa9dyculp","geo_precision":"range","address":"13951 W 79th St","state":"KS"},"type":"Feature","geometry":{"type":"Point","coordinates":[-94.746649,38.985588]}},{"properties":{"city":"Shawnee Mission","name":"Rising Star Elem","zip":"66215","building labels\"1st_line\"":"Chris Lash","geo_score":0.864,"column_8":"66215-6030","2nd_line":"USD 512  BLDG 8836","column_9":null,"id":"a6fwa9mspdkv","geo_precision":"range","address":"8600 Candlelight","state":"KS"},"type":"Feature","geometry":{"type":"Point","coordinates":[-94.746593,38.973063]}},{"properties":{"city":"Shawnee Mission","name":"Ray Marsh Elem","zip":"66216","building labels\"1st_line\"":"Pam Lewis","geo_score":0.941,"column_8":"66216-1699","2nd_line":"USD 512  BLDG 8816","column_9":null,"id":"a6fwa9mn2uri","geo_precision":"range","address":"5642 Rosehill","state":"KS"},"type":"Feature","geometry":{"type":"Point","coordinates":[-94.733264,39.027261]}},{"properties":{"city":"Shawnee Mission","name":"Rhein Benninghoven Elem","zip":"66216","building labels\"1st_line\"":"Michael Wilhoit","geo_score":0.732,"column_8":"66216-2486","2nd_line":"USD 512  BLDG 8834","column_9":null,"id":"a6fwa9o5j2ua","geo_precision":"street","address":"6720 Caenen","state":"KS"},"type":"Feature","geometry":{"type":"Point","coordinates":[-94.729083,39.016942]}},{"properties":{"city":"Shawnee Mission","name":"Trailridge Middle","zip":"66216","building labels\"1st_line\"":"Larry King","geo_score":1.0,"column_8":"66216-3597","2nd_line":"USD 512  BLDG 8884","column_9":null,"id":"a6fwa9okm7kg","geo_precision":"range","address":"7500 Quivira Rd","state":"KS"},"type":"Feature","geometry":{"type":"Point","coordinates":[-94.723705,38.992813]}},{"properties":{"city":"Shawnee Mission","name":"Shawnee Mission Northwest High","zip":"66216","building labels\"1st_line\"":"William Harrington","geo_score":0.916,"column_8":"66216-3599","2nd_line":"USD 512  BLDG 8890","column_9":null,"id":"a6fwa9i6ie6c","geo_precision":"range","address":"12701 W 67th Street","state":"KS"},"type":"Feature","geometry":{"type":"Point","coordinates":[-94.732183,39.007396]}},{"properties":{"city":"Shawnee Mission","name":"Broken Arrow Elem","zip":"66216","building labels\"1st_line\"":"Michael Weiler","geo_score":0.916,"column_8":"66216-3849","2nd_line":"USD 512  BLDG 8787","column_9":null,"id":"a6fwa9thlb1r","geo_precision":"range","address":"5901 Alden","state":"KS"},"type":"Feature","geometry":{"type":"Point","coordinates":[-94.756542,39.022003]}},{"properties":{"city":"Shawnee Mission","name":"Sunflower Elem","zip":"66219","building labels\"1st_line\"":"Dennis Way","geo_score":1.0,"column_8":"66219-1427","2nd_line":"USD 512  BLDG 8857","column_9":null,"id":"a6fwa9nhnqsh","geo_precision":"range","address":"8955 Loiret Blvd","state":"KS"},"type":"Feature","geometry":{"type":"Point","coordinates":[-94.769013,38.966267]}},{"properties":{"city":"Shawnee Mission","name":"Christa McAuliffe Elem","zip":"66219","building labels\"1st_line\"":"Kent Peach","geo_score":0.916,"column_8":"66219-1500","2nd_line":"USD 512  BLDG 8791","column_9":null,"id":"a6fwa9qq2mxk","geo_precision":"range","address":"15600 W 83rd St","state":"KS"},"type":"Feature","geometry":{"type":"Point","coordinates":[-94.765187,38.978297]}},{"properties":{"city":"Spring Hill","name":"Spring Hill Elementary School","zip":"66083","building labels\"1st_line\"":"Michelle Toon","geo_score":0.902,"column_8":"66083","2nd_line":"USD 230  BLDG 0787","column_9":null,"id":"a6fwa9e0cnc8","geo_precision":"range","address":"300 S Webster St","state":"KS"},"type":"Feature","geometry":{"type":"Point","coordinates":[-94.825541,38.741799]}},{"properties":{"city":"Spring Hill","name":"Spring Hill High School","zip":"66083","building labels\"1st_line\"":"Angelo Cocolis","geo_score":0.429,"column_8":"66083","2nd_line":"USD 230  BLDG 0790","column_9":null,"id":"a6fwa9pa4wys","geo_precision":"street","address":"19701 S. Ridgeview","state":"KS"},"type":"Feature","geometry":{"type":"Point","coordinates":[-94.797212,38.774674]}},{"properties":{"city":"Spring Hill","name":"Spring Hill Intermediate School","zip":"66083","building labels\"1st_line\"":"Rodney Sprague","geo_score":0.72,"column_8":"66083","2nd_line":"USD 230  BLDG 0791","column_9":null,"id":"a6fwa9knlyqx","geo_precision":"range","address":"300 E South St","state":"KS"},"type":"Feature","geometry":{"type":"Point","coordinates":[-94.828249,38.738743]}},{"properties":{"city":"Spring Hill","name":"Spring Hill Middle School","zip":"66083","building labels\"1st_line\"":"Stephen Fleer","geo_score":0.72,"column_8":"66083","2nd_line":"USD 230  BLDG 0792","column_9":null,"id":"a6fwa9j2z2mk","geo_precision":"range","address":"301 E South Street","state":"KS"},"type":"Feature","geometry":{"type":"Point","coordinates":[-94.828249,38.738743]}},{"properties":{"city":"Tonganoxie","name":"Tonganoxie Middle School","zip":"66086","building labels\"1st_line\"":"Jill Dickerson","geo_score":0.922,"column_8":null,"2nd_line":"USD 464  BLDG 7299","column_9":"Tonganoxie KS 66086","id":"a6fwa9tfhvs7","geo_precision":"range","address":"824 Washington St.","state":"KS"},"type":"Feature","geometry":{"type":"Point","coordinates":[-95.084234,39.10198]}},{"properties":{"city":"Tonganoxie","name":"Tonganoxie High","zip":"66086","building labels\"1st_line\"":"Jamie Carlisle","geo_score":0.511,"column_8":null,"2nd_line":"USD 464  BLDG 7298","column_9":"Tonganoxie KS 66086","id":"a6fwa9j54ipi","geo_precision":"street","address":"300 E. Hwy 24-40","state":"KS"},"type":"Feature","geometry":{"type":"Point","coordinates":[-95.093382,39.11423]}},{"properties":{"city":"Tonganoxie","name":"Tonganoxie Elem","zip":"66086","building labels\"1st_line\"":"Tammy George","geo_score":0.922,"column_8":null,"2nd_line":"USD 464  BLDG 7300","column_9":"Tonganoxie KS 66086","id":"a6fwa9evs6a4","geo_precision":"range","address":"304 Shawnee St.","state":"KS"},"type":"Feature","geometry":{"type":"Point","coordinates":[-95.090241,39.110166]}},{"properties":{"city":"Topeka","name":"Menninger Pre School Day Treatment Center","zip":"66601","building labels\"1st_line\"":"Principal","geo_score":0.329,"column_8":null,"2nd_line":"ORG X0011  BLDG 9910","column_9":null,"id":"a6fwa9tsmlvn","geo_precision":"street","address":"PO Box 829","state":"KS"},"type":"Feature","geometry":{"type":"Point","coordinates":[-95.614485,39.011846]}},{"properties":{"city":"Topeka","name":"Capper Foundation Resp Ctr","zip":"66604","building labels\"1st_line\"":"Principal","geo_score":0.756,"column_8":null,"2nd_line":"ORG X0780  BLDG 8568","column_9":null,"id":"a6fwa9n3r2ym","geo_precision":"range","address":"3500 SW 10th","state":"KS"},"type":"Feature","geometry":{"type":"Point","coordinates":[-95.720025,39.051278]}},{"properties":{"city":"Topeka","name":"Kaw Area Technical School","zip":"66604","building labels\"1st_line\"":"Director","geo_score":0.727,"column_8":null,"2nd_line":"ORG A0608  BLDG 8576","column_9":null,"id":"a6fwa9jjjhot","geo_precision":"range","address":"5724 SW Huntoon","state":"KS"},"type":"Feature","geometry":{"type":"Point","coordinates":[-95.75136,39.043713]}},{"properties":{"city":"Topeka","name":"Most Pure Heart Mary Elem","zip":"66604","building labels\"1st_line\"":"Eric White","geo_score":0.756,"column_8":null,"2nd_line":"ORG Z0029  BLDG 8556","column_9":null,"id":"a6fwa9jr1ln0","geo_precision":"range","address":"1750 Stone","state":"KS"},"type":"Feature","geometry":{"type":"Point","coordinates":[-95.722505,39.036089]}},{"properties":{"city":"Topeka","name":"Holland Student Service Center","zip":"66604","building labels\"1st_line\"":"Victoria Vossler","geo_score":0.756,"column_8":null,"2nd_line":"USD 501  BLDG 8514","column_9":null,"id":"a6fwa9nqmd4s","geo_precision":"range","address":"918 SW 10th","state":"KS"},"type":"Feature","geometry":{"type":"Point","coordinates":[-95.687408,39.048989]}},{"properties":{"city":"Topeka","name":"Lowman Hill Elem","zip":"66604","building labels\"1st_line\"":"Russ Hutchins","geo_score":0.902,"column_8":null,"2nd_line":"USD 501  BLDG 8472","column_9":null,"id":"a6fwa9ffjshp","geo_precision":"range","address":"1101 SW Garfield Ave","state":"KS"},"type":"Feature","geometry":{"type":"Point","coordinates":[-95.69798,39.049523]}},{"properties":{"city":"Topeka","name":"Sheldon Child Development","zip":"66604","building labels\"1st_line\"":"Scott Henson","geo_score":0.902,"column_8":null,"2nd_line":"USD 501  BLDG 8502","column_9":null,"id":"a6fwa9g076bx","geo_precision":"range","address":"1155 SW Seabrook Ave","state":"KS"},"type":"Feature","geometry":{"type":"Point","coordinates":[-95.727041,39.046737]}},{"properties":{"city":"Topeka","name":"McCarter Elem","zip":"66604","building labels\"1st_line\"":"Katherine Cooney","geo_score":0.829,"column_8":null,"2nd_line":"USD 501  BLDG 8480","column_9":null,"id":"a6fwa9f4law2","geo_precision":"range","address":"5512 SW 16th St","state":"KS"},"type":"Feature","geometry":{"type":"Point","coordinates":[-95.747847,39.037333]}},{"properties":{"city":"Topeka","name":"Randolph Elem","zip":"66604","building labels\"1st_line\"":"Neely Gower","geo_score":0.902,"column_8":null,"2nd_line":"USD 501  BLDG 8498","column_9":null,"id":"a6fwa9jl4fyh","geo_precision":"range","address":"1400 SW Randolph Ave","state":"KS"},"type":"Feature","geometry":{"type":"Point","coordinates":[-95.710772,39.041059]}},{"properties":{"city":"Topeka","name":"Robinson Middle School","zip":"66604","building labels\"1st_line\"":"Tammy Hazelton","geo_score":0.829,"column_8":null,"2nd_line":"USD 501  BLDG 8501","column_9":null,"id":"a6fwa9n875rl","geo_precision":"range","address":"1125 SW 14th St","state":"KS"},"type":"Feature","geometry":{"type":"Point","coordinates":[-95.692043,39.041024]}},{"properties":{"city":"Topeka","name":"Whitson Elem","zip":"66604","building labels\"1st_line\"":"Rebecca Kramer","geo_score":0.902,"column_8":null,"2nd_line":"USD 501  BLDG 8512","column_9":null,"id":"a6fwa9rkiqdx","geo_precision":"range","address":"1725 SW Arnold Ave","state":"KS"},"type":"Feature","geometry":{"type":"Point","coordinates":[-95.719897,39.036527]}},{"properties":{"city":"Topeka","name":"Hope Street Charter Academy","zip":"66604","building labels\"1st_line\"":"Dale Noll Jr","geo_score":0.902,"column_8":null,"2nd_line":"USD 501  BLDG 8467","column_9":null,"id":"a6fwa9kh2l38","geo_precision":"range","address":"1900 SW Hope Street","state":"KS"},"type":"Feature","geometry":{"type":"Point","coordinates":[-95.73426,39.033034]}},{"properties":{"city":"Topeka","name":"Lucinda Todd Education Center","zip":"66604","building labels\"1st_line\"":"Dale Noll Jr","geo_score":0.902,"column_8":null,"2nd_line":"USD 501  BLDG 8516","column_9":null,"id":"a6fwa9l4zi4d","geo_precision":"range","address":"1900 SW Hope St","state":"KS"},"type":"Feature","geometry":{"type":"Point","coordinates":[-95.73426,39.033034]}},{"properties":{"city":"Topeka","name":"Topeka West High","zip":"66604","building labels\"1st_line\"":"Steve Roberts","geo_score":0.902,"column_8":null,"2nd_line":"USD 501  BLDG 8540","column_9":null,"id":"a6fwa9s1m6n3","geo_precision":"range","address":"2001 SW Fairlawn Rd","state":"KS"},"type":"Feature","geometry":{"type":"Point","coordinates":[-95.743543,39.030253]}},{"properties":{"city":"Topeka","name":"St Matthew Elem","zip":"66605","building labels\"1st_line\"":"Heather Huscher","geo_score":0.89,"column_8":null,"2nd_line":"ORG Z0029  BLDG 8566","column_9":null,"id":"a6fwa9ku8q5d","geo_precision":"range","address":"1000 E 28th St","state":"KS"},"type":"Feature","geometry":{"type":"Point","coordinates":[-95.666232,39.017078]}},{"properties":{"city":"Topeka","name":"Highland Park Central","zip":"66605","building labels\"1st_line\"":"Cleo Gardner","geo_score":1.0,"column_8":null,"2nd_line":"USD 501  BLDG 8462","column_9":null,"id":"a6fwa9ews6i4","geo_precision":"range","address":"2717 SE Illinois Ave","state":"KS"},"type":"Feature","geometry":{"type":"Point","coordinates":[-95.659556,39.01864]}},{"properties":{"city":"Topeka","name":"Highland Park High","zip":"66605","building labels\"1st_line\"":"Beryl New","geo_score":1.0,"column_8":null,"2nd_line":"USD 501  BLDG 8536","column_9":null,"id":"a6fwa9lvlb10","geo_precision":"range","address":"2424 SE California Ave","state":"KS"},"type":"Feature","geometry":{"type":"Point","coordinates":[-95.651384,39.023796]}},{"properties":{"city":"Topeka","name":"Shawnee Heights Elem","zip":"66605","building labels\"1st_line\"":"Rebecca Hummer","geo_score":0.941,"column_8":null,"2nd_line":"USD 450  BLDG 6940","column_9":null,"id":"a6fwa9kz6d29","geo_precision":"range","address":"2410 SE Burton Dr","state":"KS"},"type":"Feature","geometry":{"type":"Point","coordinates":[-95.604746,39.023111]}},{"properties":{"city":"Topeka","name":"Eisenhower Middle School","zip":"66605","building labels\"1st_line\"":"Melinda Patterson","geo_score":1.0,"column_8":null,"2nd_line":"USD 501  BLDG 8524","column_9":null,"id":"a6fwa9fgewv0","geo_precision":"range","address":"3305 SE Minnesota Ave","state":"KS"},"type":"Feature","geometry":{"type":"Point","coordinates":[-95.656302,39.007611]}},{"properties":{"city":"Topeka","name":"Ross Elementary","zip":"66605","building labels\"1st_line\"":"David Nichols","geo_score":0.927,"column_8":null,"2nd_line":"USD 501  BLDG 8465","column_9":null,"id":"a6fwa9nol2gr","geo_precision":"range","address":"1400 SE 34th St","state":"KS"},"type":"Feature","geometry":{"type":"Point","coordinates":[-95.65977,39.006121]}},{"properties":{"city":"Topeka","name":"Avondale East Elem","zip":"66605","building labels\"1st_line\"":"Duke Palmer","geo_score":1.0,"column_8":null,"2nd_line":"USD 501  BLDG 8442","column_9":null,"id":"a6fwa9ozr27f","geo_precision":"range","address":"455 SE Golf Park Blvd","state":"KS"},"type":"Feature","geometry":{"type":"Point","coordinates":[-95.673279,39.009036]}},{"properties":{"city":"Topeka","name":"Hayden High","zip":"66606","building labels\"1st_line\"":"Mark Madsen","geo_score":0.734,"column_8":null,"2nd_line":"ORG Z0029  BLDG 8572","column_9":null,"id":"a6fwa9imj7lh","geo_precision":"street","address":"401 SW Gage","state":"KS"},"type":"Feature","geometry":{"type":"Point","coordinates":[-95.727415,39.059588]}},{"properties":{"city":"Topeka","name":"Mater Dei Catholic School","zip":"66606","building labels\"1st_line\"":"Andrea Hillebert","geo_score":0.625,"column_8":null,"2nd_line":"ORG Z0029  BLDG 9894","column_9":null,"id":"a6fwa9r7asli","geo_precision":"street","address":"934 S.W. Clay","state":"KS"},"type":"Feature","geometry":{"type":"Point","coordinates":[-95.684569,39.062484]}},{"properties":{"city":"Topeka","name":"Meadows Elementary","zip":"66606","building labels\"1st_line\"":"Nicole Dial","geo_score":1.0,"column_8":null,"2nd_line":"USD 501  BLDG 8486","column_9":null,"id":"a6fwa9nr7i51","geo_precision":"range","address":"201 SW Clay St","state":"KS"},"type":"Feature","geometry":{"type":"Point","coordinates":[-95.685188,39.061039]}},{"properties":{"city":"Topeka","name":"Topeka Lutheran Elem","zip":"66606","building labels\"1st_line\"":"Jennifer Turner","geo_score":0.91,"column_8":null,"2nd_line":"ORG Z0026  BLDG 8570","column_9":null,"id":"a6fwa9k0qta4","geo_precision":"range","address":"701 Roosevelt","state":"KS"},"type":"Feature","geometry":{"type":"Point","coordinates":[-95.703108,39.057073]}},{"properties":{"city":"Topeka","name":"Landon Middle School","zip":"66606","building labels\"1st_line\"":"David Boggs","geo_score":1.0,"column_8":null,"2nd_line":"USD 501  BLDG 8532","column_9":null,"id":"a6fwa9nqzv9w","geo_precision":"range","address":"731 SW Fairlawn Rd","state":"KS"},"type":"Feature","geometry":{"type":"Point","coordinates":[-95.743205,39.055712]}},{"properties":{"city":"Topeka","name":"Capital City","zip":"66606","building labels\"1st_line\"":"Kristen Bennett-Obrien","geo_score":0.683,"column_8":null,"2nd_line":"USD 501  BLDG 8552","column_9":null,"id":"a6fwa9ljuepr","geo_precision":"zip","address":"500 SW Tuffy Kellog Dr","state":"KS"},"type":"Feature","geometry":{"type":"Point","coordinates":[-95.72161,39.059349]}},{"properties":{"city":"Topeka","name":"Kansas Juvenile Correction Complex","zip":"66607","building labels\"1st_line\"":"Principal","geo_score":1.0,"column_8":null,"2nd_line":"ORG S0521  BLDG 9675","column_9":null,"id":"a6fwa9ty8bi5","geo_precision":"range","address":"815 SE Rice Rd.","state":"KS"},"type":"Feature","geometry":{"type":"Point","coordinates":[-95.622955,39.040075]}},{"properties":{"city":"Topeka","name":"Shawnee County Juvenile Detention Center","zip":"66607","building labels\"1st_line\"":"Jennifer Barhnart","geo_score":0.916,"column_8":null,"2nd_line":"USD 501  BLDG 8575","column_9":null,"id":"a6fwa9nwsnh5","geo_precision":"range","address":"401 SE 8th Street","state":"KS"},"type":"Feature","geometry":{"type":"Point","coordinates":[-95.670284,39.047714]}},{"properties":{"city":"Topeka","name":"Topeka Correctional Facility","zip":"66607","building labels\"1st_line\"":"Principal","geo_score":1.0,"column_8":null,"2nd_line":"ORG S0145  BLDG 8567","column_9":null,"id":"a6fwa9tbdau9","geo_precision":"range","address":"815 SE Rice Road","state":"KS"},"type":"Feature","geometry":{"type":"Point","coordinates":[-95.622955,39.040075]}},{"properties":{"city":"Topeka","name":"Parkdale Preschool Center","zip":"66607","building labels\"1st_line\"":"Linda Aldridge","geo_score":0.935,"column_8":null,"2nd_line":"USD 501  BLDG 8541","column_9":null,"id":"a6fwa9li3e1v","geo_precision":"range","address":"1115 SE 10th Ave","state":"KS"},"type":"Feature","geometry":{"type":"Point","coordinates":[-95.661514,39.044247]}},{"properties":{"city":"Topeka","name":"Scott Computer Technology Magnet","zip":"66607","building labels\"1st_line\"":"Deborah Sidwell","geo_score":1.0,"column_8":null,"2nd_line":"USD 501  BLDG 8499","column_9":null,"id":"a6fwa9fdn4xl","geo_precision":"range","address":"401 SE Market St","state":"KS"},"type":"Feature","geometry":{"type":"Point","coordinates":[-95.647981,39.048919]}},{"properties":{"city":"Topeka","name":"Lawrence Gardner High School","zip":"66608","building labels\"1st_line\"":"Gregg Nielson","geo_score":0.329,"column_8":null,"2nd_line":"ORG S0319  BLDG 8574","column_9":null,"id":"a6fwa9eecspj","geo_precision":"street","address":"PO Box 8098","state":"KS"},"type":"Feature","geometry":{"type":"Point","coordinates":[-95.614485,39.011846]}},{"properties":{"city":"Topeka","name":"Logan Elementary","zip":"66608","building labels\"1st_line\"":"Susan Crooks","geo_score":0.916,"column_8":null,"2nd_line":"USD 345  BLDG 4054","column_9":null,"id":"a6fwa9t7ckji","geo_precision":"range","address":"1124 NW Lyman Rd","state":"KS"},"type":"Feature","geometry":{"type":"Point","coordinates":[-95.676174,39.087599]}},{"properties":{"city":"Topeka","name":"Lyman Learning Center","zip":"66608","building labels\"1st_line\"":"Sid Edwards","geo_score":0.829,"column_8":null,"2nd_line":"USD 345  BLDG 4053","column_9":null,"id":"a6fwa9j426ox","geo_precision":"range","address":"2032 N Kansas","state":"KS"},"type":"Feature","geometry":{"type":"Point","coordinates":[-95.660073,39.085561]}},{"properties":{"city":"Topeka","name":"Quincy Elem","zip":"66608","building labels\"1st_line\"":"Valerie Patterson","geo_score":0.916,"column_8":null,"2nd_line":"USD 501  BLDG 8494","column_9":null,"id":"a6fwa9ty18w3","geo_precision":"range","address":"1500 NE Quincy St","state":"KS"},"type":"Feature","geometry":{"type":"Point","coordinates":[-95.661585,39.075271]}},{"properties":{"city":"Topeka","name":"Kennedy Academy (Topeka)","zip":"66609","building labels\"1st_line\"":"Karla Meggison","geo_score":0.919,"column_8":null,"2nd_line":"ORG Z0057  BLDG 8722","column_9":null,"id":"a6fwa9k2jgx5","geo_precision":"range","address":"206 S E Lakewood Ct","state":"KS"},"type":"Feature","geometry":{"type":"Point","coordinates":[-95.676355,38.999877]}},{"properties":{"city":"Topeka","name":"Pathways Learning Center","zip":"66609","building labels\"1st_line\"":"David Cromer","geo_score":0.919,"column_8":null,"2nd_line":"USD 437  BLDG 6523","column_9":null,"id":"a6fwa9palzdo","geo_precision":"range","address":"4101 SW Martin Dr","state":"KS"},"type":"Feature","geometry":{"type":"Point","coordinates":[-95.696998,38.99514]}},{"properties":{"city":"Topeka","name":"Linn Elem","zip":"66609","building labels\"1st_line\"":"Jennifer Gordon","geo_score":0.846,"column_8":null,"2nd_line":"USD 501  BLDG 8471","column_9":null,"id":"a6fwa9twvzxf","geo_precision":"range","address":"200 SE 40th St","state":"KS"},"type":"Feature","geometry":{"type":"Point","coordinates":[-95.677061,38.994058]}},{"properties":{"city":"Topeka","name":"Jay Shideler Elementary","zip":"66610","building labels\"1st_line\"":"Jeff Freeman","geo_score":0.955,"column_8":null,"2nd_line":"USD 437  BLDG 6530","column_9":null,"id":"a6fwa9m1p7jx","geo_precision":"range","address":"4948 SW Wanamaker","state":"KS"},"type":"Feature","geometry":{"type":"Point","coordinates":[-95.76217,38.976668]}},{"properties":{"city":"Topeka","name":"Topeka Assoc/Retarded Children","zip":"66611","building labels\"1st_line\"":"Cathie Huckins","geo_score":1.0,"column_8":null,"2nd_line":"ORG Z0018  BLDG 8571","column_9":null,"id":"a6fwa9pzjw57","geo_precision":"range","address":"2701 SW Randolph Ave","state":"KS"},"type":"Feature","geometry":{"type":"Point","coordinates":[-95.711033,39.023218]}},{"properties":{"city":"Topeka","name":"Quinton Heights Elem","zip":"66611","building labels\"1st_line\"":"Jennifer Gordon","geo_score":0.951,"column_8":null,"2nd_line":"USD 501  BLDG 8496","column_9":null,"id":"a6fwa9u9q14j","geo_precision":"range","address":"2331 SW Topeka Blvd","state":"KS"},"type":"Feature","geometry":{"type":"Point","coordinates":[-95.683693,39.027223]}},{"properties":{"city":"Topeka","name":"Stout Elem","zip":"66611","building labels\"1st_line\"":"Janetta Araiza","geo_score":1.0,"column_8":null,"2nd_line":"USD 501  BLDG 8506","column_9":null,"id":"a6fwa9lv6457","geo_precision":"range","address":"2303 SW College Ave","state":"KS"},"type":"Feature","geometry":{"type":"Point","coordinates":[-95.700705,39.026832]}},{"properties":{"city":"Topeka","name":"Jardine Middle School","zip":"66611","building labels\"1st_line\"":"Mike Haire","geo_score":0.927,"column_8":null,"2nd_line":"USD 501  BLDG 8530","column_9":null,"id":"a6fwa9ok3rc0","geo_precision":"range","address":"2600 SW 33rd St","state":"KS"},"type":"Feature","geometry":{"type":"Point","coordinates":[-95.710971,39.008853]}},{"properties":{"city":"Topeka","name":"Avondale West Elem","zip":"66611","building labels\"1st_line\"":"Cathy Kesner","geo_score":1.0,"column_8":null,"2nd_line":"USD 501  BLDG 8446","column_9":null,"id":"a6fwa9pgtbac","geo_precision":"range","address":"3229 SW Westview Ave","state":"KS"},"type":"Feature","geometry":{"type":"Point","coordinates":[-95.696474,39.008415]}},{"properties":{"city":"Topeka","name":"Shaner Elem","zip":"66611","building labels\"1st_line\"":"Cathy Kesner","geo_score":0.927,"column_8":null,"2nd_line":"USD 501  BLDG 8444","column_9":null,"id":"a6fwa9ldb1y4","geo_precision":"range","address":"1600 SW 34th St","state":"KS"},"type":"Feature","geometry":{"type":"Point","coordinates":[-95.697542,39.004926]}},{"properties":{"city":"Topeka","name":"Williams Science and Fine Arts Magnet School","zip":"66612","building labels\"1st_line\"":"Marty Gies","geo_score":1.0,"column_8":null,"2nd_line":"USD 501  BLDG 8513","column_9":null,"id":"a6fwa9jaopzl","geo_precision":"range","address":"1301 SE Monroe St","state":"KS"},"type":"Feature","geometry":{"type":"Point","coordinates":[-95.674706,39.041004]}},{"properties":{"city":"Topeka","name":"Social &amp; Rehabilitation Servs Dept","zip":"66612","building labels\"1st_line\"":"Principal","geo_score":0.758,"column_8":null,"2nd_line":"ORG S0628  BLDG 9587","column_9":null,"id":"a6fwa9eyoerk","geo_precision":"street","address":"DSOB 915 SW Harrison Rm 603N","state":"KS"},"type":"Feature","geometry":{"type":"Point","coordinates":[-95.679411,39.048493]}},{"properties":{"city":"Topeka","name":"Topeka High","zip":"66612","building labels\"1st_line\"":"Linda Wiley","geo_score":0.733,"column_8":null,"2nd_line":"USD 501  BLDG 8538","column_9":null,"id":"a6fwa9ipf9iy","geo_precision":"street","address":"800 SW 10th St","state":"KS"},"type":"Feature","geometry":{"type":"Point","coordinates":[-95.683054,39.047846]}},{"properties":{"city":"Topeka","name":"Christ The King [Topeka]","zip":"66614","building labels\"1st_line\"":"Relynn Reynoso","geo_score":0.854,"column_8":null,"2nd_line":"ORG Z0029  BLDG 8565","column_9":null,"id":"a6fwa9s5tow2","geo_precision":"range","address":"5973 SW 25th","state":"KS"},"type":"Feature","geometry":{"type":"Point","coordinates":[-95.761091,39.021312]}},{"properties":{"city":"Topeka","name":"Farley Elementary","zip":"66614","building labels\"1st_line\"":"Marcy Cassidy","geo_score":0.734,"column_8":null,"2nd_line":"USD 437  BLDG 6513","column_9":null,"id":"a6fwa9k7h1m9","geo_precision":"street","address":"6701 SW 33rd Street","state":"KS"},"type":"Feature","geometry":{"type":"Point","coordinates":[-95.780875,39.007216]}},{"properties":{"city":"Topeka","name":"Seventh-day Adventist Elementary [Topeka]","zip":"66614","building labels\"1st_line\"":"David Reynolds","geo_score":0.955,"column_8":null,"2nd_line":"ORG Z0027  BLDG 8562","column_9":null,"id":"a6fwa9mn6afq","geo_precision":"range","address":"2431 Wanamaker Rd","state":"KS"},"type":"Feature","geometry":{"type":"Point","coordinates":[-95.762289,39.02277]}},{"properties":{"city":"Topeka","name":"McClure Elem","zip":"66614","building labels\"1st_line\"":"Nancy Hedstrom","geo_score":1.0,"column_8":null,"2nd_line":"USD 501  BLDG 8482","column_9":null,"id":"a6fwa9fib4cy","geo_precision":"range","address":"2529 SW Chelsea Dr","state":"KS"},"type":"Feature","geometry":{"type":"Point","coordinates":[-95.747014,39.022024]}},{"properties":{"city":"Topeka","name":"Maude Bishop Elem","zip":"66614","building labels\"1st_line\"":"Amanda Czechanski","geo_score":0.927,"column_8":null,"2nd_line":"USD 501  BLDG 8478","column_9":null,"id":"a6fwa9kr1sjv","geo_precision":"range","address":"3601 SW 31st St","state":"KS"},"type":"Feature","geometry":{"type":"Point","coordinates":[-95.720374,39.011317]}},{"properties":{"city":"Topeka","name":"McEachron Elem","zip":"66614","building labels\"1st_line\"":"Victor Williams","geo_score":0.935,"column_8":null,"2nd_line":"USD 501  BLDG 8484","column_9":null,"id":"a6fwa9enix5c","geo_precision":"range","address":"4433 SW 29th Terr","state":"KS"},"type":"Feature","geometry":{"type":"Point","coordinates":[-95.731697,39.013996]}},{"properties":{"city":"Topeka","name":"Marjorie French Middle School","zip":"66614","building labels\"1st_line\"":"Kelli Hoffman","geo_score":0.927,"column_8":null,"2nd_line":"USD 501  BLDG 8533","column_9":null,"id":"a6fwa9sai67o","geo_precision":"range","address":"5257 SW 33rd St","state":"KS"},"type":"Feature","geometry":{"type":"Point","coordinates":[-95.744439,39.00793]}},{"properties":{"city":"Topeka","name":"Indian Hills Elementary","zip":"66614","building labels\"1st_line\"":"George Huckabee","geo_score":0.854,"column_8":null,"2nd_line":"USD 437  BLDG 6517","column_9":null,"id":"a6fwa9fes0ll","geo_precision":"range","address":"7445 SW 29th","state":"KS"},"type":"Feature","geometry":{"type":"Point","coordinates":[-95.794585,39.014146]}},{"properties":{"city":"Topeka","name":"Wanamaker Elem","zip":"66615","building labels\"1st_line\"":"Marc Sonderegger","geo_score":0.854,"column_8":null,"2nd_line":"USD 437  BLDG 6528","column_9":null,"id":"a6fwa9osb7sn","geo_precision":"range","address":"6630 SW 10th","state":"KS"},"type":"Feature","geometry":{"type":"Point","coordinates":[-95.776809,39.050719]}},{"properties":{"city":"Topeka","name":"Holy Family Catholic School","zip":"66616","building labels\"1st_line\"":"Lee Schmidt","geo_score":0.61,"column_8":null,"2nd_line":"ORG Z0029  BLDG 9891","column_9":null,"id":"a6fwa9u0rbvc","geo_precision":"street","address":"1725 N.E. Seward","state":"KS"},"type":"Feature","geometry":{"type":"Point","coordinates":[-95.655431,39.058831]}},{"properties":{"city":"Topeka","name":"Chase Middle School","zip":"66616","building labels\"1st_line\"":"Teresa Songs","geo_score":1.0,"column_8":null,"2nd_line":"USD 501  BLDG 8452","column_9":null,"id":"a6fwa9s57p87","geo_precision":"range","address":"2250 NE State St","state":"KS"},"type":"Feature","geometry":{"type":"Point","coordinates":[-95.6424,39.060663]}},{"properties":{"city":"Topeka","name":"State Street Elem","zip":"66616","building labels\"1st_line\"":"Candy Deay-Berridge","geo_score":1.0,"column_8":null,"2nd_line":"USD 501  BLDG 8504","column_9":null,"id":"a6fwa9iunct0","geo_precision":"range","address":"500 NE Sumner St","state":"KS"},"type":"Feature","geometry":{"type":"Point","coordinates":[-95.644019,39.06066]}},{"properties":{"city":"Topeka","name":"Lundgren Elem","zip":"66616","building labels\"1st_line\"":"Candy Deay-Berridge","geo_score":1.0,"column_8":null,"2nd_line":"USD 501  BLDG 8474","column_9":null,"id":"a6fwa9muk1j1","geo_precision":"range","address":"1020 NE Forest Ave","state":"KS"},"type":"Feature","geometry":{"type":"Point","coordinates":[-95.638426,39.070222]}},{"properties":{"city":"Topeka","name":"North Fairview","zip":"66617","building labels\"1st_line\"":"Gary Groves","geo_score":0.854,"column_8":null,"2nd_line":"USD 345  BLDG 4055","column_9":null,"id":"a6fwa9r1g2ed","geo_precision":"range","address":"1941 NE 39th","state":"KS"},"type":"Feature","geometry":{"type":"Point","coordinates":[-95.615002,39.117022]}},{"properties":{"city":"Topeka","name":"Rochester Elem","zip":"66617","building labels\"1st_line\"":"Kyle Hicks","geo_score":0.955,"column_8":null,"2nd_line":"USD 345  BLDG 4070","column_9":null,"id":"a6fwa9ean1eb","geo_precision":"range","address":"3421 Rochester Rd","state":"KS"},"type":"Feature","geometry":{"type":"Point","coordinates":[-95.673153,39.10805]}},{"properties":{"city":"Topeka","name":"Seaman High","zip":"66617","building labels\"1st_line\"":"Ron Vinduska","geo_score":0.955,"column_8":null,"2nd_line":"USD 345  BLDG 4076","column_9":null,"id":"a6fwa9mu0sqo","geo_precision":"range","address":"4850 Rochester Rd","state":"KS"},"type":"Feature","geometry":{"type":"Point","coordinates":[-95.673124,39.134085]}},{"properties":{"city":"Topeka","name":"Seaman Middle School","zip":"66617","building labels\"1st_line\"":"Bob Horton","geo_score":0.683,"column_8":null,"2nd_line":"USD 345  BLDG 4075","column_9":null,"id":"a6fwa9trl353","geo_precision":"zip","address":"5620 NW Topeka","state":"KS"},"type":"Feature","geometry":{"type":"Point","coordinates":[-95.793795,39.15275]}},{"properties":{"city":"Topeka","name":"Pleasant Hill Elem","zip":"66617","building labels\"1st_line\"":"Dedra Raines","geo_score":0.867,"column_8":null,"2nd_line":"USD 345  BLDG 4068","column_9":null,"id":"a6fwa9rbdy4o","geo_precision":"range","address":"5830 N W Topeka Ave","state":"KS"},"type":"Feature","geometry":{"type":"Point","coordinates":[-95.663966,39.151795]}},{"properties":{"city":"Topeka","name":"Elmont Elem","zip":"66618","building labels\"1st_line\"":"Annie Diederich","geo_score":0.902,"column_8":null,"2nd_line":"USD 345  BLDG 4058","column_9":null,"id":"a6fwa9o5uu7p","geo_precision":"range","address":"6432 NW Elmont Rd","state":"KS"},"type":"Feature","geometry":{"type":"Point","coordinates":[-95.70404,39.163272]}},{"properties":{"city":"Topeka","name":"West Indianola Elem","zip":"66618","building labels\"1st_line\"":"Steve Yeoman","geo_score":0.902,"column_8":null,"2nd_line":"USD 345  BLDG 4072","column_9":null,"id":"a6fwa9iaoqum","geo_precision":"range","address":"4201 NW Brickyard Rd","state":"KS"},"type":"Feature","geometry":{"type":"Point","coordinates":[-95.724739,39.121927]}},{"properties":{"city":"Topeka","name":"Tallgrass Student Learning Center","zip":"66619","building labels\"1st_line\"":"David Cromer","geo_score":0.537,"column_8":null,"2nd_line":"USD 437  BLDG 6524","column_9":null,"id":"a6fwa9syphb4","geo_precision":"street","address":"5740 SW 61st ST","state":"KS"},"type":"Feature","geometry":{"type":"Point","coordinates":[-95.743476,38.95659]}},{"properties":{"city":"Topeka","name":"Pauline Central Primary","zip":"66619","building labels\"1st_line\"":"Alan Hageman","geo_score":0.854,"column_8":null,"2nd_line":"USD 437  BLDG 6518","column_9":null,"id":"a6fwa9nouh7p","geo_precision":"range","address":"6625 SW Westview","state":"KS"},"type":"Feature","geometry":{"type":"Point","coordinates":[-95.696791,38.943192]}},{"properties":{"city":"Topeka","name":"Washburn Rural Middle School","zip":"66619","building labels\"1st_line\"":"Gerald Meier","geo_score":0.464,"column_8":null,"2nd_line":"USD 437  BLDG 6527","column_9":null,"id":"a6fwa9t8tnyh","geo_precision":"street","address":"5620 SW 61st","state":"KS"},"type":"Feature","geometry":{"type":"Point","coordinates":[-95.743476,38.95659]}},{"properties":{"city":"Topeka","name":"Washburn Rural Alternative High School","zip":"66619","building labels\"1st_line\"":"Linda Thornburgh","geo_score":0.537,"column_8":null,"2nd_line":"USD 437  BLDG 6533","column_9":null,"id":"a6fwa9h6qfs2","geo_precision":"street","address":"5900 SW 61st St","state":"KS"},"type":"Feature","geometry":{"type":"Point","coordinates":[-95.743476,38.95659]}},{"properties":{"city":"Topeka","name":"Washburn Rural High","zip":"66619","building labels\"1st_line\"":"Ed Raines","geo_score":0.464,"column_8":null,"2nd_line":"USD 437  BLDG 6532","column_9":null,"id":"a6fwa9ipbbnh","geo_precision":"street","address":"5900 SW 61st","state":"KS"},"type":"Feature","geometry":{"type":"Point","coordinates":[-95.743476,38.95659]}},{"properties":{"city":"Topeka","name":"Washburn University","zip":"66621","building labels\"1st_line\"":"Principal","geo_score":0.684,"column_8":null,"2nd_line":"ORG S0800  BLDG 9135","column_9":null,"id":"a6fwa9nqxjco","geo_precision":"street","address":"1700 College","state":"KS"},"type":"Feature","geometry":{"type":"Point","coordinates":[-95.700311,39.03216]}}],"is_temporal":false,"author":{"url":"","metadata":"","contact_name":"","contact_address":"","source":"","contact_phone":""},"source":"","pagination":{"sort":null,"start":0,"total":465,"limit":1000000},"state":"complete","tags":"","published":"2014-08-13T02:03:26-04:00","id":103390}