{"type":"FeatureCollection","data_type":"Dataset","url_type":null,"permissions":[{"permissions":{"download":true,"view":true},"group_id":"everyone"}],"classification":null,"title":"Blood Banks, Florida, 2003","count":94,"stream_id":10390,"contributor":{"url":"http://geocommons.com/users/955","name":"williambenjaminiv"},"data_attributes":null,"calculation_params":null,"icon_link":null,"link":"http://geocommons.com/overlays/10390.json","extent":[-87.2247,25.5961,-80.0575,30.7807],"geometry_types":["point"],"unique_name":null,"name":"Blood Banks, Florida, 2003","feature_count":94,"description":"This dataset contains 2003 Blood Bank Facility Information for the State of Florida. The Blood Bank facility addresses where gathered from the Yellow Pages online. This dataset contains fields denoting the physical address, and contact information for blood bank facilities located in Florida.","next_feature":null,"is_raster":false,"short_classification":"Y","stats":{"ZIP":{"max":34996,"mean":33356.3085106383,"variance":636805.65648593,"stdev":798.001037897777,"min":32086,"median":33311},"X":{"max":790855.20065,"mean":619027.141391383,"variance":29774761825.1614,"stdev":172553.649121545,"min":90693.11275,"median":645881.30002},"Y":{"max":753125.40298,"mean":437489.972163085,"variance":27077592054.3231,"stdev":164552.702968754,"min":182332.57487,"median":411039.9878},"SCORE":{"max":100,"mean":99.4148936170213,"variance":10.5034317089911,"stdev":3.24089983013839,"min":81,"median":100}},"features":[{"properties":{"NAME":"BLOOD BANK","CITY":"BRADENTON","SIDE":"R","ZIP":34208,"DESCRIPT":"BLOOD BANK","X":541884.81163,"Y":388567.76477,"STATUS":"M","SCORE":100,"STREET":"216 MANATEE AVE E","id":"a62qjldatsmf"},"type":"Feature","geometry":{"type":"Point","coordinates":[-82.561082138387,27.495227616874]}},{"properties":{"NAME":"BLOOD BANK","CITY":"PENSACOLA","SIDE":"L","ZIP":32503,"DESCRIPT":"BLOOD BANK","X":92014.90702,"Y":718326.94618,"STATUS":"M","SCORE":100,"STREET":"2201 N 9TH AVE","id":"a62qjld0jl9v"},"type":"Feature","geometry":{"type":"Point","coordinates":[-87.209907287776,30.4363984410583]}},{"properties":{"NAME":"BLOOD BANK SARASOTA COMMUNITY MAIN OFFICE","CITY":"SARASOTA","SIDE":"R","ZIP":34236,"DESCRIPT":"BLOOD BANK SARASOTA COMMUNITY MAIN OFFICE","X":544722.15429,"Y":370089.44562,"STATUS":"M","SCORE":100,"STREET":"1760 MOUND ST","id":"a62qjljmt9jh"},"type":"Feature","geometry":{"type":"Point","coordinates":[-82.5345368894676,27.3285326396376]}},{"properties":{"NAME":"BLOOD BANKS COMMUNITY BLOOD CENTER SOUTH FLORIDA","CITY":"CORAL SPRINGS","SIDE":"L","ZIP":33071,"DESCRIPT":"BLOOD BANKS COMMUNITY BLOOD CENTER SOUTH FLORIDA","X":773645.44343,"Y":255580.76199,"STATUS":"M","SCORE":100,"STREET":"1855 N UNIVERSITY DR","id":"a62qjli8cw2y"},"type":"Feature","geometry":{"type":"Point","coordinates":[-80.2526736891836,26.2536913592616]}},{"properties":{"NAME":"BLOOD BANKS MEMORIAL HOSPITAL DONOR ROOM","CITY":"HOLLYWOOD","SIDE":"L","ZIP":33021,"DESCRIPT":"BLOOD BANKS MEMORIAL HOSPITAL DONOR ROOM","X":781818.81175,"Y":229688.99127,"STATUS":"M","SCORE":100,"STREET":"3501 JOHNSON ST","id":"a62qjla3djdp"},"type":"Feature","geometry":{"type":"Point","coordinates":[-80.1787981487949,26.0182397863898]}},{"properties":{"NAME":"BLOOD BANKS MID FLORIDA HOSPITAL","CITY":"WINTER HAVEN","SIDE":"R","ZIP":33881,"DESCRIPT":"BLOOD BANKS MID FLORIDA HOSPITAL","X":623060.11142,"Y":448927.59453,"STATUS":"M","SCORE":100,"STREET":"200 AVENUE F NE","id":"a62qjle2ep3h"},"type":"Feature","geometry":{"type":"Point","coordinates":[-81.7267152454492,28.027696227478]}},{"properties":{"NAME":"CAPE CORAL BLOOD CENTER","CITY":"CAPE CORAL","SIDE":"L","ZIP":33990,"DESCRIPT":"CAPE CORAL BLOOD CENTER","X":604612.65118,"Y":294507.65329,"STATUS":"M","SCORE":100,"STREET":"603 DEL PRADO BLVD S","id":"a62qjljh2lsm"},"type":"Feature","geometry":{"type":"Point","coordinates":[-81.9409580523716,26.6401439626708]}},{"properties":{"NAME":"CENTRAL FLORIDA BLOOD BANK","CITY":"LONGWOOD","SIDE":"R","ZIP":32750,"DESCRIPT":"CENTRAL FLORIDA BLOOD BANK","X":658429.3945,"Y":524075.64609,"STATUS":"M","SCORE":82,"STREET":"268 E STATE ROAD 434","id":"a62qjllhs0qm"},"type":"Feature","geometry":{"type":"Point","coordinates":[-81.3499008301732,28.697872027788]}},{"properties":{"NAME":"CENTRAL FLORIDA BLOOD BANK INC","CITY":"WINTER SPRINGS","SIDE":"R","ZIP":32708,"DESCRIPT":"CENTRAL FLORIDA BLOOD BANK INC","X":663243.47505,"Y":524365.21504,"STATUS":"M","SCORE":100,"STREET":"268 E STATE ROAD 434","id":"a62qjldxxuss"},"type":"Feature","geometry":{"type":"Point","coordinates":[-81.3004848265189,28.6995386757669]}},{"properties":{"NAME":"CENTRAL FLORIDA BLOOD BANK INC SEMINOLE COUNTY BRANCHES","CITY":"SANFORD","SIDE":"R","ZIP":32771,"DESCRIPT":"CENTRAL FLORIDA BLOOD BANK INC SEMINOLE COUNTY BRANCHES","X":667329.38339,"Y":536716.45588,"STATUS":"M","SCORE":100,"STREET":"1302 E 2ND ST","id":"a62qjlm4dgry"},"type":"Feature","geometry":{"type":"Point","coordinates":[-81.2557800538365,28.8099185983168]}},{"properties":{"NAME":"CENTRAL FLORIDA BLOOD BANK INCORPORATED","CITY":"KISSIMMEE","SIDE":"L","ZIP":34741,"DESCRIPT":"CENTRAL FLORIDA BLOOD BANK INCORPORATED","X":652917.40033,"Y":479886.7915,"STATUS":"M","SCORE":100,"STREET":"1029 N JOHN YOUNG PKWY","id":"a62qjlmyr7gw"},"type":"Feature","geometry":{"type":"Point","coordinates":[-81.4159018190646,28.3011175992251]}},{"properties":{"NAME":"CENTRAL FLORIDA BLOOD BANK INCORPORATED","CITY":"APOPKA","SIDE":"L","ZIP":32703,"DESCRIPT":"CENTRAL FLORIDA BLOOD BANK INCORPORATED","X":642921.62658,"Y":521769.42579,"STATUS":"M","SCORE":100,"STREET":"131 N PARK AVE","id":"a62qjljl6eri"},"type":"Feature","geometry":{"type":"Point","coordinates":[-81.5093602154223,28.6800204036447]}},{"properties":{"NAME":"CENTRAL FLORIDA BLOOD BANK INCORPORATED","CITY":"LONGWOOD","SIDE":"R","ZIP":32750,"DESCRIPT":"CENTRAL FLORIDA BLOOD BANK INCORPORATED","X":658366.65197,"Y":524516.94809,"STATUS":"M","SCORE":100,"STREET":"448 N MILWEE ST","id":"a62qjlm2r24f"},"type":"Feature","geometry":{"type":"Point","coordinates":[-81.3504467901403,28.7018569881919]}},{"properties":{"NAME":"CENTRAL FLORIDA BLOOD BANK INCORPORATED","CITY":"ALTAMONTE SPRINGS","SIDE":"L","ZIP":32701,"DESCRIPT":"CENTRAL FLORIDA BLOOD BANK INCORPORATED","X":656215.61527,"Y":520256.95181,"STATUS":"M","SCORE":100,"STREET":"601 E ALTAMONTE DR","id":"a62qjlf9t173"},"type":"Feature","geometry":{"type":"Point","coordinates":[-81.3734292969877,28.6639204939965]}},{"properties":{"NAME":"CENTRAL FLORIDA BLOOD BANK MARION COUNTY BRANCH","CITY":"OCALA","SIDE":"L","ZIP":34474,"DESCRIPT":"CENTRAL FLORIDA BLOOD BANK MARION COUNTY BRANCH","X":580792.53982,"Y":576026.25201,"STATUS":"M","SCORE":100,"STREET":"1051 SW 1ST AVE","id":"a62qjlmtu984"},"type":"Feature","geometry":{"type":"Point","coordinates":[-82.1378479219505,29.1784010414345]}},{"properties":{"NAME":"CENTRAL FLORIDA BLOOD BANK N W BRANCH","CITY":"LADY LAKE","SIDE":"L","ZIP":32159,"DESCRIPT":"CENTRAL FLORIDA BLOOD BANK N W BRANCH","X":600293.34418,"Y":549626.36777,"STATUS":"M","SCORE":100,"STREET":"5 LAGRANDE BLVD","id":"a62qjlf23jnb"},"type":"Feature","geometry":{"type":"Point","coordinates":[-81.9415650226565,28.9379032135523]}},{"properties":{"NAME":"CHARLOTTE COUNTY BLOOD CENTER","CITY":"PORT CHARLOTTE","SIDE":"L","ZIP":33952,"DESCRIPT":"CHARLOTTE COUNTY BLOOD CENTER","X":589377.42316,"Y":331392.19464,"STATUS":"M","SCORE":100,"STREET":"3785 TAMIAMI TRL # A","id":"a62qjlb7j6m8"},"type":"Feature","geometry":{"type":"Point","coordinates":[-82.0884934228698,26.9745437074738]}},{"properties":{"NAME":"CITRUS COMMUNITY BLOOD BANK INVERNESS OFFICES","CITY":"INVERNESS","SIDE":"R","ZIP":34452,"DESCRIPT":"CITRUS COMMUNITY BLOOD BANK INVERNESS OFFICES","X":562511.91729,"Y":537479.51771,"STATUS":"M","SCORE":100,"STREET":"220 S PINE AVE","id":"a62qjljffxb8"},"type":"Feature","geometry":{"type":"Point","coordinates":[-82.331484538211,28.8336757080802]}},{"properties":{"NAME":"CITRUS REGIONAL BLOOD CENTER","CITY":"BRANDON","SIDE":"L","ZIP":33511,"DESCRIPT":"CITRUS REGIONAL BLOOD CENTER","X":565521.7483,"Y":437991.62962,"STATUS":"M","SCORE":100,"STREET":"1905 W BRANDON BLVD","id":"a62qjlgnmgxw"},"type":"Feature","geometry":{"type":"Point","coordinates":[-82.3145465273023,27.9375514475606]}},{"properties":{"NAME":"CITRUS REGIONAL BLOOD CENTER","CITY":"LAKELAND","SIDE":"L","ZIP":33813,"DESCRIPT":"CITRUS REGIONAL BLOOD CENTER","X":600136.38326,"Y":442457.57252,"STATUS":"M","SCORE":100,"STREET":"5131 S FLORIDA AVE","id":"a62qjlkyzv9g"},"type":"Feature","geometry":{"type":"Point","coordinates":[-81.961384071511,27.9730543979735]}},{"properties":{"NAME":"CITRUS REGIONAL BLOOD CENTER","CITY":"SUN CITY CENTER","SIDE":"R","ZIP":33573,"DESCRIPT":"CITRUS REGIONAL BLOOD CENTER","X":559769.51125,"Y":412916.69232,"STATUS":"M","SCORE":100,"STREET":"3822 STATE ROAD 674","id":"a62qjlenexvt"},"type":"Feature","geometry":{"type":"Point","coordinates":[-82.3764742000595,27.7124743325613]}},{"properties":{"NAME":"CITRUS REGIONAL BLOOD CENTER","CITY":"HAINES CITY","SIDE":"L","ZIP":33844,"DESCRIPT":"CITRUS REGIONAL BLOOD CENTER","X":633033.6471,"Y":457928.4753,"STATUS":"M","SCORE":100,"STREET":"27 N 10TH ST","id":"a62qjlltvrcd"},"type":"Feature","geometry":{"type":"Point","coordinates":[-81.6233282296562,28.1070369306926]}},{"properties":{"NAME":"CIVITAN REGIONAL BLOOD CENTER INC","CITY":"GAINESVILLE","SIDE":"L","ZIP":32601,"DESCRIPT":"CIVITAN REGIONAL BLOOD CENTER INC","X":560537.24076,"Y":629650.7703,"STATUS":"M","SCORE":100,"STREET":"1221 NW 13TH ST","id":"a62qjlco7lyz"},"type":"Feature","geometry":{"type":"Point","coordinates":[-82.33901038911,29.6639096613758]}},{"properties":{"NAME":"CIVITAN REGL BLOOD CENTER LEVY COUNTY DONATION CENTER","CITY":"CHIEFLAND","SIDE":"R","ZIP":32626,"DESCRIPT":"CIVITAN REGL BLOOD CENTER LEVY COUNTY DONATION CENTER","X":510507.65892,"Y":609601.44401,"STATUS":"M","SCORE":100,"STREET":"120 RODGERS BLVD","id":"a62qjle92i3c"},"type":"Feature","geometry":{"type":"Point","coordinates":[-82.8585224660552,29.4884632964333]}},{"properties":{"NAME":"COMMUNITY AIDS NETWORK ADMINISTRATION","CITY":"SARASOTA","SIDE":"L","ZIP":34237,"DESCRIPT":"COMMUNITY AIDS NETWORK ADMINISTRATION","X":546716.7429,"Y":372365.11554,"STATUS":"M","SCORE":100,"STREET":"1231 N TUTTLE AVE","id":"a62qjlek88vi"},"type":"Feature","geometry":{"type":"Point","coordinates":[-82.51406396457,27.348809985309]}},{"properties":{"NAME":"COMMUNITY BLOOD CENTER","CITY":"FORT LAUDERDALE","SIDE":"R","ZIP":33311,"DESCRIPT":"COMMUNITY BLOOD CENTER","X":778987.75711,"Y":244296.45777,"STATUS":"M","SCORE":100,"STREET":"3974 NW 19TH ST","id":"a62qjlbf04lz"},"type":"Feature","geometry":{"type":"Point","coordinates":[-80.2026126369501,26.1505920122764]}},{"properties":{"NAME":"COMMUNITY BLOOD CENTER N C H HEALTHCARE SYSTEM","CITY":"NAPLES","SIDE":"L","ZIP":34102,"DESCRIPT":"COMMUNITY BLOOD CENTER N C H HEALTHCARE SYSTEM","X":619666.8877,"Y":240511.53544,"STATUS":"M","SCORE":100,"STREET":"681 4TH AVE N","id":"a62qjlay0bz5"},"type":"Feature","geometry":{"type":"Point","coordinates":[-81.7991931496747,26.1514085375162]}},{"properties":{"NAME":"COMMUNITY BLOOD CENTERS","CITY":"MIAMI","SIDE":"L","ZIP":33178,"DESCRIPT":"COMMUNITY BLOOD CENTERS","X":765126.40689,"Y":212688.18734,"STATUS":"M","SCORE":100,"STREET":"9401 NW 106TH ST","id":"a62qjlmmm742"},"type":"Feature","geometry":{"type":"Point","coordinates":[-80.3507875285789,25.8696581069236]}},{"properties":{"NAME":"COMMUNITY BLOOD CENTERS SOUTH FLORIDA","CITY":"SUNRISE","SIDE":"R","ZIP":33351,"DESCRIPT":"COMMUNITY BLOOD CENTERS SOUTH FLORIDA","X":770591.98071,"Y":246194.90129,"STATUS":"M","SCORE":100,"STREET":"10112 W OAKLAND PARK BLVD","id":"a62qjlja6lgc"},"type":"Feature","geometry":{"type":"Point","coordinates":[-80.2861126569413,26.1699936148322]}},{"properties":{"NAME":"COMMUNITY BLOOD CENTERS SOUTH FLORIDA INCORPORATED POMP","CITY":"POMPANO BEACH","SIDE":"R","ZIP":33064,"DESCRIPT":"COMMUNITY BLOOD CENTERS SOUTH FLORIDA INCORPORATED POMP","X":787634.17098,"Y":258405.90475,"STATUS":"M","SCORE":100,"STREET":"926 E SAMPLE RD","id":"a62qjlledhiv"},"type":"Feature","geometry":{"type":"Point","coordinates":[-80.1115775036473,26.2752320079735]}},{"properties":{"NAME":"DESOTO COMMUNITY BLOOD CENTER","CITY":"ARCADIA","SIDE":"R","ZIP":34266,"DESCRIPT":"DESOTO COMMUNITY BLOOD CENTER","X":611963.93631,"Y":359525.9307,"STATUS":"M","SCORE":100,"STREET":"710 N BREVARD AVE","id":"a62qjled2nhq"},"type":"Feature","geometry":{"type":"Point","coordinates":[-81.8556191014717,27.224546266904]}},{"properties":{"NAME":"EDISON REGIONAL BLOOD CENTER INCORPORATED","CITY":"FORT MYERS","SIDE":"R","ZIP":33901,"DESCRIPT":"EDISON REGIONAL BLOOD CENTER INCORPORATED","X":612737.20846,"Y":291067.60738,"STATUS":"M","SCORE":100,"STREET":"3714 EVANS AVE","id":"a62qjli40wdr"},"type":"Feature","geometry":{"type":"Point","coordinates":[-81.8598164705801,26.6079139757567]}},{"properties":{"NAME":"EMERALD COAST COMMUNITY BLOOD CENTER","CITY":"FORT WALTON BEACH","SIDE":"L","ZIP":32547,"DESCRIPT":"EMERALD COAST COMMUNITY BLOOD CENTER","X":150428.86147,"Y":717656.14,"STATUS":"M","SCORE":100,"STREET":"413 RACETRACK RD NE","id":"a62qjlo51xxr"},"type":"Feature","geometry":{"type":"Point","coordinates":[-86.6011549136087,30.4427564643421]}},{"properties":{"NAME":"ENGLEWOOD COMMUNITY BLOOD CENTER","CITY":"ENGLEWOOD","SIDE":"R","ZIP":34224,"DESCRIPT":"ENGLEWOOD COMMUNITY BLOOD CENTER","X":566877.78248,"Y":326624.24667,"STATUS":"M","SCORE":100,"STREET":"2670 S MCCALL RD","id":"a62qjlcc72jl"},"type":"Feature","geometry":{"type":"Point","coordinates":[-82.3162235241304,26.934558335199]}},{"properties":{"NAME":"GULF AREA","CITY":"PORT CHARLOTTE","SIDE":"L","ZIP":33952,"DESCRIPT":"GULF AREA","X":588520.2624,"Y":332860.46572,"STATUS":"M","SCORE":100,"STREET":"21297 OLEAN BLVD","id":"a62qjliq4p3h"},"type":"Feature","geometry":{"type":"Point","coordinates":[-82.0969152065007,26.9878859263759]}},{"properties":{"NAME":"GULF AREA REGIONAL BLOOD BANK","CITY":"PORT CHARLOTTE","SIDE":"R","ZIP":33952,"DESCRIPT":"GULF AREA REGIONAL BLOOD BANK","X":588254.46764,"Y":332295.32041,"STATUS":"M","SCORE":100,"STREET":"3280 TAMIAMI TRL","id":"a62qjle4bqr1"},"type":"Feature","geometry":{"type":"Point","coordinates":[-82.0996858036045,26.9828333040573]}},{"properties":{"NAME":"GULF AREA REGIONAL BLOOD BANK","CITY":"VENICE","SIDE":"L","ZIP":34285,"DESCRIPT":"GULF AREA REGIONAL BLOOD BANK","X":554031.90154,"Y":343638.29127,"STATUS":"M","SCORE":100,"STREET":"621 TAMIAMI TRL","id":"a62qjlk366pe"},"type":"Feature","geometry":{"type":"Point","coordinates":[-82.4436560551831,27.0893041264782]}},{"properties":{"NAME":"HERNANDO COMMUNITY BLOOD BANK","CITY":"BROOKSVILLE","SIDE":"L","ZIP":34613,"DESCRIPT":"HERNANDO COMMUNITY BLOOD BANK","X":544854.71394,"Y":503917.32857,"STATUS":"M","SCORE":100,"STREET":"12395 CORTEZ BLVD","id":"a62qjlfpmgzu"},"type":"Feature","geometry":{"type":"Point","coordinates":[-82.516897233878,28.5335174969007]}},{"properties":{"NAME":"HIGHLANDS COUNTY BLOOD BANK","CITY":"SEBRING","SIDE":"R","ZIP":33870,"DESCRIPT":"HIGHLANDS COUNTY BLOOD BANK","X":645881.30002,"Y":395441.39623,"STATUS":"M","SCORE":100,"STREET":"6550 US HIGHWAY 27 N","id":"a62qjldozxgm"},"type":"Feature","geometry":{"type":"Point","coordinates":[-81.505223527968,27.5421822009081]}},{"properties":{"NAME":"INDIAN RIVER BLOOD BANK INCORPORATED","CITY":"VERO BEACH","SIDE":"R","ZIP":32960,"DESCRIPT":"INDIAN RIVER BLOOD BANK INCORPORATED","X":754506.5839,"Y":411039.9878,"STATUS":"M","SCORE":100,"STREET":"1300 36TH ST STE 1E","id":"a62qjld4je0n"},"type":"Feature","geometry":{"type":"Point","coordinates":[-80.398992285275,27.6584320347353]}},{"properties":{"NAME":"INTERSTATE BLOOD BANK OF FLA INC","CITY":"MIAMI","SIDE":"R","ZIP":33150,"DESCRIPT":"INTERSTATE BLOOD BANK OF FLA INC","X":779374.86128,"Y":210547.61042,"STATUS":"M","SCORE":100,"STREET":"7790 NW 7TH AVE","id":"a62qjlnqf84s"},"type":"Feature","geometry":{"type":"Point","coordinates":[-80.209128593511,25.8465020258714]}},{"properties":{"NAME":"JACKSONVILLE BLOOD BANK","CITY":"JACKSONVILLE","SIDE":"L","ZIP":32216,"DESCRIPT":"JACKSONVILLE BLOOD BANK","X":632726.42068,"Y":700190.55218,"STATUS":"M","SCORE":100,"STREET":"8013 BEACH BLVD","id":"a62qjlf382po"},"type":"Feature","geometry":{"type":"Point","coordinates":[-81.5779372641789,30.2885085023831]}},{"properties":{"NAME":"MANATEE COMMUNITY BLOOD CENTER BLAKE SATELLITE","CITY":"BRADENTON","SIDE":"R","ZIP":34208,"DESCRIPT":"MANATEE COMMUNITY BLOOD CENTER BLAKE SATELLITE","X":541884.81163,"Y":388567.76477,"STATUS":"M","SCORE":100,"STREET":"216 MANATEE AVE E","id":"a62qjlefrbuc"},"type":"Feature","geometry":{"type":"Point","coordinates":[-82.561082138387,27.495227616874]}},{"properties":{"NAME":"MARION COUNTY BLOOD BANK A DIV OF TH CTRL FLRD BLD BNK","CITY":"OCALA","SIDE":"L","ZIP":34474,"DESCRIPT":"MARION COUNTY BLOOD BANK A DIV OF TH CTRL FLRD BLD BNK","X":580792.53982,"Y":576026.25201,"STATUS":"M","SCORE":100,"STREET":"1051 SW 1ST AVE","id":"a62qjlfrnmrg"},"type":"Feature","geometry":{"type":"Point","coordinates":[-82.1378479219505,29.1784010414345]}},{"properties":{"NAME":"MERCY HOSPITAL BLOOD BANK","CITY":"MIAMI","SIDE":"L","ZIP":33133,"DESCRIPT":"MERCY HOSPITAL BLOOD BANK","X":779001.17882,"Y":199076.1748,"STATUS":"M","SCORE":100,"STREET":"3663 S MIAMI AVE","id":"a62qjlotlcr5"},"type":"Feature","geometry":{"type":"Point","coordinates":[-80.2163761899764,25.7432649790375]}},{"properties":{"NAME":"NABI BIOLOGICALS","CITY":"PEMBROKE PINES","SIDE":"L","ZIP":33024,"DESCRIPT":"NABI BIOLOGICALS","X":774783.07318,"Y":230625.59102,"STATUS":"M","SCORE":100,"STREET":"2301 N UNIVERSITY DR # 1","id":"a62qjlgwn3yg"},"type":"Feature","geometry":{"type":"Point","coordinates":[-80.2488822080786,26.0286221176917]}},{"properties":{"NAME":"NABI BIOMEDICAL CENTER","CITY":"FORT MYERS","SIDE":"R","ZIP":33901,"DESCRIPT":"NABI BIOMEDICAL CENTER","X":611419.15573,"Y":293954.64274,"STATUS":"M","SCORE":100,"STREET":"2320 CLEVELAND AVE","id":"a62qjl9aanzd"},"type":"Feature","geometry":{"type":"Point","coordinates":[-81.8725726858144,26.6341223764534]}},{"properties":{"NAME":"NABI BIOMEDICAL CENTER","CITY":"PENSACOLA","SIDE":"L","ZIP":32503,"DESCRIPT":"NABI BIOMEDICAL CENTER","X":90693.11275,"Y":722093.24499,"STATUS":"M","SCORE":100,"STREET":"5007 N DAVIS HWY","id":"a62qjlcfk412"},"type":"Feature","geometry":{"type":"Point","coordinates":[-87.2247034484997,30.4700139452419]}},{"properties":{"NAME":"NABI BIOMEDICAL CENTER AT PEMBROKE PINES","CITY":"PEMBROKE PINES","SIDE":"L","ZIP":33024,"DESCRIPT":"NABI BIOMEDICAL CENTER AT PEMBROKE PINES","X":774783.07318,"Y":230625.59102,"STATUS":"M","SCORE":100,"STREET":"2301 N UNIVERSITY DR","id":"a62qjlfvqyr1"},"type":"Feature","geometry":{"type":"Point","coordinates":[-80.2488822080786,26.0286221176917]}},{"properties":{"NAME":"NATIONAL BLOOD CENTER","CITY":"MIAMI","SIDE":"L","ZIP":33128,"DESCRIPT":"NATIONAL BLOOD CENTER","X":779465.66721,"Y":202785.94917,"STATUS":"M","SCORE":100,"STREET":"955 NW 3RD ST","id":"a62qjlobh5kr"},"type":"Feature","geometry":{"type":"Point","coordinates":[-80.2106043162305,25.7765568675746]}},{"properties":{"NAME":"NCH HEALTHCARE SYSTEM OUTPATIENT INFSN SERV CHMTHRPY CNTRS","CITY":"NAPLES","SIDE":"L","ZIP":34102,"DESCRIPT":"NCH HEALTHCARE SYSTEM OUTPATIENT INFSN SERV CHMTHRPY CNTRS","X":619666.8877,"Y":240511.53544,"STATUS":"M","SCORE":100,"STREET":"681 4TH AVE N","id":"a62qjldapp0u"},"type":"Feature","geometry":{"type":"Point","coordinates":[-81.7991931496747,26.1514085375162]}},{"properties":{"NAME":"NORTHEAST POLK COUNTY BLOOD CENTER","CITY":"HAINES CITY","SIDE":"L","ZIP":33844,"DESCRIPT":"NORTHEAST POLK COUNTY BLOOD CENTER","X":633033.6471,"Y":457928.4753,"STATUS":"M","SCORE":100,"STREET":"27 N 10TH ST","id":"a62qjlewp5rk"},"type":"Feature","geometry":{"type":"Point","coordinates":[-81.6233282296562,28.1070369306926]}},{"properties":{"NAME":"NORTHWEST FLORIDA BLOOD CENTER","CITY":"PANAMA CITY","SIDE":"L","ZIP":32405,"DESCRIPT":"NORTHWEST FLORIDA BLOOD CENTER","X":241308.30045,"Y":688139.4656,"STATUS":"M","SCORE":100,"STREET":"2349 HIGHWAY 77","id":"a62qjlgltc5m"},"type":"Feature","geometry":{"type":"Point","coordinates":[-85.6499937701998,30.19095928899]}},{"properties":{"NAME":"NORTHWEST FLORIDA BLOOD CENTER","CITY":"FORT WALTON BEACH","SIDE":"L","ZIP":32547,"DESCRIPT":"NORTHWEST FLORIDA BLOOD CENTER","X":150356.95181,"Y":717703.64896,"STATUS":"M","SCORE":100,"STREET":"405 RACETRACK RD NE STE 105","id":"a62qjllotugl"},"type":"Feature","geometry":{"type":"Point","coordinates":[-86.6019146196211,30.4431708051414]}},{"properties":{"NAME":"NORTHWEST FLORIDA BLOOD CENTER","CITY":"MILTON","SIDE":"R","ZIP":32571,"DESCRIPT":"NORTHWEST FLORIDA BLOOD CENTER","X":99207.35629,"Y":736716.04644,"STATUS":"M","SCORE":100,"STREET":"4430 HIGHWAY 90","id":"a62qjlab68ij"},"type":"Feature","geometry":{"type":"Point","coordinates":[-87.1398572213733,30.6037221541721]}},{"properties":{"NAME":"NORTHWEST FLORIDA BLOOD CENTER INCORPORATED","CITY":"PENSACOLA","SIDE":"L","ZIP":32503,"DESCRIPT":"NORTHWEST FLORIDA BLOOD CENTER INCORPORATED","X":92014.90702,"Y":718326.94618,"STATUS":"M","SCORE":100,"STREET":"2201 N 9TH AVE","id":"a62qjlp6ppi3"},"type":"Feature","geometry":{"type":"Point","coordinates":[-87.209907287776,30.4363984410583]}},{"properties":{"NAME":"OKEECHOBEE COUNTY BLOOD BANK","CITY":"OKEECHOBEE","SIDE":"R","ZIP":34972,"DESCRIPT":"OKEECHOBEE COUNTY BLOOD BANK","X":713030.82589,"Y":364306.15026,"STATUS":"M","SCORE":100,"STREET":"300 NW 5TH ST","id":"a62qjlaxv4tp"},"type":"Feature","geometry":{"type":"Point","coordinates":[-80.8322881852727,27.2479836300112]}},{"properties":{"NAME":"OSCEOLA COUNTY BLOOD BANK A BRANCH OF CTRL FLRIDA BLOOD BK","CITY":"KISSIMMEE","SIDE":"L","ZIP":34741,"DESCRIPT":"OSCEOLA COUNTY BLOOD BANK A BRANCH OF CTRL FLRIDA BLOOD BK","X":652917.40033,"Y":479886.7915,"STATUS":"M","SCORE":100,"STREET":"1029 N JOHN YOUNG PKWY","id":"a62qjldatxxx"},"type":"Feature","geometry":{"type":"Point","coordinates":[-81.4159018190646,28.3011175992251]}},{"properties":{"NAME":"PALM BEACH BLOOD BANK INCORPORATED","CITY":"STUART","SIDE":"L","ZIP":34994,"DESCRIPT":"PALM BEACH BLOOD BANK INCORPORATED","X":771888.26786,"Y":360351.81452,"STATUS":"M","SCORE":82,"STREET":"915 E OCEAN BLVD","id":"a62qjlgihkx2"},"type":"Feature","geometry":{"type":"Point","coordinates":[-80.2382416721378,27.1974937321796]}},{"properties":{"NAME":"PUTNAM COMMUNITY BLOOD BANK","CITY":"PALATKA","SIDE":"L","ZIP":32177,"DESCRIPT":"PUTNAM COMMUNITY BLOOD BANK","X":624779.82136,"Y":628188.8552,"STATUS":"M","SCORE":100,"STREET":"6003 CRILL AVE","id":"a62qjl968cib"},"type":"Feature","geometry":{"type":"Point","coordinates":[-81.6747483462231,29.6413920163912]}},{"properties":{"NAME":"SERA TEC BIOLOGICAL","CITY":"ATLANTIC BEACH","SIDE":"R","ZIP":32233,"DESCRIPT":"SERA TEC BIOLOGICAL","X":648352.45003,"Y":707786.016,"STATUS":"M","SCORE":100,"STREET":"2444 MAYPORT RD","id":"a62qjlk6dpuu"},"type":"Feature","geometry":{"type":"Point","coordinates":[-81.4137003696726,30.3540716282488]}},{"properties":{"NAME":"SERA TEC BIOLOGICALS","CITY":"ORLANDO","SIDE":"R","ZIP":32805,"DESCRIPT":"SERA TEC BIOLOGICALS","X":654417.20236,"Y":506475.09386,"STATUS":"M","SCORE":100,"STREET":"1122 W CHURCH ST","id":"a62qjlhopgem"},"type":"Feature","geometry":{"type":"Point","coordinates":[-81.3948444488118,28.5401927885341]}},{"properties":{"NAME":"SERA TEC BIOLOGICALS LIMITED PARTNERSHIP","CITY":"JACKSONVILLE","SIDE":"R","ZIP":32202,"DESCRIPT":"SERA TEC BIOLOGICALS LIMITED PARTNERSHIP","X":623715.74899,"Y":703870.68267,"STATUS":"M","SCORE":100,"STREET":"116 RIVERSIDE AVE","id":"a62qjl9kkrnq"},"type":"Feature","geometry":{"type":"Point","coordinates":[-81.6709683292487,30.323224352228]}},{"properties":{"NAME":"SERA TEC BIOLOGICALS LIMITED PARTNERSHIP","CITY":"JACKSONVILLE","SIDE":"R","ZIP":32256,"DESCRIPT":"SERA TEC BIOLOGICALS LIMITED PARTNERSHIP","X":632236.54321,"Y":692436.75307,"STATUS":"M","SCORE":100,"STREET":"8226 PHILIPS HWY STE 103","id":"a62qjlnoc15k"},"type":"Feature","geometry":{"type":"Point","coordinates":[-81.5846147203226,30.2187487414359]}},{"properties":{"NAME":"SERAMED BIO CENTER","CITY":"TALLAHASSEE","SIDE":"L","ZIP":32304,"DESCRIPT":"SERAMED BIO CENTER","X":370253.07728,"Y":715759.81917,"STATUS":"M","SCORE":100,"STREET":"1717 W TENNESSEE ST","id":"a62qjloap0l7"},"type":"Feature","geometry":{"type":"Point","coordinates":[-84.3100328782711,30.4490511764303]}},{"properties":{"NAME":"SOUTH FLORIDA BLOOD BANK","CITY":"MIAMI","SIDE":"L","ZIP":33157,"DESCRIPT":"SOUTH FLORIDA BLOOD BANK","X":765274.8889,"Y":182332.57487,"STATUS":"M","SCORE":100,"STREET":"10235 SW 186TH ST","id":"a62qjlexor84"},"type":"Feature","geometry":{"type":"Point","coordinates":[-80.3582614412139,25.5961376894325]}},{"properties":{"NAME":"SOUTH FLORIDA BLOOD BANK","CITY":"MIAMI","SIDE":"L","ZIP":33136,"DESCRIPT":"SOUTH FLORIDA BLOOD BANK","X":778973.61852,"Y":204326.67926,"STATUS":"M","SCORE":100,"STREET":"1611 NW 12TH AVE","id":"a62qjlk4dyfu"},"type":"Feature","geometry":{"type":"Point","coordinates":[-80.2150428064877,25.7905728244056]}},{"properties":{"NAME":"SOUTH FLORIDA BLOOD BANK INC","CITY":"WEST PALM BEACH","SIDE":"L","ZIP":33407,"DESCRIPT":"SOUTH FLORIDA BLOOD BANK INC","X":790679.00357,"Y":311585.66929,"STATUS":"M","SCORE":100,"STREET":"933 45TH ST","id":"a62qjlfllrdj"},"type":"Feature","geometry":{"type":"Point","coordinates":[-80.0640337529021,26.7532006133948]}},{"properties":{"NAME":"SOUTH FLORIDA BLOOD BANK INCORPORATED","CITY":"DELRAY BEACH","SIDE":"R","ZIP":33484,"DESCRIPT":"SOUTH FLORIDA BLOOD BANK INCORPORATED","X":785916.93119,"Y":278280.80285,"STATUS":"M","SCORE":100,"STREET":"14804 MILITARY TRL","id":"a62qjlmv0gpm"},"type":"Feature","geometry":{"type":"Point","coordinates":[-80.1225252286094,26.4546912167955]}},{"properties":{"NAME":"SOUTH FLORIDA BLOOD BANKS","CITY":"BOCA RATON","SIDE":"R","ZIP":33432,"DESCRIPT":"SOUTH FLORIDA BLOOD BANKS","X":789946.45195,"Y":268636.67401,"STATUS":"M","SCORE":100,"STREET":"1860 N DIXIE HWY","id":"a62qjld5hfzq"},"type":"Feature","geometry":{"type":"Point","coordinates":[-80.0851411789732,26.3667021904622]}},{"properties":{"NAME":"VOLUSIA COUNTY BLOOD BANK","CITY":"DAYTONA BEACH","SIDE":"L","ZIP":32114,"DESCRIPT":"VOLUSIA COUNTY BLOOD BANK","X":685449.37366,"Y":581095.36324,"STATUS":"M","SCORE":100,"STREET":"1425 DUNN AVE","id":"a62qjl9idrpy"},"type":"Feature","geometry":{"type":"Point","coordinates":[-81.0589776780038,29.2056884627681]}},{"properties":{"NAME":"SOUTH FLORIDA BLOOD BANKS","CITY":"ROYAL PALM BEACH","SIDE":"R","ZIP":33411,"DESCRIPT":"SOUTH FLORIDA BLOOD BANKS","X":774434.98853,"Y":304724.19754,"STATUS":"M","SCORE":100,"STREET":"1224 ROYAL PALM BEACH BLVD","id":"a62qjlkjxwwq"},"type":"Feature","geometry":{"type":"Point","coordinates":[-80.2296956139368,26.6959958515249]}},{"properties":{"NAME":"SOUTH FLORIDA BLOOD BANKS FOUNDATION","CITY":"NORTH PALM BEACH","SIDE":"L","ZIP":33408,"DESCRIPT":"SOUTH FLORIDA BLOOD BANKS FOUNDATION","X":790854.19716,"Y":326262.05028,"STATUS":"M","SCORE":100,"STREET":"14257 US HIGHWAY 1","id":"a62qjlnzjkx1"},"type":"Feature","geometry":{"type":"Point","coordinates":[-80.0575442875775,26.8852778409009]}},{"properties":{"NAME":"SOUTH FLORIDA BLOOD BANKS FOUNDATION INCORPORATED","CITY":"NORTH PALM BEACH","SIDE":"L","ZIP":33408,"DESCRIPT":"SOUTH FLORIDA BLOOD BANKS FOUNDATION INCORPORATED","X":790855.20065,"Y":326258.65129,"STATUS":"M","SCORE":100,"STREET":"14255 US HIGHWAY 1","id":"a62qjlnuy6gq"},"type":"Feature","geometry":{"type":"Point","coordinates":[-80.0575353037476,26.8852469445712]}},{"properties":{"NAME":"SOUTH FLORIDA BLOOD BANKS INC","CITY":"DELRAY BEACH","SIDE":"R","ZIP":33446,"DESCRIPT":"SOUTH FLORIDA BLOOD BANKS INC","X":783498.28892,"Y":277740.98028,"STATUS":"M","SCORE":100,"STREET":"15076 JOG RD","id":"a62qjlecy23b"},"type":"Feature","geometry":{"type":"Point","coordinates":[-80.1469799040846,26.4505132594896]}},{"properties":{"NAME":"SOUTH FLORIDA BLOOD BANKS INCORPORATED","CITY":"PALM BEACH GARDENS","SIDE":"L","ZIP":33410,"DESCRIPT":"SOUTH FLORIDA BLOOD BANKS INCORPORATED","X":786296.17715,"Y":320708.18088,"STATUS":"M","SCORE":100,"STREET":"10887 N MILITARY TRL","id":"a62qjl92wdbw"},"type":"Feature","geometry":{"type":"Point","coordinates":[-80.1052579720343,26.8365828315744]}},{"properties":{"NAME":"SOUTH FLORIDA BLOOD BANKS INCORPORATED","CITY":"LAKE WORTH","SIDE":"L","ZIP":33461,"DESCRIPT":"SOUTH FLORIDA BLOOD BANKS INCORPORATED","X":788473.85285,"Y":296447.81719,"STATUS":"M","SCORE":100,"STREET":"3123 LAKE WORTH RD","id":"a62qjl9phjyn"},"type":"Feature","geometry":{"type":"Point","coordinates":[-80.0910677422343,26.6175412617432]}},{"properties":{"NAME":"SOUTH SEMINOLE BRANCH BLOOK BANK","CITY":"ALTAMONTE SPRINGS","SIDE":"L","ZIP":32701,"DESCRIPT":"SOUTH SEMINOLE BRANCH BLOOK BANK","X":656215.61527,"Y":520256.95181,"STATUS":"M","SCORE":100,"STREET":"601 E ALTAMONTE DR","id":"a62qjlo6lt08"},"type":"Feature","geometry":{"type":"Point","coordinates":[-81.3734292969877,28.6639204939965]}},{"properties":{"NAME":"SOUTHEASTERN COMMUNITY BLOOD BANK INCORPORATED","CITY":"TALLAHASSEE","SIDE":"L","ZIP":32308,"DESCRIPT":"SOUTHEASTERN COMMUNITY BLOOD BANK INCORPORATED","X":377046.49194,"Y":717067.50895,"STATUS":"M","SCORE":100,"STREET":"1731 RIGGINS RD","id":"a62qjlhanllk"},"type":"Feature","geometry":{"type":"Point","coordinates":[-84.2392562138268,30.4609709686435]}},{"properties":{"NAME":"SOUTHEASTERN COMMUNITY BLOOD CENTER","CITY":"MARIANNA","SIDE":"R","ZIP":32448,"DESCRIPT":"SOUTHEASTERN COMMUNITY BLOOD CENTER","X":280352.2148,"Y":753125.40298,"STATUS":"M","SCORE":100,"STREET":"2944 PENNSYLVANIA AVE","id":"a62qjlgpjxvs"},"type":"Feature","geometry":{"type":"Point","coordinates":[-85.2509217878149,30.7806555641298]}},{"properties":{"NAME":"SPACE COAST BLOOD BANK","CITY":"COCOA BEACH","SIDE":"L","ZIP":32931,"DESCRIPT":"SPACE COAST BLOOD BANK","X":729299.29982,"Y":488016.31778,"STATUS":"M","SCORE":100,"STREET":"701 W COCOA BEACH CSWY","id":"a62qjlpafxdf"},"type":"Feature","geometry":{"type":"Point","coordinates":[-80.6335710925307,28.3577054967345]}},{"properties":{"NAME":"SPACE COAST BLOOD BANK","CITY":"MELBOURNE","SIDE":"R","ZIP":32901,"DESCRIPT":"SPACE COAST BLOOD BANK","X":732619.47879,"Y":457620.85253,"STATUS":"M","SCORE":100,"STREET":"800 E SEMINOLE AVE","id":"a62qjliwux0j"},"type":"Feature","geometry":{"type":"Point","coordinates":[-80.6081906123888,28.0832957953796]}},{"properties":{"NAME":"SPACE COAST BLOOD BANK MARKETING DEPARTMENT","CITY":"TITUSVILLE","SIDE":"R","ZIP":32796,"DESCRIPT":"SPACE COAST BLOOD BANK MARKETING DEPARTMENT","X":709118.24709,"Y":516102.13291,"STATUS":"M","SCORE":100,"STREET":"2500 GARDEN ST","id":"a62qjl957ohh"},"type":"Feature","geometry":{"type":"Point","coordinates":[-80.8324149311506,28.6153279735172]}},{"properties":{"NAME":"SPACE COAST BLOOD BANK MARKETING DEPARTMENT","CITY":"ROCKLEDGE","SIDE":"R","ZIP":32955,"DESCRIPT":"SPACE COAST BLOOD BANK MARKETING DEPARTMENT","X":719980.39689,"Y":486472.53115,"STATUS":"M","SCORE":100,"STREET":"956 US HIGHWAY 1","id":"a62qjlbaxb1u"},"type":"Feature","geometry":{"type":"Point","coordinates":[-80.7292114450195,28.3460675497686]}},{"properties":{"NAME":"ST JOHNS COUNTY BLOOD BANK","CITY":"SAINT AUGUSTINE","SIDE":"R","ZIP":32086,"DESCRIPT":"ST JOHNS COUNTY BLOOD BANK","X":658271.22895,"Y":653431.25144,"STATUS":"M","SCORE":100,"STREET":"110 HEALTH PARK BLVD","id":"a62qjlcel3a2"},"type":"Feature","geometry":{"type":"Point","coordinates":[-81.322727230431,29.8625938963561]}},{"properties":{"NAME":"SUNCOAST COMMUNITIES BLOOD BANK","CITY":"ENGLEWOOD","SIDE":"R","ZIP":34223,"DESCRIPT":"SUNCOAST COMMUNITIES BLOOD BANK","X":563162.15396,"Y":330674.00548,"STATUS":"M","SCORE":100,"STREET":"500 N INDIANA AVE","id":"a62qjlenrtah"},"type":"Feature","geometry":{"type":"Point","coordinates":[-82.3531636068779,26.9714824312633]}},{"properties":{"NAME":"VOLUSIA COUNTY BLOOD BANK DELAND BRANCH","CITY":"DELAND","SIDE":"R","ZIP":32720,"DESCRIPT":"VOLUSIA COUNTY BLOOD BANK DELAND BRANCH","X":662158.9126,"Y":560925.49615,"STATUS":"M","SCORE":100,"STREET":"118 1/2 N WOODLAND BLVD STE 3","id":"a62qjla0ml1g"},"type":"Feature","geometry":{"type":"Point","coordinates":[-81.3034059660813,29.0288934960685]}},{"properties":{"NAME":"SUNCOAST COMMUNITIES BLOOD BANK","CITY":"PORT CHARLOTTE","SIDE":"R","ZIP":33952,"DESCRIPT":"SUNCOAST COMMUNITIES BLOOD BANK","X":588254.46764,"Y":332295.32041,"STATUS":"M","SCORE":100,"STREET":"3280 TAMIAMI TRL","id":"a62qjln3liix"},"type":"Feature","geometry":{"type":"Point","coordinates":[-82.0996858036045,26.9828333040573]}},{"properties":{"NAME":"SUNCOAST COMMUNITY BLOOD BANK","CITY":"ENGLEWOOD","SIDE":"R","ZIP":34223,"DESCRIPT":"SUNCOAST COMMUNITY BLOOD BANK","X":563155.03867,"Y":330706.07611,"STATUS":"M","SCORE":100,"STREET":"514 N INDIANA AVE","id":"a62qjlnavtlx"},"type":"Feature","geometry":{"type":"Point","coordinates":[-82.3532310389751,26.9717721075102]}},{"properties":{"NAME":"TREASURE COAST BLOOD BANK","CITY":"PORT SAINT LUCIE","SIDE":"R","ZIP":34952,"DESCRIPT":"TREASURE COAST BLOOD BANK","X":763589.07169,"Y":368359.22301,"STATUS":"M","SCORE":100,"STREET":"1010 SE PORT SAINT LUCIE BLVD","id":"a62qjlc3kla2"},"type":"Feature","geometry":{"type":"Point","coordinates":[-80.3197235071526,27.2718299883493]}},{"properties":{"NAME":"TREASURE COAST BLOOD BANK","CITY":"STUART","SIDE":"L","ZIP":34996,"DESCRIPT":"TREASURE COAST BLOOD BANK","X":773641.70495,"Y":360311.01824,"STATUS":"M","SCORE":100,"STREET":"2229 SE OCEAN BLVD","id":"a62qjli2be0x"},"type":"Feature","geometry":{"type":"Point","coordinates":[-80.2205288363114,27.196643762018]}},{"properties":{"NAME":"VOLUSIA COUNTY BLOOD BANK","CITY":"ORMOND BEACH","SIDE":"R","ZIP":32174,"DESCRIPT":"VOLUSIA COUNTY BLOOD BANK","X":682942.32192,"Y":588882.64687,"STATUS":"M","SCORE":100,"STREET":"148 S NOVA RD","id":"a62qjliq5v8f"},"type":"Feature","geometry":{"type":"Point","coordinates":[-81.0829008401252,29.2763343682065]}},{"properties":{"NAME":"SOUTH FLORIDA BLOOD BANKS","CITY":"FORT LAUDERDALE","SIDE":"L","ZIP":33309,"DESCRIPT":"SOUTH FLORIDA BLOOD BANKS","X":783007.97374,"Y":248617.59963,"STATUS":"M","SCORE":100,"STREET":"969 W COMMERCIAL BLVD","id":"a62qjlmmea3l"},"type":"Feature","geometry":{"type":"Point","coordinates":[-80.1610092760665,26.1883873587603]}},{"properties":{"NAME":"SUNCOAST COMMUNITIES BLOOD BANK","CITY":"NOKOMIS","SIDE":"L","ZIP":34275,"DESCRIPT":"SUNCOAST COMMUNITIES BLOOD BANK","X":552535.60076,"Y":349035.61468,"STATUS":"T","SCORE":81,"STREET":"1097 TAMIAMI TRL N","id":"a62qjlav0xhv"},"type":"Feature","geometry":{"type":"Point","coordinates":[-82.4580912810677,27.1380794621285]}}],"is_temporal":false,"author":{"url":"http://www.fgdl.org/","metadata":"http://www.fgdl.org/metadataexplorer/full_metadata.jsp?docId={AE8410F0-A4DD-409F-BC6F-E694C6AC0142}&loggedIn=false","contact_name":"","contact_address":"","source":"Florida Geographic Data Library (FGDL)","contact_phone":""},"source":"http://www.fgdl.org/","pagination":{"sort":null,"start":0,"total":94,"limit":1000000},"state":"complete","tags":"donation,health,infrastructure","published":"2003-01-01T12:00:00Z","id":10390}