{"type":"FeatureCollection","data_type":"Dataset","url_type":null,"permissions":[{"permissions":{"download":true,"view":true},"group_id":"everyone"}],"classification":null,"title":"540HCL Tickets","count":58,"stream_id":10408,"contributor":{"url":"http://geocommons.com/users/695","name":"Bill"},"data_attributes":null,"calculation_params":null,"icon_link":null,"link":"http://geocommons.com/overlays/10408.json","extent":[-123.208,49.2452,-123.102,49.2925],"geometry_types":["point"],"unique_name":null,"name":"540HCL Tickets","feature_count":58,"description":"","next_feature":null,"is_raster":false,"short_classification":"Y","stats":{"tickets":{"max":81.0,"mean":3.51724137931034,"variance":117.973381730188,"stdev":10.8615552169193,"min":1.0,"median":1.0},"lat":{"max":49.292465,"mean":49.2776363448276,"variance":0.000105612384650937,"stdev":0.0102767886351202,"min":49.245171,"median":49.281044},"long":{"max":-123.102264,"mean":-123.125362293103,"variance":0.000286815634210788,"stdev":0.0169356320877252,"min":-123.207634,"median":-123.12188}},"features":[{"properties":{"plate":"540HCL","tickets":1.0,"id":"a65vq4s1bv0s","lat":49.263813,"address":"4450 10th Ave W.","long":-123.207634},"type":"Feature","geometry":{"type":"Point","coordinates":[-123.207634,49.263813]}},{"properties":{"plate":"540HCL","tickets":1.0,"id":"a65vq4zq12k4","lat":49.284313,"address":"650 Hornby St.","long":-123.11924},"type":"Feature","geometry":{"type":"Point","coordinates":[-123.11924,49.284313]}},{"properties":{"plate":"540HCL","tickets":1.0,"id":"a65vq53f65xt","lat":49.277451,"address":"1050 Richards St.","long":-123.121887},"type":"Feature","geometry":{"type":"Point","coordinates":[-123.121887,49.277451]}},{"properties":{"plate":"540HCL","tickets":1.0,"id":"a65vq4qhsw08","lat":49.263603,"address":"1550 Broadway St. W.","long":-123.139824},"type":"Feature","geometry":{"type":"Point","coordinates":[-123.139824,49.263603]}},{"properties":{"plate":"540HCL","tickets":1.0,"id":"a65vq4qtsl2x","lat":49.258896,"address":"1450 14th Ave W.","long":-123.137512},"type":"Feature","geometry":{"type":"Point","coordinates":[-123.137512,49.258896]}},{"properties":{"plate":"540HCL","tickets":1.0,"id":"a65vq4rlyqu8","lat":49.280651,"address":"750 Richards St.","long":-123.11705},"type":"Feature","geometry":{"type":"Point","coordinates":[-123.11705,49.280651]}},{"properties":{"plate":"540HCL","tickets":1.0,"id":"a65vq54pbf3m","lat":49.286942,"address":"850 Cordova St. W.","long":-123.114388},"type":"Feature","geometry":{"type":"Point","coordinates":[-123.114388,49.286942]}},{"properties":{"plate":"540HCL","tickets":1.0,"id":"a65vq4wu2mrt","lat":49.278301,"address":"850 Hamilton St.","long":-123.116745},"type":"Feature","geometry":{"type":"Point","coordinates":[-123.116745,49.278301]}},{"properties":{"plate":"540HCL","tickets":1.0,"id":"a65vq54fx9mu","lat":49.277882,"address":"950 Homer St.","long":-123.119286},"type":"Feature","geometry":{"type":"Point","coordinates":[-123.119286,49.277882]}},{"properties":{"plate":"540HCL","tickets":1.0,"id":"a65vq4suaglg","lat":49.266514,"address":"50 5th Ave W.","long":-123.105721},"type":"Feature","geometry":{"type":"Point","coordinates":[-123.105721,49.266514]}},{"properties":{"plate":"540HCL","tickets":1.0,"id":"a65vq4yf686m","lat":49.277241,"address":"550 Helmcken St.","long":-123.123146},"type":"Feature","geometry":{"type":"Point","coordinates":[-123.123146,49.277241]}},{"properties":{"plate":"540HCL","tickets":1.0,"id":"a65vq4tufzhv","lat":49.280437,"address":"950 Howe St.","long":-123.123253},"type":"Feature","geometry":{"type":"Point","coordinates":[-123.123253,49.280437]}},{"properties":{"plate":"540HCL","tickets":1.0,"id":"a65vq55mczmz","lat":49.284691,"address":"1050 Alberni St.","long":-123.122704},"type":"Feature","geometry":{"type":"Point","coordinates":[-123.122704,49.284691]}},{"properties":{"plate":"540HCL","tickets":1.0,"id":"a65vq4vm0o8v","lat":49.283188,"address":"1050 Bute St.","long":-123.131256},"type":"Feature","geometry":{"type":"Point","coordinates":[-123.131256,49.283188]}},{"properties":{"plate":"540HCL","tickets":1.0,"id":"a65vq4t9klnl","lat":49.275387,"address":"1150 Hamilton St.","long":-123.12188},"type":"Feature","geometry":{"type":"Point","coordinates":[-123.12188,49.275387]}},{"properties":{"plate":"540HCL","tickets":1.0,"id":"a65vq5214evi","lat":49.26347,"address":"1150 Broadway St. W.","long":-123.130188},"type":"Feature","geometry":{"type":"Point","coordinates":[-123.130188,49.26347]}},{"properties":{"plate":"540HCL","tickets":1.0,"id":"a65vq4rg35gs","lat":49.285652,"address":"1050 Melville St.","long":-123.120796},"type":"Feature","geometry":{"type":"Point","coordinates":[-123.120796,49.285652]}},{"properties":{"plate":"540HCL","tickets":1.0,"id":"a65vq4zgawu8","lat":49.287937,"address":"1150 Pender St. W.","long":-123.121941},"type":"Feature","geometry":{"type":"Point","coordinates":[-123.121941,49.287937]}},{"properties":{"plate":"540HCL","tickets":1.0,"id":"a65vq4sj03is","lat":49.268169,"address":"2250 4th Ave W.","long":-123.156342},"type":"Feature","geometry":{"type":"Point","coordinates":[-123.156342,49.268169]}},{"properties":{"plate":"540HCL","tickets":1.0,"id":"a65vq4qyo2mn","lat":49.280468,"address":"50 Pender St. E.","long":-123.103325},"type":"Feature","geometry":{"type":"Point","coordinates":[-123.103325,49.280468]}},{"properties":{"plate":"540HCL","tickets":1.0,"id":"a65vq4w2vmtx","lat":49.245171,"address":"150 Cambie St.","long":-123.115379},"type":"Feature","geometry":{"type":"Point","coordinates":[-123.115379,49.245171]}},{"properties":{"plate":"540HCL","tickets":1.0,"id":"a65vq4vncewt","lat":49.286766,"address":"250 Howe St.","long":-123.113686},"type":"Feature","geometry":{"type":"Point","coordinates":[-123.113686,49.286766]}},{"properties":{"plate":"540HCL","tickets":1.0,"id":"a65vq4tdh3dw","lat":49.282455,"address":"350 Abbott St.","long":-123.106995},"type":"Feature","geometry":{"type":"Point","coordinates":[-123.106995,49.282455]}},{"properties":{"plate":"540HCL","tickets":1.0,"id":"a65vq52lkcuw","lat":49.258011,"address":"3150 Trafalgar St.","long":-123.164909},"type":"Feature","geometry":{"type":"Point","coordinates":[-123.164909,49.258011]}},{"properties":{"plate":"540HCL","tickets":1.0,"id":"a65vq51mxa1q","lat":49.260338,"address":"2850 Fir St.","long":-123.141159},"type":"Feature","geometry":{"type":"Point","coordinates":[-123.141159,49.260338]}},{"properties":{"plate":"540HCL","tickets":1.0,"id":"a65vq4zpjptr","lat":49.263992,"address":"2450 Birch St.","long":-123.133698},"type":"Feature","geometry":{"type":"Point","coordinates":[-123.133698,49.263992]}},{"properties":{"plate":"540HCL","tickets":1.0,"id":"a65vq4vmwuhc","lat":49.292465,"address":"2050 Barclay St.","long":-123.141182},"type":"Feature","geometry":{"type":"Point","coordinates":[-123.141182,49.292465]}},{"properties":{"plate":"540HCL","tickets":1.0,"id":"a65vq4y0w7e4","lat":49.285618,"address":"450 Howe St.","long":-123.115356},"type":"Feature","geometry":{"type":"Point","coordinates":[-123.115356,49.285618]}},{"properties":{"plate":"540HCL","tickets":1.0,"id":"a65vq4st39py","lat":49.283085,"address":"450 Homer St.","long":-123.111435},"type":"Feature","geometry":{"type":"Point","coordinates":[-123.111435,49.283085]}},{"properties":{"plate":"540HCL","tickets":1.0,"id":"a65vq526x2lx","lat":49.280922,"address":"450 Columbia St.","long":-123.102264},"type":"Feature","geometry":{"type":"Point","coordinates":[-123.102264,49.280922]}},{"properties":{"plate":"540HCL","tickets":1.0,"id":"a65vq4z1xj2v","lat":49.263695,"address":"1650 Broadway St. W.","long":-123.142235},"type":"Feature","geometry":{"type":"Point","coordinates":[-123.142235,49.263695]}},{"properties":{"plate":"540HCL","tickets":1.0,"id":"a65vq52baap4","lat":49.288055,"address":"350 Thurlow St.","long":-123.119576},"type":"Feature","geometry":{"type":"Point","coordinates":[-123.119576,49.288055]}},{"properties":{"plate":"540HCL","tickets":2.0,"id":"a65vq4yj3org","lat":49.270603,"address":"1650 1st Ave W.","long":-123.142181},"type":"Feature","geometry":{"type":"Point","coordinates":[-123.142181,49.270603]}},{"properties":{"plate":"540HCL","tickets":2.0,"id":"a65vq4zv7npp","lat":49.285301,"address":"1150 Robson St.","long":-123.125923},"type":"Feature","geometry":{"type":"Point","coordinates":[-123.125923,49.285301]}},{"properties":{"plate":"540HCL","tickets":2.0,"id":"a65vq54rrme9","lat":49.268135,"address":"2150 4th Ave W.","long":-123.153984},"type":"Feature","geometry":{"type":"Point","coordinates":[-123.153984,49.268135]}},{"properties":{"plate":"540HCL","tickets":2.0,"id":"a65vq55ttefv","lat":49.286064,"address":"1150 Alberni St.","long":-123.124832},"type":"Feature","geometry":{"type":"Point","coordinates":[-123.124832,49.286064]}},{"properties":{"plate":"540HCL","tickets":2.0,"id":"a65vq50p2s0y","lat":49.270683,"address":"1850 1st Ave W.","long":-123.146675},"type":"Feature","geometry":{"type":"Point","coordinates":[-123.146675,49.270683]}},{"properties":{"plate":"540HCL","tickets":2.0,"id":"a65vq506gf1v","lat":49.27504,"address":"1150 Mainland St","long":-123.121346},"type":"Feature","geometry":{"type":"Point","coordinates":[-123.121346,49.27504]}},{"properties":{"plate":"540HCL","tickets":2.0,"id":"a65vq50pkzx6","lat":49.286087,"address":"650 Thurlow St.","long":-123.122566},"type":"Feature","geometry":{"type":"Point","coordinates":[-123.122566,49.286087]}},{"properties":{"plate":"540HCL","tickets":2.0,"id":"a65vq4tacfhb","lat":49.287415,"address":"350 Burrard St.","long":-123.116585},"type":"Feature","geometry":{"type":"Point","coordinates":[-123.116585,49.287415]}},{"properties":{"plate":"540HCL","tickets":2.0,"id":"a65vq4u6m47r","lat":49.274879,"address":"350 Davie St.","long":-123.122673},"type":"Feature","geometry":{"type":"Point","coordinates":[-123.122673,49.274879]}},{"properties":{"plate":"540HCL","tickets":2.0,"id":"a65vq51k1q8f","lat":49.283733,"address":"350 Homer St.","long":-123.110451},"type":"Feature","geometry":{"type":"Point","coordinates":[-123.110451,49.283733]}},{"properties":{"plate":"540HCL","tickets":2.0,"id":"a65vq4so3ybw","lat":49.283726,"address":"450 Richards St.","long":-123.112396},"type":"Feature","geometry":{"type":"Point","coordinates":[-123.112396,49.283726]}},{"properties":{"plate":"540HCL","tickets":2.0,"id":"a65vq51jsjfc","lat":49.263229,"address":"550 Broadway St. W.","long":-123.116249},"type":"Feature","geometry":{"type":"Point","coordinates":[-123.116249,49.263229]}},{"properties":{"plate":"540HCL","tickets":2.0,"id":"a65vq568dk0s","lat":49.285641,"address":"550 Burrard St.","long":-123.119324},"type":"Feature","geometry":{"type":"Point","coordinates":[-123.119324,49.285641]}},{"properties":{"plate":"540HCL","tickets":2.0,"id":"a65vq52w9bxe","lat":49.281044,"address":"950 Hornby St.","long":-123.124191},"type":"Feature","geometry":{"type":"Point","coordinates":[-123.124191,49.281044]}},{"properties":{"plate":"540HCL","tickets":2.0,"id":"a65vq4wp0e85","lat":49.284374,"address":"550 Howe St.","long":-123.117226},"type":"Feature","geometry":{"type":"Point","coordinates":[-123.117226,49.284374]}},{"properties":{"plate":"540HCL","tickets":2.0,"id":"a65vq4r90n4z","lat":49.282097,"address":"850 Hornby St.","long":-123.122581},"type":"Feature","geometry":{"type":"Point","coordinates":[-123.122581,49.282097]}},{"properties":{"plate":"540HCL","tickets":2.0,"id":"a65vq4vfsp8l","lat":49.287437,"address":"950 Cordova St. W.","long":-123.115585},"type":"Feature","geometry":{"type":"Point","coordinates":[-123.115585,49.287437]}},{"properties":{"plate":"540HCL","tickets":2.0,"id":"a65vq4tgvof8","lat":49.280602,"address":"550 Cambie St.","long":-123.111389},"type":"Feature","geometry":{"type":"Point","coordinates":[-123.111389,49.280602]}},{"properties":{"plate":"540HCL","tickets":3.0,"id":"a65vq4q0efhk","lat":49.286396,"address":"750 Bute St.","long":-123.126396},"type":"Feature","geometry":{"type":"Point","coordinates":[-123.126396,49.286396]}},{"properties":{"plate":"540HCL","tickets":3.0,"id":"a65vq4sgvhjs","lat":49.287174,"address":"1150 Melville St.","long":-123.123108},"type":"Feature","geometry":{"type":"Point","coordinates":[-123.123108,49.287174]}},{"properties":{"plate":"540HCL","tickets":3.0,"id":"a65vq54b3l6s","lat":49.285927,"address":"1050 Dunsmuir St.","long":-123.120216},"type":"Feature","geometry":{"type":"Point","coordinates":[-123.120216,49.285927]}},{"properties":{"plate":"540HCL","tickets":4.0,"id":"a65vq568z5nj","lat":49.258457,"address":"3050 Granville St.","long":-123.138733},"type":"Feature","geometry":{"type":"Point","coordinates":[-123.138733,49.258457]}},{"properties":{"plate":"540HCL","tickets":5.0,"id":"a65vq551t35h","lat":49.283184,"address":"750 Hornby St.","long":-123.120949},"type":"Feature","geometry":{"type":"Point","coordinates":[-123.120949,49.283184]}},{"properties":{"plate":"540HCL","tickets":15.0,"id":"a65vq4shwb81","lat":49.288067,"address":"1050 Cordova St. W.","long":-123.117821},"type":"Feature","geometry":{"type":"Point","coordinates":[-123.117821,49.288067]}},{"properties":{"plate":"540HCL","tickets":22.0,"id":"a65vq4v56ltt","lat":49.282047,"address":"450 Cambie St.","long":-123.10984},"type":"Feature","geometry":{"type":"Point","coordinates":[-123.10984,49.282047]}},{"properties":{"plate":"540HCL","tickets":81.0,"id":"a65vq4wqv564","lat":49.279987,"address":"1050 Hornby St.","long":-123.125801},"type":"Feature","geometry":{"type":"Point","coordinates":[-123.125801,49.279987]}}],"is_temporal":false,"author":{"url":"","metadata":"","contact_name":"","contact_address":"","source":"","contact_phone":""},"source":"","pagination":{"sort":null,"start":0,"total":58,"limit":1000000},"state":"complete","tags":"sun,the","published":"2014-08-10T11:35:49-04:00","id":10408}