{"type":"FeatureCollection","data_type":"Dataset","url_type":null,"permissions":[{"permissions":{"download":true,"view":true},"group_id":"everyone"}],"classification":null,"title":"Expired Meter Tickets Issued, Vancouver, 2004-2008","count":640,"stream_id":10413,"contributor":{"url":"http://geocommons.com/users/695","name":"Bill"},"data_attributes":null,"calculation_params":null,"icon_link":null,"link":"http://geocommons.com/overlays/10413.json","extent":[-123.76,49.2272,-123.065,49.47],"geometry_types":["point"],"unique_name":null,"name":"Expired Meter Tickets Issued, Vancouver, 2004-2008","feature_count":640,"description":"Total Tickets issued for expired meters in Vancouver from  2004-2008. This dataset was uploaded by the Vancouver Sun which received the information through a FOIA request. This and Other Parking ticket data can be found through the Vancouver Sun Parking ticket database.","next_feature":null,"is_raster":false,"short_classification":"Y","stats":{"tickets":{"max":7689.0,"mean":1150.5578125,"variance":1898916.89806093,"stdev":1378.01193683543,"min":10.0,"median":624.0},"lat":{"max":49.470036,"mean":49.272305040625,"variance":0.000220329059963914,"stdev":0.0148434854385321,"min":49.227158,"median":49.274162},"long":{"max":-123.064613,"mean":-123.12549506875,"variance":0.00104521738299371,"stdev":0.0323298218831114,"min":-123.760406,"median":-123.122177}},"features":[{"properties":{"offence":"A2","tickets":10.0,"id":"a62icaf3uu2y","lat":49.25729,"address":"5550 Arbutus St.","long":-123.152893},"type":"Feature","geometry":{"type":"Point","coordinates":[-123.152893,49.25729]}},{"properties":{"offence":"A2","tickets":10.0,"id":"a62icag4mi6p","lat":49.25798,"address":"1450 15th Ave W.","long":-123.13755},"type":"Feature","geometry":{"type":"Point","coordinates":[-123.13755,49.25798]}},{"properties":{"offence":"A2","tickets":10.0,"id":"a62icaihsvoq","lat":49.258648,"address":"750 Columbia St.","long":-123.109612},"type":"Feature","geometry":{"type":"Point","coordinates":[-123.109612,49.258648]}},{"properties":{"offence":"A2","tickets":10.0,"id":"a62icaphkh2j","lat":49.280033,"address":"1150 Pender St. E.","long":-123.080238},"type":"Feature","geometry":{"type":"Point","coordinates":[-123.080238,49.280033]}},{"properties":{"offence":"A2","tickets":10.0,"id":"a62icatcgfxp","lat":49.280537,"address":"350 Hornby St.","long":-123.124985},"type":"Feature","geometry":{"type":"Point","coordinates":[-123.124985,49.280537]}},{"properties":{"offence":"A2","tickets":10.0,"id":"a62icattv0lz","lat":49.288158,"address":"1750 Comox St.","long":-123.138924},"type":"Feature","geometry":{"type":"Point","coordinates":[-123.138924,49.288158]}},{"properties":{"offence":"A2","tickets":11.0,"id":"a62icaijxmtl","lat":49.263962,"address":"2450 Broadway St. W.","long":-123.161232},"type":"Feature","geometry":{"type":"Point","coordinates":[-123.161232,49.263962]}},{"properties":{"offence":"A2","tickets":11.0,"id":"a62icamammt6","lat":49.26487,"address":"2450 8th Ave W.","long":-123.161201},"type":"Feature","geometry":{"type":"Point","coordinates":[-123.161201,49.26487]}},{"properties":{"offence":"A2","tickets":11.0,"id":"a62icahggyvf","lat":49.266285,"address":"1750 6th Ave W.","long":-123.144508},"type":"Feature","geometry":{"type":"Point","coordinates":[-123.144508,49.266285]}},{"properties":{"offence":"A2","tickets":11.0,"id":"a62icaksso2r","lat":49.281311,"address":"150 Pender St. W.","long":-123.108948},"type":"Feature","geometry":{"type":"Point","coordinates":[-123.108948,49.281311]}},{"properties":{"offence":"A2","tickets":12.0,"id":"a62icaf3hk92","lat":49.263824,"address":"150 8th Ave W.","long":-123.10817},"type":"Feature","geometry":{"type":"Point","coordinates":[-123.10817,49.263824]}},{"properties":{"offence":"A2","tickets":13.0,"id":"a62icau7uc4x","lat":49.25729,"address":"5650 Arbutus St.","long":-123.152893},"type":"Feature","geometry":{"type":"Point","coordinates":[-123.152893,49.25729]}},{"properties":{"offence":"A2","tickets":13.0,"id":"a62icam1wnfk","lat":49.268536,"address":"450 4th Ave W.","long":-123.17971},"type":"Feature","geometry":{"type":"Point","coordinates":[-123.17971,49.268536]}},{"properties":{"offence":"A2","tickets":13.0,"id":"a62icaszab3u","lat":49.282566,"address":"750 Howe St.","long":-123.12001},"type":"Feature","geometry":{"type":"Point","coordinates":[-123.12001,49.282566]}},{"properties":{"offence":"A2","tickets":13.0,"id":"a62icaru6zl0","lat":49.282986,"address":"1150 Dunsmuir St.","long":-123.115395},"type":"Feature","geometry":{"type":"Point","coordinates":[-123.115395,49.282986]}},{"properties":{"offence":"A2","tickets":14.0,"id":"a62icaf38nig","lat":49.256931,"address":"550 16th Ave W.","long":-123.116821},"type":"Feature","geometry":{"type":"Point","coordinates":[-123.116821,49.256931]}},{"properties":{"offence":"A2","tickets":14.0,"id":"a62icagez0dn","lat":49.258648,"address":"650 Columbia St.","long":-123.109612},"type":"Feature","geometry":{"type":"Point","coordinates":[-123.109612,49.258648]}},{"properties":{"offence":"A2","tickets":14.0,"id":"a62icajl17w0","lat":49.27084,"address":"2250 1st Ave W.","long":-123.15625},"type":"Feature","geometry":{"type":"Point","coordinates":[-123.15625,49.27084]}},{"properties":{"offence":"A2","tickets":14.0,"id":"a62icagjxn05","lat":49.285652,"address":"650 Cordova St. W.","long":-123.112366},"type":"Feature","geometry":{"type":"Point","coordinates":[-123.112366,49.285652]}},{"properties":{"offence":"A2","tickets":15.0,"id":"a62icaq6c6z2","lat":49.288883,"address":"1550 Coal Harbour Rd.","long":-123.117226},"type":"Feature","geometry":{"type":"Point","coordinates":[-123.117226,49.288883]}},{"properties":{"offence":"A2","tickets":16.0,"id":"a62icaipth0u","lat":49.25729,"address":"5450 Arbutus St.","long":-123.152893},"type":"Feature","geometry":{"type":"Point","coordinates":[-123.152893,49.25729]}},{"properties":{"offence":"A2","tickets":17.0,"id":"a62icao9abiy","lat":49.287552,"address":"850 Canada Pl.","long":-123.113632},"type":"Feature","geometry":{"type":"Point","coordinates":[-123.113632,49.287552]}},{"properties":{"offence":"A2","tickets":18.0,"id":"a62icalifimm","lat":49.277863,"address":"350 Hamilton St.","long":-123.117393},"type":"Feature","geometry":{"type":"Point","coordinates":[-123.117393,49.277863]}},{"properties":{"offence":"A2","tickets":19.0,"id":"a62icarqpgpv","lat":49.25729,"address":"5350 Arbutus St.","long":-123.152893},"type":"Feature","geometry":{"type":"Point","coordinates":[-123.152893,49.25729]}},{"properties":{"offence":"A2","tickets":19.0,"id":"a62icat5j31m","lat":49.263371,"address":"2550 Yew St.","long":-123.155312},"type":"Feature","geometry":{"type":"Point","coordinates":[-123.155312,49.263371]}},{"properties":{"offence":"A2","tickets":19.0,"id":"a62icatjupny","lat":49.276627,"address":"850 Mainland St","long":-123.118973},"type":"Feature","geometry":{"type":"Point","coordinates":[-123.118973,49.276627]}},{"properties":{"offence":"A2","tickets":21.0,"id":"a62icau1lwiu","lat":49.276627,"address":"1250 Mainland St","long":-123.118973},"type":"Feature","geometry":{"type":"Point","coordinates":[-123.118973,49.276627]}},{"properties":{"offence":"A2","tickets":22.0,"id":"a62icajce81y","lat":49.233917,"address":"2050 40th Ave W.","long":-123.064613},"type":"Feature","geometry":{"type":"Point","coordinates":[-123.064613,49.233917]}},{"properties":{"offence":"A2","tickets":22.0,"id":"a62icagvekrw","lat":49.26458,"address":"250 7th Ave E.","long":-123.099846},"type":"Feature","geometry":{"type":"Point","coordinates":[-123.099846,49.26458]}},{"properties":{"offence":"A2","tickets":22.0,"id":"a62icam10cqm","lat":49.274162,"address":"1150 Station St.","long":-123.098564},"type":"Feature","geometry":{"type":"Point","coordinates":[-123.098564,49.274162]}},{"properties":{"offence":"A2","tickets":27.0,"id":"a62icanu781i","lat":49.289402,"address":"1450 Georgia St. W.","long":-123.128822},"type":"Feature","geometry":{"type":"Point","coordinates":[-123.128822,49.289402]}},{"properties":{"offence":"A2","tickets":28.0,"id":"a62icap8m602","lat":49.263405,"address":"2550 Vine St.","long":-123.157707},"type":"Feature","geometry":{"type":"Point","coordinates":[-123.157707,49.263405]}},{"properties":{"offence":"A2","tickets":29.0,"id":"a62icam32urv","lat":49.260635,"address":"2750 Yukon St.","long":-123.112984},"type":"Feature","geometry":{"type":"Point","coordinates":[-123.112984,49.260635]}},{"properties":{"offence":"A2","tickets":32.0,"id":"a62icalrxuql","lat":49.283306,"address":"650 Dunsmuir St.","long":-123.115891},"type":"Feature","geometry":{"type":"Point","coordinates":[-123.115891,49.283306]}},{"properties":{"offence":"A2","tickets":34.0,"id":"a62icaffb075","lat":49.271706,"address":"2250 York Ave.","long":-123.156219},"type":"Feature","geometry":{"type":"Point","coordinates":[-123.156219,49.271706]}},{"properties":{"offence":"A2","tickets":35.0,"id":"a62icar4cbub","lat":49.282192,"address":"450 Cordova St. E.","long":-123.094353},"type":"Feature","geometry":{"type":"Point","coordinates":[-123.094353,49.282192]}},{"properties":{"offence":"A2","tickets":37.0,"id":"a62icappqrl4","lat":49.265625,"address":"150 6th Ave E.","long":-123.108131},"type":"Feature","geometry":{"type":"Point","coordinates":[-123.108131,49.265625]}},{"properties":{"offence":"A2","tickets":41.0,"id":"a62icav4jmuj","lat":49.264729,"address":"2350 Oak St.","long":-123.126556},"type":"Feature","geometry":{"type":"Point","coordinates":[-123.126556,49.264729]}},{"properties":{"offence":"A2","tickets":41.0,"id":"a62icamzm162","lat":49.267914,"address":"1550 4th Ave W.","long":-123.140617},"type":"Feature","geometry":{"type":"Point","coordinates":[-123.140617,49.267914]}},{"properties":{"offence":"A2","tickets":42.0,"id":"a62icallykyo","lat":49.266857,"address":"2050 Manitoba St.","long":-123.106682},"type":"Feature","geometry":{"type":"Point","coordinates":[-123.106682,49.266857]}},{"properties":{"offence":"A2","tickets":47.0,"id":"a62icardfofq","lat":49.282894,"address":"1050 Smithe St.","long":-123.125084},"type":"Feature","geometry":{"type":"Point","coordinates":[-123.125084,49.282894]}},{"properties":{"offence":"A2","tickets":48.0,"id":"a62icamcxgk6","lat":49.263752,"address":"2550 Trutch St.","long":-123.175919},"type":"Feature","geometry":{"type":"Point","coordinates":[-123.175919,49.263752]}},{"properties":{"offence":"A2","tickets":48.0,"id":"a62icafpd25f","lat":49.273224,"address":"1250 Station St.","long":-123.098595},"type":"Feature","geometry":{"type":"Point","coordinates":[-123.098595,49.273224]}},{"properties":{"offence":"A2","tickets":51.0,"id":"a62icasbxrpk","lat":49.263378,"address":"2450 Alberta St.","long":-123.110939},"type":"Feature","geometry":{"type":"Point","coordinates":[-123.110939,49.263378]}},{"properties":{"offence":"A2","tickets":51.0,"id":"a62icaob6i1n","lat":49.267101,"address":"450 2nd Ave W.","long":-123.113869},"type":"Feature","geometry":{"type":"Point","coordinates":[-123.113869,49.267101]}},{"properties":{"offence":"A2","tickets":51.0,"id":"a62icapdueyl","lat":49.290817,"address":"650 Cardero St.","long":-123.130219},"type":"Feature","geometry":{"type":"Point","coordinates":[-123.130219,49.290817]}},{"properties":{"offence":"A2","tickets":52.0,"id":"a62icam2xwk9","lat":49.268223,"address":"150 3rd Ave E.","long":-123.101547},"type":"Feature","geometry":{"type":"Point","coordinates":[-123.101547,49.268223]}},{"properties":{"offence":"A2","tickets":53.0,"id":"a62icahmhadp","lat":49.26733,"address":"150 4th Ave E.","long":-123.101562},"type":"Feature","geometry":{"type":"Point","coordinates":[-123.101562,49.26733]}},{"properties":{"offence":"A2","tickets":54.0,"id":"a62icajb24ie","lat":49.279167,"address":"650 Abbott St.","long":-123.107635},"type":"Feature","geometry":{"type":"Point","coordinates":[-123.107635,49.279167]}},{"properties":{"offence":"A2","tickets":55.0,"id":"a62icakefz9d","lat":49.283691,"address":"650 Howe St.","long":-123.118279},"type":"Feature","geometry":{"type":"Point","coordinates":[-123.118279,49.283691]}},{"properties":{"offence":"A2","tickets":56.0,"id":"a62icaiyutck","lat":49.26675,"address":"1450 5th Ave W.","long":-123.137276},"type":"Feature","geometry":{"type":"Point","coordinates":[-123.137276,49.26675]}},{"properties":{"offence":"A2","tickets":60.0,"id":"a62icar1jx4u","lat":49.266426,"address":"150 5th Ave E.","long":-123.101601},"type":"Feature","geometry":{"type":"Point","coordinates":[-123.101601,49.266426]}},{"properties":{"offence":"A2","tickets":61.0,"id":"a62icapjn5b9","lat":49.272125,"address":"1550 Yew St.","long":-123.154999},"type":"Feature","geometry":{"type":"Point","coordinates":[-123.154999,49.272125]}},{"properties":{"offence":"A2","tickets":64.0,"id":"a62icaqpucrp","lat":49.261639,"address":"2650 Yukon St.","long":-123.112946},"type":"Feature","geometry":{"type":"Point","coordinates":[-123.112946,49.261639]}},{"properties":{"offence":"A2","tickets":70.0,"id":"a62icaf9njvd","lat":49.264656,"address":"1850 8th Ave W.","long":-123.146896},"type":"Feature","geometry":{"type":"Point","coordinates":[-123.146896,49.264656]}},{"properties":{"offence":"A2","tickets":70.0,"id":"a62icat0jl1p","lat":49.291393,"address":"1550 Coal Harbour Close","long":-123.128227},"type":"Feature","geometry":{"type":"Point","coordinates":[-123.128227,49.291393]}},{"properties":{"offence":"A2","tickets":71.0,"id":"a62icaqla430","lat":49.262871,"address":"2150 10th Ave W.","long":-123.153725},"type":"Feature","geometry":{"type":"Point","coordinates":[-123.153725,49.262871]}},{"properties":{"offence":"A2","tickets":73.0,"id":"a62icav6kl6z","lat":49.255791,"address":"3350 Tupper St.","long":-123.116013},"type":"Feature","geometry":{"type":"Point","coordinates":[-123.116013,49.255791]}},{"properties":{"offence":"A2","tickets":76.0,"id":"a62icamw71nv","lat":49.271248,"address":"1650 Yew St.","long":-123.155029},"type":"Feature","geometry":{"type":"Point","coordinates":[-123.155029,49.271248]}},{"properties":{"offence":"A2","tickets":79.0,"id":"a62icask24vx","lat":49.263252,"address":"2550 Cypress St","long":-123.148163},"type":"Feature","geometry":{"type":"Point","coordinates":[-123.148163,49.263252]}},{"properties":{"offence":"A2","tickets":79.0,"id":"a62ical4xbha","lat":49.264236,"address":"2450 Cypress St","long":-123.148117},"type":"Feature","geometry":{"type":"Point","coordinates":[-123.148117,49.264236]}},{"properties":{"offence":"A2","tickets":80.0,"id":"a62icak9993a","lat":49.260891,"address":"2750 Ash St.","long":-123.117615},"type":"Feature","geometry":{"type":"Point","coordinates":[-123.117615,49.260891]}},{"properties":{"offence":"A2","tickets":82.0,"id":"a62icatmicqq","lat":49.267391,"address":"50 4th Ave W.","long":-123.105698},"type":"Feature","geometry":{"type":"Point","coordinates":[-123.105698,49.267391]}},{"properties":{"offence":"A2","tickets":85.0,"id":"a62icagkz4q8","lat":49.270176,"address":"50 1st Ave E.","long":-123.103653},"type":"Feature","geometry":{"type":"Point","coordinates":[-123.103653,49.270176]}},{"properties":{"offence":"A2","tickets":86.0,"id":"a62icajcixb0","lat":49.262222,"address":"450 10th Ave W.","long":-123.113907},"type":"Feature","geometry":{"type":"Point","coordinates":[-123.113907,49.262222]}},{"properties":{"offence":"A2","tickets":86.0,"id":"a62icafersas","lat":49.282249,"address":"150 Hastings St. W.","long":-123.108459},"type":"Feature","geometry":{"type":"Point","coordinates":[-123.108459,49.282249]}},{"properties":{"offence":"A2","tickets":88.0,"id":"a62icanqz6nl","lat":49.284397,"address":"1250 Cardero St.","long":-123.139885},"type":"Feature","geometry":{"type":"Point","coordinates":[-123.139885,49.284397]}},{"properties":{"offence":"A2","tickets":89.0,"id":"a62icage1p80","lat":49.263725,"address":"2550 Balaclava St.","long":-123.174011},"type":"Feature","geometry":{"type":"Point","coordinates":[-123.174011,49.263725]}},{"properties":{"offence":"A2","tickets":93.0,"id":"a62icagronh5","lat":49.227158,"address":"5750 West Boulevard","long":-123.155106},"type":"Feature","geometry":{"type":"Point","coordinates":[-123.155106,49.227158]}},{"properties":{"offence":"A2","tickets":94.0,"id":"a62icamhad5l","lat":49.269817,"address":"1850 2nd Ave W.","long":-123.146782},"type":"Feature","geometry":{"type":"Point","coordinates":[-123.146782,49.269817]}},{"properties":{"offence":"A2","tickets":96.0,"id":"a62icajczyy4","lat":49.263599,"address":"50 Kingsway","long":-123.100227},"type":"Feature","geometry":{"type":"Point","coordinates":[-123.100227,49.263599]}},{"properties":{"offence":"A2","tickets":97.0,"id":"a62icahsyu73","lat":49.261974,"address":"2650 Oak St.","long":-123.126663},"type":"Feature","geometry":{"type":"Point","coordinates":[-123.126663,49.261974]}},{"properties":{"offence":"A2","tickets":98.0,"id":"a62icaoshu4c","lat":49.266472,"address":"2150 Granville St.","long":-123.13842},"type":"Feature","geometry":{"type":"Point","coordinates":[-123.13842,49.266472]}},{"properties":{"offence":"A2","tickets":101.0,"id":"a62icavhgnch","lat":49.283733,"address":"450 Hastings St. W.","long":-123.111435},"type":"Feature","geometry":{"type":"Point","coordinates":[-123.111435,49.283733]}},{"properties":{"offence":"A2","tickets":102.0,"id":"a62icajdqkl6","lat":49.264767,"address":"250 7th Ave W.","long":-123.110184},"type":"Feature","geometry":{"type":"Point","coordinates":[-123.110184,49.264767]}},{"properties":{"offence":"A2","tickets":103.0,"id":"a62icanj32t2","lat":49.258759,"address":"550 14th Ave W.","long":-123.116089},"type":"Feature","geometry":{"type":"Point","coordinates":[-123.116089,49.258759]}},{"properties":{"offence":"A2","tickets":105.0,"id":"a62icaia5c5k","lat":49.263748,"address":"50 8th Ave E.","long":-123.103889},"type":"Feature","geometry":{"type":"Point","coordinates":[-123.103889,49.263748]}},{"properties":{"offence":"A2","tickets":108.0,"id":"a62icagdm9b7","lat":49.279217,"address":"50 Keefer St.","long":-123.103302},"type":"Feature","geometry":{"type":"Point","coordinates":[-123.103302,49.279217]}},{"properties":{"offence":"A2","tickets":109.0,"id":"a62icasuut8g","lat":49.288578,"address":"1350 Georgia St. W.","long":-123.127563},"type":"Feature","geometry":{"type":"Point","coordinates":[-123.127563,49.288578]}},{"properties":{"offence":"A2","tickets":110.0,"id":"a62icaitho1h","lat":49.263779,"address":"2550 Blenheim St.","long":-123.177818},"type":"Feature","geometry":{"type":"Point","coordinates":[-123.177818,49.263779]}},{"properties":{"offence":"A2","tickets":114.0,"id":"a62icaj8mh6j","lat":49.264629,"address":"2350 Heather St.","long":-123.11982},"type":"Feature","geometry":{"type":"Point","coordinates":[-123.11982,49.264629]}},{"properties":{"offence":"A2","tickets":115.0,"id":"a62icaus8adr","lat":49.275387,"address":"950 Expo Boulevard","long":-123.11528},"type":"Feature","geometry":{"type":"Point","coordinates":[-123.11528,49.275387]}},{"properties":{"offence":"A2","tickets":116.0,"id":"a62icatta0uv","lat":49.264671,"address":"2450 Blenheim St.","long":-123.177818},"type":"Feature","geometry":{"type":"Point","coordinates":[-123.177818,49.264671]}},{"properties":{"offence":"A2","tickets":117.0,"id":"a62icanj1tfj","lat":49.227158,"address":"5650 West Boulevard","long":-123.155106},"type":"Feature","geometry":{"type":"Point","coordinates":[-123.155106,49.227158]}},{"properties":{"offence":"A2","tickets":118.0,"id":"a62icald1r61","lat":49.277061,"address":"850 Drake St.","long":-123.129265},"type":"Feature","geometry":{"type":"Point","coordinates":[-123.129265,49.277061]}},{"properties":{"offence":"A2","tickets":121.0,"id":"a62icao5bjry","lat":49.280655,"address":"750 Smithe St.","long":-123.121918},"type":"Feature","geometry":{"type":"Point","coordinates":[-123.121918,49.280655]}},{"properties":{"offence":"A2","tickets":124.0,"id":"a62icaskthd4","lat":49.264771,"address":"2350 Spruce St.","long":-123.128952},"type":"Feature","geometry":{"type":"Point","coordinates":[-123.128952,49.264771]}},{"properties":{"offence":"A2","tickets":124.0,"id":"a62icatasg1w","lat":49.266514,"address":"50 5th Ave W.","long":-123.105721},"type":"Feature","geometry":{"type":"Point","coordinates":[-123.105721,49.266514]}},{"properties":{"offence":"A2","tickets":129.0,"id":"a62icakm675f","lat":49.264614,"address":"2450 Bayswater St.","long":-123.171219},"type":"Feature","geometry":{"type":"Point","coordinates":[-123.171219,49.264614]}},{"properties":{"offence":"A2","tickets":129.0,"id":"a62icaf363wd","lat":49.26638,"address":"250 5th Ave E.","long":-123.09977},"type":"Feature","geometry":{"type":"Point","coordinates":[-123.09977,49.26638]}},{"properties":{"offence":"A2","tickets":131.0,"id":"a62icans533j","lat":49.264645,"address":"2450 Balaclava St.","long":-123.173973},"type":"Feature","geometry":{"type":"Point","coordinates":[-123.173973,49.264645]}},{"properties":{"offence":"A2","tickets":131.0,"id":"a62ical6t8rc","lat":49.2673,"address":"250 4th Ave E.","long":-123.099693},"type":"Feature","geometry":{"type":"Point","coordinates":[-123.099693,49.2673]}},{"properties":{"offence":"A2","tickets":131.0,"id":"a62icafbp0q0","lat":49.28017,"address":"150 Dunsmuir St.","long":-123.111053},"type":"Feature","geometry":{"type":"Point","coordinates":[-123.111053,49.28017]}},{"properties":{"offence":"A2","tickets":132.0,"id":"a62icajmo3uh","lat":49.280815,"address":"450 Gore Ave.","long":-123.097382},"type":"Feature","geometry":{"type":"Point","coordinates":[-123.097382,49.280815]}},{"properties":{"offence":"A2","tickets":134.0,"id":"a62icajw4o2l","lat":49.227158,"address":"5350 West Boulevard","long":-123.155106},"type":"Feature","geometry":{"type":"Point","coordinates":[-123.155106,49.227158]}},{"properties":{"offence":"A2","tickets":136.0,"id":"a62icar8zdl1","lat":49.263664,"address":"2550 MacKenzie St.","long":-123.170128},"type":"Feature","geometry":{"type":"Point","coordinates":[-123.170128,49.263664]}},{"properties":{"offence":"A2","tickets":136.0,"id":"a62icamsc5i3","lat":49.276806,"address":"1050 Beach Ave.","long":-123.134666},"type":"Feature","geometry":{"type":"Point","coordinates":[-123.134666,49.276806]}},{"properties":{"offence":"A2","tickets":136.0,"id":"a62icah2e0ex","lat":49.27887,"address":"650 Quebec St.","long":-123.102119},"type":"Feature","geometry":{"type":"Point","coordinates":[-123.102119,49.27887]}},{"properties":{"offence":"A2","tickets":137.0,"id":"a62icanxzl0v","lat":49.289616,"address":"1250 Cordova St. W.","long":-123.123055},"type":"Feature","geometry":{"type":"Point","coordinates":[-123.123055,49.289616]}},{"properties":{"offence":"A2","tickets":143.0,"id":"a62icarp0mlf","lat":49.276958,"address":"950 Hamilton St.","long":-123.119522},"type":"Feature","geometry":{"type":"Point","coordinates":[-123.119522,49.276958]}},{"properties":{"offence":"A2","tickets":143.0,"id":"a62icao7a8rw","lat":49.287945,"address":"1150 Denman St.","long":-123.140793},"type":"Feature","geometry":{"type":"Point","coordinates":[-123.140793,49.287945]}},{"properties":{"offence":"A2","tickets":145.0,"id":"a62icatu8d78","lat":49.266693,"address":"2150 Pine St.","long":-123.143288},"type":"Feature","geometry":{"type":"Point","coordinates":[-123.143288,49.266693]}},{"properties":{"offence":"A2","tickets":146.0,"id":"a62icagk013d","lat":49.227158,"address":"5550 West Boulevard","long":-123.155106},"type":"Feature","geometry":{"type":"Point","coordinates":[-123.155106,49.227158]}},{"properties":{"offence":"A2","tickets":147.0,"id":"a62icagr9kai","lat":49.263412,"address":"2450 Ontario St.","long":-123.104858},"type":"Feature","geometry":{"type":"Point","coordinates":[-123.104858,49.263412]}},{"properties":{"offence":"A2","tickets":148.0,"id":"a62icaosl4lu","lat":49.278229,"address":"650 Expo Boulevard","long":-123.109634},"type":"Feature","geometry":{"type":"Point","coordinates":[-123.109634,49.278229]}},{"properties":{"offence":"A2","tickets":149.0,"id":"a62icam2433k","lat":49.256031,"address":"550 17th Ave W.","long":-123.116051},"type":"Feature","geometry":{"type":"Point","coordinates":[-123.116051,49.256031]}},{"properties":{"offence":"A2","tickets":151.0,"id":"a62icaix1fm9","lat":49.253929,"address":"450 19th Ave W.","long":-123.113747},"type":"Feature","geometry":{"type":"Point","coordinates":[-123.113747,49.253929]}},{"properties":{"offence":"A2","tickets":152.0,"id":"a62icaqllyon","lat":49.264729,"address":"150 7th Ave W.","long":-123.108154},"type":"Feature","geometry":{"type":"Point","coordinates":[-123.108154,49.264729]}},{"properties":{"offence":"A2","tickets":152.0,"id":"a62icapqe8r8","lat":49.273956,"address":"1650 William St.","long":-123.070152},"type":"Feature","geometry":{"type":"Point","coordinates":[-123.070152,49.273956]}},{"properties":{"offence":"A2","tickets":154.0,"id":"a62icapudvl7","lat":49.278046,"address":"750 Quebec St.","long":-123.102119},"type":"Feature","geometry":{"type":"Point","coordinates":[-123.102119,49.278046]}},{"properties":{"offence":"A2","tickets":155.0,"id":"a62icas4d96t","lat":49.266617,"address":"350 5th Ave W.","long":-123.111794},"type":"Feature","geometry":{"type":"Point","coordinates":[-123.111794,49.266617]}},{"properties":{"offence":"A2","tickets":156.0,"id":"a62icafsa6jr","lat":49.259956,"address":"2850 Ash St.","long":-123.117645},"type":"Feature","geometry":{"type":"Point","coordinates":[-123.117645,49.259956]}},{"properties":{"offence":"A2","tickets":156.0,"id":"a62icanoz8l1","lat":49.262691,"address":"2550 Yukon St.","long":-123.1129},"type":"Feature","geometry":{"type":"Point","coordinates":[-123.1129,49.262691]}},{"properties":{"offence":"A2","tickets":160.0,"id":"a62icahyfnpa","lat":49.227158,"address":"5450 West Boulevard","long":-123.155106},"type":"Feature","geometry":{"type":"Point","coordinates":[-123.155106,49.227158]}},{"properties":{"offence":"A2","tickets":162.0,"id":"a62icagw0e9x","lat":49.276501,"address":"750 Drake St.","long":-123.128387},"type":"Feature","geometry":{"type":"Point","coordinates":[-123.128387,49.276501]}},{"properties":{"offence":"A2","tickets":162.0,"id":"a62icam4uvyc","lat":49.280384,"address":"1850 Davie St.","long":-123.13121},"type":"Feature","geometry":{"type":"Point","coordinates":[-123.13121,49.280384]}},{"properties":{"offence":"A2","tickets":163.0,"id":"a62icasgia2l","lat":49.265427,"address":"2250 Ash St.","long":-123.117432},"type":"Feature","geometry":{"type":"Point","coordinates":[-123.117432,49.265427]}},{"properties":{"offence":"A2","tickets":163.0,"id":"a62icaud7kfs","lat":49.279636,"address":"250 Georgia St. W.","long":-123.113777},"type":"Feature","geometry":{"type":"Point","coordinates":[-123.113777,49.279636]}},{"properties":{"offence":"A2","tickets":163.0,"id":"a62icaktmqrg","lat":49.281376,"address":"150 Hastings St. E.","long":-123.100952},"type":"Feature","geometry":{"type":"Point","coordinates":[-123.100952,49.281376]}},{"properties":{"offence":"A2","tickets":165.0,"id":"a62icagz1wyp","lat":49.264175,"address":"2350 Quebec St.","long":-123.102913},"type":"Feature","geometry":{"type":"Point","coordinates":[-123.102913,49.264175]}},{"properties":{"offence":"A2","tickets":166.0,"id":"a62icar0a27x","lat":49.264664,"address":"2450 Trutch St.","long":-123.175903},"type":"Feature","geometry":{"type":"Point","coordinates":[-123.175903,49.264664]}},{"properties":{"offence":"A2","tickets":166.0,"id":"a62icamh2zos","lat":49.270035,"address":"1650 Commercial Dr.","long":-123.069664},"type":"Feature","geometry":{"type":"Point","coordinates":[-123.069664,49.270035]}},{"properties":{"offence":"A2","tickets":167.0,"id":"a62icakcjbwl","lat":49.268852,"address":"250 2nd Ave W.","long":-123.110306},"type":"Feature","geometry":{"type":"Point","coordinates":[-123.110306,49.268852]}},{"properties":{"offence":"A2","tickets":167.0,"id":"a62icau2mono","lat":49.274109,"address":"1050 Pacific Blvd.","long":-123.116577},"type":"Feature","geometry":{"type":"Point","coordinates":[-123.116577,49.274109]}},{"properties":{"offence":"A2","tickets":169.0,"id":"a62icam8yi4m","lat":49.29081,"address":"750 Bidwell St.","long":-123.133354},"type":"Feature","geometry":{"type":"Point","coordinates":[-123.133354,49.29081]}},{"properties":{"offence":"A2","tickets":171.0,"id":"a62icapqzcrf","lat":49.27018,"address":"1750 Pine St.","long":-123.14315},"type":"Feature","geometry":{"type":"Point","coordinates":[-123.14315,49.27018]}},{"properties":{"offence":"A2","tickets":175.0,"id":"a62icarveeiy","lat":49.235126,"address":"5650 Balsam St.","long":-123.161331},"type":"Feature","geometry":{"type":"Point","coordinates":[-123.161331,49.235126]}},{"properties":{"offence":"A2","tickets":176.0,"id":"a62icasfvlcf","lat":49.254227,"address":"550 19th Ave W.","long":-123.116409},"type":"Feature","geometry":{"type":"Point","coordinates":[-123.116409,49.254227]}},{"properties":{"offence":"A2","tickets":177.0,"id":"a62icaobjnow","lat":49.259792,"address":"2850 Willow St.","long":-123.121979},"type":"Feature","geometry":{"type":"Point","coordinates":[-123.121979,49.259792]}},{"properties":{"offence":"A2","tickets":178.0,"id":"a62icarabs74","lat":49.265659,"address":"250 6th Ave W.","long":-123.110161},"type":"Feature","geometry":{"type":"Point","coordinates":[-123.110161,49.265659]}},{"properties":{"offence":"A2","tickets":180.0,"id":"a62icaq0t4t7","lat":49.278934,"address":"650 Nelson St.","long":-123.122536},"type":"Feature","geometry":{"type":"Point","coordinates":[-123.122536,49.278934]}},{"properties":{"offence":"A2","tickets":181.0,"id":"a62icap1zxe2","lat":49.264687,"address":"50 7th Ave W.","long":-123.105804},"type":"Feature","geometry":{"type":"Point","coordinates":[-123.105804,49.264687]}},{"properties":{"offence":"A2","tickets":181.0,"id":"a62icaooig3r","lat":49.284,"address":"150 Water St.","long":-123.107025},"type":"Feature","geometry":{"type":"Point","coordinates":[-123.107025,49.284]}},{"properties":{"offence":"A2","tickets":182.0,"id":"a62icakvh3hl","lat":49.276226,"address":"1350 Howe St.","long":-123.129562},"type":"Feature","geometry":{"type":"Point","coordinates":[-123.129562,49.276226]}},{"properties":{"offence":"A2","tickets":182.0,"id":"a62icauo7iy6","lat":49.285919,"address":"1150 Cardero St.","long":-123.137596},"type":"Feature","geometry":{"type":"Point","coordinates":[-123.137596,49.285919]}},{"properties":{"offence":"A2","tickets":184.0,"id":"a62icaoml1rm","lat":49.265625,"address":"150 6th Ave W.","long":-123.108131},"type":"Feature","geometry":{"type":"Point","coordinates":[-123.108131,49.265625]}},{"properties":{"offence":"A2","tickets":184.0,"id":"a62icao3fy6s","lat":49.283092,"address":"450 Powell St.","long":-123.094315},"type":"Feature","geometry":{"type":"Point","coordinates":[-123.094315,49.283092]}},{"properties":{"offence":"A2","tickets":187.0,"id":"a62icaqi1ybg","lat":49.263138,"address":"2550 Fir St.","long":-123.141037},"type":"Feature","geometry":{"type":"Point","coordinates":[-123.141037,49.263138]}},{"properties":{"offence":"A2","tickets":187.0,"id":"a62icarn7kat","lat":49.279846,"address":"550 Columbia St.","long":-123.102325},"type":"Feature","geometry":{"type":"Point","coordinates":[-123.102325,49.279846]}},{"properties":{"offence":"A2","tickets":187.0,"id":"a62icat7oxy6","lat":49.289806,"address":"1450 Pender St. W.","long":-123.12825},"type":"Feature","geometry":{"type":"Point","coordinates":[-123.12825,49.289806]}},{"properties":{"offence":"A2","tickets":192.0,"id":"a62icaqixy18","lat":49.264355,"address":"2350 Yukon St.","long":-123.112862},"type":"Feature","geometry":{"type":"Point","coordinates":[-123.112862,49.264355]}},{"properties":{"offence":"A2","tickets":193.0,"id":"a62icaps0dr5","lat":49.268681,"address":"1950 Balsam St.","long":-123.159836},"type":"Feature","geometry":{"type":"Point","coordinates":[-123.159836,49.268681]}},{"properties":{"offence":"A2","tickets":194.0,"id":"a62icak7m30s","lat":49.255833,"address":"450 17th Ave W.","long":-123.113808},"type":"Feature","geometry":{"type":"Point","coordinates":[-123.113808,49.255833]}},{"properties":{"offence":"A2","tickets":196.0,"id":"a62icarnte5c","lat":49.264542,"address":"2450 Stephens St.","long":-123.166473},"type":"Feature","geometry":{"type":"Point","coordinates":[-123.166473,49.264542]}},{"properties":{"offence":"A2","tickets":196.0,"id":"a62icaj7rxu7","lat":49.267429,"address":"150 4th Ave W.","long":-123.108086},"type":"Feature","geometry":{"type":"Point","coordinates":[-123.108086,49.267429]}},{"properties":{"offence":"A2","tickets":197.0,"id":"a62icalozwnz","lat":49.267807,"address":"2050 Balsam St.","long":-123.159874},"type":"Feature","geometry":{"type":"Point","coordinates":[-123.159874,49.267807]}},{"properties":{"offence":"A2","tickets":199.0,"id":"a62icahmqikr","lat":49.254879,"address":"450 18th Ave W.","long":-123.114449},"type":"Feature","geometry":{"type":"Point","coordinates":[-123.114449,49.254879]}},{"properties":{"offence":"A2","tickets":199.0,"id":"a62ican6zt7r","lat":49.263695,"address":"2550 Carnarvon St.","long":-123.172073},"type":"Feature","geometry":{"type":"Point","coordinates":[-123.172073,49.263695]}},{"properties":{"offence":"A2","tickets":202.0,"id":"a62icakq3gi5","lat":49.269299,"address":"150 2nd Ave W.","long":-123.10804},"type":"Feature","geometry":{"type":"Point","coordinates":[-123.10804,49.269299]}},{"properties":{"offence":"A2","tickets":208.0,"id":"a62icalle1y5","lat":49.265808,"address":"2250 Fir St.","long":-123.140938},"type":"Feature","geometry":{"type":"Point","coordinates":[-123.140938,49.265808]}},{"properties":{"offence":"A2","tickets":210.0,"id":"a62icancwm6p","lat":49.263317,"address":"2550 Arbutus St.","long":-123.152962},"type":"Feature","geometry":{"type":"Point","coordinates":[-123.152962,49.263317]}},{"properties":{"offence":"A2","tickets":211.0,"id":"a62icakwjt70","lat":49.256382,"address":"3250 Cambie St.","long":-123.115082},"type":"Feature","geometry":{"type":"Point","coordinates":[-123.115082,49.256382]}},{"properties":{"offence":"A2","tickets":216.0,"id":"a62icau5vpha","lat":49.261127,"address":"150 11th Ave E.","long":-123.102074},"type":"Feature","geometry":{"type":"Point","coordinates":[-123.102074,49.261127]}},{"properties":{"offence":"A2","tickets":218.0,"id":"a62icako7b1n","lat":49.282227,"address":"350 Cordova St. E.","long":-123.096458},"type":"Feature","geometry":{"type":"Point","coordinates":[-123.096458,49.282227]}},{"properties":{"offence":"A2","tickets":219.0,"id":"a62icagujhxq","lat":49.262009,"address":"250 10th Ave E.","long":-123.099594},"type":"Feature","geometry":{"type":"Point","coordinates":[-123.099594,49.262009]}},{"properties":{"offence":"A2","tickets":219.0,"id":"a62icaq3t083","lat":49.279892,"address":"650 Cambie St.","long":-123.112434},"type":"Feature","geometry":{"type":"Point","coordinates":[-123.112434,49.279892]}},{"properties":{"offence":"A2","tickets":221.0,"id":"a62icap8ieff","lat":49.286919,"address":"1150 Bidwell St.","long":-123.139206},"type":"Feature","geometry":{"type":"Point","coordinates":[-123.139206,49.286919]}},{"properties":{"offence":"A2","tickets":222.0,"id":"a62icatfluev","lat":49.26659,"address":"250 5th Ave W.","long":-123.110146},"type":"Feature","geometry":{"type":"Point","coordinates":[-123.110146,49.26659]}},{"properties":{"offence":"A2","tickets":222.0,"id":"a62icarpc73b","lat":49.270645,"address":"1750 1st Ave W.","long":-123.144302},"type":"Feature","geometry":{"type":"Point","coordinates":[-123.144302,49.270645]}},{"properties":{"offence":"A2","tickets":225.0,"id":"a62icaq94tdg","lat":49.279877,"address":"550 Gore Ave.","long":-123.097244},"type":"Feature","geometry":{"type":"Point","coordinates":[-123.097244,49.279877]}},{"properties":{"offence":"A2","tickets":226.0,"id":"a62icaq80ii4","lat":49.277702,"address":"950 Drake St.","long":-123.130264},"type":"Feature","geometry":{"type":"Point","coordinates":[-123.130264,49.277702]}},{"properties":{"offence":"A2","tickets":230.0,"id":"a62icapmx366","lat":49.261963,"address":"2150 11th Ave W.","long":-123.154327},"type":"Feature","geometry":{"type":"Point","coordinates":[-123.154327,49.261963]}},{"properties":{"offence":"A2","tickets":230.0,"id":"a62icav8sife","lat":49.282269,"address":"250 Cordova St. E.","long":-123.098595},"type":"Feature","geometry":{"type":"Point","coordinates":[-123.098595,49.282269]}},{"properties":{"offence":"A2","tickets":231.0,"id":"a62icairstf1","lat":49.267433,"address":"1950 Commercial Dr.","long":-123.069687},"type":"Feature","geometry":{"type":"Point","coordinates":[-123.069687,49.267433]}},{"properties":{"offence":"A2","tickets":232.0,"id":"a62icapm2an8","lat":49.278973,"address":"650 Gore Ave.","long":-123.097122},"type":"Feature","geometry":{"type":"Point","coordinates":[-123.097122,49.278973]}},{"properties":{"offence":"A2","tickets":236.0,"id":"a62icag3prvk","lat":49.25507,"address":"550 18th Ave W.","long":-123.116058},"type":"Feature","geometry":{"type":"Point","coordinates":[-123.116058,49.25507]}},{"properties":{"offence":"A2","tickets":237.0,"id":"a62icas4nw2s","lat":49.261921,"address":"2050 11th Ave W.","long":-123.151619},"type":"Feature","geometry":{"type":"Point","coordinates":[-123.151619,49.261921]}},{"properties":{"offence":"A2","tickets":240.0,"id":"a62icarjzgyd","lat":49.256466,"address":"3250 Tupper St.","long":-123.116005},"type":"Feature","geometry":{"type":"Point","coordinates":[-123.116005,49.256466]}},{"properties":{"offence":"A2","tickets":241.0,"id":"a62icahpmda9","lat":49.268932,"address":"1850 3rd Ave W.","long":-123.146835},"type":"Feature","geometry":{"type":"Point","coordinates":[-123.146835,49.268932]}},{"properties":{"offence":"A2","tickets":244.0,"id":"a62icap8dk16","lat":49.287647,"address":"1250 Georgia St. W.","long":-123.126114},"type":"Feature","geometry":{"type":"Point","coordinates":[-123.126114,49.287647]}},{"properties":{"offence":"A2","tickets":248.0,"id":"a62icaub07ma","lat":49.288864,"address":"1750 Nelson St.","long":-123.137856},"type":"Feature","geometry":{"type":"Point","coordinates":[-123.137856,49.288864]}},{"properties":{"offence":"A2","tickets":248.0,"id":"a62icaky37rr","lat":49.289776,"address":"550 Broughton St.","long":-123.127129},"type":"Feature","geometry":{"type":"Point","coordinates":[-123.127129,49.289776]}},{"properties":{"offence":"A2","tickets":249.0,"id":"a62icaluzokn","lat":49.268322,"address":"50 3rd Ave W.","long":-123.105652},"type":"Feature","geometry":{"type":"Point","coordinates":[-123.105652,49.268322]}},{"properties":{"offence":"A2","tickets":249.0,"id":"a62icatu4j6s","lat":49.272015,"address":"1550 Cypress St","long":-123.147827},"type":"Feature","geometry":{"type":"Point","coordinates":[-123.147827,49.272015]}},{"properties":{"offence":"A2","tickets":250.0,"id":"a62ican01ldz","lat":49.276199,"address":"950 Commercial Dr.","long":-123.069504},"type":"Feature","geometry":{"type":"Point","coordinates":[-123.069504,49.276199]}},{"properties":{"offence":"A2","tickets":254.0,"id":"a62icaj64p0q","lat":49.268269,"address":"1950 Fir St.","long":-123.140862},"type":"Feature","geometry":{"type":"Point","coordinates":[-123.140862,49.268269]}},{"properties":{"offence":"A2","tickets":257.0,"id":"a62icanjswqz","lat":49.288574,"address":"450 Bute St.","long":-123.123077},"type":"Feature","geometry":{"type":"Point","coordinates":[-123.123077,49.288574]}},{"properties":{"offence":"A2","tickets":257.0,"id":"a62icaqonost","lat":49.289909,"address":"650 Nicola St.","long":-123.129211},"type":"Feature","geometry":{"type":"Point","coordinates":[-123.129211,49.289909]}},{"properties":{"offence":"A2","tickets":260.0,"id":"a62icak4fo24","lat":49.286934,"address":"950 Hastings St. W.","long":-123.116356},"type":"Feature","geometry":{"type":"Point","coordinates":[-123.116356,49.286934]}},{"properties":{"offence":"A2","tickets":261.0,"id":"a62icam15qgp","lat":49.23362,"address":"2150 42nd Ave W.","long":-123.157082},"type":"Feature","geometry":{"type":"Point","coordinates":[-123.157082,49.23362]}},{"properties":{"offence":"A2","tickets":266.0,"id":"a62icar1aog9","lat":49.262516,"address":"2550 Quebec St.","long":-123.102982},"type":"Feature","geometry":{"type":"Point","coordinates":[-123.102982,49.262516]}},{"properties":{"offence":"A2","tickets":266.0,"id":"a62icaix7ag3","lat":49.277485,"address":"750 Davie St.","long":-123.126701},"type":"Feature","geometry":{"type":"Point","coordinates":[-123.126701,49.277485]}},{"properties":{"offence":"A2","tickets":266.0,"id":"a62icaqsrtdf","lat":49.284088,"address":"950 Georgia St. W.","long":-123.120605},"type":"Feature","geometry":{"type":"Point","coordinates":[-123.120605,49.284088]}},{"properties":{"offence":"A2","tickets":268.0,"id":"a62icaipgs34","lat":49.28928,"address":"650 Broughton St.","long":-123.127846},"type":"Feature","geometry":{"type":"Point","coordinates":[-123.127846,49.28928]}},{"properties":{"offence":"A2","tickets":270.0,"id":"a62icag1g4do","lat":49.263882,"address":"2250 Broadway St. W.","long":-123.156509},"type":"Feature","geometry":{"type":"Point","coordinates":[-123.156509,49.263882]}},{"properties":{"offence":"A2","tickets":272.0,"id":"a62icaprkw4m","lat":49.265488,"address":"250 6th Ave E.","long":-123.099815},"type":"Feature","geometry":{"type":"Point","coordinates":[-123.099815,49.265488]}},{"properties":{"offence":"A2","tickets":273.0,"id":"a62icanwgasd","lat":49.285583,"address":"1250 Bidwell St.","long":-123.141212},"type":"Feature","geometry":{"type":"Point","coordinates":[-123.141212,49.285583]}},{"properties":{"offence":"A2","tickets":274.0,"id":"a62icaug8oyc","lat":49.285275,"address":"650 Burrard St.","long":-123.11985},"type":"Feature","geometry":{"type":"Point","coordinates":[-123.11985,49.285275]}},{"properties":{"offence":"A2","tickets":275.0,"id":"a62icamlxv1v","lat":49.280979,"address":"450 Carrall St.","long":-123.104355},"type":"Feature","geometry":{"type":"Point","coordinates":[-123.104355,49.280979]}},{"properties":{"offence":"A2","tickets":276.0,"id":"a62icaocklzf","lat":49.26334,"address":"2450 Columbia St.","long":-123.109482},"type":"Feature","geometry":{"type":"Point","coordinates":[-123.109482,49.26334]}},{"properties":{"offence":"A2","tickets":279.0,"id":"a62icagz81an","lat":49.260937,"address":"2750 Heather St.","long":-123.119934},"type":"Feature","geometry":{"type":"Point","coordinates":[-123.119934,49.260937]}},{"properties":{"offence":"A2","tickets":281.0,"id":"a62icaq5o2nq","lat":49.284988,"address":"350 Seymour St.","long":-123.112366},"type":"Feature","geometry":{"type":"Point","coordinates":[-123.112366,49.284988]}},{"properties":{"offence":"A2","tickets":287.0,"id":"a62icaof9ojc","lat":49.24725,"address":"150 27th Ave E.","long":-123.10218},"type":"Feature","geometry":{"type":"Point","coordinates":[-123.10218,49.24725]}},{"properties":{"offence":"A2","tickets":288.0,"id":"a62icairj2ra","lat":49.287716,"address":"450 Thurlow St.","long":-123.120094},"type":"Feature","geometry":{"type":"Point","coordinates":[-123.120094,49.287716]}},{"properties":{"offence":"A2","tickets":289.0,"id":"a62icaqwht2f","lat":49.266644,"address":"450 5th Ave W.","long":-123.113159},"type":"Feature","geometry":{"type":"Point","coordinates":[-123.113159,49.266644]}},{"properties":{"offence":"A2","tickets":290.0,"id":"a62icaqo1333","lat":49.264065,"address":"2750 Broadway St. W.","long":-123.167374},"type":"Feature","geometry":{"type":"Point","coordinates":[-123.167374,49.264065]}},{"properties":{"offence":"A2","tickets":290.0,"id":"a62icahkm6t8","lat":49.265038,"address":"650 7th Ave W.","long":-123.118652},"type":"Feature","geometry":{"type":"Point","coordinates":[-123.118652,49.265038]}},{"properties":{"offence":"A2","tickets":290.0,"id":"a62icaj9abtw","lat":49.289124,"address":"1250 Hastings St. W.","long":-123.123848},"type":"Feature","geometry":{"type":"Point","coordinates":[-123.123848,49.289124]}},{"properties":{"offence":"A2","tickets":293.0,"id":"a62icaryy3oc","lat":49.263859,"address":"4550 10th Ave W.","long":-123.210655},"type":"Feature","geometry":{"type":"Point","coordinates":[-123.210655,49.263859]}},{"properties":{"offence":"A2","tickets":295.0,"id":"a62icagi3o4h","lat":49.264095,"address":"2850 Broadway St. W.","long":-123.169189},"type":"Feature","geometry":{"type":"Point","coordinates":[-123.169189,49.264095]}},{"properties":{"offence":"A2","tickets":296.0,"id":"a62icaif9zsi","lat":49.264503,"address":"2450 Trafalgar St.","long":-123.164642},"type":"Feature","geometry":{"type":"Point","coordinates":[-123.164642,49.264503]}},{"properties":{"offence":"A2","tickets":299.0,"id":"a62icauiudu9","lat":49.263084,"address":"150 Broadway St. E.","long":-123.108185},"type":"Feature","geometry":{"type":"Point","coordinates":[-123.108185,49.263084]}},{"properties":{"offence":"A2","tickets":312.0,"id":"a62icatm8pml","lat":49.237339,"address":"2150 38th Ave W.","long":-123.15699},"type":"Feature","geometry":{"type":"Point","coordinates":[-123.15699,49.237339]}},{"properties":{"offence":"A2","tickets":313.0,"id":"a62icaiu9o6o","lat":49.263237,"address":"2450 Quebec St.","long":-123.102951},"type":"Feature","geometry":{"type":"Point","coordinates":[-123.102951,49.263237]}},{"properties":{"offence":"A2","tickets":313.0,"id":"a62icai6ctme","lat":49.263767,"address":"4350 10th Ave W.","long":-123.204582},"type":"Feature","geometry":{"type":"Point","coordinates":[-123.204582,49.263767]}},{"properties":{"offence":"A2","tickets":313.0,"id":"a62icaty84we","lat":49.264992,"address":"550 7th Ave W.","long":-123.11618},"type":"Feature","geometry":{"type":"Point","coordinates":[-123.11618,49.264992]}},{"properties":{"offence":"A2","tickets":313.0,"id":"a62icaj6oy5w","lat":49.28133,"address":"250 Hastings St. E.","long":-123.098557},"type":"Feature","geometry":{"type":"Point","coordinates":[-123.098557,49.28133]}},{"properties":{"offence":"A2","tickets":315.0,"id":"a62icardz9gn","lat":49.281433,"address":"1250 Bute St.","long":-123.133881},"type":"Feature","geometry":{"type":"Point","coordinates":[-123.133881,49.281433]}},{"properties":{"offence":"A2","tickets":319.0,"id":"a62icasr6xta","lat":49.275303,"address":"1050 Commercial Dr.","long":-123.069534},"type":"Feature","geometry":{"type":"Point","coordinates":[-123.069534,49.275303]}},{"properties":{"offence":"A2","tickets":319.0,"id":"a62icaldruem","lat":49.283203,"address":"950 Thurlow St.","long":-123.126961},"type":"Feature","geometry":{"type":"Point","coordinates":[-123.126961,49.283203]}},{"properties":{"offence":"A2","tickets":319.0,"id":"a62icagyqhsc","lat":49.286087,"address":"650 Thurlow St.","long":-123.122566},"type":"Feature","geometry":{"type":"Point","coordinates":[-123.122566,49.286087]}},{"properties":{"offence":"A2","tickets":321.0,"id":"a62icanps2e0","lat":49.275684,"address":"950 Beach Ave.","long":-123.13327},"type":"Feature","geometry":{"type":"Point","coordinates":[-123.13327,49.275684]}},{"properties":{"offence":"A2","tickets":323.0,"id":"a62icags7bko","lat":49.283508,"address":"150 Columbia St.","long":-123.102173},"type":"Feature","geometry":{"type":"Point","coordinates":[-123.102173,49.283508]}},{"properties":{"offence":"A2","tickets":325.0,"id":"a62icagq9gh2","lat":49.272465,"address":"1250 Marinaside Cr.","long":-123.120682},"type":"Feature","geometry":{"type":"Point","coordinates":[-123.120682,49.272465]}},{"properties":{"offence":"A2","tickets":325.0,"id":"a62icaqg6ha9","lat":49.281422,"address":"50 Hastings St. E.","long":-123.103294},"type":"Feature","geometry":{"type":"Point","coordinates":[-123.103294,49.281422]}},{"properties":{"offence":"A2","tickets":337.0,"id":"a62icagygrv4","lat":49.263615,"address":"2550 Stephens St.","long":-123.166382},"type":"Feature","geometry":{"type":"Point","coordinates":[-123.166382,49.263615]}},{"properties":{"offence":"A2","tickets":338.0,"id":"a62icaq1azrk","lat":49.245171,"address":"150 Cambie St.","long":-123.115379},"type":"Feature","geometry":{"type":"Point","coordinates":[-123.115379,49.245171]}},{"properties":{"offence":"A2","tickets":339.0,"id":"a62icarzbcli","lat":49.245995,"address":"150 28th Ave E.","long":-123.102562},"type":"Feature","geometry":{"type":"Point","coordinates":[-123.102562,49.245995]}},{"properties":{"offence":"A2","tickets":342.0,"id":"a62icaftcgsm","lat":49.248005,"address":"150 26th Ave E.","long":-123.10215},"type":"Feature","geometry":{"type":"Point","coordinates":[-123.10215,49.248005]}},{"properties":{"offence":"A2","tickets":346.0,"id":"a62icag1w8pe","lat":49.267555,"address":"2050 Pine St.","long":-123.143257},"type":"Feature","geometry":{"type":"Point","coordinates":[-123.143257,49.267555]}},{"properties":{"offence":"A2","tickets":350.0,"id":"a62icasw66vw","lat":49.470036,"address":"5750 Boulevard W.","long":-123.760406},"type":"Feature","geometry":{"type":"Point","coordinates":[-123.760406,49.470036]}},{"properties":{"offence":"A2","tickets":351.0,"id":"a62icaodi6b4","lat":49.261467,"address":"2750 Arbutus St.","long":-123.153046},"type":"Feature","geometry":{"type":"Point","coordinates":[-123.153046,49.261467]}},{"properties":{"offence":"A2","tickets":351.0,"id":"a62icasukcsb","lat":49.279354,"address":"550 Smithe St.","long":-123.119957},"type":"Feature","geometry":{"type":"Point","coordinates":[-123.119957,49.279354]}},{"properties":{"offence":"A2","tickets":352.0,"id":"a62icaj0r0ft","lat":49.27449,"address":"1050 Expo Boulevard","long":-123.116776},"type":"Feature","geometry":{"type":"Point","coordinates":[-123.116776,49.27449]}},{"properties":{"offence":"A2","tickets":352.0,"id":"a62icagw6x8h","lat":49.277672,"address":"450 Nelson St.","long":-123.120598},"type":"Feature","geometry":{"type":"Point","coordinates":[-123.120598,49.277672]}},{"properties":{"offence":"A2","tickets":355.0,"id":"a62icaol4xdz","lat":49.263535,"address":"2450 Yukon St.","long":-123.112885},"type":"Feature","geometry":{"type":"Point","coordinates":[-123.112885,49.263535]}},{"properties":{"offence":"A2","tickets":360.0,"id":"a62icagb2ft9","lat":49.278748,"address":"450 Smithe St.","long":-123.118973},"type":"Feature","geometry":{"type":"Point","coordinates":[-123.118973,49.278748]}},{"properties":{"offence":"A2","tickets":363.0,"id":"a62icagxiad8","lat":49.267113,"address":"1650 5th Ave W.","long":-123.142113},"type":"Feature","geometry":{"type":"Point","coordinates":[-123.142113,49.267113]}},{"properties":{"offence":"A2","tickets":364.0,"id":"a62icau1uzsi","lat":49.263454,"address":"2450 Manitoba St.","long":-123.106819},"type":"Feature","geometry":{"type":"Point","coordinates":[-123.106819,49.263454]}},{"properties":{"offence":"A2","tickets":364.0,"id":"a62icajv9i6y","lat":49.276203,"address":"550 Davie St.","long":-123.124733},"type":"Feature","geometry":{"type":"Point","coordinates":[-123.124733,49.276203]}},{"properties":{"offence":"A2","tickets":365.0,"id":"a62icav78gcc","lat":49.262619,"address":"2550 Alberta St.","long":-123.110992},"type":"Feature","geometry":{"type":"Point","coordinates":[-123.110992,49.262619]}},{"properties":{"offence":"A2","tickets":365.0,"id":"a62icajah7kq","lat":49.264126,"address":"2950 Broadway St. W.","long":-123.171257},"type":"Feature","geometry":{"type":"Point","coordinates":[-123.171257,49.264126]}},{"properties":{"offence":"A2","tickets":367.0,"id":"a62icai9qe5h","lat":49.247562,"address":"250 26th Ave E.","long":-123.099869},"type":"Feature","geometry":{"type":"Point","coordinates":[-123.099869,49.247562]}},{"properties":{"offence":"A2","tickets":367.0,"id":"a62icav55j8s","lat":49.288284,"address":"750 Broughton St.","long":-123.129356},"type":"Feature","geometry":{"type":"Point","coordinates":[-123.129356,49.288284]}},{"properties":{"offence":"A2","tickets":368.0,"id":"a62icaiv427v","lat":49.260643,"address":"2750 Main St.","long":-123.100983},"type":"Feature","geometry":{"type":"Point","coordinates":[-123.100983,49.260643]}},{"properties":{"offence":"A2","tickets":389.0,"id":"a62icaob490j","lat":49.263824,"address":"2150 Broadway St. W.","long":-123.154121},"type":"Feature","geometry":{"type":"Point","coordinates":[-123.154121,49.263824]}},{"properties":{"offence":"A2","tickets":389.0,"id":"a62icak2zei9","lat":49.271748,"address":"1450 Commercial Dr.","long":-123.069618},"type":"Feature","geometry":{"type":"Point","coordinates":[-123.069618,49.271748]}},{"properties":{"offence":"A2","tickets":390.0,"id":"a62icaolhey3","lat":49.262978,"address":"2550 Alder St.","long":-123.131386},"type":"Feature","geometry":{"type":"Point","coordinates":[-123.131386,49.262978]}},{"properties":{"offence":"A2","tickets":390.0,"id":"a62icate2fnx","lat":49.280228,"address":"850 Nelson St.","long":-123.124519},"type":"Feature","geometry":{"type":"Point","coordinates":[-123.124519,49.280228]}},{"properties":{"offence":"A2","tickets":393.0,"id":"a62icaj2kx0h","lat":49.288296,"address":"1450 Robson St.","long":-123.130547},"type":"Feature","geometry":{"type":"Point","coordinates":[-123.130547,49.288296]}},{"properties":{"offence":"A2","tickets":394.0,"id":"a62icamuji3q","lat":49.262558,"address":"2550 Ontario St.","long":-123.104897},"type":"Feature","geometry":{"type":"Point","coordinates":[-123.104897,49.262558]}},{"properties":{"offence":"A2","tickets":396.0,"id":"a62icahtrong","lat":49.266323,"address":"1850 6th Ave W.","long":-123.146873},"type":"Feature","geometry":{"type":"Point","coordinates":[-123.146873,49.266323]}},{"properties":{"offence":"A2","tickets":396.0,"id":"a62icasf0cmm","lat":49.278065,"address":"750 Gore Ave.","long":-123.097015},"type":"Feature","geometry":{"type":"Point","coordinates":[-123.097015,49.278065]}},{"properties":{"offence":"A2","tickets":397.0,"id":"a62icathk1xd","lat":49.286766,"address":"1750 Davie St.","long":-123.141045},"type":"Feature","geometry":{"type":"Point","coordinates":[-123.141045,49.286766]}},{"properties":{"offence":"A2","tickets":397.0,"id":"a62icagya3eo","lat":49.286858,"address":"450 Burrard St.","long":-123.117432},"type":"Feature","geometry":{"type":"Point","coordinates":[-123.117432,49.286858]}},{"properties":{"offence":"A2","tickets":400.0,"id":"a62icar8mizv","lat":49.281773,"address":"350 Gore Ave.","long":-123.097527},"type":"Feature","geometry":{"type":"Point","coordinates":[-123.097527,49.281773]}},{"properties":{"offence":"A2","tickets":407.0,"id":"a62icav3twvw","lat":49.266556,"address":"150 5th Ave W.","long":-123.108093},"type":"Feature","geometry":{"type":"Point","coordinates":[-123.108093,49.266556]}},{"properties":{"offence":"A2","tickets":409.0,"id":"a62icam1mty4","lat":49.266365,"address":"2150 Yukon St.","long":-123.112755},"type":"Feature","geometry":{"type":"Point","coordinates":[-123.112755,49.266365]}},{"properties":{"offence":"A2","tickets":411.0,"id":"a62icaplm2a6","lat":49.265476,"address":"1850 7th Ave W.","long":-123.146881},"type":"Feature","geometry":{"type":"Point","coordinates":[-123.146881,49.265476]}},{"properties":{"offence":"A2","tickets":412.0,"id":"a62icapb64vt","lat":49.282681,"address":"550 Dunsmuir St.","long":-123.114937},"type":"Feature","geometry":{"type":"Point","coordinates":[-123.114937,49.282681]}},{"properties":{"offence":"A2","tickets":414.0,"id":"a62icann093d","lat":49.280922,"address":"450 Columbia St.","long":-123.102264},"type":"Feature","geometry":{"type":"Point","coordinates":[-123.102264,49.280922]}},{"properties":{"offence":"A2","tickets":414.0,"id":"a62icaguf3zi","lat":49.282051,"address":"450 Dunsmuir St.","long":-123.113976},"type":"Feature","geometry":{"type":"Point","coordinates":[-123.113976,49.282051]}},{"properties":{"offence":"A2","tickets":420.0,"id":"a62icarm0vdb","lat":49.289043,"address":"750 Nicola St.","long":-123.130531},"type":"Feature","geometry":{"type":"Point","coordinates":[-123.130531,49.289043]}},{"properties":{"offence":"A2","tickets":421.0,"id":"a62icajf91zr","lat":49.268368,"address":"150 3rd Ave W.","long":-123.108055},"type":"Feature","geometry":{"type":"Point","coordinates":[-123.108055,49.268368]}},{"properties":{"offence":"A2","tickets":422.0,"id":"a62icanm8rvr","lat":49.289303,"address":"1350 Pender St. W.","long":-123.126526},"type":"Feature","geometry":{"type":"Point","coordinates":[-123.126526,49.289303]}},{"properties":{"offence":"A2","tickets":423.0,"id":"a62icaoz4mr7","lat":49.269135,"address":"1750 Commercial Dr.","long":-123.069672},"type":"Feature","geometry":{"type":"Point","coordinates":[-123.069672,49.269135]}},{"properties":{"offence":"A2","tickets":425.0,"id":"a62icaf18bvl","lat":49.234322,"address":"5650 Boulevard W.","long":-123.11071},"type":"Feature","geometry":{"type":"Point","coordinates":[-123.11071,49.234322]}},{"properties":{"offence":"A2","tickets":426.0,"id":"a62icaihg96b","lat":49.267944,"address":"1650 4th Ave W.","long":-123.142143},"type":"Feature","geometry":{"type":"Point","coordinates":[-123.142143,49.267944]}},{"properties":{"offence":"A2","tickets":427.0,"id":"a62icaol4oxl","lat":49.279022,"address":"150 Georgia St. W.","long":-123.112778},"type":"Feature","geometry":{"type":"Point","coordinates":[-123.112778,49.279022]}},{"properties":{"offence":"A2","tickets":427.0,"id":"a62icahphstr","lat":49.286919,"address":"550 Thurlow St.","long":-123.1213},"type":"Feature","geometry":{"type":"Point","coordinates":[-123.1213,49.286919]}},{"properties":{"offence":"A2","tickets":428.0,"id":"a62icar1js6t","lat":49.26408,"address":"2450 Granville St.","long":-123.138542},"type":"Feature","geometry":{"type":"Point","coordinates":[-123.138542,49.26408]}},{"properties":{"offence":"A2","tickets":430.0,"id":"a62icagqnhdz","lat":49.288666,"address":"1050 Denman St.","long":-123.139709},"type":"Feature","geometry":{"type":"Point","coordinates":[-123.139709,49.288666]}},{"properties":{"offence":"A2","tickets":435.0,"id":"a62icaodo5b7","lat":49.288105,"address":"550 Bute St.","long":-123.123795},"type":"Feature","geometry":{"type":"Point","coordinates":[-123.123795,49.288105]}},{"properties":{"offence":"A2","tickets":439.0,"id":"a62icalyneod","lat":49.283096,"address":"350 Hastings St. W.","long":-123.110458},"type":"Feature","geometry":{"type":"Point","coordinates":[-123.110458,49.283096]}},{"properties":{"offence":"A2","tickets":446.0,"id":"a62icarjl8lm","lat":49.255375,"address":"3350 Cambie St.","long":-123.115135},"type":"Feature","geometry":{"type":"Point","coordinates":[-123.115135,49.255375]}},{"properties":{"offence":"A2","tickets":462.0,"id":"a62icajtcjnt","lat":49.278297,"address":"550 Nelson St.","long":-123.121552},"type":"Feature","geometry":{"type":"Point","coordinates":[-123.121552,49.278297]}},{"properties":{"offence":"A2","tickets":462.0,"id":"a62icanh4ibn","lat":49.288055,"address":"350 Thurlow St.","long":-123.119576},"type":"Feature","geometry":{"type":"Point","coordinates":[-123.119576,49.288055]}},{"properties":{"offence":"A2","tickets":463.0,"id":"a62icafqrtu7","lat":49.263546,"address":"2550 Trafalgar St.","long":-123.164665},"type":"Feature","geometry":{"type":"Point","coordinates":[-123.164665,49.263546]}},{"properties":{"offence":"A2","tickets":466.0,"id":"a62icalxvwdj","lat":49.269695,"address":"1550 2nd Ave W.","long":-123.139832},"type":"Feature","geometry":{"type":"Point","coordinates":[-123.139832,49.269695]}},{"properties":{"offence":"A2","tickets":470.0,"id":"a62icapfh24a","lat":49.27116,"address":"1650 Cypress St","long":-123.147865},"type":"Feature","geometry":{"type":"Point","coordinates":[-123.147865,49.27116]}},{"properties":{"offence":"A2","tickets":471.0,"id":"a62icas86mlx","lat":49.285255,"address":"950 Dunsmuir St.","long":-123.118881},"type":"Feature","geometry":{"type":"Point","coordinates":[-123.118881,49.285255]}},{"properties":{"offence":"A2","tickets":476.0,"id":"a62icapnvxx6","lat":49.282948,"address":"250 Carrall St.","long":-123.104248},"type":"Feature","geometry":{"type":"Point","coordinates":[-123.104248,49.282948]}},{"properties":{"offence":"A2","tickets":484.0,"id":"a62icahfw86l","lat":49.268875,"address":"1750 3rd Ave W.","long":-123.144386},"type":"Feature","geometry":{"type":"Point","coordinates":[-123.144386,49.268875]}},{"properties":{"offence":"A2","tickets":494.0,"id":"a62icatpecui","lat":49.279263,"address":"650 Beatty St.","long":-123.111412},"type":"Feature","geometry":{"type":"Point","coordinates":[-123.111412,49.279263]}},{"properties":{"offence":"A2","tickets":500.0,"id":"a62icapivyys","lat":49.236427,"address":"5350 Boulevard W.","long":-123.110619},"type":"Feature","geometry":{"type":"Point","coordinates":[-123.110619,49.236427]}},{"properties":{"offence":"A2","tickets":501.0,"id":"a62icahznji9","lat":49.284241,"address":"850 Thurlow St.","long":-123.125389},"type":"Feature","geometry":{"type":"Point","coordinates":[-123.125389,49.284241]}},{"properties":{"offence":"A2","tickets":502.0,"id":"a62icalg2cft","lat":49.276833,"address":"650 Davie St.","long":-123.125694},"type":"Feature","geometry":{"type":"Point","coordinates":[-123.125694,49.276833]}},{"properties":{"offence":"A2","tickets":504.0,"id":"a62icas217i2","lat":49.278665,"address":"650 Citadel Parade","long":-123.10985},"type":"Feature","geometry":{"type":"Point","coordinates":[-123.10985,49.278665]}},{"properties":{"offence":"A2","tickets":512.0,"id":"a62icagefn6t","lat":49.265285,"address":"1350 7th Ave W.","long":-123.134857},"type":"Feature","geometry":{"type":"Point","coordinates":[-123.134857,49.265285]}},{"properties":{"offence":"A2","tickets":512.0,"id":"a62icancqcnx","lat":49.277679,"address":"850 Cambie St.","long":-123.115791},"type":"Feature","geometry":{"type":"Point","coordinates":[-123.115791,49.277679]}},{"properties":{"offence":"A2","tickets":513.0,"id":"a62icak4mujw","lat":49.261852,"address":"2650 Heather St.","long":-123.119926},"type":"Feature","geometry":{"type":"Point","coordinates":[-123.119926,49.261852]}},{"properties":{"offence":"A2","tickets":515.0,"id":"a62icaho6dw2","lat":49.274357,"address":"250 Davie St.","long":-123.121841},"type":"Feature","geometry":{"type":"Point","coordinates":[-123.121841,49.274357]}},{"properties":{"offence":"A2","tickets":517.0,"id":"a62icaf5tut1","lat":49.280796,"address":"250 Dunsmuir St.","long":-123.112038},"type":"Feature","geometry":{"type":"Point","coordinates":[-123.112038,49.280796]}},{"properties":{"offence":"A2","tickets":522.0,"id":"a62icaof2cqs","lat":49.289005,"address":"350 Bute St.","long":-123.122421},"type":"Feature","geometry":{"type":"Point","coordinates":[-123.122421,49.289005]}},{"properties":{"offence":"A2","tickets":525.0,"id":"a62icajdym7t","lat":49.270149,"address":"1750 Fir St.","long":-123.140793},"type":"Feature","geometry":{"type":"Point","coordinates":[-123.140793,49.270149]}},{"properties":{"offence":"A2","tickets":528.0,"id":"a62icapmkpwq","lat":49.267174,"address":"1850 5th Ave W.","long":-123.146851},"type":"Feature","geometry":{"type":"Point","coordinates":[-123.146851,49.267174]}},{"properties":{"offence":"A2","tickets":529.0,"id":"a62icakhxq5w","lat":49.287979,"address":"1850 Morton Ave.","long":-123.141975},"type":"Feature","geometry":{"type":"Point","coordinates":[-123.141975,49.287979]}},{"properties":{"offence":"A2","tickets":531.0,"id":"a62icandaya4","lat":49.235237,"address":"5550 Boulevard W.","long":-123.110672},"type":"Feature","geometry":{"type":"Point","coordinates":[-123.110672,49.235237]}},{"properties":{"offence":"A2","tickets":531.0,"id":"a62icah7k5k3","lat":49.263004,"address":"2550 Birch St.","long":-123.133728},"type":"Feature","geometry":{"type":"Point","coordinates":[-123.133728,49.263004]}},{"properties":{"offence":"A2","tickets":531.0,"id":"a62icalcx6rf","lat":49.287395,"address":"750 Jervis St.","long":-123.127953},"type":"Feature","geometry":{"type":"Point","coordinates":[-123.127953,49.287395]}},{"properties":{"offence":"A2","tickets":533.0,"id":"a62icar716a6","lat":49.262402,"address":"2650 Arbutus St.","long":-123.153015},"type":"Feature","geometry":{"type":"Point","coordinates":[-123.153015,49.262402]}},{"properties":{"offence":"A2","tickets":533.0,"id":"a62icafcxadv","lat":49.263893,"address":"350 8th Ave W.","long":-123.111916},"type":"Feature","geometry":{"type":"Point","coordinates":[-123.111916,49.263893]}},{"properties":{"offence":"A2","tickets":534.0,"id":"a62icau9b9gq","lat":49.268238,"address":"1850 Commercial Dr.","long":-123.069679},"type":"Feature","geometry":{"type":"Point","coordinates":[-123.069679,49.268238]}},{"properties":{"offence":"A2","tickets":535.0,"id":"a62icam0i1r1","lat":49.280861,"address":"450 Main St.","long":-123.099693},"type":"Feature","geometry":{"type":"Point","coordinates":[-123.099693,49.280861]}},{"properties":{"offence":"A2","tickets":538.0,"id":"a62icaj7dgmk","lat":49.267113,"address":"2050 Yukon St.","long":-123.112724},"type":"Feature","geometry":{"type":"Point","coordinates":[-123.112724,49.267113]}},{"properties":{"offence":"A2","tickets":542.0,"id":"a62icajpwq38","lat":49.254433,"address":"3450 Cambie St.","long":-123.115189},"type":"Feature","geometry":{"type":"Point","coordinates":[-123.115189,49.254433]}},{"properties":{"offence":"A2","tickets":550.0,"id":"a62icafu2nzx","lat":49.290768,"address":"850 Denman St.","long":-123.136536},"type":"Feature","geometry":{"type":"Point","coordinates":[-123.136536,49.290768]}},{"properties":{"offence":"A2","tickets":555.0,"id":"a62icaij08ea","lat":49.279491,"address":"150 Keefer St.","long":-123.100945},"type":"Feature","geometry":{"type":"Point","coordinates":[-123.100945,49.279491]}},{"properties":{"offence":"A2","tickets":557.0,"id":"a62icakokgu8","lat":49.263935,"address":"450 8th Ave W.","long":-123.113831},"type":"Feature","geometry":{"type":"Point","coordinates":[-123.113831,49.263935]}},{"properties":{"offence":"A2","tickets":565.0,"id":"a62icagy8ai3","lat":49.235935,"address":"5450 Boulevard W.","long":-123.110641},"type":"Feature","geometry":{"type":"Point","coordinates":[-123.110641,49.235935]}},{"properties":{"offence":"A2","tickets":565.0,"id":"a62icalmvzzc","lat":49.28384,"address":"250 Cambie St.","long":-123.109024},"type":"Feature","geometry":{"type":"Point","coordinates":[-123.109024,49.28384]}},{"properties":{"offence":"A2","tickets":569.0,"id":"a62icaf61w9q","lat":49.263813,"address":"4450 10th Ave W.","long":-123.207634},"type":"Feature","geometry":{"type":"Point","coordinates":[-123.207634,49.263813]}},{"properties":{"offence":"A2","tickets":569.0,"id":"a62icah42ib6","lat":49.289944,"address":"950 Denman St.","long":-123.137749},"type":"Feature","geometry":{"type":"Point","coordinates":[-123.137749,49.289944]}},{"properties":{"offence":"A2","tickets":570.0,"id":"a62icafeqi0h","lat":49.26181,"address":"2650 Ash St.","long":-123.117584},"type":"Feature","geometry":{"type":"Point","coordinates":[-123.117584,49.26181]}},{"properties":{"offence":"A2","tickets":572.0,"id":"a62icaq1rb5j","lat":49.260075,"address":"2850 Laurel St.","long":-123.124321},"type":"Feature","geometry":{"type":"Point","coordinates":[-123.124321,49.260075]}},{"properties":{"offence":"A2","tickets":573.0,"id":"a62icanpfe56","lat":49.236465,"address":"2150 39th Ave W.","long":-123.157745},"type":"Feature","geometry":{"type":"Point","coordinates":[-123.157745,49.236465]}},{"properties":{"offence":"A2","tickets":580.0,"id":"a62icao24o2a","lat":49.263161,"address":"350 Broadway St. W.","long":-123.111938},"type":"Feature","geometry":{"type":"Point","coordinates":[-123.111938,49.263161]}},{"properties":{"offence":"A2","tickets":584.0,"id":"a62icag1gf4n","lat":49.281738,"address":"50 Hastings St. W.","long":-123.105759},"type":"Feature","geometry":{"type":"Point","coordinates":[-123.105759,49.281738]}},{"properties":{"offence":"A2","tickets":591.0,"id":"a62icapemxu1","lat":49.285309,"address":"850 Bute St.","long":-123.128067},"type":"Feature","geometry":{"type":"Point","coordinates":[-123.128067,49.285309]}},{"properties":{"offence":"A2","tickets":593.0,"id":"a62icajo7bbw","lat":49.279781,"address":"150 Keefer Pl.","long":-123.108017},"type":"Feature","geometry":{"type":"Point","coordinates":[-123.108017,49.279781]}},{"properties":{"offence":"A2","tickets":595.0,"id":"a62icas2qdqo","lat":49.279922,"address":"550 Main St.","long":-123.099716},"type":"Feature","geometry":{"type":"Point","coordinates":[-123.099716,49.279922]}},{"properties":{"offence":"A2","tickets":600.0,"id":"a62icaqdhtuq","lat":49.265831,"address":"2250 Pine St.","long":-123.143318},"type":"Feature","geometry":{"type":"Point","coordinates":[-123.143318,49.265831]}},{"properties":{"offence":"A2","tickets":601.0,"id":"a62icasnm3n3","lat":49.265255,"address":"2250 Yukon St.","long":-123.112823},"type":"Feature","geometry":{"type":"Point","coordinates":[-123.112823,49.265255]}},{"properties":{"offence":"A2","tickets":603.0,"id":"a62icafcv4cq","lat":49.261051,"address":"2750 Laurel St.","long":-123.12542},"type":"Feature","geometry":{"type":"Point","coordinates":[-123.12542,49.261051]}},{"properties":{"offence":"A2","tickets":604.0,"id":"a62ical2ozin","lat":49.281151,"address":"1050 Comox St.","long":-123.128105},"type":"Feature","geometry":{"type":"Point","coordinates":[-123.128105,49.281151]}},{"properties":{"offence":"A2","tickets":605.0,"id":"a62icata3b3g","lat":49.273487,"address":"1250 Commercial Dr.","long":-123.069572},"type":"Feature","geometry":{"type":"Point","coordinates":[-123.069572,49.273487]}},{"properties":{"offence":"A2","tickets":606.0,"id":"a62icar3wvla","lat":49.267754,"address":"2050 Vine St.","long":-123.157524},"type":"Feature","geometry":{"type":"Point","coordinates":[-123.157524,49.267754]}},{"properties":{"offence":"A2","tickets":610.0,"id":"a62icaij1no4","lat":49.261555,"address":"2650 Main St.","long":-123.100929},"type":"Feature","geometry":{"type":"Point","coordinates":[-123.100929,49.261555]}},{"properties":{"offence":"A2","tickets":612.0,"id":"a62icajkgsci","lat":49.285641,"address":"550 Burrard St.","long":-123.119324},"type":"Feature","geometry":{"type":"Point","coordinates":[-123.119324,49.285641]}},{"properties":{"offence":"A2","tickets":624.0,"id":"a62icameju2l","lat":49.2342,"address":"5750 Balsam St.","long":-123.161362},"type":"Feature","geometry":{"type":"Point","coordinates":[-123.161362,49.2342]}},{"properties":{"offence":"A2","tickets":624.0,"id":"a62icao453fe","lat":49.272213,"address":"1450 Homer St.","long":-123.126076},"type":"Feature","geometry":{"type":"Point","coordinates":[-123.126076,49.272213]}},{"properties":{"offence":"A2","tickets":625.0,"id":"a62icahe3qbg","lat":49.28273,"address":"250 Main St.","long":-123.099594},"type":"Feature","geometry":{"type":"Point","coordinates":[-123.099594,49.28273]}},{"properties":{"offence":"A2","tickets":634.0,"id":"a62icajxhpi3","lat":49.284943,"address":"1050 Georgia St. W.","long":-123.121918},"type":"Feature","geometry":{"type":"Point","coordinates":[-123.121918,49.284943]}},{"properties":{"offence":"A2","tickets":639.0,"id":"a62icalzp283","lat":49.280045,"address":"1250 Thurlow St.","long":-123.131691},"type":"Feature","geometry":{"type":"Point","coordinates":[-123.131691,49.280045]}},{"properties":{"offence":"A2","tickets":645.0,"id":"a62icatgx5nc","lat":49.280872,"address":"950 Nelson St.","long":-123.125519},"type":"Feature","geometry":{"type":"Point","coordinates":[-123.125519,49.280872]}},{"properties":{"offence":"A2","tickets":653.0,"id":"a62icakgs5ma","lat":49.269302,"address":"1850 Pine St.","long":-123.143188},"type":"Feature","geometry":{"type":"Point","coordinates":[-123.143188,49.269302]}},{"properties":{"offence":"A2","tickets":655.0,"id":"a62icavehhit","lat":49.282562,"address":"1050 Barclay St.","long":-123.125969},"type":"Feature","geometry":{"type":"Point","coordinates":[-123.125969,49.282562]}},{"properties":{"offence":"A2","tickets":656.0,"id":"a62icasdfsyn","lat":49.281807,"address":"350 Main St.","long":-123.099663},"type":"Feature","geometry":{"type":"Point","coordinates":[-123.099663,49.281807]}},{"properties":{"offence":"A2","tickets":660.0,"id":"a62icaqunhj0","lat":49.265755,"address":"2250 Granville St.","long":-123.138481},"type":"Feature","geometry":{"type":"Point","coordinates":[-123.138481,49.265755]}},{"properties":{"offence":"A2","tickets":665.0,"id":"a62icarlyf3m","lat":49.266167,"address":"1450 6th Ave W.","long":-123.137306},"type":"Feature","geometry":{"type":"Point","coordinates":[-123.137306,49.266167]}},{"properties":{"offence":"A2","tickets":665.0,"id":"a62icagb41et","lat":49.271317,"address":"1550 Commercial Dr.","long":-123.069626},"type":"Feature","geometry":{"type":"Point","coordinates":[-123.069626,49.271317]}},{"properties":{"offence":"A2","tickets":668.0,"id":"a62icam1imt2","lat":49.280422,"address":"550 Robson St.","long":-123.11834},"type":"Feature","geometry":{"type":"Point","coordinates":[-123.11834,49.280422]}},{"properties":{"offence":"A2","tickets":669.0,"id":"a62icapqpo5q","lat":49.273659,"address":"250 Drake St.","long":-123.124008},"type":"Feature","geometry":{"type":"Point","coordinates":[-123.124008,49.273659]}},{"properties":{"offence":"A2","tickets":673.0,"id":"a62icasnvjtz","lat":49.268845,"address":"1650 3rd Ave W.","long":-123.142029},"type":"Feature","geometry":{"type":"Point","coordinates":[-123.142029,49.268845]}},{"properties":{"offence":"A2","tickets":676.0,"id":"a62icam5d3rv","lat":49.235577,"address":"2150 40th Ave W.","long":-123.156662},"type":"Feature","geometry":{"type":"Point","coordinates":[-123.156662,49.235577]}},{"properties":{"offence":"A2","tickets":685.0,"id":"a62icaf0svdz","lat":49.276199,"address":"950 Beatty St.","long":-123.116074},"type":"Feature","geometry":{"type":"Point","coordinates":[-123.116074,49.276199]}},{"properties":{"offence":"A2","tickets":685.0,"id":"a62icahgs7jb","lat":49.28194,"address":"350 Carrall St.","long":-123.104301},"type":"Feature","geometry":{"type":"Point","coordinates":[-123.104301,49.28194]}},{"properties":{"offence":"A2","tickets":688.0,"id":"a62icavdgcf7","lat":49.262608,"address":"2550 Columbia St.","long":-123.109489},"type":"Feature","geometry":{"type":"Point","coordinates":[-123.109489,49.262608]}},{"properties":{"offence":"A2","tickets":690.0,"id":"a62icav67g1k","lat":49.2654,"address":"1650 7th Ave W.","long":-123.142189},"type":"Feature","geometry":{"type":"Point","coordinates":[-123.142189,49.2654]}},{"properties":{"offence":"A2","tickets":690.0,"id":"a62icag897of","lat":49.267609,"address":"2050 Maple St.","long":-123.150406},"type":"Feature","geometry":{"type":"Point","coordinates":[-123.150406,49.267609]}},{"properties":{"offence":"A2","tickets":699.0,"id":"a62icapp43ay","lat":49.27766,"address":"1350 Burrard St.","long":-123.131363},"type":"Feature","geometry":{"type":"Point","coordinates":[-123.131363,49.27766]}},{"properties":{"offence":"A2","tickets":703.0,"id":"a62icare7wuv","lat":49.279846,"address":"550 Carrall St.","long":-123.104424},"type":"Feature","geometry":{"type":"Point","coordinates":[-123.104424,49.279846]}},{"properties":{"offence":"A2","tickets":708.0,"id":"a62icapdb98o","lat":49.268524,"address":"1950 Maple St.","long":-123.150375},"type":"Feature","geometry":{"type":"Point","coordinates":[-123.150375,49.268524]}},{"properties":{"offence":"A2","tickets":710.0,"id":"a62icaudvsoq","lat":49.262451,"address":"2550 Main St.","long":-123.100899},"type":"Feature","geometry":{"type":"Point","coordinates":[-123.100899,49.262451]}},{"properties":{"offence":"A2","tickets":712.0,"id":"a62icaquv3yh","lat":49.283638,"address":"150 Main St.","long":-123.099525},"type":"Feature","geometry":{"type":"Point","coordinates":[-123.099525,49.283638]}},{"properties":{"offence":"A2","tickets":716.0,"id":"a62icas8cjhc","lat":49.276611,"address":"950 Cambie St.","long":-123.117348},"type":"Feature","geometry":{"type":"Point","coordinates":[-123.117348,49.276611]}},{"properties":{"offence":"A2","tickets":738.0,"id":"a62icar7ptfi","lat":49.263306,"address":"2450 Main St.","long":-123.100876},"type":"Feature","geometry":{"type":"Point","coordinates":[-123.100876,49.263306]}},{"properties":{"offence":"A2","tickets":739.0,"id":"a62icamkqx06","lat":49.264587,"address":"2350 Ash St.","long":-123.117455},"type":"Feature","geometry":{"type":"Point","coordinates":[-123.117455,49.264587]}},{"properties":{"offence":"A2","tickets":742.0,"id":"a62icaoz8rub","lat":49.233482,"address":"5750 Vine St.","long":-123.159973},"type":"Feature","geometry":{"type":"Point","coordinates":[-123.159973,49.233482]}},{"properties":{"offence":"A2","tickets":742.0,"id":"a62icalfdmvg","lat":49.266243,"address":"1650 6th Ave W.","long":-123.142143},"type":"Feature","geometry":{"type":"Point","coordinates":[-123.142143,49.266243]}},{"properties":{"offence":"A2","tickets":747.0,"id":"a62icap5thgs","lat":49.282784,"address":"250 Columbia St.","long":-123.102203},"type":"Feature","geometry":{"type":"Point","coordinates":[-123.102203,49.282784]}},{"properties":{"offence":"A2","tickets":751.0,"id":"a62icauqkafs","lat":49.262413,"address":"950 10th Ave W.","long":-123.125381},"type":"Feature","geometry":{"type":"Point","coordinates":[-123.125381,49.262413]}},{"properties":{"offence":"A2","tickets":761.0,"id":"a62icagub8pz","lat":49.23468,"address":"2450 41st Ave W.","long":-123.162064},"type":"Feature","geometry":{"type":"Point","coordinates":[-123.162064,49.23468]}},{"properties":{"offence":"A2","tickets":762.0,"id":"a62icajwsbru","lat":49.27853,"address":"250 Robson St.","long":-123.115463},"type":"Feature","geometry":{"type":"Point","coordinates":[-123.115463,49.27853]}},{"properties":{"offence":"A2","tickets":765.0,"id":"a62icaix317o","lat":49.281906,"address":"950 Smithe St.","long":-123.123909},"type":"Feature","geometry":{"type":"Point","coordinates":[-123.123909,49.281906]}},{"properties":{"offence":"A2","tickets":766.0,"id":"a62icar0clrn","lat":49.277649,"address":"250 Union St.","long":-123.098312},"type":"Feature","geometry":{"type":"Point","coordinates":[-123.098312,49.277649]}},{"properties":{"offence":"A2","tickets":767.0,"id":"a62icah5yd7z","lat":49.264153,"address":"3050 Broadway St. W.","long":-123.173042},"type":"Feature","geometry":{"type":"Point","coordinates":[-123.173042,49.264153]}},{"properties":{"offence":"A2","tickets":768.0,"id":"a62icaomf117","lat":49.258022,"address":"1550 15th Ave W.","long":-123.140015},"type":"Feature","geometry":{"type":"Point","coordinates":[-123.140015,49.258022]}},{"properties":{"offence":"A2","tickets":773.0,"id":"a62icann2cbh","lat":49.284592,"address":"850 Dunsmuir St.","long":-123.117867},"type":"Feature","geometry":{"type":"Point","coordinates":[-123.117867,49.284592]}},{"properties":{"offence":"A2","tickets":774.0,"id":"a62icasjtqs3","lat":49.290665,"address":"1650 Alberni St.","long":-123.132034},"type":"Feature","geometry":{"type":"Point","coordinates":[-123.132034,49.290665]}},{"properties":{"offence":"A2","tickets":782.0,"id":"a62icaic8rw3","lat":49.287415,"address":"350 Burrard St.","long":-123.116585},"type":"Feature","geometry":{"type":"Point","coordinates":[-123.116585,49.287415]}},{"properties":{"offence":"A2","tickets":783.0,"id":"a62icajpmohg","lat":49.275967,"address":"1250 Seymour St.","long":-123.125999},"type":"Feature","geometry":{"type":"Point","coordinates":[-123.125999,49.275967]}},{"properties":{"offence":"A2","tickets":789.0,"id":"a62icaknsm26","lat":49.278793,"address":"750 Cambie St.","long":-123.114082},"type":"Feature","geometry":{"type":"Point","coordinates":[-123.114082,49.278793]}},{"properties":{"offence":"A2","tickets":794.0,"id":"a62icajwh1ng","lat":49.283604,"address":"150 Gore Ave.","long":-123.097771},"type":"Feature","geometry":{"type":"Point","coordinates":[-123.097771,49.283604]}},{"properties":{"offence":"A2","tickets":796.0,"id":"a62icamr4r2f","lat":49.274628,"address":"1550 Howe St.","long":-123.132011},"type":"Feature","geometry":{"type":"Point","coordinates":[-123.132011,49.274628]}},{"properties":{"offence":"A2","tickets":802.0,"id":"a62icat3d04h","lat":49.281864,"address":"350 Columbia St.","long":-123.102242},"type":"Feature","geometry":{"type":"Point","coordinates":[-123.102242,49.281864]}},{"properties":{"offence":"A2","tickets":803.0,"id":"a62icah1ifq3","lat":49.280262,"address":"350 Georgia St. W.","long":-123.114738},"type":"Feature","geometry":{"type":"Point","coordinates":[-123.114738,49.280262]}},{"properties":{"offence":"A2","tickets":810.0,"id":"a62icavez1k5","lat":49.272579,"address":"1350 Commercial Dr.","long":-123.069595},"type":"Feature","geometry":{"type":"Point","coordinates":[-123.069595,49.272579]}},{"properties":{"offence":"A2","tickets":825.0,"id":"a62icaguark4","lat":49.284138,"address":"550 Granville St.","long":-123.115623},"type":"Feature","geometry":{"type":"Point","coordinates":[-123.115623,49.284138]}},{"properties":{"offence":"A2","tickets":826.0,"id":"a62icasv8ppm","lat":49.264179,"address":"3150 Broadway St. W.","long":-123.174973},"type":"Feature","geometry":{"type":"Point","coordinates":[-123.174973,49.264179]}},{"properties":{"offence":"A2","tickets":840.0,"id":"a62icaljbb2v","lat":49.284084,"address":"150 Abbott St.","long":-123.106354},"type":"Feature","geometry":{"type":"Point","coordinates":[-123.106354,49.284084]}},{"properties":{"offence":"A2","tickets":848.0,"id":"a62ican2rots","lat":49.264202,"address":"3250 Broadway St. W.","long":-123.176872},"type":"Feature","geometry":{"type":"Point","coordinates":[-123.176872,49.264202]}},{"properties":{"offence":"A2","tickets":869.0,"id":"a62icat8ke8b","lat":49.264378,"address":"1150 8th Ave W.","long":-123.130157},"type":"Feature","geometry":{"type":"Point","coordinates":[-123.130157,49.264378]}},{"properties":{"offence":"A2","tickets":872.0,"id":"a62icaj7zl1u","lat":49.262756,"address":"2550 Ash St.","long":-123.117546},"type":"Feature","geometry":{"type":"Point","coordinates":[-123.117546,49.262756]}},{"properties":{"offence":"A2","tickets":880.0,"id":"a62icaq36yir","lat":49.287041,"address":"1050 Pender St. W.","long":-123.119003},"type":"Feature","geometry":{"type":"Point","coordinates":[-123.119003,49.287041]}},{"properties":{"offence":"A2","tickets":883.0,"id":"a62icafzlrbx","lat":49.267712,"address":"2050 Yew St.","long":-123.155167},"type":"Feature","geometry":{"type":"Point","coordinates":[-123.155167,49.267712]}},{"properties":{"offence":"A2","tickets":883.0,"id":"a62icaq9ortc","lat":49.28368,"address":"750 Burrard St.","long":-123.122185},"type":"Feature","geometry":{"type":"Point","coordinates":[-123.122185,49.28368]}},{"properties":{"offence":"A2","tickets":886.0,"id":"a62icalemzhw","lat":49.283035,"address":"150 Cordova St. W.","long":-123.10743},"type":"Feature","geometry":{"type":"Point","coordinates":[-123.10743,49.283035]}},{"properties":{"offence":"A2","tickets":889.0,"id":"a62icarplkpj","lat":49.271561,"address":"1850 York Ave.","long":-123.147133},"type":"Feature","geometry":{"type":"Point","coordinates":[-123.147133,49.271561]}},{"properties":{"offence":"A2","tickets":891.0,"id":"a62icajox72a","lat":49.281788,"address":"1050 Thurlow St.","long":-123.129105},"type":"Feature","geometry":{"type":"Point","coordinates":[-123.129105,49.281788]}},{"properties":{"offence":"A2","tickets":893.0,"id":"a62icas8benf","lat":49.280357,"address":"250 Pender St. E.","long":-123.09848},"type":"Feature","geometry":{"type":"Point","coordinates":[-123.09848,49.280357]}},{"properties":{"offence":"A2","tickets":901.0,"id":"a62icap80nt4","lat":49.262802,"address":"2550 Heather St.","long":-123.119911},"type":"Feature","geometry":{"type":"Point","coordinates":[-123.119911,49.262802]}},{"properties":{"offence":"A2","tickets":904.0,"id":"a62icahxw1pl","lat":49.280502,"address":"650 Hamilton St.","long":-123.113396},"type":"Feature","geometry":{"type":"Point","coordinates":[-123.113396,49.280502]}},{"properties":{"offence":"A2","tickets":910.0,"id":"a62icamtxh8g","lat":49.288704,"address":"1250 Pender St. W.","long":-123.124496},"type":"Feature","geometry":{"type":"Point","coordinates":[-123.124496,49.288704]}},{"properties":{"offence":"A2","tickets":911.0,"id":"a62icapl7wb6","lat":49.277969,"address":"150 Robson St.","long":-123.114578},"type":"Feature","geometry":{"type":"Point","coordinates":[-123.114578,49.277969]}},{"properties":{"offence":"A2","tickets":912.0,"id":"a62icanrz5ej","lat":49.282394,"address":"650 Seymour St.","long":-123.116287},"type":"Feature","geometry":{"type":"Point","coordinates":[-123.116287,49.282394]}},{"properties":{"offence":"A2","tickets":921.0,"id":"a62icanfxyh6","lat":49.283173,"address":"250 Powell St.","long":-123.098618},"type":"Feature","geometry":{"type":"Point","coordinates":[-123.098618,49.283173]}},{"properties":{"offence":"A2","tickets":924.0,"id":"a62icar5sir7","lat":49.247128,"address":"4250 Main St.","long":-123.101158},"type":"Feature","geometry":{"type":"Point","coordinates":[-123.101158,49.247128]}},{"properties":{"offence":"A2","tickets":926.0,"id":"a62icalojuye","lat":49.268406,"address":"1950 Pine St.","long":-123.143227},"type":"Feature","geometry":{"type":"Point","coordinates":[-123.143227,49.268406]}},{"properties":{"offence":"A2","tickets":926.0,"id":"a62icajwsj57","lat":49.274879,"address":"350 Davie St.","long":-123.122673},"type":"Feature","geometry":{"type":"Point","coordinates":[-123.122673,49.274879]}},{"properties":{"offence":"A2","tickets":928.0,"id":"a62icalw3bba","lat":49.2598,"address":"1450 13th Ave W.","long":-123.137512},"type":"Feature","geometry":{"type":"Point","coordinates":[-123.137512,49.2598]}},{"properties":{"offence":"A2","tickets":929.0,"id":"a62icas9hb8x","lat":49.286285,"address":"350 Howe St.","long":-123.114372},"type":"Feature","geometry":{"type":"Point","coordinates":[-123.114372,49.286285]}},{"properties":{"offence":"A2","tickets":931.0,"id":"a62icaq83hfi","lat":49.262829,"address":"2550 Willow St.","long":-123.121834},"type":"Feature","geometry":{"type":"Point","coordinates":[-123.121834,49.262829]}},{"properties":{"offence":"A2","tickets":933.0,"id":"a62icaiasd9r","lat":49.271099,"address":"1650 Chestnut St.","long":-123.1464},"type":"Feature","geometry":{"type":"Point","coordinates":[-123.1464,49.271099]}},{"properties":{"offence":"A2","tickets":934.0,"id":"a62icaqtg9rr","lat":49.28437,"address":"350 Richards St.","long":-123.11142},"type":"Feature","geometry":{"type":"Point","coordinates":[-123.11142,49.28437]}},{"properties":{"offence":"A2","tickets":946.0,"id":"a62icat6i8ds","lat":49.273277,"address":"1150 Marinaside Cr.","long":-123.119247},"type":"Feature","geometry":{"type":"Point","coordinates":[-123.119247,49.273277]}},{"properties":{"offence":"A2","tickets":948.0,"id":"a62icavefqyp","lat":49.274399,"address":"1150 Commercial Dr.","long":-123.06955},"type":"Feature","geometry":{"type":"Point","coordinates":[-123.06955,49.274399]}},{"properties":{"offence":"A2","tickets":956.0,"id":"a62icagvbf3z","lat":49.262028,"address":"150 10th Ave E.","long":-123.102264},"type":"Feature","geometry":{"type":"Point","coordinates":[-123.102264,49.262028]}},{"properties":{"offence":"A2","tickets":961.0,"id":"a62icatwikdw","lat":49.283134,"address":"350 Powell St.","long":-123.096497},"type":"Feature","geometry":{"type":"Point","coordinates":[-123.096497,49.283134]}},{"properties":{"offence":"A2","tickets":963.0,"id":"a62ical4ymbu","lat":49.268814,"address":"1550 3rd Ave W.","long":-123.140358},"type":"Feature","geometry":{"type":"Point","coordinates":[-123.140358,49.268814]}},{"properties":{"offence":"A2","tickets":971.0,"id":"a62icarqtvuz","lat":49.27523,"address":"1550 Hornby St.","long":-123.13295},"type":"Feature","geometry":{"type":"Point","coordinates":[-123.13295,49.27523]}},{"properties":{"offence":"A2","tickets":983.0,"id":"a62icaubpelg","lat":49.262348,"address":"750 10th Ave W.","long":-123.12085},"type":"Feature","geometry":{"type":"Point","coordinates":[-123.12085,49.262348]}},{"properties":{"offence":"A2","tickets":987.0,"id":"a62icant2duv","lat":49.268631,"address":"1950 Vine St.","long":-123.157486},"type":"Feature","geometry":{"type":"Point","coordinates":[-123.157486,49.268631]}},{"properties":{"offence":"A2","tickets":992.0,"id":"a62icajcilun","lat":49.245079,"address":"4450 Main St.","long":-123.101288},"type":"Feature","geometry":{"type":"Point","coordinates":[-123.101288,49.245079]}},{"properties":{"offence":"A2","tickets":992.0,"id":"a62icara9ogb","lat":49.262264,"address":"550 10th Ave W.","long":-123.116524},"type":"Feature","geometry":{"type":"Point","coordinates":[-123.116524,49.262264]}},{"properties":{"offence":"A2","tickets":995.0,"id":"a62icanj5he2","lat":49.282696,"address":"250 Gore Ave.","long":-123.097649},"type":"Feature","geometry":{"type":"Point","coordinates":[-123.097649,49.282696]}},{"properties":{"offence":"A2","tickets":1006.0,"id":"a62icaokx58j","lat":49.281414,"address":"350 Dunsmuir St.","long":-123.112999},"type":"Feature","geometry":{"type":"Point","coordinates":[-123.112999,49.281414]}},{"properties":{"offence":"A2","tickets":1008.0,"id":"a62icag7bp0q","lat":49.291687,"address":"1750 Alberni St.","long":-123.133621},"type":"Feature","geometry":{"type":"Point","coordinates":[-123.133621,49.291687]}},{"properties":{"offence":"A2","tickets":1030.0,"id":"a62icafy3ob4","lat":49.269306,"address":"1850 Fir St.","long":-123.1408},"type":"Feature","geometry":{"type":"Point","coordinates":[-123.1408,49.269306]}},{"properties":{"offence":"A2","tickets":1035.0,"id":"a62icajvf0jw","lat":49.283531,"address":"550 Seymour St.","long":-123.114571},"type":"Feature","geometry":{"type":"Point","coordinates":[-123.114571,49.283531]}},{"properties":{"offence":"A2","tickets":1055.0,"id":"a62icajp850n","lat":49.265755,"address":"450 6th Ave W.","long":-123.113716},"type":"Feature","geometry":{"type":"Point","coordinates":[-123.113716,49.265755]}},{"properties":{"offence":"A2","tickets":1058.0,"id":"a62ical9yaq2","lat":49.267136,"address":"1750 5th Ave W.","long":-123.144485},"type":"Feature","geometry":{"type":"Point","coordinates":[-123.144485,49.267136]}},{"properties":{"offence":"A2","tickets":1062.0,"id":"a62icaqio7fw","lat":49.283806,"address":"350 Cordova St. W.","long":-123.109558},"type":"Feature","geometry":{"type":"Point","coordinates":[-123.109558,49.283806]}},{"properties":{"offence":"A2","tickets":1064.0,"id":"a62icatu4sss","lat":49.285618,"address":"450 Howe St.","long":-123.115356},"type":"Feature","geometry":{"type":"Point","coordinates":[-123.115356,49.285618]}},{"properties":{"offence":"A2","tickets":1067.0,"id":"a62icagty609","lat":49.287491,"address":"650 Bute St.","long":-123.124771},"type":"Feature","geometry":{"type":"Point","coordinates":[-123.124771,49.287491]}},{"properties":{"offence":"A2","tickets":1079.0,"id":"a62icauy5wn9","lat":49.280834,"address":"850 Granville St.","long":-123.120621},"type":"Feature","geometry":{"type":"Point","coordinates":[-123.120621,49.280834]}},{"properties":{"offence":"A2","tickets":1080.0,"id":"a62icamne1rz","lat":49.288986,"address":"1450 Alberni St.","long":-123.129456},"type":"Feature","geometry":{"type":"Point","coordinates":[-123.129456,49.288986]}},{"properties":{"offence":"A2","tickets":1096.0,"id":"a62icavdfrwf","lat":49.278053,"address":"1050 Seymour St.","long":-123.122826},"type":"Feature","geometry":{"type":"Point","coordinates":[-123.122826,49.278053]}},{"properties":{"offence":"A2","tickets":1097.0,"id":"a62icaqtqfm8","lat":49.291466,"address":"550 Cardero St.","long":-123.129227},"type":"Feature","geometry":{"type":"Point","coordinates":[-123.129227,49.291466]}},{"properties":{"offence":"A2","tickets":1103.0,"id":"a62icafc9ipm","lat":49.24826,"address":"4150 Main St.","long":-123.101105},"type":"Feature","geometry":{"type":"Point","coordinates":[-123.101105,49.24826]}},{"properties":{"offence":"A2","tickets":1103.0,"id":"a62icaszmerf","lat":49.280602,"address":"550 Cambie St.","long":-123.111389},"type":"Feature","geometry":{"type":"Point","coordinates":[-123.111389,49.280602]}},{"properties":{"offence":"A2","tickets":1114.0,"id":"a62icaszuuat","lat":49.283726,"address":"450 Richards St.","long":-123.112396},"type":"Feature","geometry":{"type":"Point","coordinates":[-123.112396,49.283726]}},{"properties":{"offence":"A2","tickets":1126.0,"id":"a62icatd9lsh","lat":49.284019,"address":"150 Alexander St.","long":-123.100815},"type":"Feature","geometry":{"type":"Point","coordinates":[-123.100815,49.284019]}},{"properties":{"offence":"A2","tickets":1135.0,"id":"a62icaqvkqic","lat":49.264442,"address":"1350 8th Ave W.","long":-123.13488},"type":"Feature","geometry":{"type":"Point","coordinates":[-123.13488,49.264442]}},{"properties":{"offence":"A2","tickets":1150.0,"id":"a62icat4pv7z","lat":49.263962,"address":"2450 Alder St.","long":-123.131332},"type":"Feature","geometry":{"type":"Point","coordinates":[-123.131332,49.263962]}},{"properties":{"offence":"A2","tickets":1154.0,"id":"a62icaf10ov2","lat":49.246231,"address":"4350 Main St.","long":-123.101227},"type":"Feature","geometry":{"type":"Point","coordinates":[-123.101227,49.246231]}},{"properties":{"offence":"A2","tickets":1161.0,"id":"a62icajjq8ha","lat":49.259834,"address":"1550 13th Ave W.","long":-123.139984},"type":"Feature","geometry":{"type":"Point","coordinates":[-123.139984,49.259834]}},{"properties":{"offence":"A2","tickets":1165.0,"id":"a62icaj9q111","lat":49.289761,"address":"1550 Alberni St.","long":-123.130646},"type":"Feature","geometry":{"type":"Point","coordinates":[-123.130646,49.289761]}},{"properties":{"offence":"A2","tickets":1166.0,"id":"a62icamq2sql","lat":49.288502,"address":"650 Jervis St.","long":-123.126343},"type":"Feature","geometry":{"type":"Point","coordinates":[-123.126343,49.288502]}},{"properties":{"offence":"A2","tickets":1170.0,"id":"a62icapc7ryz","lat":49.284393,"address":"450 Cordova St. W.","long":-123.110443},"type":"Feature","geometry":{"type":"Point","coordinates":[-123.110443,49.284393]}},{"properties":{"offence":"A2","tickets":1177.0,"id":"a62icaplx2u0","lat":49.258938,"address":"1550 14th Ave W.","long":-123.139992},"type":"Feature","geometry":{"type":"Point","coordinates":[-123.139992,49.258938]}},{"properties":{"offence":"A2","tickets":1185.0,"id":"a62icanh0ery","lat":49.234135,"address":"5750 Yew St.","long":-123.158516},"type":"Feature","geometry":{"type":"Point","coordinates":[-123.158516,49.234135]}},{"properties":{"offence":"A2","tickets":1195.0,"id":"a62icasgtiwa","lat":49.279587,"address":"1150 Burrard St.","long":-123.128418},"type":"Feature","geometry":{"type":"Point","coordinates":[-123.128418,49.279587]}},{"properties":{"offence":"A2","tickets":1208.0,"id":"a62icak42mua","lat":49.264225,"address":"750 8th Ave W.","long":-123.120827},"type":"Feature","geometry":{"type":"Point","coordinates":[-123.120827,49.264225]}},{"properties":{"offence":"A2","tickets":1215.0,"id":"a62icaljdb7v","lat":49.288376,"address":"1250 Melville St.","long":-123.125015},"type":"Feature","geometry":{"type":"Point","coordinates":[-123.125015,49.288376]}},{"properties":{"offence":"A2","tickets":1222.0,"id":"a62icav5e8fi","lat":49.268597,"address":"1950 Yew St.","long":-123.155121},"type":"Feature","geometry":{"type":"Point","coordinates":[-123.155121,49.268597]}},{"properties":{"offence":"A2","tickets":1232.0,"id":"a62icau431ld","lat":49.279797,"address":"450 Robson St.","long":-123.117386},"type":"Feature","geometry":{"type":"Point","coordinates":[-123.117386,49.279797]}},{"properties":{"offence":"A2","tickets":1246.0,"id":"a62icao7y78t","lat":49.278458,"address":"1250 Burrard St.","long":-123.130135},"type":"Feature","geometry":{"type":"Point","coordinates":[-123.130135,49.278458]}},{"properties":{"offence":"A2","tickets":1249.0,"id":"a62icaqf39oa","lat":49.275822,"address":"650 Drake St.","long":-123.12735},"type":"Feature","geometry":{"type":"Point","coordinates":[-123.12735,49.275822]}},{"properties":{"offence":"A2","tickets":1257.0,"id":"a62icag0f55b","lat":49.280472,"address":"1050 Burrard St.","long":-123.12709},"type":"Feature","geometry":{"type":"Point","coordinates":[-123.12709,49.280472]}},{"properties":{"offence":"A2","tickets":1263.0,"id":"a62icar1dydi","lat":49.264046,"address":"2650 Broadway St. W.","long":-123.165581},"type":"Feature","geometry":{"type":"Point","coordinates":[-123.165581,49.264046]}},{"properties":{"offence":"A2","tickets":1265.0,"id":"a62icaigf3z3","lat":49.281776,"address":"650 Richards St.","long":-123.115341},"type":"Feature","geometry":{"type":"Point","coordinates":[-123.115341,49.281776]}},{"properties":{"offence":"A2","tickets":1272.0,"id":"a62icamn6yhf","lat":49.286293,"address":"750 Cordova St. W.","long":-123.113373},"type":"Feature","geometry":{"type":"Point","coordinates":[-123.113373,49.286293]}},{"properties":{"offence":"A2","tickets":1275.0,"id":"a62icav5kil2","lat":49.262615,"address":"1450 10th Ave W.","long":-123.137383},"type":"Feature","geometry":{"type":"Point","coordinates":[-123.137383,49.262615]}},{"properties":{"offence":"A2","tickets":1280.0,"id":"a62icagctba7","lat":49.275932,"address":"350 Helmcken St.","long":-123.121078},"type":"Feature","geometry":{"type":"Point","coordinates":[-123.121078,49.275932]}},{"properties":{"offence":"A2","tickets":1285.0,"id":"a62icaq9ri5p","lat":49.280468,"address":"50 Pender St. E.","long":-123.103325},"type":"Feature","geometry":{"type":"Point","coordinates":[-123.103325,49.280468]}},{"properties":{"offence":"A2","tickets":1287.0,"id":"a62icamd7wo0","lat":49.270603,"address":"1650 1st Ave W.","long":-123.142181},"type":"Feature","geometry":{"type":"Point","coordinates":[-123.142181,49.270603]}},{"properties":{"offence":"A2","tickets":1290.0,"id":"a62icaosqv2m","lat":49.274017,"address":"350 Drake St.","long":-123.124573},"type":"Feature","geometry":{"type":"Point","coordinates":[-123.124573,49.274017]}},{"properties":{"offence":"A2","tickets":1293.0,"id":"a62icaprr9s5","lat":49.263306,"address":"750 Broadway St. W.","long":-123.120872},"type":"Feature","geometry":{"type":"Point","coordinates":[-123.120872,49.263306]}},{"properties":{"offence":"A2","tickets":1301.0,"id":"a62icaqd9y9h","lat":49.263763,"address":"2450 Willow St.","long":-123.121803},"type":"Feature","geometry":{"type":"Point","coordinates":[-123.121803,49.263763]}},{"properties":{"offence":"A2","tickets":1302.0,"id":"a62icav97pff","lat":49.278137,"address":"750 Beatty St.","long":-123.113129},"type":"Feature","geometry":{"type":"Point","coordinates":[-123.113129,49.278137]}},{"properties":{"offence":"A2","tickets":1304.0,"id":"a62ican7dpf7","lat":49.285652,"address":"1050 Melville St.","long":-123.120796},"type":"Feature","geometry":{"type":"Point","coordinates":[-123.120796,49.285652]}},{"properties":{"offence":"A2","tickets":1305.0,"id":"a62icaiy93q1","lat":49.263828,"address":"2450 Laurel St.","long":-123.124168},"type":"Feature","geometry":{"type":"Point","coordinates":[-123.124168,49.263828]}},{"properties":{"offence":"A2","tickets":1326.0,"id":"a62icanj7ra3","lat":49.264915,"address":"2350 Granville St.","long":-123.138512},"type":"Feature","geometry":{"type":"Point","coordinates":[-123.138512,49.264915]}},{"properties":{"offence":"A2","tickets":1331.0,"id":"a62icaumkcs9","lat":49.275146,"address":"550 Drake St.","long":-123.126312},"type":"Feature","geometry":{"type":"Point","coordinates":[-123.126312,49.275146]}},{"properties":{"offence":"A2","tickets":1338.0,"id":"a62icagaan3w","lat":49.258896,"address":"1450 14th Ave W.","long":-123.137512},"type":"Feature","geometry":{"type":"Point","coordinates":[-123.137512,49.258896]}},{"properties":{"offence":"A2","tickets":1343.0,"id":"a62ical3f3ng","lat":49.282047,"address":"450 Cambie St.","long":-123.10984},"type":"Feature","geometry":{"type":"Point","coordinates":[-123.10984,49.282047]}},{"properties":{"offence":"A2","tickets":1347.0,"id":"a62icarwkj0u","lat":49.264305,"address":"950 8th Ave W.","long":-123.125374},"type":"Feature","geometry":{"type":"Point","coordinates":[-123.125374,49.264305]}},{"properties":{"offence":"A2","tickets":1355.0,"id":"a62icav3u80u","lat":49.281754,"address":"950 Burrard St.","long":-123.12516},"type":"Feature","geometry":{"type":"Point","coordinates":[-123.12516,49.281754]}},{"properties":{"offence":"A2","tickets":1357.0,"id":"a62icam8g1hz","lat":49.264259,"address":"850 8th Ave W.","long":-123.122986},"type":"Feature","geometry":{"type":"Point","coordinates":[-123.122986,49.264259]}},{"properties":{"offence":"A2","tickets":1362.0,"id":"a62icamco1qq","lat":49.281525,"address":"450 Abbott St.","long":-123.107391},"type":"Feature","geometry":{"type":"Point","coordinates":[-123.107391,49.281525]}},{"properties":{"offence":"A2","tickets":1381.0,"id":"a62icafitk0b","lat":49.278549,"address":"250 Georgia St. E.","long":-123.098389},"type":"Feature","geometry":{"type":"Point","coordinates":[-123.098389,49.278549]}},{"properties":{"offence":"A2","tickets":1384.0,"id":"a62icaivbvv7","lat":49.285744,"address":"1650 Davie St.","long":-123.139465},"type":"Feature","geometry":{"type":"Point","coordinates":[-123.139465,49.285744]}},{"properties":{"offence":"A2","tickets":1392.0,"id":"a62icavddgek","lat":49.263992,"address":"2450 Birch St.","long":-123.133698},"type":"Feature","geometry":{"type":"Point","coordinates":[-123.133698,49.263992]}},{"properties":{"offence":"A2","tickets":1393.0,"id":"a62icar2lbos","lat":49.283257,"address":"50 Powell St.","long":-123.10305},"type":"Feature","geometry":{"type":"Point","coordinates":[-123.10305,49.283257]}},{"properties":{"offence":"A2","tickets":1408.0,"id":"a62icav5g65g","lat":49.290981,"address":"1750 Robson St.","long":-123.134697},"type":"Feature","geometry":{"type":"Point","coordinates":[-123.134697,49.290981]}},{"properties":{"offence":"A2","tickets":1422.0,"id":"a62icaqysn41","lat":49.263714,"address":"150 8th Ave E.","long":-123.101982},"type":"Feature","geometry":{"type":"Point","coordinates":[-123.101982,49.263714]}},{"properties":{"offence":"A2","tickets":1428.0,"id":"a62icaiv7pph","lat":49.264328,"address":"1050 8th Ave W.","long":-123.127792},"type":"Feature","geometry":{"type":"Point","coordinates":[-123.127792,49.264328]}},{"properties":{"offence":"A2","tickets":1440.0,"id":"a62icagd34b6","lat":49.277668,"address":"1150 Granville St.","long":-123.125412},"type":"Feature","geometry":{"type":"Point","coordinates":[-123.125412,49.277668]}},{"properties":{"offence":"A2","tickets":1441.0,"id":"a62icaraedto","lat":49.273201,"address":"1050 Marinaside Cr.","long":-123.116692},"type":"Feature","geometry":{"type":"Point","coordinates":[-123.116692,49.273201]}},{"properties":{"offence":"A2","tickets":1442.0,"id":"a62icakgoox1","lat":49.280411,"address":"150 Pender St. E.","long":-123.10096},"type":"Feature","geometry":{"type":"Point","coordinates":[-123.10096,49.280411]}},{"properties":{"offence":"A2","tickets":1450.0,"id":"a62icaniyswe","lat":49.283043,"address":"650 Granville St.","long":-123.117279},"type":"Feature","geometry":{"type":"Point","coordinates":[-123.117279,49.283043]}},{"properties":{"offence":"A2","tickets":1460.0,"id":"a62icain5ivy","lat":49.234665,"address":"2350 41st Ave W.","long":-123.160652},"type":"Feature","geometry":{"type":"Point","coordinates":[-123.160652,49.234665]}},{"properties":{"offence":"A2","tickets":1465.0,"id":"a62icamof268","lat":49.274521,"address":"450 Drake St.","long":-123.125351},"type":"Feature","geometry":{"type":"Point","coordinates":[-123.125351,49.274521]}},{"properties":{"offence":"A2","tickets":1473.0,"id":"a62icaqhcvfe","lat":49.286442,"address":"1150 Georgia St. W.","long":-123.124252},"type":"Feature","geometry":{"type":"Point","coordinates":[-123.124252,49.286442]}},{"properties":{"offence":"A2","tickets":1483.0,"id":"a62icajg05cr","lat":49.286396,"address":"750 Bute St.","long":-123.126396},"type":"Feature","geometry":{"type":"Point","coordinates":[-123.126396,49.286396]}},{"properties":{"offence":"A2","tickets":1488.0,"id":"a62icati7sf3","lat":49.279457,"address":"250 Keefer St.","long":-123.098434},"type":"Feature","geometry":{"type":"Point","coordinates":[-123.098434,49.279457]}},{"properties":{"offence":"A2","tickets":1496.0,"id":"a62icafmkrg0","lat":49.279587,"address":"750 Nelson St.","long":-123.12355},"type":"Feature","geometry":{"type":"Point","coordinates":[-123.12355,49.279587]}},{"properties":{"offence":"A2","tickets":1509.0,"id":"a62icajqsvk0","lat":49.289047,"address":"1550 Robson St.","long":-123.131714},"type":"Feature","geometry":{"type":"Point","coordinates":[-123.131714,49.289047]}},{"properties":{"offence":"A2","tickets":1521.0,"id":"a62icar07m0s","lat":49.291485,"address":"1550 Coal Harbour Quay","long":-123.128059},"type":"Feature","geometry":{"type":"Point","coordinates":[-123.128059,49.291485]}},{"properties":{"offence":"A2","tickets":1538.0,"id":"a62icauocncf","lat":49.282455,"address":"350 Abbott St.","long":-123.106995},"type":"Feature","geometry":{"type":"Point","coordinates":[-123.106995,49.282455]}},{"properties":{"offence":"A2","tickets":1544.0,"id":"a62icaq4it91","lat":49.264568,"address":"1650 8th Ave W.","long":-123.142235},"type":"Feature","geometry":{"type":"Point","coordinates":[-123.142235,49.264568]}},{"properties":{"offence":"A2","tickets":1553.0,"id":"a62icarcej5i","lat":49.263779,"address":"2450 Fir St.","long":-123.140999},"type":"Feature","geometry":{"type":"Point","coordinates":[-123.140999,49.263779]}},{"properties":{"offence":"A2","tickets":1553.0,"id":"a62icai3zhx7","lat":49.286255,"address":"450 Hornby St.","long":-123.116356},"type":"Feature","geometry":{"type":"Point","coordinates":[-123.116356,49.286255]}},{"properties":{"offence":"A2","tickets":1581.0,"id":"a62icatx1ga9","lat":49.280083,"address":"550 Taylor St.","long":-123.10585},"type":"Feature","geometry":{"type":"Point","coordinates":[-123.10585,49.280083]}},{"properties":{"offence":"A2","tickets":1584.0,"id":"a62icaixzrih","lat":49.26543,"address":"1750 7th Ave W.","long":-123.144241},"type":"Feature","geometry":{"type":"Point","coordinates":[-123.144241,49.26543]}},{"properties":{"offence":"A2","tickets":1588.0,"id":"a62icapbo9yz","lat":49.276806,"address":"1350 Hornby St.","long":-123.130569},"type":"Feature","geometry":{"type":"Point","coordinates":[-123.130569,49.276806]}},{"properties":{"offence":"A2","tickets":1604.0,"id":"a62icaf2oiy3","lat":49.235092,"address":"5650 Yew St.","long":-123.157738},"type":"Feature","geometry":{"type":"Point","coordinates":[-123.157738,49.235092]}},{"properties":{"offence":"A2","tickets":1609.0,"id":"a62icapdkhqf","lat":49.263927,"address":"2450 Spruce St.","long":-123.128967},"type":"Feature","geometry":{"type":"Point","coordinates":[-123.128967,49.263927]}},{"properties":{"offence":"A2","tickets":1620.0,"id":"a62icajb5ru2","lat":49.277241,"address":"550 Helmcken St.","long":-123.123146},"type":"Feature","geometry":{"type":"Point","coordinates":[-123.123146,49.277241]}},{"properties":{"offence":"A2","tickets":1626.0,"id":"a62icanbzfgz","lat":49.275574,"address":"450 Davie St.","long":-123.123772},"type":"Feature","geometry":{"type":"Point","coordinates":[-123.123772,49.275574]}},{"properties":{"offence":"A2","tickets":1631.0,"id":"a62icautqsnj","lat":49.26973,"address":"1650 2nd Ave W.","long":-123.142006},"type":"Feature","geometry":{"type":"Point","coordinates":[-123.142006,49.26973]}},{"properties":{"offence":"A2","tickets":1638.0,"id":"a62icagkj86x","lat":49.274307,"address":"1350 Richards St.","long":-123.126633},"type":"Feature","geometry":{"type":"Point","coordinates":[-123.126633,49.274307]}},{"properties":{"offence":"A2","tickets":1659.0,"id":"a62icaopthfa","lat":49.262379,"address":"850 10th Ave W.","long":-123.123055},"type":"Feature","geometry":{"type":"Point","coordinates":[-123.123055,49.262379]}},{"properties":{"offence":"A2","tickets":1676.0,"id":"a62icasdmulh","lat":49.281086,"address":"1150 Thurlow St.","long":-123.130173},"type":"Feature","geometry":{"type":"Point","coordinates":[-123.130173,49.281086]}},{"properties":{"offence":"A2","tickets":1708.0,"id":"a62icalu7578","lat":49.289951,"address":"1650 Robson St.","long":-123.133095},"type":"Feature","geometry":{"type":"Point","coordinates":[-123.133095,49.289951]}},{"properties":{"offence":"A2","tickets":1722.0,"id":"a62icak4knat","lat":49.290638,"address":"550 Nicola St.","long":-123.128151},"type":"Feature","geometry":{"type":"Point","coordinates":[-123.128151,49.290638]}},{"properties":{"offence":"A2","tickets":1726.0,"id":"a62icak8m475","lat":49.262306,"address":"650 10th Ave W.","long":-123.118767},"type":"Feature","geometry":{"type":"Point","coordinates":[-123.118767,49.262306]}},{"properties":{"offence":"A2","tickets":1727.0,"id":"a62icag9jdyi","lat":49.261955,"address":"2650 Laurel St.","long":-123.125381},"type":"Feature","geometry":{"type":"Point","coordinates":[-123.125381,49.261955]}},{"properties":{"offence":"A2","tickets":1739.0,"id":"a62icasy78sa","lat":49.27787,"address":"1250 Hornby St.","long":-123.128944},"type":"Feature","geometry":{"type":"Point","coordinates":[-123.128944,49.27787]}},{"properties":{"offence":"A2","tickets":1771.0,"id":"a62icalsrptd","lat":49.282314,"address":"150 Cordova St. E.","long":-123.100899},"type":"Feature","geometry":{"type":"Point","coordinates":[-123.100899,49.282314]}},{"properties":{"offence":"A2","tickets":1775.0,"id":"a62icahxfu9t","lat":49.261684,"address":"1450 11th Ave W.","long":-123.137383},"type":"Feature","geometry":{"type":"Point","coordinates":[-123.137383,49.261684]}},{"properties":{"offence":"A2","tickets":1782.0,"id":"a62icamvbn9r","lat":49.269775,"address":"1750 2nd Ave W.","long":-123.144341},"type":"Feature","geometry":{"type":"Point","coordinates":[-123.144341,49.269775]}},{"properties":{"offence":"A2","tickets":1791.0,"id":"a62icafryi4y","lat":49.261246,"address":"2750 Granville St.","long":-123.138634},"type":"Feature","geometry":{"type":"Point","coordinates":[-123.138634,49.261246]}},{"properties":{"offence":"A2","tickets":1815.0,"id":"a62icap9xbrj","lat":49.277267,"address":"1250 Howe St.","long":-123.128006},"type":"Feature","geometry":{"type":"Point","coordinates":[-123.128006,49.277267]}},{"properties":{"offence":"A2","tickets":1832.0,"id":"a62icaj47rpm","lat":49.287525,"address":"1050 Hastings St. W.","long":-123.118217},"type":"Feature","geometry":{"type":"Point","coordinates":[-123.118217,49.287525]}},{"properties":{"offence":"A2","tickets":1832.0,"id":"a62icat47s24","lat":49.288559,"address":"1150 Cordova St. W.","long":-123.119766},"type":"Feature","geometry":{"type":"Point","coordinates":[-123.119766,49.288559]}},{"properties":{"offence":"A2","tickets":1851.0,"id":"a62icamfmjsz","lat":49.279377,"address":"750 Hamilton St.","long":-123.11512},"type":"Feature","geometry":{"type":"Point","coordinates":[-123.11512,49.279377]}},{"properties":{"offence":"A2","tickets":1856.0,"id":"a62icagu3bld","lat":49.283085,"address":"450 Homer St.","long":-123.111435},"type":"Feature","geometry":{"type":"Point","coordinates":[-123.111435,49.283085]}},{"properties":{"offence":"A2","tickets":1866.0,"id":"a62icap7imjn","lat":49.282898,"address":"550 Richards St.","long":-123.113647},"type":"Feature","geometry":{"type":"Point","coordinates":[-123.113647,49.282898]}},{"properties":{"offence":"A2","tickets":1871.0,"id":"a62icav3i7sm","lat":49.281139,"address":"650 Homer St.","long":-123.114357},"type":"Feature","geometry":{"type":"Point","coordinates":[-123.114357,49.281139]}},{"properties":{"offence":"A2","tickets":1906.0,"id":"a62icanlum6p","lat":49.279163,"address":"350 Robson St.","long":-123.116425},"type":"Feature","geometry":{"type":"Point","coordinates":[-123.116425,49.279163]}},{"properties":{"offence":"A2","tickets":1906.0,"id":"a62icaq75hnx","lat":49.280716,"address":"50 Pender St. W.","long":-123.105637},"type":"Feature","geometry":{"type":"Point","coordinates":[-123.105637,49.280716]}},{"properties":{"offence":"A2","tickets":1906.0,"id":"a62icar89pgj","lat":49.283184,"address":"750 Hornby St.","long":-123.120949},"type":"Feature","geometry":{"type":"Point","coordinates":[-123.120949,49.283184]}},{"properties":{"offence":"A2","tickets":1919.0,"id":"a62icanitdek","lat":49.28838,"address":"1150 Hastings St. W.","long":-123.121277},"type":"Feature","geometry":{"type":"Point","coordinates":[-123.121277,49.28838]}},{"properties":{"offence":"A2","tickets":1946.0,"id":"a62icap4en00","lat":49.283733,"address":"350 Homer St.","long":-123.110451},"type":"Feature","geometry":{"type":"Point","coordinates":[-123.110451,49.283733]}},{"properties":{"offence":"A2","tickets":1951.0,"id":"a62icakvzdu8","lat":49.27787,"address":"650 Helmcken St.","long":-123.124115},"type":"Feature","geometry":{"type":"Point","coordinates":[-123.124115,49.27787]}},{"properties":{"offence":"A2","tickets":1956.0,"id":"a62ican67qzn","lat":49.287937,"address":"1150 Pender St. W.","long":-123.121941},"type":"Feature","geometry":{"type":"Point","coordinates":[-123.121941,49.287937]}},{"properties":{"offence":"A2","tickets":1964.0,"id":"a62icauml0qm","lat":49.272594,"address":"150 Drake St.","long":-123.122322},"type":"Feature","geometry":{"type":"Point","coordinates":[-123.122322,49.272594]}},{"properties":{"offence":"A2","tickets":2025.0,"id":"a62icah0lmiy","lat":49.273636,"address":"1250 Pacific Blvd.","long":-123.122688},"type":"Feature","geometry":{"type":"Point","coordinates":[-123.122688,49.273636]}},{"properties":{"offence":"A2","tickets":2028.0,"id":"a62icapawbc1","lat":49.281109,"address":"1150 Davie St.","long":-123.132301},"type":"Feature","geometry":{"type":"Point","coordinates":[-123.132301,49.281109]}},{"properties":{"offence":"A2","tickets":2052.0,"id":"a62icambcwt7","lat":49.287468,"address":"1350 Robson St.","long":-123.129257},"type":"Feature","geometry":{"type":"Point","coordinates":[-123.129257,49.287468]}},{"properties":{"offence":"A2","tickets":2063.0,"id":"a62icataxb05","lat":49.261723,"address":"1550 11th Ave W.","long":-123.139854},"type":"Feature","geometry":{"type":"Point","coordinates":[-123.139854,49.261723]}},{"properties":{"offence":"A2","tickets":2088.0,"id":"a62icanzq2gs","lat":49.277451,"address":"1050 Richards St.","long":-123.121887},"type":"Feature","geometry":{"type":"Point","coordinates":[-123.121887,49.277451]}},{"properties":{"offence":"A2","tickets":2091.0,"id":"a62icav12zv9","lat":49.283215,"address":"150 Powell St.","long":-123.100845},"type":"Feature","geometry":{"type":"Point","coordinates":[-123.100845,49.283215]}},{"properties":{"offence":"A2","tickets":2105.0,"id":"a62icafe8atr","lat":49.279568,"address":"850 Richards St.","long":-123.11869},"type":"Feature","geometry":{"type":"Point","coordinates":[-123.11869,49.279568]}},{"properties":{"offence":"A2","tickets":2111.0,"id":"a62icafhwt9d","lat":49.283455,"address":"1050 Haro St.","long":-123.125229},"type":"Feature","geometry":{"type":"Point","coordinates":[-123.125229,49.283455]}},{"properties":{"offence":"A2","tickets":2123.0,"id":"a62icap5rnaa","lat":49.264164,"address":"2450 Pine St.","long":-123.143379},"type":"Feature","geometry":{"type":"Point","coordinates":[-123.143379,49.264164]}},{"properties":{"offence":"A2","tickets":2132.0,"id":"a62icavfnkyw","lat":49.267994,"address":"1750 4th Ave W.","long":-123.144424},"type":"Feature","geometry":{"type":"Point","coordinates":[-123.144424,49.267994]}},{"properties":{"offence":"A2","tickets":2144.0,"id":"a62icaftb9sc","lat":49.285007,"address":"750 Thurlow St.","long":-123.124222},"type":"Feature","geometry":{"type":"Point","coordinates":[-123.124222,49.285007]}},{"properties":{"offence":"A2","tickets":2164.0,"id":"a62icahijmb9","lat":49.283035,"address":"350 Cambie St.","long":-123.109383},"type":"Feature","geometry":{"type":"Point","coordinates":[-123.109383,49.283035]}},{"properties":{"offence":"A2","tickets":2166.0,"id":"a62icaimhi8p","lat":49.274364,"address":"1150 Pacific Blvd.","long":-123.119949},"type":"Feature","geometry":{"type":"Point","coordinates":[-123.119949,49.274364]}},{"properties":{"offence":"A2","tickets":2186.0,"id":"a62icam2eaak","lat":49.28339,"address":"250 Abbott St.","long":-123.106613},"type":"Feature","geometry":{"type":"Point","coordinates":[-123.106613,49.28339]}},{"properties":{"offence":"A2","tickets":2190.0,"id":"a62icafacahf","lat":49.26532,"address":"1450 7th Ave W.","long":-123.137192},"type":"Feature","geometry":{"type":"Point","coordinates":[-123.137192,49.26532]}},{"properties":{"offence":"A2","tickets":2267.0,"id":"a62icaibjiui","lat":49.277004,"address":"1150 Seymour St.","long":-123.12442},"type":"Feature","geometry":{"type":"Point","coordinates":[-123.12442,49.277004]}},{"properties":{"offence":"A2","tickets":2279.0,"id":"a62icarzdu6c","lat":49.279533,"address":"50 Keefer Pl.","long":-123.106567},"type":"Feature","geometry":{"type":"Point","coordinates":[-123.106567,49.279533]}},{"properties":{"offence":"A2","tickets":2279.0,"id":"a62icalmnda1","lat":49.282318,"address":"1250 Davie St.","long":-123.134148},"type":"Feature","geometry":{"type":"Point","coordinates":[-123.134148,49.282318]}},{"properties":{"offence":"A2","tickets":2304.0,"id":"a62icatewny5","lat":49.259357,"address":"2950 Granville St.","long":-123.138725},"type":"Feature","geometry":{"type":"Point","coordinates":[-123.138725,49.259357]}},{"properties":{"offence":"A2","tickets":2304.0,"id":"a62icapng23d","lat":49.26284,"address":"2550 Laurel St.","long":-123.124214},"type":"Feature","geometry":{"type":"Point","coordinates":[-123.124214,49.26284]}},{"properties":{"offence":"A2","tickets":2313.0,"id":"a62icarpas97","lat":49.276615,"address":"1250 Granville St.","long":-123.126991},"type":"Feature","geometry":{"type":"Point","coordinates":[-123.126991,49.276615]}},{"properties":{"offence":"A2","tickets":2316.0,"id":"a62icaiifcji","lat":49.273731,"address":"1350 Homer St.","long":-123.125496},"type":"Feature","geometry":{"type":"Point","coordinates":[-123.125496,49.273731]}},{"properties":{"offence":"A2","tickets":2322.0,"id":"a62icaq1syil","lat":49.26318,"address":"2550 Pine St.","long":-123.14344},"type":"Feature","geometry":{"type":"Point","coordinates":[-123.14344,49.26318]}},{"properties":{"offence":"A2","tickets":2330.0,"id":"a62icalj95hu","lat":49.286495,"address":"1250 Robson St.","long":-123.127762},"type":"Feature","geometry":{"type":"Point","coordinates":[-123.127762,49.286495]}},{"properties":{"offence":"A2","tickets":2372.0,"id":"a62icamvsfp3","lat":49.278717,"address":"1050 Granville St.","long":-123.12384},"type":"Feature","geometry":{"type":"Point","coordinates":[-123.12384,49.278717]}},{"properties":{"offence":"A2","tickets":2386.0,"id":"a62icasj7qk5","lat":49.263084,"address":"150 Broadway St. W.","long":-123.108185},"type":"Feature","geometry":{"type":"Point","coordinates":[-123.108185,49.263084]}},{"properties":{"offence":"A2","tickets":2390.0,"id":"a62icalgx86r","lat":49.263229,"address":"550 Broadway St. W.","long":-123.116249},"type":"Feature","geometry":{"type":"Point","coordinates":[-123.116249,49.263229]}},{"properties":{"offence":"A2","tickets":2397.0,"id":"a62icat08tzc","lat":49.282742,"address":"850 Burrard St.","long":-123.123627},"type":"Feature","geometry":{"type":"Point","coordinates":[-123.123627,49.282742]}},{"properties":{"offence":"A2","tickets":2405.0,"id":"a62icaif5zqd","lat":49.279743,"address":"1050 Davie St.","long":-123.130219},"type":"Feature","geometry":{"type":"Point","coordinates":[-123.130219,49.279743]}},{"properties":{"offence":"A2","tickets":2423.0,"id":"a62icahlpwrq","lat":49.28817,"address":"1350 Alberni St.","long":-123.128181},"type":"Feature","geometry":{"type":"Point","coordinates":[-123.128181,49.28817]}},{"properties":{"offence":"A2","tickets":2426.0,"id":"a62icas46avy","lat":49.279793,"address":"950 Helmcken St.","long":-123.127113},"type":"Feature","geometry":{"type":"Point","coordinates":[-123.127113,49.279793]}},{"properties":{"offence":"A2","tickets":2429.0,"id":"a62icalt8voz","lat":49.280373,"address":"550 Abbott St.","long":-123.107605},"type":"Feature","geometry":{"type":"Point","coordinates":[-123.107605,49.280373]}},{"properties":{"offence":"A2","tickets":2451.0,"id":"a62icaq5mv36","lat":49.275349,"address":"1250 Richards St.","long":-123.125061},"type":"Feature","geometry":{"type":"Point","coordinates":[-123.125061,49.275349]}},{"properties":{"offence":"A2","tickets":2456.0,"id":"a62icak4ijk0","lat":49.263744,"address":"2450 Heather St.","long":-123.119858},"type":"Feature","geometry":{"type":"Point","coordinates":[-123.119858,49.263744]}},{"properties":{"offence":"A2","tickets":2467.0,"id":"a62icak4mf3v","lat":49.281792,"address":"550 Homer St.","long":-123.113373},"type":"Feature","geometry":{"type":"Point","coordinates":[-123.113373,49.281792]}},{"properties":{"offence":"A2","tickets":2477.0,"id":"a62icafun5aq","lat":49.279114,"address":"950 Seymour St.","long":-123.121231},"type":"Feature","geometry":{"type":"Point","coordinates":[-123.121231,49.279114]}},{"properties":{"offence":"A2","tickets":2483.0,"id":"a62icauejgh9","lat":49.283455,"address":"1050 Haro Div.","long":-123.125229},"type":"Feature","geometry":{"type":"Point","coordinates":[-123.125229,49.283455]}},{"properties":{"offence":"A2","tickets":2491.0,"id":"a62icaurzz54","lat":49.233574,"address":"2050 42nd Ave W.","long":-123.15358},"type":"Feature","geometry":{"type":"Point","coordinates":[-123.15358,49.233574]}},{"properties":{"offence":"A2","tickets":2493.0,"id":"a62icap8xy4g","lat":49.262657,"address":"1550 10th Ave W.","long":-123.139847},"type":"Feature","geometry":{"type":"Point","coordinates":[-123.139847,49.262657]}},{"properties":{"offence":"A2","tickets":2509.0,"id":"a62icam6559i","lat":49.263336,"address":"850 Broadway St. W.","long":-123.123032},"type":"Feature","geometry":{"type":"Point","coordinates":[-123.123032,49.263336]}},{"properties":{"offence":"A2","tickets":2514.0,"id":"a62icanwbt5d","lat":49.282349,"address":"50 Cordova St. E.","long":-123.103249},"type":"Feature","geometry":{"type":"Point","coordinates":[-123.103249,49.282349]}},{"properties":{"offence":"A2","tickets":2543.0,"id":"a62icary8hy0","lat":49.2603,"address":"2850 Granville St.","long":-123.138718},"type":"Feature","geometry":{"type":"Point","coordinates":[-123.138718,49.2603]}},{"properties":{"offence":"A2","tickets":2566.0,"id":"a62icavfwgmw","lat":49.264194,"address":"650 8th Ave W.","long":-123.118668},"type":"Feature","geometry":{"type":"Point","coordinates":[-123.118668,49.264194]}},{"properties":{"offence":"A2","tickets":2589.0,"id":"a62icavdtveh","lat":49.285927,"address":"1050 Dunsmuir St.","long":-123.120216},"type":"Feature","geometry":{"type":"Point","coordinates":[-123.120216,49.285927]}},{"properties":{"offence":"A2","tickets":2597.0,"id":"a62icar076xn","lat":49.234642,"address":"2250 41st Ave W.","long":-123.159233},"type":"Feature","geometry":{"type":"Point","coordinates":[-123.159233,49.234642]}},{"properties":{"offence":"A2","tickets":2628.0,"id":"a62icar9cpe7","lat":49.263702,"address":"2450 Ash St.","long":-123.117493},"type":"Feature","geometry":{"type":"Point","coordinates":[-123.117493,49.263702]}},{"properties":{"offence":"A2","tickets":2663.0,"id":"a62icas8qi71","lat":49.263569,"address":"1450 Broadway St. W.","long":-123.13723},"type":"Feature","geometry":{"type":"Point","coordinates":[-123.13723,49.263569]}},{"properties":{"offence":"A2","tickets":2678.0,"id":"a62icagkzp74","lat":49.263603,"address":"1550 Broadway St. W.","long":-123.139824},"type":"Feature","geometry":{"type":"Point","coordinates":[-123.139824,49.263603]}},{"properties":{"offence":"A2","tickets":2703.0,"id":"a62icage191w","lat":49.275555,"address":"1050 Cambie St.","long":-123.118484},"type":"Feature","geometry":{"type":"Point","coordinates":[-123.118484,49.275555]}},{"properties":{"offence":"A2","tickets":2715.0,"id":"a62icame1757","lat":49.28244,"address":"450 Hamilton St.","long":-123.110466},"type":"Feature","geometry":{"type":"Point","coordinates":[-123.110466,49.28244]}},{"properties":{"offence":"A2","tickets":2727.0,"id":"a62icatp98ov","lat":49.280651,"address":"750 Richards St.","long":-123.11705},"type":"Feature","geometry":{"type":"Point","coordinates":[-123.11705,49.280651]}},{"properties":{"offence":"A2","tickets":2760.0,"id":"a62icagrtjnj","lat":49.281185,"address":"550 Hamilton St.","long":-123.112366},"type":"Feature","geometry":{"type":"Point","coordinates":[-123.112366,49.281185]}},{"properties":{"offence":"A2","tickets":2762.0,"id":"a62icand3lud","lat":49.280014,"address":"750 Homer St.","long":-123.116058},"type":"Feature","geometry":{"type":"Point","coordinates":[-123.116058,49.280014]}},{"properties":{"offence":"A2","tickets":2805.0,"id":"a62icaqfztzi","lat":49.287247,"address":"1250 Alberni St.","long":-123.126709},"type":"Feature","geometry":{"type":"Point","coordinates":[-123.126709,49.287247]}},{"properties":{"offence":"A2","tickets":2837.0,"id":"a62icauzny9v","lat":49.277176,"address":"950 Mainland St","long":-123.118217},"type":"Feature","geometry":{"type":"Point","coordinates":[-123.118217,49.277176]}},{"properties":{"offence":"A2","tickets":2842.0,"id":"a62icaonzeqq","lat":49.27853,"address":"750 Helmcken St.","long":-123.125122},"type":"Feature","geometry":{"type":"Point","coordinates":[-123.125122,49.27853]}},{"properties":{"offence":"A2","tickets":2847.0,"id":"a62icaquvolp","lat":49.273453,"address":"150 Davie St.","long":-123.120552},"type":"Feature","geometry":{"type":"Point","coordinates":[-123.120552,49.273453]}},{"properties":{"offence":"A2","tickets":2880.0,"id":"a62icaufpbx7","lat":49.278313,"address":"1150 Howe St.","long":-123.126427},"type":"Feature","geometry":{"type":"Point","coordinates":[-123.126427,49.278313]}},{"properties":{"offence":"A2","tickets":2928.0,"id":"a62icapenxw2","lat":49.28054,"address":"550 Beatty St.","long":-123.109482},"type":"Feature","geometry":{"type":"Point","coordinates":[-123.109482,49.28054]}},{"properties":{"offence":"A2","tickets":2930.0,"id":"a62icaglrhm0","lat":49.277054,"address":"850 Beatty St.","long":-123.114784},"type":"Feature","geometry":{"type":"Point","coordinates":[-123.114784,49.277054]}},{"properties":{"offence":"A2","tickets":2985.0,"id":"a62icauxt8qs","lat":49.258457,"address":"3050 Granville St.","long":-123.138733},"type":"Feature","geometry":{"type":"Point","coordinates":[-123.138733,49.258457]}},{"properties":{"offence":"A2","tickets":3030.0,"id":"a62icam9oku9","lat":49.278301,"address":"850 Hamilton St.","long":-123.116745},"type":"Feature","geometry":{"type":"Point","coordinates":[-123.116745,49.278301]}},{"properties":{"offence":"A2","tickets":3030.0,"id":"a62icav7yyxx","lat":49.278919,"address":"1150 Hornby St.","long":-123.12738},"type":"Feature","geometry":{"type":"Point","coordinates":[-123.12738,49.278919]}},{"properties":{"offence":"A2","tickets":3099.0,"id":"a62icalx00si","lat":49.263367,"address":"1050 Broadway St. W.","long":-123.127747},"type":"Feature","geometry":{"type":"Point","coordinates":[-123.127747,49.263367]}},{"properties":{"offence":"A2","tickets":3106.0,"id":"a62icapgsm7e","lat":49.263504,"address":"1250 Broadway St. W.","long":-123.132553},"type":"Feature","geometry":{"type":"Point","coordinates":[-123.132553,49.263504]}},{"properties":{"offence":"A2","tickets":3116.0,"id":"a62icatsm836","lat":49.234539,"address":"2050 41st Ave W.","long":-123.15255},"type":"Feature","geometry":{"type":"Point","coordinates":[-123.15255,49.234539]}},{"properties":{"offence":"A2","tickets":3172.0,"id":"a62icapejcna","lat":49.276623,"address":"450 Helmcken St.","long":-123.122177},"type":"Feature","geometry":{"type":"Point","coordinates":[-123.122177,49.276623]}},{"properties":{"offence":"A2","tickets":3236.0,"id":"a62icaorjusu","lat":49.279366,"address":"1050 Howe St.","long":-123.124847},"type":"Feature","geometry":{"type":"Point","coordinates":[-123.124847,49.279366]}},{"properties":{"offence":"A2","tickets":3252.0,"id":"a62icaq3m5wh","lat":49.283607,"address":"50 Alexander St.","long":-123.103104},"type":"Feature","geometry":{"type":"Point","coordinates":[-123.103104,49.283607]}},{"properties":{"offence":"A2","tickets":3257.0,"id":"a62icajxwtxg","lat":49.265362,"address":"1550 7th Ave W.","long":-123.139816},"type":"Feature","geometry":{"type":"Point","coordinates":[-123.139816,49.265362]}},{"properties":{"offence":"A2","tickets":3264.0,"id":"a62icarouev3","lat":49.282677,"address":"50 Cordova St. W.","long":-123.10553},"type":"Feature","geometry":{"type":"Point","coordinates":[-123.10553,49.282677]}},{"properties":{"offence":"A2","tickets":3267.0,"id":"a62icaqjdye7","lat":49.266201,"address":"1550 6th Ave W.","long":-123.139862},"type":"Feature","geometry":{"type":"Point","coordinates":[-123.139862,49.266201]}},{"properties":{"offence":"A2","tickets":3276.0,"id":"a62icaig1kc2","lat":49.26461,"address":"1750 8th Ave W.","long":-123.144562},"type":"Feature","geometry":{"type":"Point","coordinates":[-123.144562,49.26461]}},{"properties":{"offence":"A2","tickets":3407.0,"id":"a62icaf23tfx","lat":49.234608,"address":"2150 41st Ave W.","long":-123.157143},"type":"Feature","geometry":{"type":"Point","coordinates":[-123.157143,49.234608]}},{"properties":{"offence":"A2","tickets":3444.0,"id":"a62icafrzbr9","lat":49.264526,"address":"1550 8th Ave W.","long":-123.139801},"type":"Feature","geometry":{"type":"Point","coordinates":[-123.139801,49.264526]}},{"properties":{"offence":"A2","tickets":3492.0,"id":"a62icapp1z79","lat":49.284374,"address":"550 Howe St.","long":-123.117226},"type":"Feature","geometry":{"type":"Point","coordinates":[-123.117226,49.284374]}},{"properties":{"offence":"A2","tickets":3526.0,"id":"a62icanj3jxu","lat":49.264145,"address":"550 8th Ave W.","long":-123.116196},"type":"Feature","geometry":{"type":"Point","coordinates":[-123.116196,49.264145]}},{"properties":{"offence":"A2","tickets":3593.0,"id":"a62icat5odsr","lat":49.288067,"address":"1050 Cordova St. W.","long":-123.117821},"type":"Feature","geometry":{"type":"Point","coordinates":[-123.117821,49.288067]}},{"properties":{"offence":"A2","tickets":3642.0,"id":"a62icatsc5vi","lat":49.287926,"address":"950 Canada Pl.","long":-123.114876},"type":"Feature","geometry":{"type":"Point","coordinates":[-123.114876,49.287926]}},{"properties":{"offence":"A2","tickets":3687.0,"id":"a62icard7z9p","lat":49.285408,"address":"550 Hornby St.","long":-123.117599},"type":"Feature","geometry":{"type":"Point","coordinates":[-123.117599,49.285408]}},{"properties":{"offence":"A2","tickets":3693.0,"id":"a62icakmf78k","lat":49.262165,"address":"2650 Granville St.","long":-123.13858},"type":"Feature","geometry":{"type":"Point","coordinates":[-123.13858,49.262165]}},{"properties":{"offence":"A2","tickets":3703.0,"id":"a62icajbpl4c","lat":49.280437,"address":"950 Howe St.","long":-123.123253},"type":"Feature","geometry":{"type":"Point","coordinates":[-123.123253,49.280437]}},{"properties":{"offence":"A2","tickets":3735.0,"id":"a62icaolmqn4","lat":49.286064,"address":"1150 Alberni St.","long":-123.124832},"type":"Feature","geometry":{"type":"Point","coordinates":[-123.124832,49.286064]}},{"properties":{"offence":"A2","tickets":3865.0,"id":"a62icajwhk9v","lat":49.263271,"address":"650 Broadway St. W.","long":-123.118729},"type":"Feature","geometry":{"type":"Point","coordinates":[-123.118729,49.263271]}},{"properties":{"offence":"A2","tickets":3866.0,"id":"a62icakxei3b","lat":49.278503,"address":"950 Richards St.","long":-123.120293},"type":"Feature","geometry":{"type":"Point","coordinates":[-123.120293,49.278503]}},{"properties":{"offence":"A2","tickets":3876.0,"id":"a62icahl79mt","lat":49.268219,"address":"2350 4th Ave W.","long":-123.158699},"type":"Feature","geometry":{"type":"Point","coordinates":[-123.158699,49.268219]}},{"properties":{"offence":"A2","tickets":3913.0,"id":"a62icaob83zp","lat":49.26355,"address":"1350 Broadway St. W.","long":-123.134888},"type":"Feature","geometry":{"type":"Point","coordinates":[-123.134888,49.26355]}},{"properties":{"offence":"A2","tickets":3979.0,"id":"a62ican6p4tl","lat":49.27916,"address":"850 Helmcken St.","long":-123.126114},"type":"Feature","geometry":{"type":"Point","coordinates":[-123.126114,49.27916]}},{"properties":{"offence":"A2","tickets":4004.0,"id":"a62icanbwns3","lat":49.270683,"address":"1850 1st Ave W.","long":-123.146675},"type":"Feature","geometry":{"type":"Point","coordinates":[-123.146675,49.270683]}},{"properties":{"offence":"A2","tickets":4017.0,"id":"a62icarf05mt","lat":49.263325,"address":"950 Broadway St. W.","long":-123.12542},"type":"Feature","geometry":{"type":"Point","coordinates":[-123.12542,49.263325]}},{"properties":{"offence":"A2","tickets":4057.0,"id":"a62icam4gas1","lat":49.286942,"address":"850 Cordova St. W.","long":-123.114388},"type":"Feature","geometry":{"type":"Point","coordinates":[-123.114388,49.286942]}},{"properties":{"offence":"A2","tickets":4062.0,"id":"a62icalqgdxt","lat":49.268024,"address":"1850 4th Ave W.","long":-123.146866},"type":"Feature","geometry":{"type":"Point","coordinates":[-123.146866,49.268024]}},{"properties":{"offence":"A2","tickets":4151.0,"id":"a62icatsjo4k","lat":49.28149,"address":"850 Howe St.","long":-123.121651},"type":"Feature","geometry":{"type":"Point","coordinates":[-123.121651,49.28149]}},{"properties":{"offence":"A2","tickets":4184.0,"id":"a62icaorw723","lat":49.274715,"address":"1250 Homer St.","long":-123.124077},"type":"Feature","geometry":{"type":"Point","coordinates":[-123.124077,49.274715]}},{"properties":{"offence":"A2","tickets":4278.0,"id":"a62icafa6e8o","lat":49.287437,"address":"950 Cordova St. W.","long":-123.115585},"type":"Feature","geometry":{"type":"Point","coordinates":[-123.115585,49.287437]}},{"properties":{"offence":"A2","tickets":4490.0,"id":"a62icasslyul","lat":49.264481,"address":"1450 8th Ave W.","long":-123.137222},"type":"Feature","geometry":{"type":"Point","coordinates":[-123.137222,49.264481]}},{"properties":{"offence":"A2","tickets":4533.0,"id":"a62icaoa0ewu","lat":49.276405,"address":"1150 Richards St.","long":-123.123474},"type":"Feature","geometry":{"type":"Point","coordinates":[-123.123474,49.276405]}},{"properties":{"offence":"A2","tickets":4628.0,"id":"a62icauk73qj","lat":49.287174,"address":"1150 Melville St.","long":-123.123108},"type":"Feature","geometry":{"type":"Point","coordinates":[-123.123108,49.287174]}},{"properties":{"offence":"A2","tickets":4840.0,"id":"a62icau7mqvv","lat":49.276264,"address":"1050 Hamilton St.","long":-123.12056},"type":"Feature","geometry":{"type":"Point","coordinates":[-123.12056,49.276264]}},{"properties":{"offence":"A2","tickets":4872.0,"id":"a62icau9qbtu","lat":49.278946,"address":"850 Homer St.","long":-123.117683},"type":"Feature","geometry":{"type":"Point","coordinates":[-123.117683,49.278946]}},{"properties":{"offence":"A2","tickets":4958.0,"id":"a62icanncyi7","lat":49.27504,"address":"1150 Mainland St","long":-123.121346},"type":"Feature","geometry":{"type":"Point","coordinates":[-123.121346,49.27504]}},{"properties":{"offence":"A2","tickets":5029.0,"id":"a62icakj1pvo","lat":49.274334,"address":"1250 Hamilton St.","long":-123.123482},"type":"Feature","geometry":{"type":"Point","coordinates":[-123.123482,49.274334]}},{"properties":{"offence":"A2","tickets":5092.0,"id":"a62icaqj4tcf","lat":49.263737,"address":"1750 Broadway St. W.","long":-123.144539},"type":"Feature","geometry":{"type":"Point","coordinates":[-123.144539,49.263737]}},{"properties":{"offence":"A2","tickets":5221.0,"id":"a62icancxynk","lat":49.263695,"address":"1650 Broadway St. W.","long":-123.142235},"type":"Feature","geometry":{"type":"Point","coordinates":[-123.142235,49.263695]}},{"properties":{"offence":"A2","tickets":5248.0,"id":"a62icak4cxn7","lat":49.26347,"address":"1150 Broadway St. W.","long":-123.130188},"type":"Feature","geometry":{"type":"Point","coordinates":[-123.130188,49.26347]}},{"properties":{"offence":"A2","tickets":5252.0,"id":"a62icauedk93","lat":49.284691,"address":"1050 Alberni St.","long":-123.122704},"type":"Feature","geometry":{"type":"Point","coordinates":[-123.122704,49.284691]}},{"properties":{"offence":"A2","tickets":5317.0,"id":"a62icao3arc9","lat":49.268135,"address":"2150 4th Ave W.","long":-123.153984},"type":"Feature","geometry":{"type":"Point","coordinates":[-123.153984,49.268135]}},{"properties":{"offence":"A2","tickets":5594.0,"id":"a62icao9zyps","lat":49.268101,"address":"2050 4th Ave W.","long":-123.151604},"type":"Feature","geometry":{"type":"Point","coordinates":[-123.151604,49.268101]}},{"properties":{"offence":"A2","tickets":5868.0,"id":"a62icaofu6wt","lat":49.285301,"address":"1150 Robson St.","long":-123.125923},"type":"Feature","geometry":{"type":"Point","coordinates":[-123.125923,49.285301]}},{"properties":{"offence":"A2","tickets":5920.0,"id":"a62icalp97pq","lat":49.275757,"address":"1150 Homer St.","long":-123.12249},"type":"Feature","geometry":{"type":"Point","coordinates":[-123.12249,49.275757]}},{"properties":{"offence":"A2","tickets":6005.0,"id":"a62icaj9u6o6","lat":49.277882,"address":"950 Homer St.","long":-123.119286},"type":"Feature","geometry":{"type":"Point","coordinates":[-123.119286,49.277882]}},{"properties":{"offence":"A2","tickets":6057.0,"id":"a62icasr2dtn","lat":49.268063,"address":"1950 4th Ave W.","long":-123.149208},"type":"Feature","geometry":{"type":"Point","coordinates":[-123.149208,49.268063]}},{"properties":{"offence":"A2","tickets":6488.0,"id":"a62icag46i1v","lat":49.276089,"address":"1050 Mainland St","long":-123.119766},"type":"Feature","geometry":{"type":"Point","coordinates":[-123.119766,49.276089]}},{"properties":{"offence":"A2","tickets":6537.0,"id":"a62icag4hkzq","lat":49.27681,"address":"1050 Homer St.","long":-123.120895},"type":"Feature","geometry":{"type":"Point","coordinates":[-123.120895,49.27681]}},{"properties":{"offence":"A2","tickets":6823.0,"id":"a62icamfxpbi","lat":49.281044,"address":"950 Hornby St.","long":-123.124191},"type":"Feature","geometry":{"type":"Point","coordinates":[-123.124191,49.281044]}},{"properties":{"offence":"A2","tickets":6899.0,"id":"a62icaovuc26","lat":49.268169,"address":"2250 4th Ave W.","long":-123.156342},"type":"Feature","geometry":{"type":"Point","coordinates":[-123.156342,49.268169]}},{"properties":{"offence":"A2","tickets":7000.0,"id":"a62icarf2wsi","lat":49.283955,"address":"1050 Robson St.","long":-123.123848},"type":"Feature","geometry":{"type":"Point","coordinates":[-123.123848,49.283955]}},{"properties":{"offence":"A2","tickets":7160.0,"id":"a62icauog5zk","lat":49.275387,"address":"1150 Hamilton St.","long":-123.12188},"type":"Feature","geometry":{"type":"Point","coordinates":[-123.12188,49.275387]}},{"properties":{"offence":"A2","tickets":7468.0,"id":"a62icaqnwo4n","lat":49.284313,"address":"650 Hornby St.","long":-123.11924},"type":"Feature","geometry":{"type":"Point","coordinates":[-123.11924,49.284313]}},{"properties":{"offence":"A2","tickets":7631.0,"id":"a62icaqpckp3","lat":49.279987,"address":"1050 Hornby St.","long":-123.125801},"type":"Feature","geometry":{"type":"Point","coordinates":[-123.125801,49.279987]}},{"properties":{"offence":"A2","tickets":7689.0,"id":"a62icarpokj3","lat":49.282097,"address":"850 Hornby St.","long":-123.122581},"type":"Feature","geometry":{"type":"Point","coordinates":[-123.122581,49.282097]}}],"is_temporal":false,"author":{"url":"http://www.vancouversun.com/parking/basic-search.html","metadata":"","contact_name":"","contact_address":"","source":"Vancouver Sun","contact_phone":""},"source":"http://www.vancouversun.com/parking/basic-search.html","pagination":{"sort":null,"start":0,"total":640,"limit":1000000},"state":"complete","tags":"parking,sun,the,vancouver","published":"2009-02-18T12:00:00Z","id":10413}