{"type":"FeatureCollection","data_type":"Dataset","url_type":null,"permissions":[{"permissions":{"download":true,"view":true},"group_id":"everyone"}],"classification":null,"title":"Fragrance free policies by city","count":41,"stream_id":104129,"contributor":{"url":"http://geocommons.com/users/23510","name":"23510"},"data_attributes":null,"calculation_params":null,"icon_link":null,"link":"http://geocommons.com/overlays/104129.json","extent":[-123.119,5.2872,95.9574,54.7169],"geometry_types":["point"],"unique_name":null,"name":"Fragrance free policies by city","feature_count":41,"description":"","next_feature":null,"is_raster":false,"short_classification":"Y","stats":{},"features":[{"properties":{"city":"Boston","institution":"Brigham and Women's Hospital","geo_score":0.929,"country":"US","id":"a6toi6kz014b","geo_precision":"zip","state":"MA"},"type":"Feature","geometry":{"type":"Point","coordinates":[-7.15,31.96]}},{"properties":{"city":"Paris","institution":"Brantford General Hospital","geo_score":0.857,"country":"Canada","id":"a6toi6pp866d","geo_precision":"zip","state":"Ontario"},"type":"Feature","geometry":{"type":"Point","coordinates":[2.3488,48.85341]}},{"properties":{"city":"Kingston","institution":"Hotel Dieu Hospital","geo_score":0.857,"country":"Canada","id":"a6toi6jj34y0","geo_precision":"zip","state":"Ontario"},"type":"Feature","geometry":{"type":"Point","coordinates":[-76.7935752868652,17.9970194353704]}},{"properties":{"city":"Terrace Bay","institution":"The McCausland Hospital","geo_score":0.729,"country":"Canada","id":"a6toi6pcv8mq","geo_precision":"zip","state":"Ontario"},"type":"Feature","geometry":{"type":"Point","coordinates":[-11.7383333,7.9647222]}},{"properties":{"city":"Stephenville","institution":"Western Health Authority","geo_score":0.0,"country":"US","id":"a6toi6hbxzf9","geo_precision":"unmatched","state":"NL"},"type":"Feature","geometry":null},{"properties":{"city":"Portland","institution":"Portland State University","geo_score":0.0,"country":"US","id":"a6toi6fw8176","geo_precision":"unmatched","state":"OR"},"type":"Feature","geometry":null},{"properties":{"city":"Minneapolis","institution":"Minneapolis Public School District - Pilot Program","geo_score":0.0,"country":"US","id":"a6toi6hwb5zf","geo_precision":"unmatched","state":"MN"},"type":"Feature","geometry":null},{"properties":{"city":"Seattle","institution":"North Seattle Community College","geo_score":0.0,"country":"US","id":"a6toi6rm7ur7","geo_precision":"unmatched","state":"WA"},"type":"Feature","geometry":null},{"properties":{"city":"Glendale","institution":"Challenge Charter School","geo_score":0.0,"country":"US","id":"a6toi6tt5h8f","geo_precision":"unmatched","state":"AZ"},"type":"Feature","geometry":null},{"properties":{"city":"Waunakee","institution":"Arthouse Preschool","geo_score":0.0,"country":"US","id":"a6toi6v3mnos","geo_precision":"unmatched","state":"WI"},"type":"Feature","geometry":null},{"properties":{"city":"North East","institution":"Cecil College","geo_score":0.0,"country":"US","id":"a6toi6glckxf","geo_precision":"unmatched","state":"MD"},"type":"Feature","geometry":null},{"properties":{"city":"Olympia","institution":"The Evergreen State College","geo_score":0.0,"country":"US","id":"a6toi6tbzwzr","geo_precision":"unmatched","state":"WA"},"type":"Feature","geometry":null},{"properties":{"city":"Hamilton","institution":"McMaster University","geo_score":0.796,"country":"Canada","id":"a6toi6i1csqa","geo_precision":"zip","state":"Ontario"},"type":"Feature","geometry":{"type":"Point","coordinates":[-84.5332772,39.1833918]}},{"properties":{"city":"Halifax","institution":"Mount Saint Vincent University","geo_score":0.857,"country":"Canada","id":"a6toi6oqj5bk","geo_precision":"zip","state":"Nova Scotia"},"type":"Feature","geometry":{"type":"Point","coordinates":[-63.5723876953125,44.6453303558448]}},{"properties":{"city":"Saint John","institution":"New Brunswick School District 8","geo_score":0.762,"country":"Canada","id":"a6toi6putf27","geo_precision":"zip","state":"New Brunswick"},"type":"Feature","geometry":{"type":"Point","coordinates":[69.0,25.5]}},{"properties":{"city":"Toronto","institution":"University of Toronto","geo_score":0.857,"country":"Canada","id":"a6toi6m5mjfg","geo_precision":"zip","state":"Ontario"},"type":"Feature","geometry":{"type":"Point","coordinates":[-79.416304194,43.700113788]}},{"properties":{"city":"Toronto","institution":"York University","geo_score":0.857,"country":"Canada","id":"a6toi6fqo4z2","geo_precision":"zip","state":"Ontario"},"type":"Feature","geometry":{"type":"Point","coordinates":[-79.416304194,43.700113788]}},{"properties":{"city":"Atlanta","institution":"United States Centers for Disease Control and Prevention (CDC)","geo_score":0.0,"country":"US","id":"a6toi6r742fa","geo_precision":"unmatched","state":"GA"},"type":"Feature","geometry":null},{"properties":{"city":"Washington","institution":"United States Access Board","geo_score":0.0,"country":"US","id":"a6toi6hm5wnq","geo_precision":"unmatched","state":"DC"},"type":"Feature","geometry":null},{"properties":{"city":"Jefferson City","institution":"State of Missouri Governor's Council","geo_score":0.0,"country":"US","id":"a6toi6pivxw6","geo_precision":"unmatched","state":"MO"},"type":"Feature","geometry":null},{"properties":{"city":"Boise","institution":"Boise Natural Health, Inc.","geo_score":0.914,"country":"US","id":"a6toi6iqyjii","geo_precision":"zip","state":"ID"},"type":"Feature","geometry":{"type":"Point","coordinates":[95.9574,5.2872]}},{"properties":{"city":"North Charleston","institution":"The Center for Occupational and Environmental Medicine","geo_score":0.0,"country":"US","id":"a6toi6n755ks","geo_precision":"unmatched","state":"SC"},"type":"Feature","geometry":null},{"properties":{"city":"Edmonton","institution":"Alberta Health Services","geo_score":0.857,"country":"Canada","id":"a6toi6fw7gzy","geo_precision":"zip","state":"Alberta"},"type":"Feature","geometry":{"type":"Point","coordinates":[-113.468712219,53.550135939]}},{"properties":{"city":"Bremerton","institution":"Harrison Medical Center","geo_score":0.0,"country":"US","id":"a6toi6v29awz","geo_precision":"unmatched","state":"WA"},"type":"Feature","geometry":null},{"properties":{"city":"Kingston","institution":"Hotel Dieu Hospital","geo_score":0.857,"country":"Canada","id":"a6toi6r7nmkc","geo_precision":"zip","state":"Ontario"},"type":"Feature","geometry":{"type":"Point","coordinates":[-76.7935752868652,17.9970194353704]}},{"properties":{"city":"Baltimore","institution":"Mercy Medical Center","geo_score":0.0,"country":"US","id":"a6toi6qi7ww6","geo_precision":"unmatched","state":"MD"},"type":"Feature","geometry":null},{"properties":{"city":"Fall River","institution":"The Nova Scotia Environmental Health Centre","geo_score":0.857,"country":"Canada","id":"a6toi6ofl373","geo_precision":"zip","state":"Nova Scotia"},"type":"Feature","geometry":{"type":"Point","coordinates":[-71.1550451,41.7014912]}},{"properties":{"city":"Toronto","institution":"Women's College Hospital","geo_score":0.857,"country":"Canada","id":"a6toi6mbvhjr","geo_precision":"zip","state":"Ontario"},"type":"Feature","geometry":{"type":"Point","coordinates":[-79.416304194,43.700113788]}},{"properties":{"city":"Cincinnati","institution":"United Methodist Churches","geo_score":0.0,"country":"US","id":"a6toi6vv0wi2","geo_precision":"unmatched","state":"OH"},"type":"Feature","geometry":null},{"properties":{"city":"Fort Lauderdale","institution":"Broward Sheriff's Office Internal Affairs Division","geo_score":0.0,"country":"US","id":"a6toi6gco444","geo_precision":"unmatched","state":"FL"},"type":"Feature","geometry":null},{"properties":{"city":"Detroit","institution":"City of Detroit","geo_score":0.0,"country":"US","id":"a6toi6giydlq","geo_precision":"unmatched","state":"MI"},"type":"Feature","geometry":null},{"properties":{"city":"Salem","institution":"Oregon Department of Health Services","geo_score":0.0,"country":"US","id":"a6toi6ltvgb6","geo_precision":"unmatched","state":"OR"},"type":"Feature","geometry":null},{"properties":{"city":"Washington","institution":"U.S. Access Board","geo_score":0.0,"country":"US","id":"a6toi6h545oy","geo_precision":"unmatched","state":"DC"},"type":"Feature","geometry":null},{"properties":{"city":"Washington","institution":"U.S. Census Bureau","geo_score":0.0,"country":"US","id":"a6toi6lxdt52","geo_precision":"unmatched","state":"DC"},"type":"Feature","geometry":null},{"properties":{"city":"Athabasca","institution":"Athabasca University","geo_score":0.857,"country":"Canada","id":"a6toi6jjlk4k","geo_precision":"zip","state":"Alberta"},"type":"Feature","geometry":{"type":"Point","coordinates":[-113.285373349,54.716869457]}},{"properties":{"city":"Calgary","institution":"University of Calgary","geo_score":0.857,"country":"Canada","id":"a6toi6npwimv","geo_precision":"zip","state":"Alberta"},"type":"Feature","geometry":{"type":"Point","coordinates":[-114.085285152,51.050112282]}},{"properties":{"city":"Bishop's Ranch","institution":"The Bay Area Country Dance Society","geo_score":0.881,"country":"US","id":"a6toi6vp6k5l","geo_precision":"zip","state":"CA"},"type":"Feature","geometry":{"type":"Point","coordinates":[-77.116185675,53.483532024]}},{"properties":{"city":"Port Townsend","institution":"Cosmic Laugh","geo_score":0.0,"country":"US","id":"a6toi6mjlx6k","geo_precision":"unmatched","state":"WA"},"type":"Feature","geometry":null},{"properties":{"city":"Vancouver","institution":"Public Service Alliance of Canada BC","geo_score":0.857,"country":"Canada","id":"a6toi6jb3snq","geo_precision":"zip","state":"British Columbia"},"type":"Feature","geometry":{"type":"Point","coordinates":[-123.119340403,49.249657393]}},{"properties":{"city":"Oakland","institution":"The National Organization for Lesbians of SizE","geo_score":1.0,"country":"US","id":"a6toi6ixnswy","geo_precision":"zip","state":"CA"},"type":"Feature","geometry":{"type":"Point","coordinates":[-64.365452081,44.450153375]}},{"properties":{"city":"Seattle","institution":"Cascadia English Country Dance","geo_score":0.0,"country":"US","id":"a6toi6mfl4re","geo_precision":"unmatched","state":"WA"},"type":"Feature","geometry":null}],"is_temporal":false,"author":{"url":null,"metadata":null,"contact_name":null,"contact_address":null,"source":null,"contact_phone":null},"source":null,"pagination":{"sort":null,"start":0,"total":41,"limit":1000000},"state":"complete","tags":"","published":"2014-08-13T03:03:13-04:00","id":104129}