{"type":"FeatureCollection","data_type":"Dataset","url_type":null,"permissions":[{"permissions":{"download":true,"view":true},"group_id":"everyone"}],"classification":null,"title":"176B-ForMaggie","count":35,"stream_id":10416,"contributor":{"url":"http://geocommons.com/users/695","name":"Bill"},"data_attributes":null,"calculation_params":null,"icon_link":null,"link":"http://geocommons.com/overlays/10416.json","extent":[-123.176,49.2248,-123.069,49.292],"geometry_types":["point"],"unique_name":null,"name":"176B-ForMaggie","feature_count":35,"description":"","next_feature":null,"is_raster":false,"short_classification":"Y","stats":{"tickets":{"max":1503.0,"mean":785.828571428571,"variance":79221.6756302521,"stdev":281.463453454,"min":502.0,"median":721.0},"lat":{"max":49.291985,"mean":49.2702732571429,"variance":0.000168470250549584,"stdev":0.0129796090291497,"min":49.224762,"median":49.265038},"long":{"max":-123.068642,"mean":-123.123936228571,"variance":0.000803898184063834,"stdev":0.0283530983150666,"min":-123.175903,"median":-123.132607}},"features":[{"properties":{"offence":"176B","tickets":502.0,"id":"a673s4ygt6ck","lat":49.261684,"address":"1450 11th Ave W.","long":-123.137383},"type":"Feature","geometry":{"type":"Point","coordinates":[-123.137383,49.261684]}},{"properties":{"offence":"176B","tickets":510.0,"id":"a673s57vdv6z","lat":49.272133,"address":"1750 Kitchener St.","long":-123.068642},"type":"Feature","geometry":{"type":"Point","coordinates":[-123.068642,49.272133]}},{"properties":{"offence":"176B","tickets":515.0,"id":"a673s5a4xguf","lat":49.264442,"address":"1350 8th Ave W.","long":-123.13488},"type":"Feature","geometry":{"type":"Point","coordinates":[-123.13488,49.264442]}},{"properties":{"offence":"176B","tickets":519.0,"id":"a673s59yk4wf","lat":49.265038,"address":"650 7th Ave W.","long":-123.118652},"type":"Feature","geometry":{"type":"Point","coordinates":[-123.118652,49.265038]}},{"properties":{"offence":"176B","tickets":524.0,"id":"a673s57atxwm","lat":49.261402,"address":"1650 10th Ave E.","long":-123.070618},"type":"Feature","geometry":{"type":"Point","coordinates":[-123.070618,49.261402]}},{"properties":{"offence":"176B","tickets":531.0,"id":"a673s4xj0rbc","lat":49.279022,"address":"1050 Burnaby St.","long":-123.131287},"type":"Feature","geometry":{"type":"Point","coordinates":[-123.131287,49.279022]}},{"properties":{"offence":"176B","tickets":538.0,"id":"a673s5379fwl","lat":49.263367,"address":"1050 8th Ave E.","long":-123.082291},"type":"Feature","geometry":{"type":"Point","coordinates":[-123.082291,49.263367]}},{"properties":{"offence":"176B","tickets":552.0,"id":"a673s54bd3cw","lat":49.28582,"address":"1250 Haro St.","long":-123.128822},"type":"Feature","geometry":{"type":"Point","coordinates":[-123.128822,49.28582]}},{"properties":{"offence":"176B","tickets":585.0,"id":"a673s50bgl9a","lat":49.261723,"address":"1550 11th Ave W.","long":-123.139854},"type":"Feature","geometry":{"type":"Point","coordinates":[-123.139854,49.261723]}},{"properties":{"offence":"176B","tickets":594.0,"id":"a673s5b1exon","lat":49.276806,"address":"1050 Beach Ave.","long":-123.134666},"type":"Feature","geometry":{"type":"Point","coordinates":[-123.134666,49.276806]}},{"properties":{"offence":"176B","tickets":617.0,"id":"a673s59j797k","lat":49.273937,"address":"1350 Arbutus St.","long":-123.15255},"type":"Feature","geometry":{"type":"Point","coordinates":[-123.15255,49.273937]}},{"properties":{"offence":"176B","tickets":622.0,"id":"a673s54pzml2","lat":49.279415,"address":"350 Keefer St.","long":-123.096252},"type":"Feature","geometry":{"type":"Point","coordinates":[-123.096252,49.279415]}},{"properties":{"offence":"176B","tickets":622.0,"id":"a673s533evc8","lat":49.281151,"address":"1050 Comox St.","long":-123.128105},"type":"Feature","geometry":{"type":"Point","coordinates":[-123.128105,49.281151]}},{"properties":{"offence":"176B","tickets":647.0,"id":"a673s4z7qiqk","lat":49.272606,"address":"2250 Cornwall Ave.","long":-123.156197},"type":"Feature","geometry":{"type":"Point","coordinates":[-123.156197,49.272606]}},{"properties":{"offence":"176B","tickets":660.0,"id":"a673s54pbrhu","lat":49.283943,"address":"1150 Barclay St.","long":-123.128036},"type":"Feature","geometry":{"type":"Point","coordinates":[-123.128036,49.283943]}},{"properties":{"offence":"176B","tickets":661.0,"id":"a673s52xgy3c","lat":49.264225,"address":"750 8th Ave W.","long":-123.120827},"type":"Feature","geometry":{"type":"Point","coordinates":[-123.120827,49.264225]}},{"properties":{"offence":"176B","tickets":672.0,"id":"a673s50ovhqo","lat":49.224762,"address":"50 50th Ave E.","long":-123.104874},"type":"Feature","geometry":{"type":"Point","coordinates":[-123.104874,49.224762]}},{"properties":{"offence":"176B","tickets":721.0,"id":"a673s59bxyp3","lat":49.260456,"address":"1650 11th Ave E.","long":-123.070755},"type":"Feature","geometry":{"type":"Point","coordinates":[-123.070755,49.260456]}},{"properties":{"offence":"176B","tickets":742.0,"id":"a673s50rv7wg","lat":49.264664,"address":"2450 Trutch St.","long":-123.175903},"type":"Feature","geometry":{"type":"Point","coordinates":[-123.175903,49.264664]}},{"properties":{"offence":"176B","tickets":747.0,"id":"a673s4z4zjgm","lat":49.259464,"address":"550 13th Ave W.","long":-123.116386},"type":"Feature","geometry":{"type":"Point","coordinates":[-123.116386,49.259464]}},{"properties":{"offence":"176B","tickets":764.0,"id":"a673s593l2la","lat":49.262695,"address":"1650 10th Ave W.","long":-123.142288},"type":"Feature","geometry":{"type":"Point","coordinates":[-123.142288,49.262695]}},{"properties":{"offence":"176B","tickets":766.0,"id":"a673s55rr6sw","lat":49.291985,"address":"1850 Robson St.","long":-123.136269},"type":"Feature","geometry":{"type":"Point","coordinates":[-123.136269,49.291985]}},{"properties":{"offence":"176B","tickets":771.0,"id":"a673s59fxz2k","lat":49.262539,"address":"1250 10th Ave W.","long":-123.132607},"type":"Feature","geometry":{"type":"Point","coordinates":[-123.132607,49.262539]}},{"properties":{"offence":"176B","tickets":779.0,"id":"a673s4z8tm7h","lat":49.287128,"address":"1650 Comox St.","long":-123.137344},"type":"Feature","geometry":{"type":"Point","coordinates":[-123.137344,49.287128]}},{"properties":{"offence":"176B","tickets":794.0,"id":"a673s57h7why","lat":49.264614,"address":"2450 Bayswater St.","long":-123.171219},"type":"Feature","geometry":{"type":"Point","coordinates":[-123.171219,49.264614]}},{"properties":{"offence":"176B","tickets":810.0,"id":"a673s5azz1ba","lat":49.291687,"address":"1750 Alberni St.","long":-123.133621},"type":"Feature","geometry":{"type":"Point","coordinates":[-123.133621,49.291687]}},{"properties":{"offence":"176B","tickets":889.0,"id":"a673s5da0qmj","lat":49.264259,"address":"850 8th Ave W.","long":-123.122986},"type":"Feature","geometry":{"type":"Point","coordinates":[-123.122986,49.264259]}},{"properties":{"offence":"176B","tickets":927.0,"id":"a673s59gwic7","lat":49.279694,"address":"1150 Harwood St.","long":-123.13443},"type":"Feature","geometry":{"type":"Point","coordinates":[-123.13443,49.279694]}},{"properties":{"offence":"176B","tickets":963.0,"id":"a673s5bd909r","lat":49.258938,"address":"1550 14th Ave W.","long":-123.139992},"type":"Feature","geometry":{"type":"Point","coordinates":[-123.139992,49.258938]}},{"properties":{"offence":"176B","tickets":1209.0,"id":"a673s55nztsf","lat":49.262413,"address":"950 10th Ave W.","long":-123.125381},"type":"Feature","geometry":{"type":"Point","coordinates":[-123.125381,49.262413]}},{"properties":{"offence":"176B","tickets":1223.0,"id":"a673s57v4dqo","lat":49.270504,"address":"1650 Graveley St.","long":-123.070587},"type":"Feature","geometry":{"type":"Point","coordinates":[-123.070587,49.270504]}},{"properties":{"offence":"176B","tickets":1239.0,"id":"a673s58xvh23","lat":49.2705,"address":"1750 Graveley St.","long":-123.068695},"type":"Feature","geometry":{"type":"Point","coordinates":[-123.068695,49.2705]}},{"properties":{"offence":"176B","tickets":1290.0,"id":"a673s53brgu2","lat":49.287464,"address":"1750 Pendrell St.","long":-123.140007},"type":"Feature","geometry":{"type":"Point","coordinates":[-123.140007,49.287464]}},{"properties":{"offence":"176B","tickets":1496.0,"id":"a673s50l7os7","lat":49.285904,"address":"1750 Burnaby St.","long":-123.141922},"type":"Feature","geometry":{"type":"Point","coordinates":[-123.141922,49.285904]}},{"properties":{"offence":"176B","tickets":1503.0,"id":"a673s4zewuvo","lat":49.26318,"address":"2550 Pine St.","long":-123.14344},"type":"Feature","geometry":{"type":"Point","coordinates":[-123.14344,49.26318]}}],"is_temporal":false,"author":{"url":"","metadata":"","contact_name":"","contact_address":"","source":"","contact_phone":""},"source":"","pagination":{"sort":null,"start":0,"total":35,"limit":1000000},"state":"complete","tags":"sun,the","published":"2014-08-10T11:37:04-04:00","id":10416}