{"type":"FeatureCollection","data_type":"Dataset","url_type":null,"permissions":[{"permissions":{"download":true,"view":true},"group_id":"everyone"}],"classification":null,"title":"Estate Sale Companies by City","count":364,"stream_id":104262,"contributor":{"url":"http://geocommons.com/users/24436","name":"rocketsites"},"data_attributes":null,"calculation_params":null,"icon_link":null,"link":"http://geocommons.com/overlays/104262.json","extent":[-123.996,25.3782,-73.3433,48.5165],"geometry_types":["point"],"unique_name":null,"name":"Estate Sale Companies by City","feature_count":364,"description":"","next_feature":null,"is_raster":false,"short_classification":"Y","stats":{},"features":[{"properties":{"city":"Brooklyn","geo_score":0.857,"id":"a69eoqihdjjw","geo_precision":"city","state":"NY"},"type":"Feature","geometry":{"type":"Point","coordinates":[-78.748363,42.433118]}},{"properties":{"city":"Fairhope","geo_score":0.857,"id":"a69eoqce1k13","geo_precision":"city","state":"AL"},"type":"Feature","geometry":{"type":"Point","coordinates":[-87.810464,30.562883]}},{"properties":{"city":"Gassville","geo_score":0.857,"id":"a69eoqdqfb01","geo_precision":"city","state":"AR"},"type":"Feature","geometry":{"type":"Point","coordinates":[-92.487866,36.318799]}},{"properties":{"city":"Little Rock","geo_score":0.857,"id":"a69eoqkwnjdq","geo_precision":"city","state":"AR"},"type":"Feature","geometry":{"type":"Point","coordinates":[-92.289595,34.746481]}},{"properties":{"city":"Little Rock","geo_score":0.857,"id":"a69eoqgjhm50","geo_precision":"city","state":"AR"},"type":"Feature","geometry":{"type":"Point","coordinates":[-92.289595,34.746481]}},{"properties":{"city":"Little Rock","geo_score":0.857,"id":"a69eoqil284l","geo_precision":"city","state":"AR"},"type":"Feature","geometry":{"type":"Point","coordinates":[-92.289595,34.746481]}},{"properties":{"city":"Little Rock","geo_score":0.857,"id":"a69eoqgkeovb","geo_precision":"city","state":"AR"},"type":"Feature","geometry":{"type":"Point","coordinates":[-92.289595,34.746481]}},{"properties":{"city":"Jonesboro","geo_score":0.857,"id":"a69eoq7we0uy","geo_precision":"city","state":"AR"},"type":"Feature","geometry":{"type":"Point","coordinates":[-90.623071,35.835847]}},{"properties":{"city":"Sun City West","geo_score":0.805,"id":"a69eoq8zcugp","geo_precision":"city","state":"AZ"},"type":"Feature","geometry":{"type":"Point","coordinates":[-112.271824,33.597539]}},{"properties":{"city":"Sun City","geo_score":0.857,"id":"a69eoqn4naq6","geo_precision":"city","state":"AZ"},"type":"Feature","geometry":{"type":"Point","coordinates":[-112.271824,33.597539]}},{"properties":{"city":"Tucson","geo_score":0.857,"id":"a69eoqg7tvan","geo_precision":"city","state":"AZ"},"type":"Feature","geometry":{"type":"Point","coordinates":[-110.926479,32.221743]}},{"properties":{"city":"Queen Creek","geo_score":0.743,"id":"a69eoqh9mk38","geo_precision":"city","state":"AZ"},"type":"Feature","geometry":{"type":"Point","coordinates":[-109.918694,32.957007]}},{"properties":{"city":"Scottsdale","geo_score":0.857,"id":"a69eoq8pudl2","geo_precision":"city","state":"AZ"},"type":"Feature","geometry":{"type":"Point","coordinates":[-111.899033,33.50921]}},{"properties":{"city":"Scottsdale","geo_score":0.857,"id":"a69eoqfx9e5m","geo_precision":"city","state":"AZ"},"type":"Feature","geometry":{"type":"Point","coordinates":[-111.899033,33.50921]}},{"properties":{"city":"Colorado Springs","geo_score":0.857,"id":"a69eoq7iq6e5","geo_precision":"city","state":"CO"},"type":"Feature","geometry":{"type":"Point","coordinates":[-104.821363,38.833882]}},{"properties":{"city":"Miami","geo_score":0.857,"id":"a69eoqbrt2rg","geo_precision":"city","state":"FL"},"type":"Feature","geometry":{"type":"Point","coordinates":[-80.193659,25.774266]}},{"properties":{"city":"Winter Park","geo_score":0.857,"id":"a69eoqd4ll79","geo_precision":"city","state":"FL"},"type":"Feature","geometry":{"type":"Point","coordinates":[-81.35874,28.602327]}},{"properties":{"city":"Orlando","geo_score":0.857,"id":"a69eoqjs626j","geo_precision":"city","state":"FL"},"type":"Feature","geometry":{"type":"Point","coordinates":[-81.379237,28.538336]}},{"properties":{"city":"Tampa","geo_score":0.857,"id":"a69eoqj259ju","geo_precision":"city","state":"FL"},"type":"Feature","geometry":{"type":"Point","coordinates":[-82.458428,27.947522]}},{"properties":{"city":"Sarasota","geo_score":0.857,"id":"a69eoqbdz0n1","geo_precision":"city","state":"FL"},"type":"Feature","geometry":{"type":"Point","coordinates":[-82.530653,27.336435]}},{"properties":{"city":"Orlando","geo_score":0.857,"id":"a69eoqhzby22","geo_precision":"city","state":"FL"},"type":"Feature","geometry":{"type":"Point","coordinates":[-81.379237,28.538336]}},{"properties":{"city":"Winter Springs","geo_score":0.758,"id":"a69eoqmkgos6","geo_precision":"city","state":"FL"},"type":"Feature","geometry":{"type":"Point","coordinates":[-81.714808,29.675246]}},{"properties":{"city":"Oakland Park","geo_score":0.857,"id":"a69eoqeq8dws","geo_precision":"city","state":"FL"},"type":"Feature","geometry":{"type":"Point","coordinates":[-81.677298,28.80388]}},{"properties":{"city":"Miami","geo_score":0.857,"id":"a69eoqkbhdte","geo_precision":"city","state":"FL"},"type":"Feature","geometry":{"type":"Point","coordinates":[-80.193659,25.774266]}},{"properties":{"city":"Miami","geo_score":0.857,"id":"a69eoq8bjfdl","geo_precision":"city","state":"FL"},"type":"Feature","geometry":{"type":"Point","coordinates":[-80.193659,25.774266]}},{"properties":{"city":"Winter Park","geo_score":0.857,"id":"a69eoqf7jc1g","geo_precision":"city","state":"FL"},"type":"Feature","geometry":{"type":"Point","coordinates":[-81.35874,28.602327]}},{"properties":{"city":"Boynton Beach","geo_score":0.857,"id":"a69eoqn6zanh","geo_precision":"city","state":"FL"},"type":"Feature","geometry":{"type":"Point","coordinates":[-80.430269,26.645895]}},{"properties":{"city":"Satellite Beach","geo_score":0.857,"id":"a69eoqj3jcuy","geo_precision":"city","state":"FL"},"type":"Feature","geometry":{"type":"Point","coordinates":[-80.615835,28.167091]}},{"properties":{"city":"Jacksonville Beach","geo_score":0.815,"id":"a69eoqil99ha","geo_precision":"city","state":"FL"},"type":"Feature","geometry":{"type":"Point","coordinates":[-81.655651,30.332184]}},{"properties":{"city":"New Smyrna Beach","geo_score":0.857,"id":"a69eoqlxptv2","geo_precision":"city","state":"FL"},"type":"Feature","geometry":{"type":"Point","coordinates":[-81.033705,28.951931]}},{"properties":{"city":"Ponte Vedra Beach","geo_score":0.762,"id":"a69eoqebpzox","geo_precision":"city","state":"FL"},"type":"Feature","geometry":{"type":"Point","coordinates":[-80.678387,28.237233]}},{"properties":{"city":"Hudson","geo_score":0.857,"id":"a69eoqgzr1w5","geo_precision":"city","state":"FL"},"type":"Feature","geometry":{"type":"Point","coordinates":[-82.64803,28.382489]}},{"properties":{"city":"Merritt Island","geo_score":0.758,"id":"a69eoqf6cu4e","geo_precision":"city","state":"FL"},"type":"Feature","geometry":{"type":"Point","coordinates":[-80.252552,25.378169]}},{"properties":{"city":"Pembroke Pines","geo_score":0.813,"id":"a69eoq8g93bo","geo_precision":"city","state":"FL"},"type":"Feature","geometry":{"type":"Point","coordinates":[-80.174769,25.987869]}},{"properties":{"city":"Orange Park","geo_score":0.8,"id":"a69eoqdl0utp","geo_precision":"city","state":"FL"},"type":"Feature","geometry":{"type":"Point","coordinates":[-85.024915,30.227698]}},{"properties":{"city":"Key Largo","geo_score":0.804,"id":"a69eoqi8m01y","geo_precision":"city","state":"FL"},"type":"Feature","geometry":{"type":"Point","coordinates":[-82.787324,27.909467]}},{"properties":{"city":"Jacksonville","geo_score":0.857,"id":"a69eoqaele7e","geo_precision":"city","state":"FL"},"type":"Feature","geometry":{"type":"Point","coordinates":[-81.655651,30.332184]}},{"properties":{"city":"Jacksonville","geo_score":0.857,"id":"a69eoqfn2k84","geo_precision":"city","state":"FL"},"type":"Feature","geometry":{"type":"Point","coordinates":[-81.655651,30.332184]}},{"properties":{"city":"Panama City","geo_score":0.857,"id":"a69eoq9xtztg","geo_precision":"city","state":"FL"},"type":"Feature","geometry":{"type":"Point","coordinates":[-85.660206,30.158813]}},{"properties":{"city":"Plant City","geo_score":0.857,"id":"a69eoqlwgk41","geo_precision":"city","state":"FL"},"type":"Feature","geometry":{"type":"Point","coordinates":[-82.134741,28.029627]}},{"properties":{"city":"Largo","geo_score":0.857,"id":"a69eoqkibi75","geo_precision":"city","state":"FL"},"type":"Feature","geometry":{"type":"Point","coordinates":[-82.787324,27.909467]}},{"properties":{"city":"Spring Hill","geo_score":0.729,"id":"a69eoqfu6ljo","geo_precision":"city","state":"FL"},"type":"Feature","geometry":{"type":"Point","coordinates":[-80.278106,25.857596]}},{"properties":{"city":"Saint Petersburg","geo_score":0.857,"id":"a69eoqmx4ibi","geo_precision":"city","state":"FL"},"type":"Feature","geometry":{"type":"Point","coordinates":[-82.679266,27.770861]}},{"properties":{"city":"West Palm Beach","geo_score":0.762,"id":"a69eoqdxr8ul","geo_precision":"city","state":"FL"},"type":"Feature","geometry":{"type":"Point","coordinates":[-80.035596,26.778118]}},{"properties":{"city":"West Palm Beach","geo_score":0.762,"id":"a69eoqgjw1zb","geo_precision":"city","state":"FL"},"type":"Feature","geometry":{"type":"Point","coordinates":[-80.035596,26.778118]}},{"properties":{"city":"Port Charlotte","geo_score":0.857,"id":"a69eoqnquvmg","geo_precision":"city","state":"FL"},"type":"Feature","geometry":{"type":"Point","coordinates":[-82.20688,26.94099]}},{"properties":{"city":"Jupiter","geo_score":0.857,"id":"a69eoqgdjbtf","geo_precision":"city","state":"FL"},"type":"Feature","geometry":{"type":"Point","coordinates":[-80.430269,26.645895]}},{"properties":{"city":"Shalimar","geo_score":0.857,"id":"a69eoqkp55pi","geo_precision":"city","state":"FL"},"type":"Feature","geometry":{"type":"Point","coordinates":[-86.581628,30.581826]}},{"properties":{"city":"Melbourne","geo_score":0.857,"id":"a69eoq8ej92r","geo_precision":"city","state":"FL"},"type":"Feature","geometry":{"type":"Point","coordinates":[-80.608109,28.083627]}},{"properties":{"city":"Naples","geo_score":0.857,"id":"a69eoqf25nvq","geo_precision":"city","state":"FL"},"type":"Feature","geometry":{"type":"Point","coordinates":[-81.79481,26.142036]}},{"properties":{"city":"Tequesta","geo_score":0.857,"id":"a69eoqb9oibu","geo_precision":"city","state":"FL"},"type":"Feature","geometry":{"type":"Point","coordinates":[-80.128654,26.968112]}},{"properties":{"city":"Sarasota","geo_score":0.857,"id":"a69eoqna7jdu","geo_precision":"city","state":"FL"},"type":"Feature","geometry":{"type":"Point","coordinates":[-82.530653,27.336435]}},{"properties":{"city":"Vero Beach","geo_score":0.857,"id":"a69eoqk21kds","geo_precision":"city","state":"FL"},"type":"Feature","geometry":{"type":"Point","coordinates":[-80.40294,27.638005]}},{"properties":{"city":"Maitland","geo_score":0.857,"id":"a69eoqmmb2aj","geo_precision":"city","state":"FL"},"type":"Feature","geometry":{"type":"Point","coordinates":[-81.36459,28.625476]}},{"properties":{"city":"Marietta","geo_score":0.857,"id":"a69eoqfk0ft8","geo_precision":"city","state":"GA"},"type":"Feature","geometry":{"type":"Point","coordinates":[-84.549933,33.952602]}},{"properties":{"city":"Alpharetta","geo_score":0.757,"id":"a69eoq9xvg0a","geo_precision":"city","state":"GA"},"type":"Feature","geometry":{"type":"Point","coordinates":[-83.92379,31.462401]}},{"properties":{"city":"Columbus","geo_score":0.857,"id":"a69eoq7q6ru1","geo_precision":"city","state":"GA"},"type":"Feature","geometry":{"type":"Point","coordinates":[-84.987709,32.460976]}},{"properties":{"city":"Duluth","geo_score":0.857,"id":"a69eoqntl9q8","geo_precision":"city","state":"GA"},"type":"Feature","geometry":{"type":"Point","coordinates":[-84.144638,34.002879]}},{"properties":{"city":"Savannah","geo_score":0.857,"id":"a69eoqb28gzi","geo_precision":"city","state":"GA"},"type":"Feature","geometry":{"type":"Point","coordinates":[-81.099834,32.083541]}},{"properties":{"city":"Loganville","geo_score":0.857,"id":"a69eoqgkdzb8","geo_precision":"city","state":"GA"},"type":"Feature","geometry":{"type":"Point","coordinates":[-83.900738,33.838998]}},{"properties":{"city":"Brunswick","geo_score":0.857,"id":"a69eoqcsffo8","geo_precision":"city","state":"GA"},"type":"Feature","geometry":{"type":"Point","coordinates":[-81.492883,31.230428]}},{"properties":{"city":"Macon","geo_score":0.857,"id":"a69eoqebde2g","geo_precision":"city","state":"GA"},"type":"Feature","geometry":{"type":"Point","coordinates":[-83.632402,32.840695]}},{"properties":{"city":"Cumming","geo_score":0.857,"id":"a69eoqco7ptr","geo_precision":"city","state":"GA"},"type":"Feature","geometry":{"type":"Point","coordinates":[-84.140193,34.20732]}},{"properties":{"city":"Warner Robins","geo_score":0.857,"id":"a69eoql0132q","geo_precision":"city","state":"GA"},"type":"Feature","geometry":{"type":"Point","coordinates":[-83.644751,32.555039]}},{"properties":{"city":"Kennesaw","geo_score":0.857,"id":"a69eoq85imc6","geo_precision":"city","state":"GA"},"type":"Feature","geometry":{"type":"Point","coordinates":[-84.597433,34.03384]}},{"properties":{"city":"Pine Mountain","geo_score":0.738,"id":"a69eoqft6ptq","geo_precision":"city","state":"GA"},"type":"Feature","geometry":{"type":"Point","coordinates":[-84.649101,34.109543]}},{"properties":{"city":"Rome","geo_score":0.857,"id":"a69eoqlzpkro","geo_precision":"city","state":"GA"},"type":"Feature","geometry":{"type":"Point","coordinates":[-85.22089,34.262335]}},{"properties":{"city":"Atlanta","geo_score":0.857,"id":"a69eoq9idxtu","geo_precision":"city","state":"GA"},"type":"Feature","geometry":{"type":"Point","coordinates":[-84.387982,33.748995]}},{"properties":{"city":"Woodstock","geo_score":0.857,"id":"a69eoqip3vqj","geo_precision":"city","state":"GA"},"type":"Feature","geometry":{"type":"Point","coordinates":[-84.481787,34.127398]}},{"properties":{"city":"Thomaston","geo_score":0.857,"id":"a69eoqgc73a5","geo_precision":"city","state":"GA"},"type":"Feature","geometry":{"type":"Point","coordinates":[-84.336486,32.884509]}},{"properties":{"city":"Dalton","geo_score":0.821,"id":"a69eoq9oa85c","geo_precision":"city","state":"GA"},"type":"Feature","geometry":{"type":"Point","coordinates":[-83.863238,33.647336]}},{"properties":{"city":"Thomasville","geo_score":0.857,"id":"a69eoqj5mzyg","geo_precision":"city","state":"GA"},"type":"Feature","geometry":{"type":"Point","coordinates":[-83.888269,30.853592]}},{"properties":{"city":"Atlanta","geo_score":0.857,"id":"a69eoq91to40","geo_precision":"city","state":"GA"},"type":"Feature","geometry":{"type":"Point","coordinates":[-84.387982,33.748995]}},{"properties":{"city":"Downers Grove","geo_score":0.857,"id":"a69eoqgcvgbm","geo_precision":"city","state":"IL"},"type":"Feature","geometry":{"type":"Point","coordinates":[-88.012267,41.796279]}},{"properties":{"city":"Naperville","geo_score":0.857,"id":"a69eoqexqrsl","geo_precision":"city","state":"IL"},"type":"Feature","geometry":{"type":"Point","coordinates":[-88.152381,41.759029]}},{"properties":{"city":"Champaign","geo_score":0.857,"id":"a69eoqaqxdbz","geo_precision":"city","state":"IL"},"type":"Feature","geometry":{"type":"Point","coordinates":[-88.243383,40.116421]}},{"properties":{"city":"Barrington","geo_score":0.81,"id":"a69eoqhjyffw","geo_precision":"city","state":"IL"},"type":"Feature","geometry":{"type":"Point","coordinates":[-88.055908,42.152248]}},{"properties":{"city":"Heyworth","geo_score":0.857,"id":"a69eoqlof15m","geo_precision":"city","state":"IL"},"type":"Feature","geometry":{"type":"Point","coordinates":[-88.985385,40.458782]}},{"properties":{"city":"Fairview Heights","geo_score":0.79,"id":"a69eoqh2cimu","geo_precision":"city","state":"IL"},"type":"Feature","geometry":{"type":"Point","coordinates":[-90.158064,40.645183]}},{"properties":{"city":"Chicago","geo_score":0.857,"id":"a69eoqcged4x","geo_precision":"city","state":"IL"},"type":"Feature","geometry":{"type":"Point","coordinates":[-87.650052,41.850033]}},{"properties":{"city":"Western Springs","geo_score":0.745,"id":"a69eoq9snjma","geo_precision":"city","state":"IL"},"type":"Feature","geometry":{"type":"Point","coordinates":[-90.045117,41.612532]}},{"properties":{"city":"Barrington","geo_score":0.81,"id":"a69eoqehvpao","geo_precision":"city","state":"IL"},"type":"Feature","geometry":{"type":"Point","coordinates":[-88.055908,42.152248]}},{"properties":{"city":"Beech Grove","geo_score":0.857,"id":"a69eoqa8o7s5","geo_precision":"city","state":"IN"},"type":"Feature","geometry":{"type":"Point","coordinates":[-86.446384,39.51727]}},{"properties":{"city":"Kokomo","geo_score":0.857,"id":"a69eoqbmlcy7","geo_precision":"city","state":"IN"},"type":"Feature","geometry":{"type":"Point","coordinates":[-86.171054,40.506851]}},{"properties":{"city":"Wichita","geo_score":0.857,"id":"a69eoq8gphqd","geo_precision":"city","state":"KS"},"type":"Feature","geometry":{"type":"Point","coordinates":[-97.337545,37.692236]}},{"properties":{"city":"Wichita","geo_score":0.857,"id":"a69eoqlrcksh","geo_precision":"city","state":"KS"},"type":"Feature","geometry":{"type":"Point","coordinates":[-97.337545,37.692236]}},{"properties":{"city":"Overland Park","geo_score":0.857,"id":"a69eoq82bbgu","geo_precision":"city","state":"KS"},"type":"Feature","geometry":{"type":"Point","coordinates":[-94.670792,38.982228]}},{"properties":{"city":"Wichita","geo_score":0.857,"id":"a69eoqm3myms","geo_precision":"city","state":"KS"},"type":"Feature","geometry":{"type":"Point","coordinates":[-97.337545,37.692236]}},{"properties":{"city":"Overland Park","geo_score":0.857,"id":"a69eoqj2ewbd","geo_precision":"city","state":"KS"},"type":"Feature","geometry":{"type":"Point","coordinates":[-94.670792,38.982228]}},{"properties":{"city":"Lenexa","geo_score":0.857,"id":"a69eoqcawddz","geo_precision":"city","state":"KS"},"type":"Feature","geometry":{"type":"Point","coordinates":[-94.733571,38.953617]}},{"properties":{"city":"Overland Park","geo_score":0.857,"id":"a69eoq854y54","geo_precision":"city","state":"KS"},"type":"Feature","geometry":{"type":"Point","coordinates":[-94.670792,38.982228]}},{"properties":{"city":"Wichita","geo_score":0.857,"id":"a69eoqlc6bgq","geo_precision":"city","state":"KS"},"type":"Feature","geometry":{"type":"Point","coordinates":[-97.337545,37.692236]}},{"properties":{"city":"Overland Park","geo_score":0.857,"id":"a69eoqf3ttfy","geo_precision":"city","state":"KS"},"type":"Feature","geometry":{"type":"Point","coordinates":[-94.670792,38.982228]}},{"properties":{"city":"Olathe","geo_score":0.857,"id":"a69eoqkqaeq2","geo_precision":"city","state":"KS"},"type":"Feature","geometry":{"type":"Point","coordinates":[-94.819129,38.881396]}},{"properties":{"city":"Overland Park","geo_score":0.857,"id":"a69eoqen8jxd","geo_precision":"city","state":"KS"},"type":"Feature","geometry":{"type":"Point","coordinates":[-94.670792,38.982228]}},{"properties":{"city":"Mission","geo_score":0.857,"id":"a69eoql9ktpd","geo_precision":"city","state":"KS"},"type":"Feature","geometry":{"type":"Point","coordinates":[-94.655791,39.027783]}},{"properties":{"city":"Leawood","geo_score":0.857,"id":"a69eoqbgf25n","geo_precision":"city","state":"KS"},"type":"Feature","geometry":{"type":"Point","coordinates":[-94.616901,38.966673]}},{"properties":{"city":"Royal Oak","geo_score":0.857,"id":"a69eoqn8vrq0","geo_precision":"city","state":"MI"},"type":"Feature","geometry":{"type":"Point","coordinates":[-83.145375,42.492485]}},{"properties":{"city":"Clinton Township","geo_score":0.781,"id":"a69eoqiesmya","geo_precision":"city","state":"MI"},"type":"Feature","geometry":{"type":"Point","coordinates":[-82.919921,42.586979]}},{"properties":{"city":"Grosse Ile","geo_score":0.778,"id":"a69eoq7lyjbd","geo_precision":"city","state":"MI"},"type":"Feature","geometry":{"type":"Point","coordinates":[-85.471397,42.428093]}},{"properties":{"city":"Grand Rapids","geo_score":0.857,"id":"a69eoqfkowbo","geo_precision":"city","state":"MI"},"type":"Feature","geometry":{"type":"Point","coordinates":[-85.668086,42.96336]}},{"properties":{"city":"Southgate","geo_score":0.857,"id":"a69eoqemxnxc","geo_precision":"city","state":"MI"},"type":"Feature","geometry":{"type":"Point","coordinates":[-83.285939,42.257801]}},{"properties":{"city":"Williamston","geo_score":0.857,"id":"a69eoqb85lxx","geo_precision":"city","state":"MI"},"type":"Feature","geometry":{"type":"Point","coordinates":[-84.271215,42.680434]}},{"properties":{"city":"Battle Creek","geo_score":0.753,"id":"a69eoqhg1bzd","geo_precision":"city","state":"MI"},"type":"Feature","geometry":{"type":"Point","coordinates":[-85.860379,43.712217]}},{"properties":{"city":"Grand Rapids","geo_score":0.857,"id":"a69eoqjjfao2","geo_precision":"city","state":"MI"},"type":"Feature","geometry":{"type":"Point","coordinates":[-85.668086,42.96336]}},{"properties":{"city":"Royal Oak","geo_score":0.857,"id":"a69eoqe78ble","geo_precision":"city","state":"MI"},"type":"Feature","geometry":{"type":"Point","coordinates":[-83.145375,42.492485]}},{"properties":{"city":"Warren","geo_score":0.857,"id":"a69eoqgs59ld","geo_precision":"city","state":"MI"},"type":"Feature","geometry":{"type":"Point","coordinates":[-82.995121,42.474786]}},{"properties":{"city":"Midland","geo_score":0.805,"id":"a69eoqf875rk","geo_precision":"city","state":"MI"},"type":"Feature","geometry":{"type":"Point","coordinates":[-85.385559,42.390872]}},{"properties":{"city":"Ida","geo_score":0.857,"id":"a69eoqfgpsws","geo_precision":"city","state":"MI"},"type":"Feature","geometry":{"type":"Point","coordinates":[-83.58177,41.887078]}},{"properties":{"city":"Burton","geo_score":0.857,"id":"a69eoqklcqlp","geo_precision":"city","state":"MI"},"type":"Feature","geometry":{"type":"Point","coordinates":[-84.284696,43.007804]}},{"properties":{"city":"Grand Haven","geo_score":0.757,"id":"a69eoqjergyc","geo_precision":"city","state":"MI"},"type":"Feature","geometry":{"type":"Point","coordinates":[-85.306756,46.158336]}},{"properties":{"city":"Macomb","geo_score":0.857,"id":"a69eoqhfd89y","geo_precision":"city","state":"MI"},"type":"Feature","geometry":{"type":"Point","coordinates":[-82.916262,42.673476]}},{"properties":{"city":"Grand Rapids","geo_score":0.857,"id":"a69eoqk0izss","geo_precision":"city","state":"MI"},"type":"Feature","geometry":{"type":"Point","coordinates":[-85.668086,42.96336]}},{"properties":{"city":"Delton","geo_score":0.833,"id":"a69eoqhr79w1","geo_precision":"city","state":"MI"},"type":"Feature","geometry":{"type":"Point","coordinates":[-86.261729,43.318624]}},{"properties":{"city":"Chesterfield","geo_score":0.0,"id":"a69eoqb703en","geo_precision":"unmatched","state":"MI"},"type":"Feature","geometry":null},{"properties":{"city":"Midland","geo_score":0.805,"id":"a69eoqhg0mtp","geo_precision":"city","state":"MI"},"type":"Feature","geometry":{"type":"Point","coordinates":[-85.385559,42.390872]}},{"properties":{"city":"Saline","geo_score":0.786,"id":"a69eoqg70atg","geo_precision":"city","state":"MI"},"type":"Feature","geometry":{"type":"Point","coordinates":[-85.761194,44.809444]}},{"properties":{"city":"Grand Rapids","geo_score":0.857,"id":"a69eoqkjyxpq","geo_precision":"city","state":"MI"},"type":"Feature","geometry":{"type":"Point","coordinates":[-85.668086,42.96336]}},{"properties":{"city":"Grosse Pointe","geo_score":0.762,"id":"a69eoqcm2ye5","geo_precision":"city","state":"MI"},"type":"Feature","geometry":{"type":"Point","coordinates":[-85.471397,42.428093]}},{"properties":{"city":"Minneapolis","geo_score":0.857,"id":"a69eoqnbup6m","geo_precision":"city","state":"MN"},"type":"Feature","geometry":{"type":"Point","coordinates":[-93.263836,44.979965]}},{"properties":{"city":"Rosemount","geo_score":0.857,"id":"a69eoqb7vie5","geo_precision":"city","state":"MN"},"type":"Feature","geometry":{"type":"Point","coordinates":[-93.076163,44.661216]}},{"properties":{"city":"Saint Paul","geo_score":0.857,"id":"a69eoqlayjax","geo_precision":"city","state":"MN"},"type":"Feature","geometry":{"type":"Point","coordinates":[-93.093274,44.94441]}},{"properties":{"city":"Hopkins","geo_score":0.857,"id":"a69eoqlqahvg","geo_precision":"city","state":"MN"},"type":"Feature","geometry":{"type":"Point","coordinates":[-93.43723,44.952763]}},{"properties":{"city":"Saint Charles","geo_score":0.857,"id":"a69eoqdg2wdy","geo_precision":"city","state":"MO"},"type":"Feature","geometry":{"type":"Point","coordinates":[-90.613131,38.754788]}},{"properties":{"city":"Saint Louis","geo_score":0.857,"id":"a69eoqj17j9u","geo_precision":"city","state":"MO"},"type":"Feature","geometry":{"type":"Point","coordinates":[-90.197889,38.627273]}},{"properties":{"city":"House Springs","geo_score":0.738,"id":"a69eoql3diw7","geo_precision":"city","state":"MO"},"type":"Feature","geometry":{"type":"Point","coordinates":[-91.237925,38.295605]}},{"properties":{"city":"Saint Louis","geo_score":0.857,"id":"a69eoqaoh6gx","geo_precision":"city","state":"MO"},"type":"Feature","geometry":{"type":"Point","coordinates":[-90.197889,38.627273]}},{"properties":{"city":"Webb City","geo_score":0.857,"id":"a69eoqfv3isv","geo_precision":"city","state":"MO"},"type":"Feature","geometry":{"type":"Point","coordinates":[-94.330289,37.185063]}},{"properties":{"city":"Saint Louis","geo_score":0.857,"id":"a69eoqmlivd7","geo_precision":"city","state":"MO"},"type":"Feature","geometry":{"type":"Point","coordinates":[-90.197889,38.627273]}},{"properties":{"city":"Kansas City","geo_score":0.857,"id":"a69eoqi13zhu","geo_precision":"city","state":"MO"},"type":"Feature","geometry":{"type":"Point","coordinates":[-94.598583,39.102404]}},{"properties":{"city":"Lees Summit","geo_score":0.8,"id":"a69eoqeum8jk","geo_precision":"city","state":"MO"},"type":"Feature","geometry":{"type":"Point","coordinates":[-90.708185,37.911994]}},{"properties":{"city":"Saint Louis","geo_score":0.857,"id":"a69eoqhqs1qy","geo_precision":"city","state":"MO"},"type":"Feature","geometry":{"type":"Point","coordinates":[-90.197889,38.627273]}},{"properties":{"city":"Kansas City","geo_score":0.857,"id":"a69eoqgtb1l5","geo_precision":"city","state":"MO"},"type":"Feature","geometry":{"type":"Point","coordinates":[-94.598583,39.102404]}},{"properties":{"city":"Hollister","geo_score":0.857,"id":"a69eoq9i1r95","geo_precision":"city","state":"MO"},"type":"Feature","geometry":{"type":"Point","coordinates":[-93.17315,36.630652]}},{"properties":{"city":"Yazoo City","geo_score":0.857,"id":"a69eoqdzefrl","geo_precision":"city","state":"MS"},"type":"Feature","geometry":{"type":"Point","coordinates":[-90.475849,32.815898]}},{"properties":{"city":"Hillsborough","geo_score":0.857,"id":"a69eoqhw9e6i","geo_precision":"city","state":"NC"},"type":"Feature","geometry":{"type":"Point","coordinates":[-79.085469,36.077432]}},{"properties":{"city":"Raleigh","geo_score":0.857,"id":"a69eoqlza4uy","geo_precision":"city","state":"NC"},"type":"Feature","geometry":{"type":"Point","coordinates":[-78.638615,35.772096]}},{"properties":{"city":"Wilmington","geo_score":0.857,"id":"a69eoqcduhx4","geo_precision":"city","state":"NC"},"type":"Feature","geometry":{"type":"Point","coordinates":[-77.94471,34.225726]}},{"properties":{"city":"Apex","geo_score":0.857,"id":"a69eoqj4pwbj","geo_precision":"city","state":"NC"},"type":"Feature","geometry":{"type":"Point","coordinates":[-78.860891,35.727018]}},{"properties":{"city":"Raleigh","geo_score":0.857,"id":"a69eoqe0rqrr","geo_precision":"city","state":"NC"},"type":"Feature","geometry":{"type":"Point","coordinates":[-78.638615,35.772096]}},{"properties":{"city":"Cary","geo_score":0.821,"id":"a69eoqfwniq8","geo_precision":"city","state":"NC"},"type":"Feature","geometry":{"type":"Point","coordinates":[-79.220017,36.211527]}},{"properties":{"city":"Charlotte","geo_score":0.857,"id":"a69eoqnocj0u","geo_precision":"city","state":"NC"},"type":"Feature","geometry":{"type":"Point","coordinates":[-80.843127,35.227087]}},{"properties":{"city":"Candler","geo_score":0.786,"id":"a69eoql3k6ns","geo_precision":"city","state":"NC"},"type":"Feature","geometry":{"type":"Point","coordinates":[-82.706241,35.540109]}},{"properties":{"city":"Hickory","geo_score":0.857,"id":"a69eoqm7u56q","geo_precision":"city","state":"NC"},"type":"Feature","geometry":{"type":"Point","coordinates":[-81.308224,35.758221]}},{"properties":{"city":"Albuquerque","geo_score":0.857,"id":"a69eoqle1zzt","geo_precision":"city","state":"NM"},"type":"Feature","geometry":{"type":"Point","coordinates":[-106.651137,35.084491]}},{"properties":{"city":"New York","geo_score":0.857,"id":"a69eoqkwydqd","geo_precision":"city","state":"NY"},"type":"Feature","geometry":{"type":"Point","coordinates":[-74.005973,40.714269]}},{"properties":{"city":"Tulsa","geo_score":0.857,"id":"a69eoqcp5rhx","geo_precision":"city","state":"OK"},"type":"Feature","geometry":{"type":"Point","coordinates":[-95.992775,36.153982]}},{"properties":{"city":"Oklahoma City","geo_score":0.857,"id":"a69eoqhp8rq0","geo_precision":"city","state":"OK"},"type":"Feature","geometry":{"type":"Point","coordinates":[-97.516428,35.46756]}},{"properties":{"city":"Oklahoma City","geo_score":0.857,"id":"a69eoqeebr3o","geo_precision":"city","state":"OK"},"type":"Feature","geometry":{"type":"Point","coordinates":[-97.516428,35.46756]}},{"properties":{"city":"Tulsa","geo_score":0.857,"id":"a69eoqagz6ql","geo_precision":"city","state":"OK"},"type":"Feature","geometry":{"type":"Point","coordinates":[-95.992775,36.153982]}},{"properties":{"city":"Oklahoma City","geo_score":0.857,"id":"a69eoqkzu0n7","geo_precision":"city","state":"OK"},"type":"Feature","geometry":{"type":"Point","coordinates":[-97.516428,35.46756]}},{"properties":{"city":"Oklahoma City","geo_score":0.857,"id":"a69eoqlq33tj","geo_precision":"city","state":"OK"},"type":"Feature","geometry":{"type":"Point","coordinates":[-97.516428,35.46756]}},{"properties":{"city":"Tulsa","geo_score":0.857,"id":"a69eoqh83p4s","geo_precision":"city","state":"OK"},"type":"Feature","geometry":{"type":"Point","coordinates":[-95.992775,36.153982]}},{"properties":{"city":"Oklahoma City","geo_score":0.857,"id":"a69eoqirvd9y","geo_precision":"city","state":"OK"},"type":"Feature","geometry":{"type":"Point","coordinates":[-97.516428,35.46756]}},{"properties":{"city":"Oklahoma City","geo_score":0.857,"id":"a69eoqj6s0tk","geo_precision":"city","state":"OK"},"type":"Feature","geometry":{"type":"Point","coordinates":[-97.516428,35.46756]}},{"properties":{"city":"Broken Arrow","geo_score":0.857,"id":"a69eoql3d972","geo_precision":"city","state":"OK"},"type":"Feature","geometry":{"type":"Point","coordinates":[-95.818064,35.986399]}},{"properties":{"city":"Beaverton","geo_score":0.857,"id":"a69eoqlj3s4i","geo_precision":"city","state":"OR"},"type":"Feature","geometry":{"type":"Point","coordinates":[-122.80371,45.487062]}},{"properties":{"city":"Portland","geo_score":0.857,"id":"a69eoqb53gvn","geo_precision":"city","state":"OR"},"type":"Feature","geometry":{"type":"Point","coordinates":[-122.676207,45.523452]}},{"properties":{"city":"Portland","geo_score":0.857,"id":"a69eoqcq6f5n","geo_precision":"city","state":"OR"},"type":"Feature","geometry":{"type":"Point","coordinates":[-122.676207,45.523452]}},{"properties":{"city":"Woodburn","geo_score":0.857,"id":"a69eoqjooqhu","geo_precision":"city","state":"OR"},"type":"Feature","geometry":{"type":"Point","coordinates":[-122.876205,45.148007]}},{"properties":{"city":"Lakeview","geo_score":0.857,"id":"a69eoqff5dqj","geo_precision":"city","state":"OR"},"type":"Feature","geometry":{"type":"Point","coordinates":[-120.369607,42.180763]}},{"properties":{"city":"Lake Oswego","geo_score":0.857,"id":"a69eoq8c4lpg","geo_precision":"city","state":"OR"},"type":"Feature","geometry":{"type":"Point","coordinates":[-122.691388,45.408374]}},{"properties":{"city":"Canonsburg","geo_score":0.857,"id":"a69eoq7p1m8i","geo_precision":"city","state":"PA"},"type":"Feature","geometry":{"type":"Point","coordinates":[-80.12842,40.155704]}},{"properties":{"city":"Simpsonville","geo_score":0.798,"id":"a69eoq7o3p9z","geo_precision":"city","state":"SC"},"type":"Feature","geometry":{"type":"Point","coordinates":[-81.045366,34.308481]}},{"properties":{"city":"Memphis","geo_score":0.857,"id":"a69eoqkqivkg","geo_precision":"city","state":"TN"},"type":"Feature","geometry":{"type":"Point","coordinates":[-90.04898,35.149534]}},{"properties":{"city":"Nashville","geo_score":0.857,"id":"a69eoqgun0h5","geo_precision":"city","state":"TN"},"type":"Feature","geometry":{"type":"Point","coordinates":[-86.784443,36.16589]}},{"properties":{"city":"Chattanooga","geo_score":0.857,"id":"a69eoqaodba5","geo_precision":"city","state":"TN"},"type":"Feature","geometry":{"type":"Point","coordinates":[-85.30968,35.04563]}},{"properties":{"city":"Memphis","geo_score":0.857,"id":"a69eoqldlcde","geo_precision":"city","state":"TN"},"type":"Feature","geometry":{"type":"Point","coordinates":[-90.04898,35.149534]}},{"properties":{"city":"Cordova","geo_score":0.776,"id":"a69eoqi8gzkr","geo_precision":"city","state":"TN"},"type":"Feature","geometry":{"type":"Point","coordinates":[-84.631049,35.890629]}},{"properties":{"city":"Brentwood","geo_score":0.857,"id":"a69eoqkc065o","geo_precision":"city","state":"TN"},"type":"Feature","geometry":{"type":"Point","coordinates":[-86.907565,35.874553]}},{"properties":{"city":"Pinson","geo_score":0.857,"id":"a69eoqf1wju8","geo_precision":"city","state":"TN"},"type":"Feature","geometry":{"type":"Point","coordinates":[-88.747695,35.485]}},{"properties":{"city":"Nashville","geo_score":0.857,"id":"a69eoqj6mvbs","geo_precision":"city","state":"TN"},"type":"Feature","geometry":{"type":"Point","coordinates":[-86.784443,36.16589]}},{"properties":{"city":"Nashville","geo_score":0.857,"id":"a69eoqci48cu","geo_precision":"city","state":"TN"},"type":"Feature","geometry":{"type":"Point","coordinates":[-86.784443,36.16589]}},{"properties":{"city":"Memphis","geo_score":0.857,"id":"a69eoq9txwmh","geo_precision":"city","state":"TN"},"type":"Feature","geometry":{"type":"Point","coordinates":[-90.04898,35.149534]}},{"properties":{"city":"Salt Lake City","geo_score":0.857,"id":"a69eoqf1v51p","geo_precision":"city","state":"UT"},"type":"Feature","geometry":{"type":"Point","coordinates":[-111.891047,40.760779]}},{"properties":{"city":"Richmond","geo_score":0.857,"id":"a69eoqhap8av","geo_precision":"city","state":"VA"},"type":"Feature","geometry":{"type":"Point","coordinates":[-77.460262,37.553758]}},{"properties":{"city":"Glen Allen","geo_score":0.762,"id":"a69eoqew25zb","geo_precision":"city","state":"VA"},"type":"Feature","geometry":{"type":"Point","coordinates":[-78.931134,37.709308]}},{"properties":{"city":"Virginia Beach","geo_score":0.857,"id":"a69eoqn7kx4y","geo_precision":"city","state":"VA"},"type":"Feature","geometry":{"type":"Point","coordinates":[-76.076408,36.786299]}},{"properties":{"city":"Richmond","geo_score":0.857,"id":"a69eoqkrl17u","geo_precision":"city","state":"VA"},"type":"Feature","geometry":{"type":"Point","coordinates":[-77.460262,37.553758]}},{"properties":{"city":"Richmond","geo_score":0.857,"id":"a69eoqdaabga","geo_precision":"city","state":"VA"},"type":"Feature","geometry":{"type":"Point","coordinates":[-77.460262,37.553758]}},{"properties":{"city":"Ashburn","geo_score":0.857,"id":"a69eoqinxa5b","geo_precision":"city","state":"VA"},"type":"Feature","geometry":{"type":"Point","coordinates":[-77.645224,39.085309]}},{"properties":{"city":"Alexandria","geo_score":0.857,"id":"a69eoqggpe8g","geo_precision":"city","state":"VA"},"type":"Feature","geometry":{"type":"Point","coordinates":[-77.046921,38.804836]}},{"properties":{"city":"Vinton","geo_score":0.857,"id":"a69eoqivqokv","geo_precision":"city","state":"VA"},"type":"Feature","geometry":{"type":"Point","coordinates":[-79.877505,37.275674]}},{"properties":{"city":"Fairfax","geo_score":0.857,"id":"a69eoqbev6f8","geo_precision":"city","state":"VA"},"type":"Feature","geometry":{"type":"Point","coordinates":[-77.305097,38.853231]}},{"properties":{"city":"Glen Allen","geo_score":0.762,"id":"a69eoqhb479e","geo_precision":"city","state":"VA"},"type":"Feature","geometry":{"type":"Point","coordinates":[-78.931134,37.709308]}},{"properties":{"city":"Allyn","geo_score":0.829,"id":"a69eoqe91fpj","geo_precision":"city","state":"WA"},"type":"Feature","geometry":{"type":"Point","coordinates":[-122.377107,48.516496]}},{"properties":{"city":"Long Beach","geo_score":0.857,"id":"a69eoq8aulqn","geo_precision":"city","state":"WA"},"type":"Feature","geometry":{"type":"Point","coordinates":[-123.995591,46.376798]}},{"properties":{"city":"Pullman","geo_score":0.857,"id":"a69eoql9wp5t","geo_precision":"city","state":"WA"},"type":"Feature","geometry":{"type":"Point","coordinates":[-117.317741,46.82748]}},{"properties":{"city":"Milwaukee","geo_score":0.857,"id":"a69eoqits8rv","geo_precision":"city","state":"WI"},"type":"Feature","geometry":{"type":"Point","coordinates":[-87.906474,43.038903]}},{"properties":{"city":"Custer","geo_score":0.857,"id":"a69eoqlf7kws","geo_precision":"city","state":"WI"},"type":"Feature","geometry":{"type":"Point","coordinates":[-89.586502,44.580724]}},{"properties":{"city":"Sun Prairie","geo_score":0.729,"id":"a69eoqkflqj0","geo_precision":"city","state":"WI"},"type":"Feature","geometry":{"type":"Point","coordinates":[-88.662056,43.996927]}},{"properties":{"city":"Racine","geo_score":0.857,"id":"a69eoqdls24c","geo_precision":"city","state":"WI"},"type":"Feature","geometry":{"type":"Point","coordinates":[-87.675979,42.727153]}},{"properties":{"city":"Seymour","geo_score":0.857,"id":"a69eoqjuptso","geo_precision":"city","state":"WI"},"type":"Feature","geometry":{"type":"Point","coordinates":[-88.463328,44.430443]}},{"properties":{"city":"Waterford","geo_score":0.857,"id":"a69eoqf4ej2y","geo_precision":"city","state":"WI"},"type":"Feature","geometry":{"type":"Point","coordinates":[-88.197361,42.763168]}},{"properties":{"city":"Rhinelander","geo_score":0.857,"id":"a69eoqgcgg7r","geo_precision":"city","state":"WI"},"type":"Feature","geometry":{"type":"Point","coordinates":[-89.386562,45.704474]}},{"properties":{"city":"Milwaukee","geo_score":0.857,"id":"a69eoqk47xao","geo_precision":"city","state":"WI"},"type":"Feature","geometry":{"type":"Point","coordinates":[-87.906474,43.038903]}},{"properties":{"city":"Madison","geo_score":0.857,"id":"a69eoqb5x18d","geo_precision":"city","state":"WI"},"type":"Feature","geometry":{"type":"Point","coordinates":[-89.40123,43.073052]}},{"properties":{"city":"Mayville","geo_score":0.821,"id":"a69eoqlj2xko","geo_precision":"city","state":"WI"},"type":"Feature","geometry":{"type":"Point","coordinates":[-92.527413,44.688579]}},{"properties":{"city":"Two Rivers","geo_score":0.73,"id":"a69eoq890axq","geo_precision":"city","state":"WI"},"type":"Feature","geometry":{"type":"Point","coordinates":[-92.244916,46.569386]}},{"properties":{"city":"Minocqua","geo_score":0.857,"id":"a69eoqa98ttw","geo_precision":"city","state":"WI"},"type":"Feature","geometry":{"type":"Point","coordinates":[-89.824294,45.827583]}},{"properties":{"city":"Greendale","geo_score":0.857,"id":"a69eoq8lywv9","geo_precision":"city","state":"WI"},"type":"Feature","geometry":{"type":"Point","coordinates":[-87.998935,42.937765]}},{"properties":{"city":"Franklin","geo_score":0.857,"id":"a69eoqm3te76","geo_precision":"city","state":"WI"},"type":"Feature","geometry":{"type":"Point","coordinates":[-87.90148,43.83555]}},{"properties":{"city":"Waukesha","geo_score":0.857,"id":"a69eoqecb5b3","geo_precision":"city","state":"WI"},"type":"Feature","geometry":{"type":"Point","coordinates":[-88.217715,42.987835]}},{"properties":{"city":"Burlington","geo_score":0.857,"id":"a69eoqg3a8q3","geo_precision":"city","state":"WI"},"type":"Feature","geometry":{"type":"Point","coordinates":[-88.228793,42.692103]}},{"properties":{"city":"Monona","geo_score":0.857,"id":"a69eoqczt2ug","geo_precision":"city","state":"WI"},"type":"Feature","geometry":{"type":"Point","coordinates":[-89.334007,43.062219]}},{"properties":{"city":"Elm Grove","geo_score":0.857,"id":"a69eoqiws1iv","geo_precision":"city","state":"WI"},"type":"Feature","geometry":{"type":"Point","coordinates":[-88.087888,43.048211]}},{"properties":{"city":"Las Vegas","geo_score":0.857,"id":"a69eoqc03ppc","geo_precision":"city","state":"NV"},"type":"Feature","geometry":{"type":"Point","coordinates":[-115.137223,36.174971]}},{"properties":{"city":"Carmel By The Sea","geo_score":0.857,"id":"a69eoq7qy1xb","geo_precision":"city","state":"CA"},"type":"Feature","geometry":{"type":"Point","coordinates":[-121.923288,36.555239]}},{"properties":{"city":"Corona del Mar","geo_score":0.726,"id":"a69eoqime6zx","geo_precision":"city","state":"CA"},"type":"Feature","geometry":{"type":"Point","coordinates":[-123.34501,39.398219]}},{"properties":{"city":"El Cajon","geo_score":0.857,"id":"a69eoq7sq7yf","geo_precision":"city","state":"CA"},"type":"Feature","geometry":{"type":"Point","coordinates":[-117.041287,32.865113]}},{"properties":{"city":"Los Angeles","geo_score":0.857,"id":"a69eoq808w3t","geo_precision":"city","state":"CA"},"type":"Feature","geometry":{"type":"Point","coordinates":[-118.243685,34.052234]}},{"properties":{"city":"San Luis Obispo","geo_score":0.736,"id":"a69eoqdx2gjp","geo_precision":"city","state":"CA"},"type":"Feature","geometry":{"type":"Point","coordinates":[-118.345664,37.400762]}},{"properties":{"city":"Houston","geo_score":0.816,"id":"a69eoqgdin4x","geo_precision":"city","state":"TX"},"type":"Feature","geometry":{"type":"Point","coordinates":[-96.919704,29.845783]}},{"properties":{"city":"San Antonio","geo_score":0.857,"id":"a69eoqmui7yv","geo_precision":"city","state":"TX"},"type":"Feature","geometry":{"type":"Point","coordinates":[-98.493628,29.424122]}},{"properties":{"city":"Fort Worth","geo_score":0.746,"id":"a69eoqgy1ern","geo_precision":"city","state":"TX"},"type":"Feature","geometry":{"type":"Point","coordinates":[-95.262161,31.108239]}},{"properties":{"city":"Dallas","geo_score":0.857,"id":"a69eoqda9zbg","geo_precision":"city","state":"TX"},"type":"Feature","geometry":{"type":"Point","coordinates":[-96.806667,32.783056]}},{"properties":{"city":"Austin","geo_score":0.857,"id":"a69eoqko153v","geo_precision":"city","state":"TX"},"type":"Feature","geometry":{"type":"Point","coordinates":[-97.743061,30.267153]}},{"properties":{"city":"Houston","geo_score":0.816,"id":"a69eoqbfuorv","geo_precision":"city","state":"TX"},"type":"Feature","geometry":{"type":"Point","coordinates":[-96.919704,29.845783]}},{"properties":{"city":"Dallas","geo_score":0.857,"id":"a69eoqgnf7zk","geo_precision":"city","state":"TX"},"type":"Feature","geometry":{"type":"Point","coordinates":[-96.806667,32.783056]}},{"properties":{"city":"Dallas","geo_score":0.857,"id":"a69eoqiz5mk1","geo_precision":"city","state":"TX"},"type":"Feature","geometry":{"type":"Point","coordinates":[-96.806667,32.783056]}},{"properties":{"city":"Fort Worth","geo_score":0.746,"id":"a69eoqgxkof2","geo_precision":"city","state":"TX"},"type":"Feature","geometry":{"type":"Point","coordinates":[-95.262161,31.108239]}},{"properties":{"city":"Fort Worth","geo_score":0.746,"id":"a69eoqdz9oun","geo_precision":"city","state":"TX"},"type":"Feature","geometry":{"type":"Point","coordinates":[-95.262161,31.108239]}},{"properties":{"city":"Adkins","geo_score":0.857,"id":"a69eoqf5lt04","geo_precision":"city","state":"TX"},"type":"Feature","geometry":{"type":"Point","coordinates":[-98.253788,29.368735]}},{"properties":{"city":"Houston","geo_score":0.816,"id":"a69eoqgqzv3n","geo_precision":"city","state":"TX"},"type":"Feature","geometry":{"type":"Point","coordinates":[-96.919704,29.845783]}},{"properties":{"city":"Austin","geo_score":0.857,"id":"a69eoqkwp9s7","geo_precision":"city","state":"TX"},"type":"Feature","geometry":{"type":"Point","coordinates":[-97.743061,30.267153]}},{"properties":{"city":"Houston","geo_score":0.816,"id":"a69eoqc31cah","geo_precision":"city","state":"TX"},"type":"Feature","geometry":{"type":"Point","coordinates":[-96.919704,29.845783]}},{"properties":{"city":"Corpus Christi","geo_score":0.857,"id":"a69eoqk1b53n","geo_precision":"city","state":"TX"},"type":"Feature","geometry":{"type":"Point","coordinates":[-97.396381,27.800583]}},{"properties":{"city":"Houston","geo_score":0.816,"id":"a69eoq9508he","geo_precision":"city","state":"TX"},"type":"Feature","geometry":{"type":"Point","coordinates":[-96.919704,29.845783]}},{"properties":{"city":"Beaumont","geo_score":0.857,"id":"a69eoqnmsn2a","geo_precision":"city","state":"TX"},"type":"Feature","geometry":{"type":"Point","coordinates":[-94.101846,30.086046]}},{"properties":{"city":"San Antonio","geo_score":0.857,"id":"a69eoq9bbovw","geo_precision":"city","state":"TX"},"type":"Feature","geometry":{"type":"Point","coordinates":[-98.493628,29.424122]}},{"properties":{"city":"Schertz","geo_score":0.857,"id":"a69eoqf135de","geo_precision":"city","state":"TX"},"type":"Feature","geometry":{"type":"Point","coordinates":[-98.277839,29.578978]}},{"properties":{"city":"Garland","geo_score":0.857,"id":"a69eoqnnnv70","geo_precision":"city","state":"TX"},"type":"Feature","geometry":{"type":"Point","coordinates":[-94.669376,33.516503]}},{"properties":{"city":"Wimberley","geo_score":0.857,"id":"a69eoqimdfu0","geo_precision":"city","state":"TX"},"type":"Feature","geometry":{"type":"Point","coordinates":[-98.031713,30.012441]}},{"properties":{"city":"Wichita Falls","geo_score":0.857,"id":"a69eoqa2w7mh","geo_precision":"city","state":"TX"},"type":"Feature","geometry":{"type":"Point","coordinates":[-98.493387,33.913709]}},{"properties":{"city":"Lubbock","geo_score":0.857,"id":"a69eoqh43kn6","geo_precision":"city","state":"TX"},"type":"Feature","geometry":{"type":"Point","coordinates":[-101.855167,33.577863]}},{"properties":{"city":"El Paso","geo_score":0.857,"id":"a69eoqfzwpcm","geo_precision":"city","state":"TX"},"type":"Feature","geometry":{"type":"Point","coordinates":[-106.486931,31.75872]}},{"properties":{"city":"Plum","geo_score":0.857,"id":"a69eoqb9i5bf","geo_precision":"city","state":"TX"},"type":"Feature","geometry":{"type":"Point","coordinates":[-96.943868,29.896219]}},{"properties":{"city":"San Antonio","geo_score":0.857,"id":"a69eoq9ryo3e","geo_precision":"city","state":"TX"},"type":"Feature","geometry":{"type":"Point","coordinates":[-98.493628,29.424122]}},{"properties":{"city":"Pasadena","geo_score":0.857,"id":"a69eoqhkn1b0","geo_precision":"city","state":"TX"},"type":"Feature","geometry":{"type":"Point","coordinates":[-95.434241,29.83399]}},{"properties":{"city":"San Antonio","geo_score":0.857,"id":"a69eoqaxuzou","geo_precision":"city","state":"TX"},"type":"Feature","geometry":{"type":"Point","coordinates":[-98.493628,29.424122]}},{"properties":{"city":"Tyler","geo_score":0.738,"id":"a69eoqmrgk08","geo_precision":"city","state":"TX"},"type":"Feature","geometry":{"type":"Point","coordinates":[-94.459924,32.153495]}},{"properties":{"city":"San Antonio","geo_score":0.857,"id":"a69eoqji9gxl","geo_precision":"city","state":"TX"},"type":"Feature","geometry":{"type":"Point","coordinates":[-98.493628,29.424122]}},{"properties":{"city":"El Paso","geo_score":0.857,"id":"a69eoqmhjrzo","geo_precision":"city","state":"TX"},"type":"Feature","geometry":{"type":"Point","coordinates":[-106.486931,31.75872]}},{"properties":{"city":"Dallas","geo_score":0.857,"id":"a69eoqklzptl","geo_precision":"city","state":"TX"},"type":"Feature","geometry":{"type":"Point","coordinates":[-96.806667,32.783056]}},{"properties":{"city":"El Paso","geo_score":0.857,"id":"a69eoqc0kvj9","geo_precision":"city","state":"TX"},"type":"Feature","geometry":{"type":"Point","coordinates":[-106.486931,31.75872]}},{"properties":{"city":"Benbrook","geo_score":0.857,"id":"a69eoqi3lm0i","geo_precision":"city","state":"TX"},"type":"Feature","geometry":{"type":"Point","coordinates":[-97.460576,32.673188]}},{"properties":{"city":"Kerrville","geo_score":0.825,"id":"a69eoqg21v9z","geo_precision":"city","state":"TX"},"type":"Feature","geometry":{"type":"Point","coordinates":[-95.585498,30.012165]}},{"properties":{"city":"Lubbock","geo_score":0.857,"id":"a69eoqhqx9py","geo_precision":"city","state":"TX"},"type":"Feature","geometry":{"type":"Point","coordinates":[-101.855167,33.577863]}},{"properties":{"city":"Marshall","geo_score":0.857,"id":"a69eoq89qnsw","geo_precision":"city","state":"TX"},"type":"Feature","geometry":{"type":"Point","coordinates":[-94.406228,32.538112]}},{"properties":{"city":"San Antonio","geo_score":0.857,"id":"a69eoqlagfia","geo_precision":"city","state":"TX"},"type":"Feature","geometry":{"type":"Point","coordinates":[-98.493628,29.424122]}},{"properties":{"city":"Garland","geo_score":0.857,"id":"a69eoqfv7z1a","geo_precision":"city","state":"TX"},"type":"Feature","geometry":{"type":"Point","coordinates":[-94.669376,33.516503]}},{"properties":{"city":"Dallas","geo_score":0.857,"id":"a69eoqhpltbm","geo_precision":"city","state":"TX"},"type":"Feature","geometry":{"type":"Point","coordinates":[-96.806667,32.783056]}},{"properties":{"city":"San Antonio","geo_score":0.857,"id":"a69eoqj1vvg0","geo_precision":"city","state":"TX"},"type":"Feature","geometry":{"type":"Point","coordinates":[-98.493628,29.424122]}},{"properties":{"city":"Longview","geo_score":0.857,"id":"a69eoqjx7xj6","geo_precision":"city","state":"TX"},"type":"Feature","geometry":{"type":"Point","coordinates":[-94.740489,32.500704]}},{"properties":{"city":"Garland","geo_score":0.857,"id":"a69eoqe94y71","geo_precision":"city","state":"TX"},"type":"Feature","geometry":{"type":"Point","coordinates":[-94.669376,33.516503]}},{"properties":{"city":"Dallas","geo_score":0.857,"id":"a69eoqhnubqp","geo_precision":"city","state":"TX"},"type":"Feature","geometry":{"type":"Point","coordinates":[-96.806667,32.783056]}},{"properties":{"city":"Dallas","geo_score":0.857,"id":"a69eoqashm8y","geo_precision":"city","state":"TX"},"type":"Feature","geometry":{"type":"Point","coordinates":[-96.806667,32.783056]}},{"properties":{"city":"Marshall Ford","geo_score":0.738,"id":"a69eoqijt9a5","geo_precision":"city","state":"TX"},"type":"Feature","geometry":{"type":"Point","coordinates":[-95.262161,31.108239]}},{"properties":{"city":"Granbury","geo_score":0.857,"id":"a69eoqh1671d","geo_precision":"city","state":"TX"},"type":"Feature","geometry":{"type":"Point","coordinates":[-97.844867,32.435405]}},{"properties":{"city":"Elm Mott","geo_score":0.796,"id":"a69eoqancmfn","geo_precision":"city","state":"TX"},"type":"Feature","geometry":{"type":"Point","coordinates":[-96.302743,32.599614]}},{"properties":{"city":"Houston","geo_score":0.816,"id":"a69eoqj4k1oc","geo_precision":"city","state":"TX"},"type":"Feature","geometry":{"type":"Point","coordinates":[-96.919704,29.845783]}},{"properties":{"city":"Hewitt","geo_score":0.857,"id":"a69eoqbzazkr","geo_precision":"city","state":"TX"},"type":"Feature","geometry":{"type":"Point","coordinates":[-97.164392,31.522017]}},{"properties":{"city":"Baton Rouge","geo_score":0.857,"id":"a69eoqn3jvyl","geo_precision":"city","state":"LA"},"type":"Feature","geometry":{"type":"Point","coordinates":[-91.154551,30.450746]}},{"properties":{"city":"Metairie","geo_score":0.857,"id":"a69eoq7tmnst","geo_precision":"city","state":"LA"},"type":"Feature","geometry":{"type":"Point","coordinates":[-90.152852,29.984092]}},{"properties":{"city":"New Orleans","geo_score":0.857,"id":"a69eoqkile6f","geo_precision":"city","state":"LA"},"type":"Feature","geometry":{"type":"Point","coordinates":[-89.930956,30.068812]}},{"properties":{"city":"Annapolis","geo_score":0.857,"id":"a69eoqjz779v","geo_precision":"city","state":"MD"},"type":"Feature","geometry":{"type":"Point","coordinates":[-76.492183,38.978445]}},{"properties":{"city":"Hyattsville","geo_score":0.857,"id":"a69eoqip683r","geo_precision":"city","state":"MD"},"type":"Feature","geometry":{"type":"Point","coordinates":[-76.94553,38.955944]}},{"properties":{"city":"Waldorf","geo_score":0.857,"id":"a69eoq9ksfz8","geo_precision":"city","state":"MD"},"type":"Feature","geometry":{"type":"Point","coordinates":[-76.867928,38.603783]}},{"properties":{"city":"Westport","geo_score":0.857,"id":"a69eoqd9z4sw","geo_precision":"city","state":"CT"},"type":"Feature","geometry":{"type":"Point","coordinates":[-73.343261,41.144496]}},{"properties":{"city":"Middleburg Heights","geo_score":0.798,"id":"a69eoqhuaedi","geo_precision":"city","state":"OH"},"type":"Feature","geometry":{"type":"Point","coordinates":[-81.389563,39.674517]}},{"properties":{"city":"Tallmadge","geo_score":0.857,"id":"a69eoq81appa","geo_precision":"city","state":"OH"},"type":"Feature","geometry":{"type":"Point","coordinates":[-81.428883,41.096656]}},{"properties":{"city":"Barberton","geo_score":0.857,"id":"a69eoq8kzvsa","geo_precision":"city","state":"OH"},"type":"Feature","geometry":{"type":"Point","coordinates":[-81.621195,41.019655]}},{"properties":{"city":"North Ridgeville","geo_score":0.81,"id":"a69eoqglc7fk","geo_precision":"city","state":"OH"},"type":"Feature","geometry":{"type":"Point","coordinates":[-83.778539,39.991727]}},{"properties":{"city":"Cleveland","geo_score":0.857,"id":"a69eoqcjj8sm","geo_precision":"city","state":"OH"},"type":"Feature","geometry":{"type":"Point","coordinates":[-81.695409,41.499495]}},{"properties":{"city":"Toledo","geo_score":0.857,"id":"a69eoqhv4egk","geo_precision":"city","state":"OH"},"type":"Feature","geometry":{"type":"Point","coordinates":[-83.555212,41.663938]}},{"properties":{"city":"Columbus","geo_score":0.776,"id":"a69eoqfrr4je","geo_precision":"city","state":"OH"},"type":"Feature","geometry":{"type":"Point","coordinates":[-82.695724,39.998397]}},{"properties":{"city":"Columbus","geo_score":0.776,"id":"a69eoqlmztcw","geo_precision":"city","state":"OH"},"type":"Feature","geometry":{"type":"Point","coordinates":[-82.695724,39.998397]}},{"properties":{"city":"Sacramento","geo_score":0.857,"id":"a69eoq7mkam7","geo_precision":"city","state":"CA"},"type":"Feature","geometry":{"type":"Point","coordinates":[-121.4944,38.581572]}},{"properties":{"city":"Sacramento","geo_score":0.857,"id":"a69eoqiza2rc","geo_precision":"city","state":"CA"},"type":"Feature","geometry":{"type":"Point","coordinates":[-121.4944,38.581572]}},{"properties":{"city":"la Jolla","geo_score":0.857,"id":"a69eoqlhixfg","geo_precision":"city","state":"CA"},"type":"Feature","geometry":{"type":"Point","coordinates":[-117.876447,33.857515]}},{"properties":{"city":"San Diego","geo_score":0.857,"id":"a69eoqavv7k7","geo_precision":"city","state":"CA"},"type":"Feature","geometry":{"type":"Point","coordinates":[-117.157255,32.715329]}},{"properties":{"city":"Chatsworth","geo_score":0.789,"id":"a69eoqi92bek","geo_precision":"city","state":"CA"},"type":"Feature","geometry":{"type":"Point","coordinates":[-118.637033,34.240837]}},{"properties":{"city":"Ventura","geo_score":0.857,"id":"a69eoqmkefu5","geo_precision":"city","state":"CA"},"type":"Feature","geometry":{"type":"Point","coordinates":[-119.358352,34.330829]}},{"properties":{"city":"San Rafael","geo_score":0.857,"id":"a69eoql8pyhi","geo_precision":"city","state":"CA"},"type":"Feature","geometry":{"type":"Point","coordinates":[-122.531087,37.973535]}},{"properties":{"city":"la Mesa","geo_score":0.857,"id":"a69eoqae0g39","geo_precision":"city","state":"CA"},"type":"Feature","geometry":{"type":"Point","coordinates":[-116.998102,32.76105]}},{"properties":{"city":"Salinas","geo_score":0.857,"id":"a69eoq7hnceb","geo_precision":"city","state":"CA"},"type":"Feature","geometry":{"type":"Point","coordinates":[-121.655501,36.677737]}},{"properties":{"city":"San Francisco","geo_score":0.857,"id":"a69eoq9930ev","geo_precision":"city","state":"CA"},"type":"Feature","geometry":{"type":"Point","coordinates":[-122.419416,37.77493]}},{"properties":{"city":"Redwood City","geo_score":0.74,"id":"a69eoqjeel3q","geo_precision":"city","state":"CA"},"type":"Feature","geometry":{"type":"Point","coordinates":[-115.967051,34.839964]}},{"properties":{"city":"Carmichael","geo_score":0.857,"id":"a69eoqlz1urr","geo_precision":"city","state":"CA"},"type":"Feature","geometry":{"type":"Point","coordinates":[-121.332191,38.62136]}},{"properties":{"city":"Larkspur","geo_score":0.857,"id":"a69eoqfh8kus","geo_precision":"city","state":"CA"},"type":"Feature","geometry":{"type":"Point","coordinates":[-122.534237,37.936624]}},{"properties":{"city":"Encinitas","geo_score":0.857,"id":"a69eoqkgpq9m","geo_precision":"city","state":"CA"},"type":"Feature","geometry":{"type":"Point","coordinates":[-116.846046,33.016928]}},{"properties":{"city":"Fairfield","geo_score":0.857,"id":"a69eoq989unf","geo_precision":"city","state":"CA"},"type":"Feature","geometry":{"type":"Point","coordinates":[-122.039305,38.25584]}},{"properties":{"city":"Irvine","geo_score":0.857,"id":"a69eoqhyu2k4","geo_precision":"city","state":"CA"},"type":"Feature","geometry":{"type":"Point","coordinates":[-117.823111,33.669465]}},{"properties":{"city":"Vallejo","geo_score":0.857,"id":"a69eoqmhlgxz","geo_precision":"city","state":"CA"},"type":"Feature","geometry":{"type":"Point","coordinates":[-122.264316,38.107945]}},{"properties":{"city":"Oakland","geo_score":0.857,"id":"a69eoqjpriod","geo_precision":"city","state":"CA"},"type":"Feature","geometry":{"type":"Point","coordinates":[-122.270803,37.804372]}},{"properties":{"city":"Tustin","geo_score":0.857,"id":"a69eoqd4t37h","geo_precision":"city","state":"CA"},"type":"Feature","geometry":{"type":"Point","coordinates":[-117.826166,33.745851]}},{"properties":{"city":"Lemon Grove","geo_score":0.857,"id":"a69eoqgq9psp","geo_precision":"city","state":"CA"},"type":"Feature","geometry":{"type":"Point","coordinates":[-117.037344,32.732288]}},{"properties":{"city":"Healdsburg","geo_score":0.857,"id":"a69eoqdtz4a7","geo_precision":"city","state":"CA"},"type":"Feature","geometry":{"type":"Point","coordinates":[-122.787101,38.512761]}},{"properties":{"city":"Kenwood","geo_score":0.857,"id":"a69eoqmmukpt","geo_precision":"city","state":"CA"},"type":"Feature","geometry":{"type":"Point","coordinates":[-122.548243,38.413111]}},{"properties":{"city":"Lakewood","geo_score":0.857,"id":"a69eoqj9ikle","geo_precision":"city","state":"CA"},"type":"Feature","geometry":{"type":"Point","coordinates":[-118.298662,33.786594]}},{"properties":{"city":"Sonora","geo_score":0.857,"id":"a69eoqe0f25m","geo_precision":"city","state":"CA"},"type":"Feature","geometry":{"type":"Point","coordinates":[-120.343863,37.96091]}},{"properties":{"city":"Encinitas","geo_score":0.857,"id":"a69eoqk43qz5","geo_precision":"city","state":"CA"},"type":"Feature","geometry":{"type":"Point","coordinates":[-116.846046,33.016928]}},{"properties":{"city":"San Rafael","geo_score":0.857,"id":"a69eoqdd4ilu","geo_precision":"city","state":"CA"},"type":"Feature","geometry":{"type":"Point","coordinates":[-122.531087,37.973535]}},{"properties":{"city":"Capistrano Beach","geo_score":0.857,"id":"a69eoqmv5mba","geo_precision":"city","state":"CA"},"type":"Feature","geometry":{"type":"Point","coordinates":[-117.671718,33.462528]}},{"properties":{"city":"Chico","geo_score":0.857,"id":"a69eoqkdtnr7","geo_precision":"city","state":"CA"},"type":"Feature","geometry":{"type":"Point","coordinates":[-121.840083,39.746159]}},{"properties":{"city":"Sacramento","geo_score":0.857,"id":"a69eoqimg6sk","geo_precision":"city","state":"CA"},"type":"Feature","geometry":{"type":"Point","coordinates":[-121.4944,38.581572]}},{"properties":{"city":"Albany","geo_score":0.857,"id":"a69eoqdlutgw","geo_precision":"city","state":"CA"},"type":"Feature","geometry":{"type":"Point","coordinates":[-122.29828,37.889525]}},{"properties":{"city":"San Rafael","geo_score":0.857,"id":"a69eoq896l4x","geo_precision":"city","state":"CA"},"type":"Feature","geometry":{"type":"Point","coordinates":[-122.531087,37.973535]}},{"properties":{"city":"Ventura","geo_score":0.857,"id":"a69eoqgd18cf","geo_precision":"city","state":"CA"},"type":"Feature","geometry":{"type":"Point","coordinates":[-119.358352,34.330829]}},{"properties":{"city":"Santa Maria","geo_score":0.743,"id":"a69eoqajyyej","geo_precision":"city","state":"CA"},"type":"Feature","geometry":{"type":"Point","coordinates":[-123.34501,39.398219]}},{"properties":{"city":"Redlands","geo_score":0.79,"id":"a69eoqn219yd","geo_precision":"city","state":"CA"},"type":"Feature","geometry":{"type":"Point","coordinates":[-117.158648,34.033903]}},{"properties":{"city":"Tuolumne","geo_score":0.857,"id":"a69eoqmt2qcs","geo_precision":"city","state":"CA"},"type":"Feature","geometry":{"type":"Point","coordinates":[-120.267887,37.921694]}},{"properties":{"city":"Oceanside","geo_score":0.857,"id":"a69eoqlomo4q","geo_precision":"city","state":"CA"},"type":"Feature","geometry":{"type":"Point","coordinates":[-117.379483,33.19587]}},{"properties":{"city":"Concord","geo_score":0.857,"id":"a69eoqj6jtxu","geo_precision":"city","state":"CA"},"type":"Feature","geometry":{"type":"Point","coordinates":[-122.022872,37.953672]}},{"properties":{"city":"Healdsburg","geo_score":0.857,"id":"a69eoqchocae","geo_precision":"city","state":"CA"},"type":"Feature","geometry":{"type":"Point","coordinates":[-122.787101,38.512761]}},{"properties":{"city":"Belmont","geo_score":0.798,"id":"a69eoqnzsks4","geo_precision":"city","state":"CA"},"type":"Feature","geometry":{"type":"Point","coordinates":[-117.206988,34.624159]}},{"properties":{"city":"Monrovia","geo_score":0.857,"id":"a69eoqdcsoog","geo_precision":"city","state":"CA"},"type":"Feature","geometry":{"type":"Point","coordinates":[-118.298662,33.786594]}},{"properties":{"city":"Kenwood","geo_score":0.857,"id":"a69eoqkwq8dk","geo_precision":"city","state":"CA"},"type":"Feature","geometry":{"type":"Point","coordinates":[-122.548243,38.413111]}},{"properties":{"city":"Oceanside","geo_score":0.857,"id":"a69eoqmbjpnx","geo_precision":"city","state":"CA"},"type":"Feature","geometry":{"type":"Point","coordinates":[-117.379483,33.19587]}},{"properties":{"city":"Pasadena","geo_score":0.857,"id":"a69eoqmrd70k","geo_precision":"city","state":"CA"},"type":"Feature","geometry":{"type":"Point","coordinates":[-118.144516,34.147785]}},{"properties":{"city":"Lancaster","geo_score":0.857,"id":"a69eoqddiiw4","geo_precision":"city","state":"CA"},"type":"Feature","geometry":{"type":"Point","coordinates":[-118.136739,34.698041]}},{"properties":{"city":"San Carlos","geo_score":0.746,"id":"a69eoqjwwig3","geo_precision":"city","state":"CA"},"type":"Feature","geometry":{"type":"Point","coordinates":[-123.034604,40.672576]}},{"properties":{"city":"Santa Ana","geo_score":0.857,"id":"a69eoqdsrrgb","geo_precision":"city","state":"CA"},"type":"Feature","geometry":{"type":"Point","coordinates":[-117.867834,33.745573]}},{"properties":{"city":"Torrance","geo_score":0.857,"id":"a69eoqj62kua","geo_precision":"city","state":"CA"},"type":"Feature","geometry":{"type":"Point","coordinates":[-118.340629,33.835849]}},{"properties":{"city":"San Diego","geo_score":0.857,"id":"a69eoqg5v49h","geo_precision":"city","state":"CA"},"type":"Feature","geometry":{"type":"Point","coordinates":[-117.157255,32.715329]}},{"properties":{"city":"Los Alamitos","geo_score":0.753,"id":"a69eoqcapu1h","geo_precision":"city","state":"CA"},"type":"Feature","geometry":{"type":"Point","coordinates":[-118.345664,37.400762]}},{"properties":{"city":"Oakland","geo_score":0.857,"id":"a69eoqev7r4l","geo_precision":"city","state":"CA"},"type":"Feature","geometry":{"type":"Point","coordinates":[-122.270803,37.804372]}},{"properties":{"city":"Emeryville","geo_score":0.857,"id":"a69eoqjngyma","geo_precision":"city","state":"CA"},"type":"Feature","geometry":{"type":"Point","coordinates":[-122.29548,37.833876]}},{"properties":{"city":"San Francisco","geo_score":0.857,"id":"a69eoqd61ne8","geo_precision":"city","state":"CA"},"type":"Feature","geometry":{"type":"Point","coordinates":[-122.419416,37.77493]}},{"properties":{"city":"Altadena","geo_score":0.857,"id":"a69eoqhdjkur","geo_precision":"city","state":"CA"},"type":"Feature","geometry":{"type":"Point","coordinates":[-118.298662,33.786594]}},{"properties":{"city":"Altadena","geo_score":0.857,"id":"a69eoq9agd67","geo_precision":"city","state":"CA"},"type":"Feature","geometry":{"type":"Point","coordinates":[-118.298662,33.786594]}},{"properties":{"city":"Chino Hills","geo_score":0.786,"id":"a69eoqbflm73","geo_precision":"city","state":"CA"},"type":"Feature","geometry":{"type":"Point","coordinates":[-115.967051,34.839964]}},{"properties":{"city":"Simi Valley","geo_score":0.743,"id":"a69eoqc9l1w5","geo_precision":"city","state":"CA"},"type":"Feature","geometry":{"type":"Point","coordinates":[-121.677764,40.517936]}},{"properties":{"city":"Redwood City","geo_score":0.74,"id":"a69eoqgy3c36","geo_precision":"city","state":"CA"},"type":"Feature","geometry":{"type":"Point","coordinates":[-115.967051,34.839964]}},{"properties":{"city":"Encinitas","geo_score":0.857,"id":"a69eoq931pq1","geo_precision":"city","state":"CA"},"type":"Feature","geometry":{"type":"Point","coordinates":[-116.846046,33.016928]}},{"properties":{"city":"San Rafael","geo_score":0.857,"id":"a69eoqnohcv5","geo_precision":"city","state":"CA"},"type":"Feature","geometry":{"type":"Point","coordinates":[-122.531087,37.973535]}},{"properties":{"city":"San Diego","geo_score":0.857,"id":"a69eoqaztuob","geo_precision":"city","state":"CA"},"type":"Feature","geometry":{"type":"Point","coordinates":[-117.157255,32.715329]}},{"properties":{"city":"Oceano","geo_score":0.857,"id":"a69eoqf1vb1w","geo_precision":"city","state":"CA"},"type":"Feature","geometry":{"type":"Point","coordinates":[-120.611142,35.106168]}},{"properties":{"city":"Sacramento","geo_score":0.857,"id":"a69eoqmrk4yc","geo_precision":"city","state":"CA"},"type":"Feature","geometry":{"type":"Point","coordinates":[-121.4944,38.581572]}},{"properties":{"city":"Pacific Palisades","geo_score":0.786,"id":"a69eoqh9iqn4","geo_precision":"city","state":"CA"},"type":"Feature","geometry":{"type":"Point","coordinates":[-122.480015,37.616774]}},{"properties":{"city":"Santa Rosa","geo_score":0.73,"id":"a69eoq8jdkeb","geo_precision":"city","state":"CA"},"type":"Feature","geometry":{"type":"Point","coordinates":[-114.849692,34.083625]}},{"properties":{"city":"Lagunitas","geo_score":0.857,"id":"a69eoqe49efz","geo_precision":"city","state":"CA"},"type":"Feature","geometry":{"type":"Point","coordinates":[-122.699183,38.022974]}},{"properties":{"city":"Redlands","geo_score":0.79,"id":"a69eoqgs1dhk","geo_precision":"city","state":"CA"},"type":"Feature","geometry":{"type":"Point","coordinates":[-117.158648,34.033903]}},{"properties":{"city":"Palm Desert","geo_score":0.757,"id":"a69eoqa8581o","geo_precision":"city","state":"CA"},"type":"Feature","geometry":{"type":"Point","coordinates":[-120.763269,38.259361]}},{"properties":{"city":"Sacramento","geo_score":0.857,"id":"a69eoqgdkt5v","geo_precision":"city","state":"CA"},"type":"Feature","geometry":{"type":"Point","coordinates":[-121.4944,38.581572]}},{"properties":{"city":"Albany","geo_score":0.857,"id":"a69eoqn9607e","geo_precision":"city","state":"CA"},"type":"Feature","geometry":{"type":"Point","coordinates":[-122.29828,37.889525]}},{"properties":{"city":"Covina","geo_score":0.857,"id":"a69eoq7yfpd5","geo_precision":"city","state":"CA"},"type":"Feature","geometry":{"type":"Point","coordinates":[-118.298662,33.786594]}},{"properties":{"city":"Burlingame","geo_score":0.857,"id":"a69eoqky71yc","geo_precision":"city","state":"CA"},"type":"Feature","geometry":{"type":"Point","coordinates":[-122.367573,37.567086]}},{"properties":{"city":"San Francisco","geo_score":0.857,"id":"a69eoqjjyx3m","geo_precision":"city","state":"CA"},"type":"Feature","geometry":{"type":"Point","coordinates":[-122.419416,37.77493]}},{"properties":{"city":"North Hollywood","geo_score":0.857,"id":"a69eoqe4pjz2","geo_precision":"city","state":"CA"},"type":"Feature","geometry":{"type":"Point","coordinates":[-118.378968,34.172228]}},{"properties":{"city":"Montecito","geo_score":0.857,"id":"a69eoqia3u6a","geo_precision":"city","state":"CA"},"type":"Feature","geometry":{"type":"Point","coordinates":[-119.632075,34.436663]}},{"properties":{"city":"Solvang","geo_score":0.857,"id":"a69eoqdcftgl","geo_precision":"city","state":"CA"},"type":"Feature","geometry":{"type":"Point","coordinates":[-120.170111,34.648841]}},{"properties":{"city":"Georgetown","geo_score":0.857,"id":"a69eoqntimj2","geo_precision":"city","state":"TX"},"type":"Feature","geometry":{"type":"Point","coordinates":[-97.574706,30.668034]}},{"properties":{"city":"Austin","geo_score":0.857,"id":"a69eoqiml3tq","geo_precision":"city","state":"TX"},"type":"Feature","geometry":{"type":"Point","coordinates":[-97.743061,30.267153]}},{"properties":{"city":"Trappe","geo_score":0.857,"id":"a69eoqibw4j1","geo_precision":"city","state":"PA"},"type":"Feature","geometry":{"type":"Point","coordinates":[-75.476293,40.198992]}},{"properties":{"city":"Austin","geo_score":0.857,"id":"a69eoq881oer","geo_precision":"city","state":"TX"},"type":"Feature","geometry":{"type":"Point","coordinates":[-97.743061,30.267153]}},{"properties":{"city":"Hutto","geo_score":0.743,"id":"a69eoqiky9nw","geo_precision":"city","state":"TX"},"type":"Feature","geometry":{"type":"Point","coordinates":[-97.349186,33.542887]}},{"properties":{"city":"Boise","geo_score":0.857,"id":"a69eoqmrbga6","geo_precision":"city","state":"ID"},"type":"Feature","geometry":{"type":"Point","coordinates":[-116.203451,43.6135]}},{"properties":{"city":"Hutto","geo_score":0.743,"id":"a69eoqj3j0db","geo_precision":"city","state":"TX"},"type":"Feature","geometry":{"type":"Point","coordinates":[-97.349186,33.542887]}},{"properties":{"city":"Hutto","geo_score":0.743,"id":"a69eoqnncewm","geo_precision":"city","state":"TX"},"type":"Feature","geometry":{"type":"Point","coordinates":[-97.349186,33.542887]}},{"properties":{"city":"Hutto","geo_score":0.743,"id":"a69eoqloh40i","geo_precision":"city","state":"TX"},"type":"Feature","geometry":{"type":"Point","coordinates":[-97.349186,33.542887]}},{"properties":{"city":"Hutto","geo_score":0.743,"id":"a69eoqljdvx1","geo_precision":"city","state":"TX"},"type":"Feature","geometry":{"type":"Point","coordinates":[-97.349186,33.542887]}},{"properties":{"city":"Santa Cruz","geo_score":0.762,"id":"a69eoqi5te6f","geo_precision":"city","state":"CA"},"type":"Feature","geometry":{"type":"Point","coordinates":[-119.045658,36.114674]}},{"properties":{"city":"Schenectady","geo_score":0.0,"id":"a69eoqbfvw5y","geo_precision":"unmatched","state":"AL"},"type":"Feature","geometry":null}],"is_temporal":false,"author":{"url":"http://estatesales.org","metadata":"","contact_name":"","contact_address":"","source":"EstateSales.org","contact_phone":""},"source":"http://estatesales.org","pagination":{"sort":null,"start":0,"total":364,"limit":1000000},"state":"complete","tags":"","published":"2011-03-27T16:14:08Z","id":104262}