{"type":"FeatureCollection","data_type":"Dataset","url_type":null,"permissions":[{"permissions":{"download":true,"view":true},"group_id":"everyone"}],"classification":null,"title":"Negative Revenue Change 2007-2008, Fortune 1000, Top Performers","count":16,"stream_id":10438,"contributor":{"url":"http://geocommons.com/users/2943","name":"Margot"},"data_attributes":null,"calculation_params":null,"icon_link":null,"link":"http://geocommons.com/overlays/10438.json","extent":[-122.337,29.7499,-72.6886,47.6073],"geometry_types":["point"],"unique_name":null,"name":"Negative Revenue Change 2007-2008, Fortune 1000, Top Performers","feature_count":16,"description":"This data represents companies that have remained in the top 100 rank of the Fortune 1000 list from Cnnmoney.com for 2007 and 2008 but have negative revenue changes from 2007 to 2008. The number was calculated by subtracting revenue numbers for 2007 from revenue numbers for 2008. The company locations were then geocoded for latitude and longitude so they could be mapped.","next_feature":null,"is_raster":false,"short_classification":"Y","stats":{"profitohsev":{"max":19337,"mean":4999.625,"variance":36904569.1833333,"stdev":6074.9131008874,"min":-5464,"median":3661},"profitoheight":{"max":9786,"mean":-2451.6875,"variance":175234234.229167,"stdev":13237.6068165347,"min":-38732,"median":2564},"lon":{"max":-72.688576,"mean":-83.5500834375,"variance":164.318164016063,"stdev":12.8186646736726,"min":-122.33715,"median":-77.514842},"revohsev":{"max":207349,"mean":63328.8125,"variance":2046283540.69583,"stdev":45235.8656454791,"min":26392,"median":53012},"zip":{"max":98101,"mean":36908.1875,"variance":836070591.629167,"stdev":28914.8852951065,"min":6155,"median":30339},"rankohsev":{"max":83,"mean":43.1875,"variance":668.695833333333,"stdev":25.8591537629005,"min":3,"median":39},"rankoheight":{"max":97,"mean":52.625,"variance":810.783333333333,"stdev":28.4742573798393,"min":4,"median":54},"diffinrevenue":{"max":-125,"mean":-5831.25,"variance":86417667.4,"stdev":9296.11033712488,"min":-32273,"median":-2309},"revoheight":{"max":182347,"mean":57497.5625,"variance":1622063413.72917,"stdev":40274.84840107,"min":25531,"median":48418},"lat":{"max":47.607306,"mean":40.0754705625,"variance":15.6837184178096,"stdev":3.96026746796344,"min":29.749931,"median":40.75357}},"features":[{"properties":{"company":"Alcoa","profitohsev":2248,"profitoheight":2564,"city":"New York","lon":-73.972611,"revohsev":30896,"zip":10023,"rankohsev":71,"rankoheight":80,"website":"www.alcoa.com","diffinrevenue":-148,"phone":"212-836-2601","revoheight":30748,"id":"a66nzckbc9ph","address":"391 Park Ave","lat":40.759526,"state":"NY"},"type":"Feature","geometry":{"type":"Point","coordinates":[-73.972611,40.759526]}},{"properties":{"company":"Altria Group","profitohsev":12022,"profitoheight":9786,"city":"Richmond","lon":-77.514842,"revohsev":70324,"zip":23231,"rankohsev":23,"rankoheight":61,"website":"www.altria.com","diffinrevenue":-32273,"phone":"804-274-2201","revoheight":38051,"id":"a66nzctiwyf7","address":"6602 W Broad St","lat":37.600645,"state":"VA"},"type":"Feature","geometry":{"type":"Point","coordinates":[-77.514842,37.600645]}},{"properties":{"company":"American Intl. Group","profitohsev":14048,"profitoheight":6200,"city":"New York","lon":-74.007695,"revohsev":113194,"zip":10271,"rankohsev":10,"rankoheight":13,"website":"www.aigcorporate.com","diffinrevenue":-3130,"phone":"212-770-7001","revoheight":110064,"id":"a66nzcln3j7y","address":"71 Pine St","lat":40.706295,"state":"NY"},"type":"Feature","geometry":{"type":"Point","coordinates":[-74.007695,40.706295]}},{"properties":{"company":"Delphi","profitohsev":-5464,"profitoheight":-3065,"city":"Troy","lon":-83.16253,"revohsev":26392,"zip":48099,"rankohsev":83,"rankoheight":92,"website":"www.delphi.com","diffinrevenue":-232,"phone":"248-813-2001","revoheight":26160,"id":"a66nzcleaylc","address":"5726 Delphi Dr","lat":42.603087,"state":"MI"},"type":"Feature","geometry":{"type":"Point","coordinates":[-83.16253,42.603087]}},{"properties":{"company":"Freddie Mac","profitohsev":2211,"profitoheight":-3094,"city":"McLean","lon":-77.22722,"revohsev":44002,"zip":22102,"rankohsev":50,"rankoheight":54,"website":"www.freddiemac.com","diffinrevenue":-898,"phone":"703-903-2000","revoheight":43104,"id":"a66nzcgt6th3","address":"8200 Jones Branch Dr","lat":38.932096,"state":"VA"},"type":"Feature","geometry":{"type":"Point","coordinates":[-77.22722,38.932096]}},{"properties":{"company":"General Motors","profitohsev":-1978,"profitoheight":-38732,"city":"Detroit","lon":-83.040329,"revohsev":207349,"zip":48265,"rankohsev":3,"rankoheight":4,"website":"www.gm.com","diffinrevenue":-25002,"phone":"313-556-5000","revoheight":182347,"id":"a66nzckgbvbi","address":"300 Renaissance Center","lat":42.330017,"state":"MI"},"type":"Feature","geometry":{"type":"Point","coordinates":[-83.040329,42.330017]}},{"properties":{"company":"Hartford Financial Services","profitohsev":2745,"profitoheight":2949,"city":"Hartford","lon":-72.688576,"revohsev":26500,"zip":6155,"rankohsev":82,"rankoheight":95,"website":"www.thehartford.com","diffinrevenue":-584,"phone":"860-547-5000","revoheight":25916,"id":"a66nzcjbdyri","address":"1 Hartford Plaza","lat":41.772381,"state":"CT"},"type":"Feature","geometry":{"type":"Point","coordinates":[-72.688576,41.772381]}},{"properties":{"company":"Home Depot","profitohsev":5761,"profitoheight":4395,"city":"Atlanta","lon":-84.482338,"revohsev":90837,"zip":30339,"rankohsev":17,"rankoheight":22,"website":"www.homedepot.com","diffinrevenue":-6097,"phone":"770-433-8211","revoheight":84740,"id":"a66nzcnobk3i","address":"2455 Paces Ferry Rd NW","lat":33.862886,"state":"GA"},"type":"Feature","geometry":{"type":"Point","coordinates":[-84.482338,33.862886]}},{"properties":{"company":"Marathon Oil","profitohsev":5234,"profitoheight":3956,"city":"Houston","lon":-95.472276,"revohsev":60643,"zip":77056,"rankohsev":30,"rankoheight":36,"website":"www.marathon.com","diffinrevenue":-599,"phone":"713-629-6600","revoheight":60044,"id":"a66nzcs5yult","address":"5555 San Felipe Rd","lat":29.749931,"state":"TX"},"type":"Feature","geometry":{"type":"Point","coordinates":[-95.472276,29.749931]}},{"properties":{"company":"Merrill Lynch","profitohsev":7499,"profitoheight":-7777,"city":"New York","lon":-74.01398,"revohsev":70591,"zip":10080,"rankohsev":22,"rankoheight":30,"website":"www.ml.com","diffinrevenue":-6374,"phone":"212-449-1000","revoheight":64217,"id":"a66nzcgbg45u","address":"4 World Financial Center","lat":40.713744,"state":"NY"},"type":"Feature","geometry":{"type":"Point","coordinates":[-74.01398,40.713744]}},{"properties":{"company":"MetLife","profitohsev":6293,"profitoheight":4317,"city":"New York","lon":-73.977131,"revohsev":53275,"zip":10166,"rankohsev":37,"rankoheight":43,"website":"www.metlife.com","diffinrevenue":-125,"phone":"212-578-2211","revoheight":53150,"id":"a66nzcdv3s9v","address":"200 Park Ave","lat":40.75357,"state":"NY"},"type":"Feature","geometry":{"type":"Point","coordinates":[-73.977131,40.75357]}},{"properties":{"company":"Motorola","profitohsev":3661,"profitoheight":-49,"city":"Schaumburg","lon":-88.049724,"revohsev":43739,"zip":60196,"rankohsev":52,"rankoheight":65,"website":"www.motorola.com","diffinrevenue":-7117,"phone":"847-576-5000","revoheight":36622,"id":"a66nzcet6e58","address":"1303 E Algonquin Rd","lat":42.070127,"state":"IL"},"type":"Feature","geometry":{"type":"Point","coordinates":[-88.049724,42.070127]}},{"properties":{"company":"Pfizer","profitohsev":19337,"profitoheight":8144,"city":"New York","lon":-73.973612,"revohsev":52415,"zip":10017,"rankohsev":39,"rankoheight":47,"website":"www.pfizer.com","diffinrevenue":-3997,"phone":"212-573-2323","revoheight":48418,"id":"a66nzcm2xymp","address":"235 E 42nd St","lat":40.750475,"state":"NY"},"type":"Feature","geometry":{"type":"Point","coordinates":[-73.973612,40.750475]}},{"properties":{"company":"Sears Holdings","profitohsev":1490,"profitoheight":826,"city":"Hoffman Estates","lon":-88.223426,"revohsev":53012,"zip":60179,"rankohsev":38,"rankoheight":45,"website":"www.searsholdings.com","diffinrevenue":-2309,"phone":"847-286-2500","revoheight":50703,"id":"a66nzcp560zi","address":"3333 Beverly Rd","lat":42.079951,"state":"IL"},"type":"Feature","geometry":{"type":"Point","coordinates":[-88.223426,42.079951]}},{"properties":{"company":"Sprint Nextel","profitohsev":1329,"profitoheight":-29580,"city":"Overland Park","lon":-94.657895,"revohsev":43531,"zip":66251,"rankohsev":53,"rankoheight":58,"website":"www.sprint.com","diffinrevenue":-3385,"phone":"800-829-0965","revoheight":40146,"id":"a66nzcp061oi","address":"6200 Sprint Pkwy","lat":38.915492,"state":"KS"},"type":"Feature","geometry":{"type":"Point","coordinates":[-94.657895,38.915492]}},{"properties":{"company":"Washington Mutual","profitohsev":3558,"profitoheight":-67,"city":"Seattle","lon":-122.33715,"revohsev":26561,"zip":98101,"rankohsev":81,"rankoheight":97,"website":"www.wamu.com","diffinrevenue":-1030,"phone":"206-461-2000","revoheight":25531,"id":"a66nzck3amhy","address":"1301 Second Ave","lat":47.607306,"state":"WA"},"type":"Feature","geometry":{"type":"Point","coordinates":[-122.33715,47.607306]}}],"is_temporal":false,"author":{"url":"http://money.cnn.com/magazines/fortune/fortune500/2008/full_list/","metadata":"http://money.cnn.com/magazines/fortune/fortune500/2008/full_list/","contact_name":"","contact_address":"","source":"CNNMoney.com","contact_phone":""},"source":"http://money.cnn.com/magazines/fortune/fortune500/2008/full_list/","pagination":{"sort":null,"start":0,"total":16,"limit":1000000},"state":"complete","tags":"2007,2008,business,cnn,companies,economy,finance,fortune,fortune1000,money,profits,revenue","published":"2007-01-01T12:00:00Z","id":10438}