{"type":"FeatureCollection","data_type":"Dataset","url_type":null,"permissions":[{"permissions":{"download":true,"view":true},"group_id":"everyone"}],"classification":null,"title":"Positive Revenue Change 2007-2008, Fortune 1000, Top Performers","count":73,"stream_id":10441,"contributor":{"url":"http://geocommons.com/users/2943","name":"Margot"},"data_attributes":null,"calculation_params":null,"icon_link":null,"link":"http://geocommons.com/overlays/10441.json","extent":[-122.403,29.4266,-71.0721,47.6437],"geometry_types":["point"],"unique_name":null,"name":"Positive Revenue Change 2007-2008, Fortune 1000, Top Performers","feature_count":73,"description":"This data represents companies that have remained in the top 100 rank of the Fortune 1000 list from Cnnmoney.com for 2007 and 2008 and have positive revenue changes from 2007 to 2008. The number was calculated by subtracting revenue numbers for 2007 from revenue numbers for 2008. The company locations were then geocoded for latitude and longitude so they could be mapped.","next_feature":null,"is_raster":false,"short_classification":"Y","stats":{"profitohsev":{"max":39500,"mean":5308.04794520548,"variance":45766960.6833638,"stdev":6765.12828284607,"min":-12613,"median":3537},"profitoheight":{"max":40610,"mean":5307.17808219178,"variance":39785597.7836796,"stdev":6307.58256257337,"min":-2723,"median":3426},"lon":{"max":-71.072113,"mean":-88.9670629863014,"variance":271.899785594191,"stdev":16.4893840271307,"min":-122.402576,"median":-84.514151},"revohsev":{"max":351139,"mean":64227.9630136986,"variance":3774529525.81709,"stdev":61437.1998533225,"min":22923,"median":44788},"zip":{"max":98052,"mean":44872.9315068493,"variance":1037216147.6758,"stdev":32205.8402727797,"min":1111,"median":45202},"rankohsev":{"max":97,"mean":48.4109589041096,"variance":799.106544901065,"stdev":28.2684726312029,"min":1,"median":48},"rankoheight":{"max":100,"mean":47.4383561643836,"variance":841.138508371385,"stdev":29.0023879770509,"min":1,"median":44},"diffinrevenue":{"max":55873,"mean":6784.44931506849,"variance":72795090.9655898,"stdev":8532.00392437731,"min":404.8,"median":4249},"revoheight":{"max":378799,"mean":71012.4123287671,"variance":4334895117.99582,"stdev":65839.9203978545,"min":24462,"median":51122},"lat":{"max":47.643727,"mean":39.2447261369863,"variance":16.3931009804543,"stdev":4.04883946093869,"min":29.426563,"median":40.49477}},"features":[{"properties":{"company":"3M","profitohsev":3851,"profitoheight":4096,"city":"St. Paul","lon":-93.094054,"revohsev":22923,"zip":55145,"rankohsev":97,"rankoheight":100,"website":"www.3m.com","diffinrevenue":1539,"phone":"651-733-1111","revoheight":24462,"id":"a66nzczo4m04","address":"3M Center","lat":45.032615,"state":"MN"},"type":"Feature","geometry":{"type":"Point","coordinates":[-93.094054,45.032615]}},{"properties":{"company":"AT&amp;T","profitohsev":7356,"profitoheight":11951,"city":"San Antonio","lon":-98.491795,"revohsev":63055,"zip":78206,"rankohsev":27,"rankoheight":10,"website":"www.att.com","diffinrevenue":55873,"phone":"210-821-4106","revoheight":118928,"id":"a66nzcxqr0iw","address":"176 E Houston St","lat":29.426563,"state":"TX"},"type":"Feature","geometry":{"type":"Point","coordinates":[-98.491795,29.426563]}},{"properties":{"company":"Aetna","profitohsev":1701.7,"profitoheight":1831,"city":"Hartford","lon":-72.692017,"revohsev":25568.6,"zip":6157,"rankohsev":85,"rankoheight":85,"website":"www.aetna.com","diffinrevenue":2031,"phone":"860-273-0124","revoheight":27599.6,"id":"a66nzd11xtjv","address":"152 Farmington Ave","lat":41.767761,"state":"CT"},"type":"Feature","geometry":{"type":"Point","coordinates":[-72.692017,41.767761]}},{"properties":{"company":"Allstate","profitohsev":4993,"profitoheight":4636,"city":"Northbrook","lon":-87.875387,"revohsev":35796,"zip":60063,"rankohsev":61,"rankoheight":64,"website":"www.allstate.com","diffinrevenue":973,"phone":"847-402-5001","revoheight":36769,"id":"a66nzczfon00","address":"2776 Sanders Rd","lat":42.103392,"state":"IL"},"type":"Feature","geometry":{"type":"Point","coordinates":[-87.875387,42.103392]}},{"properties":{"company":"American Express","profitohsev":3707,"profitoheight":4012,"city":"New York","lon":-74.013964,"revohsev":27145,"zip":10286,"rankohsev":79,"rankoheight":75,"website":"www.americanexpress.com","diffinrevenue":5171,"phone":"212-640-2001","revoheight":32316,"id":"a66nzd322fjd","address":"201 Vesey St","lat":40.713746,"state":"NY"},"type":"Feature","geometry":{"type":"Point","coordinates":[-74.013964,40.713746]}},{"properties":{"company":"AmerisourceBergen","profitohsev":467.7,"profitoheight":469.2,"city":"Chesterbrook","lon":-75.466372,"revohsev":61203.1,"zip":19088,"rankohsev":29,"rankoheight":28,"website":"www.amerisourcebergen.com","diffinrevenue":4871.2,"phone":"610-727-7001","revoheight":66074.3,"id":"a66nzcvbd8yl","address":"1301 Morris Dr","lat":40.067937,"state":"PA"},"type":"Feature","geometry":{"type":"Point","coordinates":[-75.466372,40.067937]}},{"properties":{"company":"Archer Daniels Midland","profitohsev":1312.1,"profitoheight":2162,"city":"Decatur","lon":-88.883759,"revohsev":36596.1,"zip":62526,"rankohsev":59,"rankoheight":52,"website":"www.admworld.com","diffinrevenue":7421.9,"phone":"217-424-5201","revoheight":44018,"id":"a66nzd5bvvl8","address":"4667 Faries Pkwy","lat":39.863701,"state":"IL"},"type":"Feature","geometry":{"type":"Point","coordinates":[-88.883759,39.863701]}},{"properties":{"company":"Bank of America Corp.","profitohsev":21133,"profitoheight":14982,"city":"Charlotte","lon":-80.842851,"revohsev":117017,"zip":28256,"rankohsev":9,"rankoheight":9,"website":"www.bankofamerica.com","diffinrevenue":2173,"phone":"704-386-5682","revoheight":119190,"id":"a66nzcu8rkzx","address":"101 N Tryon St","lat":35.227206,"state":"NC"},"type":"Feature","geometry":{"type":"Point","coordinates":[-80.842851,35.227206]}},{"properties":{"company":"Berkshire Hathaway","profitohsev":11015,"profitoheight":13213,"city":"Omaha","lon":-95.964809,"revohsev":98539,"zip":68132,"rankohsev":12,"rankoheight":11,"website":"www.berkshirehathaway.com","diffinrevenue":19706,"phone":"402-346-1401","revoheight":118245,"id":"a66nzcwoiym3","address":"1441 Kiewit Plaza","lat":41.264581,"state":"NE"},"type":"Feature","geometry":{"type":"Point","coordinates":[-95.964809,41.264581]}},{"properties":{"company":"Best Buy","profitohsev":1140,"profitoheight":1377,"city":"Richfield","lon":-93.308482,"revohsev":30848,"zip":55424,"rankohsev":72,"rankoheight":66,"website":"www.bestbuy.com","diffinrevenue":5086,"phone":"612-291-1001","revoheight":35934,"id":"a66nzcvvdqfg","address":"7602 Penn Ave S","lat":44.864942,"state":"MN"},"type":"Feature","geometry":{"type":"Point","coordinates":[-93.308482,44.864942]}},{"properties":{"company":"Boeing","profitohsev":2215,"profitoheight":4074,"city":"Chicago","lon":-87.638644,"revohsev":61530,"zip":60607,"rankohsev":28,"rankoheight":27,"website":"www.boeing.com","diffinrevenue":4857,"phone":"312-544-2001","revoheight":66387,"id":"a66nzcvsjn3n","address":"101 N Riverside Plaza","lat":41.883322,"state":"IL"},"type":"Feature","geometry":{"type":"Point","coordinates":[-87.638644,41.883322]}},{"properties":{"company":"CVS/Caremark","profitohsev":1368.9,"profitoheight":2637,"city":"Woonsocket","lon":-71.47805,"revohsev":43813.8,"zip":2896,"rankohsev":51,"rankoheight":24,"website":"www.cvs.com","diffinrevenue":32515.7,"phone":"401-765-1501","revoheight":76329.5,"id":"a66nzd0adwn6","address":"2 CVS Dr","lat":41.993141,"state":"RI"},"type":"Feature","geometry":{"type":"Point","coordinates":[-71.47805,41.993141]}},{"properties":{"company":"Cardinal Health","profitohsev":1000.1,"profitoheight":1931.1,"city":"Dublin","lon":-83.120393,"revohsev":81895.1,"zip":43018,"rankohsev":19,"rankoheight":19,"website":"www.cardinal.com","diffinrevenue":6468.8,"phone":"614-757-5001","revoheight":88363.9,"id":"a66nzd964pfx","address":"7001 Cardinal Place","lat":40.110893,"state":"OH"},"type":"Feature","geometry":{"type":"Point","coordinates":[-83.120393,40.110893]}},{"properties":{"company":"Caterpillar","profitohsev":3537,"profitoheight":3541,"city":"Peoria","lon":-89.589331,"revohsev":41517,"zip":61630,"rankohsev":55,"rankoheight":50,"website":"www.cat.com","diffinrevenue":3441,"phone":"309-675-1001","revoheight":44958,"id":"a66nzd2rrxcb","address":"101 NE Adams St","lat":40.691815,"state":"IL"},"type":"Feature","geometry":{"type":"Point","coordinates":[-89.589331,40.691815]}},{"properties":{"company":"Chevron","profitohsev":17138,"profitoheight":18688,"city":"San Ramon","lon":-121.959717,"revohsev":200567,"zip":94584,"rankohsev":4,"rankoheight":3,"website":"www.chevron.com","diffinrevenue":10216,"phone":"925-842-1001","revoheight":210783,"id":"a66nzcwd13ld","address":"6002 Bollinger Canyon Rd","lat":37.761328,"state":"CA"},"type":"Feature","geometry":{"type":"Point","coordinates":[-121.959717,37.761328]}},{"properties":{"company":"Cisco Systems","profitohsev":5580,"profitoheight":7333,"city":"San Jose","lon":-121.953494,"revohsev":28484,"zip":95135,"rankohsev":77,"rankoheight":71,"website":"www.cisco.com","diffinrevenue":6438,"phone":"408-526-4001","revoheight":34922,"id":"a66nzd7dply5","address":"171 W Tasman Dr","lat":37.409604,"state":"CA"},"type":"Feature","geometry":{"type":"Point","coordinates":[-121.953494,37.409604]}},{"properties":{"company":"Citigroup","profitohsev":21538,"profitoheight":3617,"city":"New York","lon":-73.972022,"revohsev":146777,"zip":10044,"rankohsev":8,"rankoheight":8,"website":"www.citigroup.com","diffinrevenue":12452,"phone":"212-559-1001","revoheight":159229,"id":"a66nzd4urn9f","address":"400 Park Ave","lat":40.759514,"state":"NY"},"type":"Feature","geometry":{"type":"Point","coordinates":[-73.972022,40.759514]}},{"properties":{"company":"Coca-Cola","profitohsev":5080,"profitoheight":5981,"city":"Atlanta","lon":-84.396198,"revohsev":24088,"zip":30314,"rankohsev":94,"rankoheight":83,"website":"www.thecoca-colacompany.com","diffinrevenue":4769,"phone":"404-676-2122","revoheight":28857,"id":"a66nzd5wj4tz","address":"2 Coca-Cola Plaza","lat":33.771272,"state":"GA"},"type":"Feature","geometry":{"type":"Point","coordinates":[-84.396198,33.771272]}},{"properties":{"company":"Comcast","profitohsev":2533,"profitoheight":2587,"city":"Philadelphia","lon":-75.174267,"revohsev":25700,"zip":19104,"rankohsev":84,"rankoheight":79,"website":"www.comcast.com","diffinrevenue":5195,"phone":"215-286-1701","revoheight":30895,"id":"a66nzcu7adz0","address":"2 Comcast Center","lat":39.952928,"state":"PA"},"type":"Feature","geometry":{"type":"Point","coordinates":[-75.174267,39.952928]}},{"properties":{"company":"ConocoPhillips","profitohsev":15550,"profitoheight":11891,"city":"Houston","lon":-95.617625,"revohsev":172451,"zip":77080,"rankohsev":5,"rankoheight":5,"website":"www.conocophillips.com","diffinrevenue":6107,"phone":"281-293-1001","revoheight":178558,"id":"a66nzd72jc15","address":"601 N Dairy Ashford Rd","lat":29.787567,"state":"TX"},"type":"Feature","geometry":{"type":"Point","coordinates":[-95.617625,29.787567]}},{"properties":{"company":"Costco Wholesale","profitohsev":1103.2,"profitoheight":1082.8,"city":"Issaquah","lon":-122.050112,"revohsev":60151.2,"zip":98028,"rankohsev":32,"rankoheight":29,"website":"www.costco.com","diffinrevenue":4249,"phone":"425-313-8101","revoheight":64400.2,"id":"a66nzd8g3m4i","address":"1000 Lake Dr","lat":47.549386,"state":"WA"},"type":"Feature","geometry":{"type":"Point","coordinates":[-122.050112,47.549386]}},{"properties":{"company":"Dell","profitohsev":2614,"profitoheight":2947,"city":"Round Rock","lon":-97.668829,"revohsev":57095,"zip":78683,"rankohsev":34,"rankoheight":34,"website":"www.dell.com","diffinrevenue":4038,"phone":"512-338-4401","revoheight":61133,"id":"a66nzczbzf6i","address":"2 Dell Way","lat":30.486769,"state":"TX"},"type":"Feature","geometry":{"type":"Point","coordinates":[-97.668829,30.486769]}},{"properties":{"company":"Dow Chemical","profitohsev":3724,"profitoheight":2887,"city":"Midland","lon":-84.180259,"revohsev":49124,"zip":48675,"rankohsev":40,"rankoheight":42,"website":"www.dow.com","diffinrevenue":4389,"phone":"989-636-1001","revoheight":53513,"id":"a66nzd9dk1ps","address":"2031 Dow Center","lat":43.60596,"state":"MI"},"type":"Feature","geometry":{"type":"Point","coordinates":[-84.180259,43.60596]}},{"properties":{"company":"DuPont","profitohsev":3148,"profitoheight":2988,"city":"Wilmington","lon":-75.54779,"revohsev":28982,"zip":19899,"rankohsev":74,"rankoheight":81,"website":"www.dupont.com","diffinrevenue":1671,"phone":"302-774-1001","revoheight":30653,"id":"a66nzd9xpicz","address":"1008 Market St","lat":39.745741,"state":"DE"},"type":"Feature","geometry":{"type":"Point","coordinates":[-75.54779,39.745741]}},{"properties":{"company":"Exxon Mobil","profitohsev":39500,"profitoheight":40610,"city":"Irving","lon":-96.948323,"revohsev":347254,"zip":75039,"rankohsev":2,"rankoheight":2,"website":"www.exxonmobil.com","diffinrevenue":25570,"phone":"972-444-1000","revoheight":372824,"id":"a66nzd9jmo1b","address":"5959 Las Colinas Blvd","lat":32.890628,"state":"TX"},"type":"Feature","geometry":{"type":"Point","coordinates":[-96.948323,32.890628]}},{"properties":{"company":"FedEx","profitohsev":1806,"profitoheight":2016,"city":"Memphis","lon":-89.859099,"revohsev":32294,"zip":38120,"rankohsev":68,"rankoheight":68,"website":"www.fedex.com","diffinrevenue":2920,"phone":"901-818-7500","revoheight":35214,"id":"a66nzd25ekqo","address":"942 S Shady Grove Rd","lat":35.105551,"state":"TN"},"type":"Feature","geometry":{"type":"Point","coordinates":[-89.859099,35.105551]}},{"properties":{"company":"Ford Motor","profitohsev":-12613,"profitoheight":-2723,"city":"Dearborn","lon":-83.21144,"revohsev":160126,"zip":48126,"rankohsev":7,"rankoheight":7,"website":"www.ford.com","diffinrevenue":12342,"phone":"313-322-3000","revoheight":172468,"id":"a66nzcxf899e","address":"1 American Rd","lat":42.313785,"state":"MI"},"type":"Feature","geometry":{"type":"Point","coordinates":[-83.21144,42.313785]}},{"properties":{"company":"General Dynamics","profitohsev":1856,"profitoheight":2072,"city":"Falls Church","lon":-77.217232,"revohsev":24212,"zip":22042,"rankohsev":92,"rankoheight":87,"website":"www.generaldynamics.com","diffinrevenue":3082,"phone":"703-876-3000","revoheight":27294,"id":"a66nzcxucxjl","address":"2941 Fairview Park Dr","lat":38.870689,"state":"VA"},"type":"Feature","geometry":{"type":"Point","coordinates":[-77.217232,38.870689]}},{"properties":{"company":"General Electric","profitohsev":20829,"profitoheight":22208,"city":"Fairfield","lon":-75.257416,"revohsev":168307,"zip":6828,"rankohsev":6,"rankoheight":6,"website":"www.ge.com","diffinrevenue":8349,"phone":"203-373-2211","revoheight":176656,"id":"a66nzczom79a","address":"3135 Easton Turnpike","lat":40.699505,"state":"CT"},"type":"Feature","geometry":{"type":"Point","coordinates":[-75.257416,40.699505]}},{"properties":{"company":"Goldman Sachs Group","profitohsev":9537,"profitoheight":11599,"city":"New York","lon":-74.011488,"revohsev":69353,"zip":10004,"rankohsev":24,"rankoheight":20,"website":"www.gs.com","diffinrevenue":18615,"phone":"212-902-1000","revoheight":87968,"id":"a66nzd4n6oxx","address":"85 Broad St","lat":40.703936,"state":"NY"},"type":"Feature","geometry":{"type":"Point","coordinates":[-74.011488,40.703936]}},{"properties":{"company":"HCA","profitohsev":1036,"profitoheight":874,"city":"Nashville","lon":-86.816509,"revohsev":25477,"zip":37203,"rankohsev":87,"rankoheight":89,"website":"www.hcahealthcare.com","diffinrevenue":1381,"phone":"615-344-9551","revoheight":26858,"id":"a66nzcwc66r4","address":"1 Park Plaza","lat":36.14244,"state":"TN"},"type":"Feature","geometry":{"type":"Point","coordinates":[-86.816509,36.14244]}},{"properties":{"company":"Hess","profitohsev":1916,"profitoheight":1832,"city":"New York","lon":-73.982273,"revohsev":28720,"zip":10036,"rankohsev":75,"rankoheight":77,"website":"www.hess.com","diffinrevenue":3204,"phone":"212-997-8500","revoheight":31924,"id":"a66nzd0i8c5i","address":"1185 Ave of the Americas","lat":40.757647,"state":"NY"},"type":"Feature","geometry":{"type":"Point","coordinates":[-73.982273,40.757647]}},{"properties":{"company":"Hewlett-Packard","profitohsev":6198,"profitoheight":7264,"city":"Palo Alto","lon":-122.144935,"revohsev":91658,"zip":94304,"rankohsev":14,"rankoheight":14,"website":"www.hp.com","diffinrevenue":12628,"phone":"650-857-1501","revoheight":104286,"id":"a66nzczhoc91","address":"3000 Hanover St","lat":37.416025,"state":"CA"},"type":"Feature","geometry":{"type":"Point","coordinates":[-122.144935,37.416025]}},{"properties":{"company":"Honeywell Intl.","profitohsev":2083,"profitoheight":2444,"city":"Morris Township","lon":-74.441628,"revohsev":31367,"zip":7963,"rankohsev":69,"rankoheight":73,"website":"www.honeywell.com","diffinrevenue":3222,"phone":"973-455-2001","revoheight":34589,"id":"a66nzd4ha1ah","address":"102 Columbia Rd","lat":40.793877,"state":"NJ"},"type":"Feature","geometry":{"type":"Point","coordinates":[-74.441628,40.793877]}},{"properties":{"company":"Ingram Micro","profitohsev":265.8,"profitoheight":275.9,"city":"Santa Ana","lon":-117.848101,"revohsev":31357.5,"zip":92705,"rankohsev":70,"rankoheight":69,"website":"www.ingrammicro.com","diffinrevenue":3689.6,"phone":"714-566-1000","revoheight":35047.1,"id":"a66nzcupwhjk","address":"1600 E St Andrew Place","lat":33.722748,"state":"CA"},"type":"Feature","geometry":{"type":"Point","coordinates":[-117.848101,33.722748]}},{"properties":{"company":"Intel","profitohsev":5044,"profitoheight":6976,"city":"Santa Clara","lon":-121.962466,"revohsev":35382,"zip":95054,"rankohsev":62,"rankoheight":60,"website":"www.intel.com","diffinrevenue":2952,"phone":"408-765-8080","revoheight":38334,"id":"a66nzcyxt6qe","address":"2200 Mission College Blvd","lat":37.38833,"state":"CA"},"type":"Feature","geometry":{"type":"Point","coordinates":[-121.962466,37.38833]}},{"properties":{"company":"J.P. Morgan Chase &amp; Co.","profitohsev":14444,"profitoheight":15365,"city":"New York","lon":-73.975355,"revohsev":99973,"zip":10017,"rankohsev":11,"rankoheight":12,"website":"www.jpmorganchase.com","diffinrevenue":16380,"phone":"212-270-6000","revoheight":116353,"id":"a66nzd2t7sip","address":"270 Park Ave","lat":40.755751,"state":"NY"},"type":"Feature","geometry":{"type":"Point","coordinates":[-73.975355,40.755751]}},{"properties":{"company":"Johnson &amp; Johnson","profitohsev":11053,"profitoheight":10576,"city":"New Brunswick","lon":-74.443787,"revohsev":53324,"zip":8933,"rankohsev":36,"rankoheight":35,"website":"www.jnj.com","diffinrevenue":7771,"phone":"732-524-0400","revoheight":61095,"id":"a66nzd2u2mg2","address":"1 Johnson &amp; Johnson Plaza","lat":40.49477,"state":"NJ"},"type":"Feature","geometry":{"type":"Point","coordinates":[-74.443787,40.49477]}},{"properties":{"company":"Johnson Controls","profitohsev":1028,"profitoheight":1252,"city":"Milwaukee","lon":-87.93553,"revohsev":32413,"zip":53201,"rankohsev":67,"rankoheight":72,"website":"www.johnsoncontrols.com","diffinrevenue":2265,"phone":"414-524-1200","revoheight":34678,"id":"a66nzd6nwn0y","address":"5757 N Green Bay Ave","lat":43.12369,"state":"WI"},"type":"Feature","geometry":{"type":"Point","coordinates":[-87.93553,43.12369]}},{"properties":{"company":"Kroger","profitohsev":1114.9,"profitoheight":1180.5,"city":"Cincinnati","lon":-84.514151,"revohsev":66111.2,"zip":45202,"rankohsev":26,"rankoheight":26,"website":"www.kroger.com","diffinrevenue":4123.5,"phone":"513-762-4000","revoheight":70234.7,"id":"a66nzcxfbmjy","address":"1014 Vine St","lat":39.106446,"state":"OH"},"type":"Feature","geometry":{"type":"Point","coordinates":[-84.514151,39.106446]}},{"properties":{"company":"Lehman Brothers Holdings","profitohsev":4007,"profitoheight":4192,"city":"New York","lon":-73.983465,"revohsev":46709,"zip":10019,"rankohsev":47,"rankoheight":37,"website":"www.lehman.com","diffinrevenue":12294,"phone":"212-526-7000","revoheight":59003,"id":"a66nzczd1kfk","address":"745 Seventh Ave","lat":40.760551,"state":"NY"},"type":"Feature","geometry":{"type":"Point","coordinates":[-73.983465,40.760551]}},{"properties":{"company":"Liberty Mutual Ins. Group","profitohsev":5080,"profitoheight":1518,"city":"Boston","lon":-71.072113,"revohsev":23520,"zip":2116,"rankohsev":95,"rankoheight":94,"website":"www.libertymutual.com","diffinrevenue":2441,"phone":"617-357-9500","revoheight":25961,"id":"a66nzd0p4g5v","address":"175 Berkeley St","lat":42.349751,"state":"MA"},"type":"Feature","geometry":{"type":"Point","coordinates":[-71.072113,42.349751]}},{"properties":{"company":"Lockheed Martin","profitohsev":2529,"profitoheight":3033,"city":"Bethesda","lon":-77.135423,"revohsev":39620,"zip":20817,"rankohsev":57,"rankoheight":57,"website":"www.lockheedmartin.com","diffinrevenue":2242,"phone":"301-897-6000","revoheight":41862,"id":"a66nzd62duif","address":"6801 Rockledge Dr","lat":39.030179,"state":"MD"},"type":"Feature","geometry":{"type":"Point","coordinates":[-77.135423,39.030179]}},{"properties":{"company":"Massachusetts Mutual Life Insurance","profitohsev":1266,"profitoheight":722,"city":"Springfield","lon":-72.548012,"revohsev":24863.4,"zip":1111,"rankohsev":90,"rankoheight":99,"website":"www.massmutual.com","diffinrevenue":404.8,"phone":"413-788-8411","revoheight":25268.2,"id":"a66nzd732d3i","address":"1295 State St","lat":42.117569,"state":"MA"},"type":"Feature","geometry":{"type":"Point","coordinates":[-72.548012,42.117569]}},{"properties":{"company":"McKesson","profitohsev":751,"profitoheight":913,"city":"San Francisco","lon":-122.402044,"revohsev":88050,"zip":94104,"rankohsev":18,"rankoheight":18,"website":"www.mckesson.com","diffinrevenue":5524,"phone":"415-983-8300","revoheight":93574,"id":"a66nzd2os4hu","address":"1 Post St","lat":37.789098,"state":"CA"},"type":"Feature","geometry":{"type":"Point","coordinates":[-122.402044,37.789098]}},{"properties":{"company":"Microsoft","profitohsev":12599,"profitoheight":14065,"city":"Redmond","lon":-122.130474,"revohsev":44282,"zip":98052,"rankohsev":49,"rankoheight":44,"website":"www.microsoft.com","diffinrevenue":6840,"phone":"425-882-8080","revoheight":51122,"id":"a66nzd8mbdgi","address":"1 Microsoft Way","lat":47.643727,"state":"WA"},"type":"Feature","geometry":{"type":"Point","coordinates":[-122.130474,47.643727]}},{"properties":{"company":"Morgan Stanley","profitohsev":7472,"profitoheight":3209,"city":"New York","lon":-73.985066,"revohsev":76688,"zip":10036,"rankohsev":20,"rankoheight":21,"website":"www.morganstanley.com","diffinrevenue":11191,"phone":"212-761-4000","revoheight":87879,"id":"a66nzd5mou4l","address":"1585 Broadway","lat":40.759932,"state":"NY"},"type":"Feature","geometry":{"type":"Point","coordinates":[-73.985066,40.759932]}},{"properties":{"company":"New York Life Insurance","profitohsev":1035.4,"profitoheight":1141.8,"city":"New York","lon":-73.986236,"revohsev":28365.1,"zip":10010,"rankohsev":78,"rankoheight":82,"website":"www.newyorklife.com","diffinrevenue":914.5,"phone":"212-576-7000","revoheight":29279.6,"id":"a66nzd8u0fnn","address":"51 Madison Ave","lat":40.74299,"state":"NY"},"type":"Feature","geometry":{"type":"Point","coordinates":[-73.986236,40.74299]}},{"properties":{"company":"News Corp.","profitohsev":2314,"profitoheight":3426,"city":"New York","lon":-73.9817,"revohsev":25327,"zip":10036,"rankohsev":88,"rankoheight":84,"website":"www.newscorp.com","diffinrevenue":3328,"phone":"212-852-7000","revoheight":28655,"id":"a66nzcy9ozcs","address":"1211 Sixth Ave","lat":40.758436,"state":"NY"},"type":"Feature","geometry":{"type":"Point","coordinates":[-73.9817,40.758436]}},{"properties":{"company":"Northrop Grumman","profitohsev":1542,"profitoheight":1790,"city":"Los Angeles","lon":-118.414981,"revohsev":30304,"zip":90067,"rankohsev":73,"rankoheight":76,"website":"www.northropgrumman.com","diffinrevenue":1728,"phone":"310-553-6262","revoheight":32032,"id":"a66nzd6t25vq","address":"1840 Century Park E","lat":34.062184,"state":"CA"},"type":"Feature","geometry":{"type":"Point","coordinates":[-118.414981,34.062184]}},{"properties":{"company":"PepsiCo","profitohsev":5642,"profitoheight":5658,"city":"Purchase","lon":-73.698064,"revohsev":35137,"zip":10577,"rankohsev":63,"rankoheight":59,"website":"www.pepsico.com","diffinrevenue":4337,"phone":"914-253-2000","revoheight":39474,"id":"a66nzd2559zg","address":"700 Anderson Hill Rd","lat":41.038427,"state":"NY"},"type":"Feature","geometry":{"type":"Point","coordinates":[-73.698064,41.038427]}},{"properties":{"company":"Procter &amp; Gamble","profitohsev":8684,"profitoheight":10340,"city":"Cincinnati","lon":-84.506576,"revohsev":68222,"zip":45202,"rankohsev":25,"rankoheight":23,"website":"www.pg.com","diffinrevenue":8254,"phone":"513-983-1100","revoheight":76476,"id":"a66nzd7gr9vb","address":"1 Procter &amp; Gamble Plaza","lat":39.102917,"state":"OH"},"type":"Feature","geometry":{"type":"Point","coordinates":[-84.506576,39.102917]}},{"properties":{"company":"Prudential Financial","profitohsev":3428,"profitoheight":3704,"city":"Newark","lon":-74.171623,"revohsev":32488,"zip":7102,"rankohsev":66,"rankoheight":74,"website":"www.prudential.com","diffinrevenue":1913,"phone":"973-802-6000","revoheight":34401,"id":"a66nzcz1h6i4","address":"751 Broad St","lat":40.736786,"state":"NJ"},"type":"Feature","geometry":{"type":"Point","coordinates":[-74.171623,40.736786]}},{"properties":{"company":"Safeway","profitohsev":870.6,"profitoheight":888.4,"city":"Pleasanton","lon":-121.931794,"revohsev":40185,"zip":94588,"rankohsev":56,"rankoheight":55,"website":"www.safeway.com","diffinrevenue":2101,"phone":"925-467-3000","revoheight":42286,"id":"a66nzcx4mb75","address":"5918 Stoneridge Mall Rd","lat":37.696855,"state":"CA"},"type":"Feature","geometry":{"type":"Point","coordinates":[-121.931794,37.696855]}},{"properties":{"company":"State Farm Insurance Cos","profitohsev":5315.5,"profitoheight":5463.7,"city":"Bloomington","lon":-88.953955,"revohsev":60528,"zip":61710,"rankohsev":31,"rankoheight":32,"website":"www.statefarm.com","diffinrevenue":1083.6,"phone":"309-766-2311","revoheight":61611.6,"id":"a66nzcwizuk4","address":"1 State Farm Plaza","lat":40.478243,"state":"IL"},"type":"Feature","geometry":{"type":"Point","coordinates":[-88.953955,40.478243]}},{"properties":{"company":"Sunoco","profitohsev":979,"profitoheight":891,"city":"Philadelphia","lon":-75.16957,"revohsev":36081,"zip":19103,"rankohsev":60,"rankoheight":56,"website":"www.SunocoInc.com","diffinrevenue":6020,"phone":"215-977-3000","revoheight":42101,"id":"a66nzd9ocn4a","address":"1735 Market St","lat":39.95326,"state":"PA"},"type":"Feature","geometry":{"type":"Point","coordinates":[-75.16957,39.95326]}},{"properties":{"company":"Sysco","profitohsev":855.3,"profitoheight":1001.1,"city":"Houston","lon":-95.618944,"revohsev":32628.4,"zip":77077,"rankohsev":65,"rankoheight":70,"website":"www.sysco.com","diffinrevenue":2413.7,"phone":"281-584-1390","revoheight":35042.1,"id":"a66nzcw0phbs","address":"1390 Enclave Pkwy","lat":29.758902,"state":"TX"},"type":"Feature","geometry":{"type":"Point","coordinates":[-95.618944,29.758902]}},{"properties":{"company":"TIAA-CREF","profitohsev":2333.8,"profitoheight":1438.8,"city":"New York","lon":-73.972956,"revohsev":26756.8,"zip":10017,"rankohsev":80,"rankoheight":86,"website":"www.tiaa-cref.org","diffinrevenue":769.2,"phone":"212-490-9000","revoheight":27526,"id":"a66nzd88wfsq","address":"730 Third Ave","lat":40.753095,"state":"NY"},"type":"Feature","geometry":{"type":"Point","coordinates":[-73.972956,40.753095]}},{"properties":{"company":"Target","profitohsev":2787,"profitoheight":2849,"city":"Minneapolis","lon":-93.274886,"revohsev":59490,"zip":55403,"rankohsev":33,"rankoheight":31,"website":"www.target.com","diffinrevenue":3877,"phone":"612-304-6073","revoheight":63367,"id":"a66nzd1t64q0","address":"1000 Nicollet Mall","lat":44.973902,"state":"MN"},"type":"Feature","geometry":{"type":"Point","coordinates":[-93.274886,44.973902]}},{"properties":{"company":"Time Warner","profitohsev":6552,"profitoheight":4387,"city":"New York","lon":-73.982193,"revohsev":44788,"zip":10019,"rankohsev":48,"rankoheight":49,"website":"www.timewarner.com","diffinrevenue":1827,"phone":"212-484-8000","revoheight":46615,"id":"a66nzcydkho6","address":"1 Time Warner Center","lat":40.76769,"state":"NY"},"type":"Feature","geometry":{"type":"Point","coordinates":[-73.982193,40.76769]}},{"properties":{"company":"Travelers Cos.","profitohsev":4208,"profitoheight":4601,"city":"St. Paul","lon":-93.097702,"revohsev":25090,"zip":55102,"rankohsev":89,"rankoheight":93,"website":"www.travelers.com","diffinrevenue":927,"phone":"651-310-7911","revoheight":26017,"id":"a66nzd7plf38","address":"385 Washington St","lat":44.945372,"state":"MN"},"type":"Feature","geometry":{"type":"Point","coordinates":[-93.097702,44.945372]}},{"properties":{"company":"Tyson Foods","profitohsev":-196,"profitoheight":268,"city":"Springdale","lon":-94.155108,"revohsev":25559,"zip":72762,"rankohsev":86,"rankoheight":88,"website":"www.tysonfoodsinc.com","diffinrevenue":1341,"phone":"479-290-4000","revoheight":26900,"id":"a66nzd7ta0jd","address":"2210 W Oaklawn Dr","lat":36.152967,"state":"AR"},"type":"Feature","geometry":{"type":"Point","coordinates":[-94.155108,36.152967]}},{"properties":{"company":"United Parcel Service","profitohsev":4202,"profitoheight":382,"city":"Atlanta","lon":-84.360554,"revohsev":47547,"zip":30328,"rankohsev":43,"rankoheight":46,"website":"www.ups.com","diffinrevenue":2145,"phone":"404-828-6000","revoheight":49692,"id":"a66nzd88psgj","address":"55 Glenlake Pkwy NE","lat":33.942167,"state":"GA"},"type":"Feature","geometry":{"type":"Point","coordinates":[-84.360554,33.942167]}},{"properties":{"company":"United Technologies","profitohsev":3732,"profitoheight":4224,"city":"Hartford","lon":-72.673706,"revohsev":47829,"zip":6103,"rankohsev":42,"rankoheight":39,"website":"www.utc.com","diffinrevenue":6930,"phone":"860-728-7000","revoheight":54759,"id":"a66nzd5riyt3","address":"1 Financial Plaza","lat":41.764957,"state":"CT"},"type":"Feature","geometry":{"type":"Point","coordinates":[-72.673706,41.764957]}},{"properties":{"company":"UnitedHealth Group","profitohsev":4159,"profitoheight":4654,"city":"Minnetonka","lon":-93.407333,"revohsev":71542,"zip":55343,"rankohsev":21,"rankoheight":25,"website":"www.unitedhealthgroup.com","diffinrevenue":3889,"phone":"952-936-1300","revoheight":75431,"id":"a66nzcuby5v4","address":"9900 Bren Rd E","lat":44.895795,"state":"MN"},"type":"Feature","geometry":{"type":"Point","coordinates":[-93.407333,44.895795]}},{"properties":{"company":"Valero Energy","profitohsev":5463,"profitoheight":5234,"city":"San Antonio","lon":-98.607835,"revohsev":91051,"zip":78249,"rankohsev":16,"rankoheight":16,"website":"www.valero.com","diffinrevenue":5707,"phone":"210-345-2000","revoheight":96758,"id":"a66nzcxievby","address":"1 Valero Way","lat":29.589365,"state":"TX"},"type":"Feature","geometry":{"type":"Point","coordinates":[-98.607835,29.589365]}},{"properties":{"company":"Verizon Communications","profitohsev":6197,"profitoheight":5521,"city":"New York","lon":-74.013588,"revohsev":93221,"zip":10007,"rankohsev":13,"rankoheight":17,"website":"www.verizon.com","diffinrevenue":554,"phone":"212-395-1000","revoheight":93775,"id":"a66nzcznwp7z","address":"140 West St","lat":40.713772,"state":"NY"},"type":"Feature","geometry":{"type":"Point","coordinates":[-74.013588,40.713772]}},{"properties":{"company":"Wachovia Corp.","profitohsev":7791,"profitoheight":6312,"city":"Charlotte","lon":-80.837209,"revohsev":46810,"zip":28288,"rankohsev":46,"rankoheight":38,"website":"www.wachovia.com","diffinrevenue":8718,"phone":"704-374-6565","revoheight":55528,"id":"a66nzd1nxb3l","address":"1 Wachovia Center","lat":35.22041,"state":"NC"},"type":"Feature","geometry":{"type":"Point","coordinates":[-80.837209,35.22041]}},{"properties":{"company":"Wal-Mart Stores","profitohsev":11284,"profitoheight":12731,"city":"Bentonville","lon":-94.216911,"revohsev":351139,"zip":72716,"rankohsev":1,"rankoheight":1,"website":"www.walmartstores.com","diffinrevenue":27660,"phone":"479-273-4000","revoheight":378799,"id":"a66nzcxa5qo9","address":"702 SW Eighth St","lat":36.364441,"state":"AR"},"type":"Feature","geometry":{"type":"Point","coordinates":[-94.216911,36.364441]}},{"properties":{"company":"Walgreen","profitohsev":1750.6,"profitoheight":2041.3,"city":"Deerfield","lon":-87.867467,"revohsev":47409,"zip":60015,"rankohsev":44,"rankoheight":40,"website":"www.walgreens.com","diffinrevenue":6353,"phone":"847-914-2500","revoheight":53762,"id":"a66nzd94dtww","address":"200 Wilmot Rd","lat":42.156053,"state":"IL"},"type":"Feature","geometry":{"type":"Point","coordinates":[-87.867467,42.156053]}},{"properties":{"company":"Walt Disney","profitohsev":3374,"profitoheight":4687,"city":"Burbank","lon":-118.326766,"revohsev":34285,"zip":91521,"rankohsev":64,"rankoheight":67,"website":"www.disney.com","diffinrevenue":1597,"phone":"818-560-1000","revoheight":35882,"id":"a66nzd6muzpf","address":"500 S Buena Vista St","lat":34.155744,"state":"CA"},"type":"Feature","geometry":{"type":"Point","coordinates":[-118.326766,34.155744]}},{"properties":{"company":"Wellpoint","profitohsev":3094.9,"profitoheight":3345.4,"city":"Indianapolis","lon":-86.158814,"revohsev":56953,"zip":46204,"rankohsev":35,"rankoheight":33,"website":"www.wellpoint.com","diffinrevenue":4181.3,"phone":"317-532-6000","revoheight":61134.3,"id":"a66nzd1bifph","address":"120 Monument Circle","lat":39.768785,"state":"IN"},"type":"Feature","geometry":{"type":"Point","coordinates":[-86.158814,39.768785]}},{"properties":{"company":"Wells Fargo","profitohsev":8482,"profitoheight":8057,"city":"San Francisco","lon":-122.402576,"revohsev":47979,"zip":94163,"rankohsev":41,"rankoheight":41,"website":"www.wellsfargo.com","diffinrevenue":5614,"phone":"866-878-5865","revoheight":53593,"id":"a66nzd35r9sa","address":"420 Montgomery St","lat":37.793184,"state":"CA"},"type":"Feature","geometry":{"type":"Point","coordinates":[-122.402576,37.793184]}}],"is_temporal":false,"author":{"url":"http://money.cnn.com/magazines/fortune/fortune500/2008/full_list/","metadata":"http://money.cnn.com/magazines/fortune/fortune500/2008/full_list/","contact_name":"","contact_address":"","source":"CNNMoney.com","contact_phone":""},"source":"http://money.cnn.com/magazines/fortune/fortune500/2008/full_list/","pagination":{"sort":null,"start":0,"total":73,"limit":1000000},"state":"complete","tags":"2007,2008,business,cnn,companies,economy,finance,fortune,fortune1000,money,profits","published":"2007-01-01T12:00:00Z","id":10441}