{"type":"FeatureCollection","data_type":"Dataset","url_type":null,"permissions":[{"permissions":{"download":true,"view":true},"group_id":"everyone"}],"classification":null,"title":"BLDR","count":87,"stream_id":10460,"contributor":{"url":"http://geocommons.com/users/3995","name":"amazon"},"data_attributes":null,"calculation_params":null,"icon_link":null,"link":"http://geocommons.com/overlays/10460.json","extent":[-98.4946,26.1593,-74.1586,40.826],"geometry_types":["point"],"unique_name":null,"name":"BLDR","feature_count":87,"description":"BLDR","next_feature":null,"is_raster":false,"short_classification":"Y","stats":{"lat":{"max":40.825975,"mean":34.3729078505747,"variance":10.9353954373655,"stdev":3.30687094356062,"min":26.15929,"median":34.23497},"long":{"max":-74.158597,"mean":-82.5352352643678,"variance":33.9973142382277,"stdev":5.83072158812507,"min":-98.494624,"median":-81.377389}},"features":[{"properties":{"city":"Florence","id":"a6g76ooxwi2i","lat":34.19363,"state":"sc","long":-79.769059},"type":"Feature","geometry":{"type":"Point","coordinates":[-79.769059,34.19363]}},{"properties":{"city":"Aberdeen","id":"a6g76ops232j","lat":35.13131,"state":"nc","long":-79.429379},"type":"Feature","geometry":{"type":"Point","coordinates":[-79.429379,35.13131]}},{"properties":{"city":"Anderson","id":"a6g76p3ame5c","lat":34.50044,"state":"sc","long":-82.649579},"type":"Feature","geometry":{"type":"Point","coordinates":[-82.649579,34.50044]}},{"properties":{"city":"Apex","id":"a6g76onrysjz","lat":35.732626,"state":"nc","long":-78.853193},"type":"Feature","geometry":{"type":"Point","coordinates":[-78.853193,35.732626]}},{"properties":{"city":"Arlington","id":"a6g76p0nqtue","lat":32.7356,"state":"tx","long":-97.107719},"type":"Feature","geometry":{"type":"Point","coordinates":[-97.107719,32.7356]}},{"properties":{"city":"Asheboro","id":"a6g76oy9jxw6","lat":35.70861,"state":"nc","long":-79.813506},"type":"Feature","geometry":{"type":"Point","coordinates":[-79.813506,35.70861]}},{"properties":{"city":"Asheville","id":"a6g76ozym4gx","lat":35.59846,"state":"nc","long":-82.553144},"type":"Feature","geometry":{"type":"Point","coordinates":[-82.553144,35.59846]}},{"properties":{"city":"Atlanta","id":"a6g76p3dsq4j","lat":33.748315,"state":"Georgia","long":-84.391109},"type":"Feature","geometry":{"type":"Point","coordinates":[-84.391109,33.748315]}},{"properties":{"city":"Auburn","id":"a6g76ovil44d","lat":32.607465,"state":"Alabama","long":-85.481735},"type":"Feature","geometry":{"type":"Point","coordinates":[-85.481735,32.607465]}},{"properties":{"city":"Austin","id":"a6g76oy0uxnz","lat":30.267605,"state":"tx","long":-97.742984},"type":"Feature","geometry":{"type":"Point","coordinates":[-97.742984,30.267605]}},{"properties":{"city":"Beaufort","id":"a6g76ov8txb4","lat":32.43119,"state":"sc","long":-80.669919},"type":"Feature","geometry":{"type":"Point","coordinates":[-80.669919,32.43119]}},{"properties":{"city":"Blairsville","id":"a6g76ozfyhqp","lat":34.874979,"state":"Georgia","long":-83.957736},"type":"Feature","geometry":{"type":"Point","coordinates":[-83.957736,34.874979]}},{"properties":{"city":"Brevard","id":"a6g76p2vt3n1","lat":35.234275,"state":"nc","long":-82.733914},"type":"Feature","geometry":{"type":"Point","coordinates":[-82.733914,35.234275]}},{"properties":{"city":"Bristol","id":"a6g76ooz9pgq","lat":36.598545,"state":"va","long":-82.180794},"type":"Feature","geometry":{"type":"Point","coordinates":[-82.180794,36.598545]}},{"properties":{"city":"Bunnell","id":"a6g76p0eykni","lat":29.46603,"state":"Florida","long":-81.257429},"type":"Feature","geometry":{"type":"Point","coordinates":[-81.257429,29.46603]}},{"properties":{"city":"Cambridge","id":"a6g76ospr3lb","lat":38.563122,"state":"md","long":-76.078063},"type":"Feature","geometry":{"type":"Point","coordinates":[-76.078063,38.563122]}},{"properties":{"city":"Cashiers","id":"a6g76orh6w38","lat":35.113835,"state":"nc","long":-83.100654},"type":"Feature","geometry":{"type":"Point","coordinates":[-83.100654,35.113835]}},{"properties":{"city":"Charleston","id":"a6g76oo6dzfg","lat":32.781155,"state":"sc","long":-79.931599},"type":"Feature","geometry":{"type":"Point","coordinates":[-79.931599,32.781155]}},{"properties":{"city":"Charlotte","id":"a6g76oo958zn","lat":35.2225,"state":"nc","long":-80.837539},"type":"Feature","geometry":{"type":"Point","coordinates":[-80.837539,35.2225]}},{"properties":{"city":"Chelsea","id":"a6g76ooaj20c","lat":33.34106,"state":"Alabama","long":-86.630419},"type":"Feature","geometry":{"type":"Point","coordinates":[-86.630419,33.34106]}},{"properties":{"city":"Cherry Point","id":"a6g76oul3qoi","lat":34.912479,"state":"sc","long":-76.876633},"type":"Feature","geometry":{"type":"Point","coordinates":[-76.876633,34.912479]}},{"properties":{"city":"Cincinnati","id":"a6g76os81brn","lat":39.106441,"state":"oh","long":-84.504694},"type":"Feature","geometry":{"type":"Point","coordinates":[-84.504694,39.106441]}},{"properties":{"city":"Columbia","id":"a6g76orunyl7","lat":33.99855,"state":"sc","long":-81.045249},"type":"Feature","geometry":{"type":"Point","coordinates":[-81.045249,33.99855]}},{"properties":{"city":"Columbus","id":"a6g76oph2q38","lat":32.462925,"state":"Georgia","long":-84.987629},"type":"Feature","geometry":{"type":"Point","coordinates":[-84.987629,32.462925]}},{"properties":{"city":"Conway","id":"a6g76oomkbdr","lat":33.834605,"state":"sc","long":-79.050634},"type":"Feature","geometry":{"type":"Point","coordinates":[-79.050634,33.834605]}},{"properties":{"city":"Cowpens","id":"a6g76p124m6a","lat":35.020852,"state":"sc","long":-81.801808},"type":"Feature","geometry":{"type":"Point","coordinates":[-81.801808,35.020852]}},{"properties":{"city":"Culpeper","id":"a6g76ovyu7jx","lat":38.47333,"state":"va","long":-77.996139},"type":"Feature","geometry":{"type":"Point","coordinates":[-77.996139,38.47333]}},{"properties":{"city":"Dallas","id":"a6g76oo59eo2","lat":32.778155,"state":"tx","long":-96.795404},"type":"Feature","geometry":{"type":"Point","coordinates":[-96.795404,32.778155]}},{"properties":{"city":"East Brunswick","id":"a6g76p3637fw","lat":40.417592,"state":"nj","long":-74.420076},"type":"Feature","geometry":{"type":"Point","coordinates":[-74.420076,40.417592]}},{"properties":{"city":"East Hanover","id":"a6g76p0fmz80","lat":40.825975,"state":"nj","long":-74.360619},"type":"Feature","geometry":{"type":"Point","coordinates":[-74.360619,40.825975]}},{"properties":{"city":"Edistio Island","id":"a6g76p3zh1sh","lat":32.568065,"state":"sc","long":-80.282487},"type":"Feature","geometry":{"type":"Point","coordinates":[-80.282487,32.568065]}},{"properties":{"city":"Erlanger","id":"a6g76p2h51rx","lat":39.023773,"state":"ky","long":-84.608535},"type":"Feature","geometry":{"type":"Point","coordinates":[-84.608535,39.023773]}},{"properties":{"city":"Fayetteville","id":"a6g76p3ekfpx","lat":35.054495,"state":"nc","long":-78.877579},"type":"Feature","geometry":{"type":"Point","coordinates":[-78.877579,35.054495]}},{"properties":{"city":"Freeport","id":"a6g76ou5zplh","lat":30.500666,"state":"Florida","long":-86.13601},"type":"Feature","geometry":{"type":"Point","coordinates":[-86.13601,30.500666]}},{"properties":{"city":"Gainsville","id":"a6g76os59zvx","lat":34.297274,"state":"Georgia","long":-83.825503},"type":"Feature","geometry":{"type":"Point","coordinates":[-83.825503,34.297274]}},{"properties":{"city":"Goose Creek","id":"a6g76ots4h5r","lat":32.997587,"state":"sc","long":-80.03961},"type":"Feature","geometry":{"type":"Point","coordinates":[-80.03961,32.997587]}},{"properties":{"city":"Grand Prairie","id":"a6g76ouyhpyr","lat":32.7477,"state":"tx","long":-97.007199},"type":"Feature","geometry":{"type":"Point","coordinates":[-97.007199,32.7477]}},{"properties":{"city":"Greenville","id":"a6g76p27d6y1","lat":34.84802,"state":"sc","long":-82.400219},"type":"Feature","geometry":{"type":"Point","coordinates":[-82.400219,34.84802]}},{"properties":{"city":"Hagerstown","id":"a6g76osk9jq1","lat":39.6425,"state":"md","long":-77.717579},"type":"Feature","geometry":{"type":"Point","coordinates":[-77.717579,39.6425]}},{"properties":{"city":"Hendersonville","id":"a6g76owv1yqk","lat":35.315555,"state":"nc","long":-82.458679},"type":"Feature","geometry":{"type":"Point","coordinates":[-82.458679,35.315555]}},{"properties":{"city":"Highpoint","id":"a6g76oudvzct","lat":35.954659,"state":"nc","long":-80.005013},"type":"Feature","geometry":{"type":"Point","coordinates":[-80.005013,35.954659]}},{"properties":{"city":"Hillsborough","id":"a6g76op0nnd7","lat":36.076215,"state":"nc","long":-79.099454},"type":"Feature","geometry":{"type":"Point","coordinates":[-79.099454,36.076215]}},{"properties":{"city":"Hilton Head","id":"a6g76p0lg1tv","lat":32.154819,"state":"sc","long":-80.762238},"type":"Feature","geometry":{"type":"Point","coordinates":[-80.762238,32.154819]}},{"properties":{"city":"Houston","id":"a6g76oz8lxkd","lat":29.76045,"state":"tx","long":-95.369784},"type":"Feature","geometry":{"type":"Point","coordinates":[-95.369784,29.76045]}},{"properties":{"city":"Indianapolis","id":"a6g76oqvn8df","lat":39.76691,"state":"in","long":-86.149964},"type":"Feature","geometry":{"type":"Point","coordinates":[-86.149964,39.76691]}},{"properties":{"city":"Jacksonville","id":"a6g76ou6h556","lat":30.33138,"state":"Florida","long":-81.655799},"type":"Feature","geometry":{"type":"Point","coordinates":[-81.655799,30.33138]}},{"properties":{"city":"Johns Island","id":"a6g76p1dbdh7","lat":32.80303,"state":"sc","long":-80.121886},"type":"Feature","geometry":{"type":"Point","coordinates":[-80.121886,32.80303]}},{"properties":{"city":"Johnson City","id":"a6g76ozwecy9","lat":36.320088,"state":"tn","long":-82.345284},"type":"Feature","geometry":{"type":"Point","coordinates":[-82.345284,36.320088]}},{"properties":{"city":"Kingsport","id":"a6g76p11xlwn","lat":36.5478,"state":"tn","long":-82.560419},"type":"Feature","geometry":{"type":"Point","coordinates":[-82.560419,36.5478]}},{"properties":{"city":"Knoxville","id":"a6g76oqv0a0p","lat":35.960495,"state":"tn","long":-83.920914},"type":"Feature","geometry":{"type":"Point","coordinates":[-83.920914,35.960495]}},{"properties":{"city":"La Grange","id":"a6g76oz9if7z","lat":33.041415,"state":"Georgia","long":-85.031084},"type":"Feature","geometry":{"type":"Point","coordinates":[-85.031084,33.041415]}},{"properties":{"city":"Lake City","id":"a6g76orwhxsr","lat":30.190345,"state":"Florida","long":-82.637129},"type":"Feature","geometry":{"type":"Point","coordinates":[-82.637129,30.190345]}},{"properties":{"city":"Lanoka Harbor","id":"a6g76opz7wod","lat":39.865297,"state":"nj","long":-74.158597},"type":"Feature","geometry":{"type":"Point","coordinates":[-74.158597,39.865297]}},{"properties":{"city":"Lewisville","id":"a6g76ow5viyl","lat":33.04723,"state":"tx","long":-96.995929},"type":"Feature","geometry":{"type":"Point","coordinates":[-96.995929,33.04723]}},{"properties":{"city":"Little River","id":"a6g76ou2s1t9","lat":33.876315,"state":"sc","long":-78.614629},"type":"Feature","geometry":{"type":"Point","coordinates":[-78.614629,33.876315]}},{"properties":{"city":"Loris","id":"a6g76ozu1hqh","lat":34.05595,"state":"sc","long":-78.888599},"type":"Feature","geometry":{"type":"Point","coordinates":[-78.888599,34.05595]}},{"properties":{"city":"Maple Shade","id":"a6g76ooooj4p","lat":39.955445,"state":"nj","long":-75.001269},"type":"Feature","geometry":{"type":"Point","coordinates":[-75.001269,39.955445]}},{"properties":{"city":"Mason","id":"a6g76ozb722j","lat":39.356975,"state":"oh","long":-84.297619},"type":"Feature","geometry":{"type":"Point","coordinates":[-84.297619,39.356975]}},{"properties":{"city":"Monroe Township","id":"a6g76p3f15pk","lat":39.66686,"state":"nj","long":-74.970864},"type":"Feature","geometry":{"type":"Point","coordinates":[-74.970864,39.66686]}},{"properties":{"city":"Myrtle Beach","id":"a6g76otttpze","lat":33.69357,"state":"sc","long":-78.882675},"type":"Feature","geometry":{"type":"Point","coordinates":[-78.882675,33.69357]}},{"properties":{"city":"Nashville","id":"a6g76oqep5cs","lat":36.167762,"state":"tn","long":-86.778366},"type":"Feature","geometry":{"type":"Point","coordinates":[-86.778366,36.167762]}},{"properties":{"city":"North Augusta","id":"a6g76ooxnsjg","lat":33.495782,"state":"sc","long":-81.970085},"type":"Feature","geometry":{"type":"Point","coordinates":[-81.970085,33.495782]}},{"properties":{"city":"Northeast","id":"a6g76ovx6p3o","lat":39.59891,"state":"md","long":-75.942444},"type":"Feature","geometry":{"type":"Point","coordinates":[-75.942444,39.59891]}},{"properties":{"city":"Orangeburg","id":"a6g76p1b314b","lat":33.48935,"state":"sc","long":-80.864719},"type":"Feature","geometry":{"type":"Point","coordinates":[-80.864719,33.48935]}},{"properties":{"city":"Orlando","id":"a6g76ozyabpn","lat":28.53774,"state":"Florida","long":-81.377389},"type":"Feature","geometry":{"type":"Point","coordinates":[-81.377389,28.53774]}},{"properties":{"city":"Pawleys Island","id":"a6g76ot122wj","lat":33.438164,"state":"sc","long":-79.128194},"type":"Feature","geometry":{"type":"Point","coordinates":[-79.128194,33.438164]}},{"properties":{"city":"Piney Flats","id":"a6g76p1wi0ol","lat":36.418346,"state":"tn","long":-82.303959},"type":"Feature","geometry":{"type":"Point","coordinates":[-82.303959,36.418346]}},{"properties":{"city":"Point of Rocks","id":"a6g76opywoy0","lat":39.274543,"state":"md","long":-77.53962},"type":"Feature","geometry":{"type":"Point","coordinates":[-77.53962,39.274543]}},{"properties":{"city":"San Antonio","id":"a6g76oyt7p6d","lat":29.42449,"state":"tx","long":-98.494624},"type":"Feature","geometry":{"type":"Point","coordinates":[-98.494624,29.42449]}},{"properties":{"city":"Sanford","id":"a6g76otfn5q0","lat":28.81403,"state":"Florida","long":-81.268034},"type":"Feature","geometry":{"type":"Point","coordinates":[-81.268034,28.81403]}},{"properties":{"city":"Seneca","id":"a6g76oxxp63n","lat":34.685484,"state":"sc","long":-82.955673},"type":"Feature","geometry":{"type":"Point","coordinates":[-82.955673,34.685484]}},{"properties":{"city":"Shelby","id":"a6g76otfyx9y","lat":33.113005,"state":"Alabama","long":-86.583614},"type":"Feature","geometry":{"type":"Point","coordinates":[-86.583614,33.113005]}},{"properties":{"city":"Simpsonville","id":"a6g76oycgcmi","lat":34.73833,"state":"sc","long":-82.255599},"type":"Feature","geometry":{"type":"Point","coordinates":[-82.255599,34.73833]}},{"properties":{"city":"South Atlanta","id":"a6g76opcxf6z","lat":33.712521,"state":"Georgia","long":-84.384842},"type":"Feature","geometry":{"type":"Point","coordinates":[-84.384842,33.712521]}},{"properties":{"city":"South Brunswick","id":"a6g76optjotw","lat":40.38193,"state":"nj","long":-74.533094},"type":"Feature","geometry":{"type":"Point","coordinates":[-74.533094,40.38193]}},{"properties":{"city":"Southport","id":"a6g76os1dxvr","lat":33.918775,"state":"nc","long":-78.019469},"type":"Feature","geometry":{"type":"Point","coordinates":[-78.019469,33.918775]}},{"properties":{"city":"Spartanburg","id":"a6g76ou9rpwy","lat":34.948265,"state":"sc","long":-81.934829},"type":"Feature","geometry":{"type":"Point","coordinates":[-81.934829,34.948265]}},{"properties":{"city":"Summerville","id":"a6g76orqqj3a","lat":33.01897,"state":"sc","long":-80.176014},"type":"Feature","geometry":{"type":"Point","coordinates":[-80.176014,33.01897]}},{"properties":{"city":"Sumter","id":"a6g76onyeqg7","lat":33.92434,"state":"sc","long":-80.342364},"type":"Feature","geometry":{"type":"Point","coordinates":[-80.342364,33.92434]}},{"properties":{"city":"Tampa","id":"a6g76ozj7fj6","lat":27.94653,"state":"Florida","long":-82.459269},"type":"Feature","geometry":{"type":"Point","coordinates":[-82.459269,27.94653]}},{"properties":{"city":"Taylor","id":"a6g76ot8elr2","lat":30.570155,"state":"tx","long":-97.409649},"type":"Feature","geometry":{"type":"Point","coordinates":[-97.409649,30.570155]}},{"properties":{"city":"Treasure Coast","id":"a6g76oqnm9aw","lat":27.093969,"state":"Florida","long":-80.455559},"type":"Feature","geometry":{"type":"Point","coordinates":[-80.455559,27.093969]}},{"properties":{"city":"Wake Forest","id":"a6g76ot0todg","lat":35.97508,"state":"nc","long":-78.507324},"type":"Feature","geometry":{"type":"Point","coordinates":[-78.507324,35.97508]}},{"properties":{"city":"Washington","id":"a6g76otdpyts","lat":35.545325,"state":"nc","long":-77.060488},"type":"Feature","geometry":{"type":"Point","coordinates":[-77.060488,35.545325]}},{"properties":{"city":"Weslaco","id":"a6g76ot5pfbb","lat":26.15929,"state":"tx","long":-97.990659},"type":"Feature","geometry":{"type":"Point","coordinates":[-97.990659,26.15929]}},{"properties":{"city":"West Palm","id":"a6g76p3jc0pd","lat":26.714388,"state":"Florida","long":-80.052689},"type":"Feature","geometry":{"type":"Point","coordinates":[-80.052689,26.714388]}},{"properties":{"city":"Wilmington","id":"a6g76ot0jn73","lat":34.23497,"state":"nc","long":-77.945992},"type":"Feature","geometry":{"type":"Point","coordinates":[-77.945992,34.23497]}}],"is_temporal":false,"author":{"url":"","metadata":"","contact_name":"","contact_address":"","source":"","contact_phone":""},"source":"","pagination":{"sort":null,"start":0,"total":87,"limit":1000000},"state":"complete","tags":"bldr","published":"2009-03-10T12:00:00Z","id":10460}