{"type":"FeatureCollection","data_type":"Dataset","url_type":null,"permissions":[{"permissions":{"download":true,"view":true},"group_id":"everyone"}],"classification":null,"title":"maptest","count":761,"stream_id":104734,"contributor":{"url":"http://geocommons.com/users/24587","name":"eDipMaps"},"data_attributes":null,"calculation_params":null,"icon_link":null,"link":"http://geocommons.com/overlays/104734.json","extent":[-123.119,-35.2835,149.128,59.9132],"geometry_types":["point"],"unique_name":null,"name":"maptest","feature_count":761,"description":"","next_feature":null,"is_raster":false,"short_classification":"Y","stats":{},"features":[{"properties":{"city":"Tirana","country":"Albania","id":"a6i8ymfu76vv","state":"Tirana"},"type":"Feature","geometry":{"type":"Point","coordinates":[51.4244444,35.6719444]}},{"properties":{"city":"Alexandria","country":"United States","id":"a6i8ymlz9z2l","state":"VA"},"type":"Feature","geometry":{"type":"Point","coordinates":[29.9191667,31.1980556]}},{"properties":{"city":"Arlington","country":"United States","id":"a6i8ymmxvltp","state":"VA"},"type":"Feature","geometry":{"type":"Point","coordinates":[-97.1080656,32.735687]}},{"properties":{"city":"Dublin","country":"Ireland","id":"a6i8ymgjj13x","state":null},"type":"Feature","geometry":{"type":"Point","coordinates":[-6.2488889,53.3330556]}},{"properties":{"city":"Frankfurt","country":"Germany","id":"a6i8ymku3ln1","state":"Hessen"},"type":"Feature","geometry":{"type":"Point","coordinates":[8.6833333,50.1166667]}},{"properties":{"city":"Baku","country":"AZERBAIJAN","id":"a6i8ymfdhtxs","state":null},"type":"Feature","geometry":{"type":"Point","coordinates":[49.8822222,40.3952778]}},{"properties":{"city":"Rome","country":"Italy","id":"a6i8ympdme2o","state":null},"type":"Feature","geometry":{"type":"Point","coordinates":[12.4833333,41.9]}},{"properties":{"city":"Washington","country":null,"id":"a6i8ymlrmrd4","state":"DC"},"type":"Feature","geometry":{"type":"Point","coordinates":[-120.5014693,47.5001238]}},{"properties":{"city":"Arlington","country":"United States","id":"a6i8ymc9k8bw","state":"VA"},"type":"Feature","geometry":{"type":"Point","coordinates":[-97.1080656,32.735687]}},{"properties":{"city":"Chisinau","country":"Moldova","id":"a6i8ymbbayfw","state":null},"type":"Feature","geometry":{"type":"Point","coordinates":[28.8575,47.0055556]}},{"properties":{"city":"Luxembourg","country":"Luxembourg","id":"a6i8ymahbjxf","state":"Luxembourg"},"type":"Feature","geometry":{"type":"Point","coordinates":[6.13,49.6116667]}},{"properties":{"city":"Istanbul","country":"Turkey","id":"a6i8ymd0bi1o","state":null},"type":"Feature","geometry":{"type":"Point","coordinates":[28.9833068847656,41.0350820029997]}},{"properties":{"city":"Jakarta","country":"Indonesia","id":"a6i8ymd7rb17","state":"DKI Jakarta"},"type":"Feature","geometry":{"type":"Point","coordinates":[106.8294444,-6.1744444]}},{"properties":{"city":"Tokyo","country":"Japan","id":"a6i8ymgjwd9y","state":null},"type":"Feature","geometry":{"type":"Point","coordinates":[139.691677093506,35.6895265930799]}},{"properties":{"city":"Washington","country":"US","id":"a6i8ymdhmrcd","state":"DC"},"type":"Feature","geometry":{"type":"Point","coordinates":[-120.5014693,47.5001238]}},{"properties":{"city":"Washington","country":"United States","id":"a6i8ymldipyv","state":"DC"},"type":"Feature","geometry":{"type":"Point","coordinates":[-120.5014693,47.5001238]}},{"properties":{"city":"Hong Kong","country":"Hong Kong SAR","id":"a6i8ympimn32","state":"SAR"},"type":"Feature","geometry":{"type":"Point","coordinates":[114.15007352829,22.2840136009625]}},{"properties":{"city":"Jakarta","country":"Indonesia","id":"a6i8ymp8ztkm","state":"DKI"},"type":"Feature","geometry":{"type":"Point","coordinates":[106.8294444,-6.1744444]}},{"properties":{"city":"Washington","country":"USA","id":"a6i8ymi08xo1","state":"DC"},"type":"Feature","geometry":{"type":"Point","coordinates":[-120.5014693,47.5001238]}},{"properties":{"city":"Washington","country":"United States","id":"a6i8ymfs3oko","state":"DC"},"type":"Feature","geometry":{"type":"Point","coordinates":[-120.5014693,47.5001238]}},{"properties":{"city":"Montevideo","country":"Uruguay","id":"a6i8ymehsryj","state":"Montevideo"},"type":"Feature","geometry":{"type":"Point","coordinates":[-56.1708333,-34.8580556]}},{"properties":{"city":"Rosslyn","country":null,"id":"a6i8ymnc382e","state":"VA"},"type":"Feature","geometry":{"type":"Point","coordinates":[5.6541667,35.6752778]}},{"properties":{"city":"Kuwait City","country":"Kuwait","id":"a6i8ymagkyj1","state":"Kuwait"},"type":"Feature","geometry":{"type":"Point","coordinates":[135.515670776367,34.7614289625356]}},{"properties":{"city":"Tokyo","country":"Japan","id":"a6i8ymhpg3as","state":null},"type":"Feature","geometry":{"type":"Point","coordinates":[139.691677093506,35.6895265930799]}},{"properties":{"city":"Bratislava","country":"Slovakia","id":"a6i8ymkimdrj","state":null},"type":"Feature","geometry":{"type":"Point","coordinates":[17.1666667,48.3333333]}},{"properties":{"city":"Stockholm","country":"Sweden","id":"a6i8ymcu6dpg","state":null},"type":"Feature","geometry":{"type":"Point","coordinates":[18.0649030208588,59.3325765361753]}},{"properties":{"city":"Washington","country":"USA","id":"a6i8ymfokmzl","state":"DC"},"type":"Feature","geometry":{"type":"Point","coordinates":[-120.5014693,47.5001238]}},{"properties":{"city":"Alexandria","country":null,"id":"a6i8ymevlfzv","state":"VA"},"type":"Feature","geometry":{"type":"Point","coordinates":[29.9191667,31.1980556]}},{"properties":{"city":"Canberra","country":"Australia","id":"a6i8ymanp90z","state":"ACT"},"type":"Feature","geometry":{"type":"Point","coordinates":[149.128074645996,-35.2834624726481]}},{"properties":{"city":"Panama","country":"Panama","id":"a6i8ymfx2uwx","state":"Panama"},"type":"Feature","geometry":{"type":"Point","coordinates":[-79.5333333,8.9666667]}},{"properties":{"city":"Doha","country":"Qatar","id":"a6i8ymj7eobp","state":null},"type":"Feature","geometry":{"type":"Point","coordinates":[51.5333333,25.2866667]}},{"properties":{"city":"Washington","country":"United States","id":"a6i8ymkh641s","state":"DC"},"type":"Feature","geometry":{"type":"Point","coordinates":[-120.5014693,47.5001238]}},{"properties":{"city":"Washington","country":"United States","id":"a6i8ymoqgc1x","state":"DC"},"type":"Feature","geometry":{"type":"Point","coordinates":[-120.5014693,47.5001238]}},{"properties":{"city":"Doha","country":"Qatar","id":"a6i8ymn8l6r1","state":null},"type":"Feature","geometry":{"type":"Point","coordinates":[51.5333333,25.2866667]}},{"properties":{"city":"Lome","country":"Togo","id":"a6i8ymh73ysr","state":null},"type":"Feature","geometry":{"type":"Point","coordinates":[1.2227778,6.1319444]}},{"properties":{"city":"Tokyo","country":"Japan","id":"a6i8ymgxabup","state":null},"type":"Feature","geometry":{"type":"Point","coordinates":[139.691677093506,35.6895265930799]}},{"properties":{"city":"Moscow","country":"Russia","id":"a6i8ymf6ma8g","state":null},"type":"Feature","geometry":{"type":"Point","coordinates":[37.6155556,55.7522222]}},{"properties":{"city":"Rosslyn,","country":"United States","id":"a6i8ymbtrow2","state":"VA"},"type":"Feature","geometry":{"type":"Point","coordinates":[5.6541667,35.6752778]}},{"properties":{"city":"Bucharest","country":"Romania","id":"a6i8ymlgso2s","state":"Bucharest"},"type":"Feature","geometry":{"type":"Point","coordinates":[-88.7867278,39.1880983]}},{"properties":{"city":"WashDC","country":"USA","id":"a6i8yminh9i1","state":"DC"},"type":"Feature","geometry":{"type":"Point","coordinates":[40.6833333,2.4333333]}},{"properties":{"city":"Arlington","country":"United States","id":"a6i8yml1dyv2","state":"VA"},"type":"Feature","geometry":{"type":"Point","coordinates":[-97.1080656,32.735687]}},{"properties":{"city":"Bangkok","country":"Thailand","id":"a6i8ym9mv58o","state":null},"type":"Feature","geometry":{"type":"Point","coordinates":[100.5166667,13.75]}},{"properties":{"city":"Arlington","country":"United States","id":"a6i8ym9fb88u","state":"VA"},"type":"Feature","geometry":{"type":"Point","coordinates":[-97.1080656,32.735687]}},{"properties":{"city":"Alexandria","country":"United States","id":"a6i8ymdp526k","state":"VA"},"type":"Feature","geometry":{"type":"Point","coordinates":[29.9191667,31.1980556]}},{"properties":{"city":"Washington","country":"USA","id":"a6i8yma3ywnj","state":"DC"},"type":"Feature","geometry":{"type":"Point","coordinates":[-120.5014693,47.5001238]}},{"properties":{"city":"Seoul","country":"Korea","id":"a6i8yml4rblq","state":"APO AP"},"type":"Feature","geometry":{"type":"Point","coordinates":[126.9997222,37.5663889]}},{"properties":{"city":"Cairo","country":"Egypt","id":"a6i8ymjs86bd","state":"Cairo"},"type":"Feature","geometry":{"type":"Point","coordinates":[31.25,30.05]}},{"properties":{"city":"San Francisco","country":"United States","id":"a6i8ymc3lq2w","state":"CA"},"type":"Feature","geometry":{"type":"Point","coordinates":[108.9286111,34.2583333]}},{"properties":{"city":"Geneva","country":"Switzerland","id":"a6i8ymc2by42","state":null},"type":"Feature","geometry":{"type":"Point","coordinates":[6.14569187164307,46.2022156980098]}},{"properties":{"city":"Manila","country":"Philippines","id":"a6i8ymohkkyd","state":null},"type":"Feature","geometry":{"type":"Point","coordinates":[120.9822222,14.6041667]}},{"properties":{"city":"Springfield","country":"United States","id":"a6i8ymfdi9qh","state":"VA"},"type":"Feature","geometry":{"type":"Point","coordinates":[28.4,-26.25]}},{"properties":{"city":null,"country":"Nicaragua","id":"a6i8ymgu4ic1","state":"Managua"},"type":"Feature","geometry":null},{"properties":{"city":"Zagreb","country":"Croatia","id":"a6i8ymgzmyqm","state":null},"type":"Feature","geometry":{"type":"Point","coordinates":[16.0,45.8]}},{"properties":{"city":"Stockholm","country":"Sweden","id":"a6i8ymcroo0z","state":null},"type":"Feature","geometry":{"type":"Point","coordinates":[18.0649030208588,59.3325765361753]}},{"properties":{"city":"Sarajevo","country":"Bosnia and Herzegovina","id":"a6i8ymoqu8ck","state":null},"type":"Feature","geometry":{"type":"Point","coordinates":[18.3833333,43.85]}},{"properties":{"city":"Tbilisi","country":"Georgia","id":"a6i8ymbajmou","state":null},"type":"Feature","geometry":{"type":"Point","coordinates":[44.7908333,41.725]}},{"properties":{"city":"Arlington","country":"United States","id":"a6i8ymdok9za","state":"VA"},"type":"Feature","geometry":{"type":"Point","coordinates":[-97.1080656,32.735687]}},{"properties":{"city":"Guayaquil","country":"Ecuador","id":"a6i8ymiafosx","state":"Guayas"},"type":"Feature","geometry":{"type":"Point","coordinates":[-79.9,-2.1666667]}},{"properties":{"city":"Washington","country":"United States","id":"a6i8ymph0hzw","state":"D.C."},"type":"Feature","geometry":{"type":"Point","coordinates":[-120.5014693,47.5001238]}},{"properties":{"city":"Guangzhou","country":"China","id":"a6i8ym9gl9g6","state":null},"type":"Feature","geometry":{"type":"Point","coordinates":[113.25,23.1166667]}},{"properties":{"city":"Guadalajara","country":"MEXICO","id":"a6i8ymdy6wzx","state":"Jalisco"},"type":"Feature","geometry":{"type":"Point","coordinates":[-103.3333333,20.6666667]}},{"properties":{"city":"Washington","country":"United States","id":"a6i8ymhip6sk","state":"DC"},"type":"Feature","geometry":{"type":"Point","coordinates":[-120.5014693,47.5001238]}},{"properties":{"city":"Washington","country":"United States","id":"a6i8ymiot4qt","state":"DC"},"type":"Feature","geometry":{"type":"Point","coordinates":[-120.5014693,47.5001238]}},{"properties":{"city":"Washington","country":"United States","id":"a6i8ympnxv47","state":"DC"},"type":"Feature","geometry":{"type":"Point","coordinates":[-120.5014693,47.5001238]}},{"properties":{"city":"Washington","country":"United States","id":"a6i8ymc6cucg","state":"DC"},"type":"Feature","geometry":{"type":"Point","coordinates":[-120.5014693,47.5001238]}},{"properties":{"city":"Washington","country":"United States","id":"a6i8ympwn2bu","state":"DC"},"type":"Feature","geometry":{"type":"Point","coordinates":[-120.5014693,47.5001238]}},{"properties":{"city":"Belgrade","country":"Serbia","id":"a6i8ymmfaaje","state":null},"type":"Feature","geometry":{"type":"Point","coordinates":[20.4680556,44.8186111]}},{"properties":{"city":"St Petersburg","country":"Russia","id":"a6i8ymcxxbg6","state":null},"type":"Feature","geometry":{"type":"Point","coordinates":[30.262503,59.800292]}},{"properties":{"city":"Manila","country":"United States","id":"a6i8ymb0kmip","state":null},"type":"Feature","geometry":{"type":"Point","coordinates":[-73.6406845,40.7492678]}},{"properties":{"city":null,"country":"United States","id":"a6i8ymaxhxdn","state":null},"type":"Feature","geometry":null},{"properties":{"city":"Arlington","country":null,"id":"a6i8ymhtot08","state":"VA"},"type":"Feature","geometry":{"type":"Point","coordinates":[-97.1080656,32.735687]}},{"properties":{"city":"Abidjan","country":"Côte d’Ivoire","id":"a6i8ymk8sn9b","state":null},"type":"Feature","geometry":{"type":"Point","coordinates":[-4.0280556,5.3411111]}},{"properties":{"city":"Arlington","country":"United States","id":"a6i8ymmznajy","state":"VA"},"type":"Feature","geometry":{"type":"Point","coordinates":[-97.1080656,32.735687]}},{"properties":{"city":"Ottawa","country":"Canada","id":"a6i8ymevqete","state":"ON"},"type":"Feature","geometry":{"type":"Point","coordinates":[-75.6902861595154,45.4209405046496]}},{"properties":{"city":"Amman","country":"Jordan","id":"a6i8ymd56tx7","state":null},"type":"Feature","geometry":{"type":"Point","coordinates":[35.9333333,31.95]}},{"properties":{"city":"Arlington","country":"United States","id":"a6i8ympcwl30","state":"VA"},"type":"Feature","geometry":{"type":"Point","coordinates":[-97.1080656,32.735687]}},{"properties":{"city":"Vilnius","country":"Lithuania","id":"a6i8ymc6ukcx","state":null},"type":"Feature","geometry":{"type":"Point","coordinates":[25.3166667,54.6833333]}},{"properties":{"city":null,"country":"United States","id":"a6i8ymm9iq74","state":null},"type":"Feature","geometry":null},{"properties":{"city":"Astana","country":"Kazakhstan","id":"a6i8ymlu50lx","state":null},"type":"Feature","geometry":{"type":"Point","coordinates":[71.4277778,51.1811111]}},{"properties":{"city":"N.W Washington DC","country":"United States","id":"a6i8ymbpowi5","state":null},"type":"Feature","geometry":{"type":"Point","coordinates":[-120.5014693,47.5001238]}},{"properties":{"city":"Moscow","country":"Russia","id":"a6i8ymg9u27i","state":null},"type":"Feature","geometry":{"type":"Point","coordinates":[37.6155556,55.7522222]}},{"properties":{"city":"Arlington","country":"United States","id":"a6i8ymf18fw4","state":"VA"},"type":"Feature","geometry":{"type":"Point","coordinates":[-97.1080656,32.735687]}},{"properties":{"city":"Colombo 3,","country":"Sri Lanka","id":"a6i8ymiaq03p","state":null},"type":"Feature","geometry":{"type":"Point","coordinates":[79.8477778,6.9319444]}},{"properties":{"city":"Washington","country":"UNITED STATES","id":"a6i8ymlpg5p0","state":"DC"},"type":"Feature","geometry":{"type":"Point","coordinates":[-120.5014693,47.5001238]}},{"properties":{"city":"Ottawa","country":"Canada","id":"a6i8ymky3g0y","state":"ON"},"type":"Feature","geometry":{"type":"Point","coordinates":[-75.6902861595154,45.4209405046496]}},{"properties":{"city":"Hong Kong","country":"Hong Kong SAR","id":"a6i8ymbtfzad","state":"SAR"},"type":"Feature","geometry":{"type":"Point","coordinates":[114.15007352829,22.2840136009625]}},{"properties":{"city":"Washington","country":"United States","id":"a6i8ymliwhi9","state":null},"type":"Feature","geometry":{"type":"Point","coordinates":[-120.5014693,47.5001238]}},{"properties":{"city":"Lagos","country":"Nigeria","id":"a6i8ymlx9215","state":null},"type":"Feature","geometry":{"type":"Point","coordinates":[3.3958333,6.4530556]}},{"properties":{"city":"Canberra","country":"Australia","id":"a6i8ym9hlbsw","state":"ACT"},"type":"Feature","geometry":{"type":"Point","coordinates":[149.128074645996,-35.2834624726481]}},{"properties":{"city":"Arlington","country":"United States","id":"a6i8ymhh2z3t","state":"VA"},"type":"Feature","geometry":{"type":"Point","coordinates":[-97.1080656,32.735687]}},{"properties":{"city":"Guayaquil","country":"United States","id":"a6i8ymkfjhci","state":"Guayas"},"type":"Feature","geometry":{"type":"Point","coordinates":[-79.9,-2.1666667]}},{"properties":{"city":"Springfield","country":"United States","id":"a6i8ymf0uyez","state":"VA"},"type":"Feature","geometry":{"type":"Point","coordinates":[28.4,-26.25]}},{"properties":{"city":"Moscow","country":"Russia","id":"a6i8ymgm9p1l","state":null},"type":"Feature","geometry":{"type":"Point","coordinates":[37.6155556,55.7522222]}},{"properties":{"city":"Bangkok","country":"Thailand","id":"a6i8ymiru6p2","state":null},"type":"Feature","geometry":{"type":"Point","coordinates":[100.5166667,13.75]}},{"properties":{"city":"Recife","country":"Brazil","id":"a6i8ymak222i","state":"PE"},"type":"Feature","geometry":{"type":"Point","coordinates":[-34.88111111,-8.053888889]}},{"properties":{"city":"Washington","country":"United States","id":"a6i8ymckln10","state":"DC"},"type":"Feature","geometry":{"type":"Point","coordinates":[-120.5014693,47.5001238]}},{"properties":{"city":"Cotonou","country":"Benin","id":"a6i8ymcnmhoh","state":null},"type":"Feature","geometry":{"type":"Point","coordinates":[2.4333333,6.35]}},{"properties":{"city":"Shenyang","country":"China","id":"a6i8ymd0d72a","state":null},"type":"Feature","geometry":{"type":"Point","coordinates":[123.4327778,41.7922222]}},{"properties":{"city":"Washington","country":"USA","id":"a6i8ymh176b1","state":"DC"},"type":"Feature","geometry":{"type":"Point","coordinates":[-120.5014693,47.5001238]}},{"properties":{"city":"Arlington","country":null,"id":"a6i8ymhi2b2l","state":"VA"},"type":"Feature","geometry":{"type":"Point","coordinates":[-97.1080656,32.735687]}},{"properties":{"city":"Washington","country":"United States","id":"a6i8ymah0k54","state":"DC"},"type":"Feature","geometry":{"type":"Point","coordinates":[-120.5014693,47.5001238]}},{"properties":{"city":"Frankfurt","country":"Germany","id":"a6i8ymh5ob4r","state":"Hessen"},"type":"Feature","geometry":{"type":"Point","coordinates":[8.6833333,50.1166667]}},{"properties":{"city":"Frankfurt","country":"Germany","id":"a6i8ymp3lenk","state":"Hessen"},"type":"Feature","geometry":{"type":"Point","coordinates":[8.6833333,50.1166667]}},{"properties":{"city":"Los Angeles","country":"United States","id":"a6i8ymhs5k2g","state":"CA"},"type":"Feature","geometry":{"type":"Point","coordinates":[-118.2009079,34.3666648]}},{"properties":{"city":null,"country":"United States","id":"a6i8ymln6hyi","state":null},"type":"Feature","geometry":null},{"properties":{"city":"Washington","country":"United States","id":"a6i8ymmfvxkk","state":"DC"},"type":"Feature","geometry":{"type":"Point","coordinates":[-120.5014693,47.5001238]}},{"properties":{"city":"Berlin","country":"Germany","id":"a6i8ymb4c9c6","state":null},"type":"Feature","geometry":{"type":"Point","coordinates":[13.4,52.5166667]}},{"properties":{"city":"Vienna","country":"Austria","id":"a6i8ymppsvv5","state":null},"type":"Feature","geometry":{"type":"Point","coordinates":[16.3720750808716,48.2084877601653]}},{"properties":{"city":"Washington","country":"USA","id":"a6i8ymlmtytk","state":"DC"},"type":"Feature","geometry":{"type":"Point","coordinates":[-120.5014693,47.5001238]}},{"properties":{"city":"Washington","country":"United States","id":"a6i8ymp5hk1h","state":"DC"},"type":"Feature","geometry":{"type":"Point","coordinates":[-120.5014693,47.5001238]}},{"properties":{"city":"Arlington","country":"United States","id":"a6i8ymnc7aga","state":"VA"},"type":"Feature","geometry":{"type":"Point","coordinates":[-97.1080656,32.735687]}},{"properties":{"city":"Tegucigalpa","country":"Honduras","id":"a6i8ymie4txf","state":"PROG"},"type":"Feature","geometry":{"type":"Point","coordinates":[-87.2166667,14.1]}},{"properties":{"city":"Rome","country":"Italy","id":"a6i8ymjs4bvf","state":null},"type":"Feature","geometry":{"type":"Point","coordinates":[12.4833333,41.9]}},{"properties":{"city":"Rosslyn","country":"United States","id":"a6i8ymavol4p","state":"Va"},"type":"Feature","geometry":{"type":"Point","coordinates":[5.6541667,35.6752778]}},{"properties":{"city":"Zagreb","country":"Croatia","id":"a6i8ymkzws2b","state":null},"type":"Feature","geometry":{"type":"Point","coordinates":[16.0,45.8]}},{"properties":{"city":"Ankara","country":"Turkey","id":"a6i8yme74n1r","state":null},"type":"Feature","geometry":{"type":"Point","coordinates":[32.8333333,39.9166667]}},{"properties":{"city":"Libreville","country":"Gabon","id":"a6i8ymf22ea3","state":"Estuaire"},"type":"Feature","geometry":{"type":"Point","coordinates":[9.45,0.3833333]}},{"properties":{"city":"New Orleans","country":null,"id":"a6i8ymeaqyiq","state":"LA"},"type":"Feature","geometry":{"type":"Point","coordinates":[-89.950068,30.0335344]}},{"properties":{"city":"Belmopan","country":"Belize","id":"a6i8ymntxc6j","state":"AA"},"type":"Feature","geometry":{"type":"Point","coordinates":[-88.7666667,17.25]}},{"properties":{"city":"Arlington","country":"UNITED STATES","id":"a6i8ymljnemx","state":"VA"},"type":"Feature","geometry":{"type":"Point","coordinates":[-97.1080656,32.735687]}},{"properties":{"city":"Tripoli","country":"Libya","id":"a6i8ymop2pnu","state":null},"type":"Feature","geometry":{"type":"Point","coordinates":[13.18,32.8925]}},{"properties":{"city":"Santo Domingo","country":"Dominican Republic","id":"a6i8ymit5y9i","state":"DN"},"type":"Feature","geometry":{"type":"Point","coordinates":[69.0,25.5]}},{"properties":{"city":"Cotonou","country":"Benin","id":"a6i8ymmowb94","state":null},"type":"Feature","geometry":{"type":"Point","coordinates":[2.4333333,6.35]}},{"properties":{"city":"Washington","country":"USA","id":"a6i8ymbji7tm","state":"DC"},"type":"Feature","geometry":{"type":"Point","coordinates":[-120.5014693,47.5001238]}},{"properties":{"city":"Kuwait City","country":"Kuwait","id":"a6i8ymlqf9zu","state":"Kuwait"},"type":"Feature","geometry":{"type":"Point","coordinates":[135.515670776367,34.7614289625356]}},{"properties":{"city":"Dunn Loring","country":"United States","id":"a6i8ymmqsrya","state":"VA"},"type":"Feature","geometry":{"type":"Point","coordinates":[117.12,36.1852778]}},{"properties":{"city":"Montevideo","country":"Uruguay","id":"a6i8ymas2nnv","state":"Montevideo"},"type":"Feature","geometry":{"type":"Point","coordinates":[-56.1708333,-34.8580556]}},{"properties":{"city":"Arlington","country":"United States","id":"a6i8ymlohb8n","state":"VA"},"type":"Feature","geometry":{"type":"Point","coordinates":[-97.1080656,32.735687]}},{"properties":{"city":"Washington","country":"United States","id":"a6i8ymlk8pks","state":"DC"},"type":"Feature","geometry":{"type":"Point","coordinates":[-120.5014693,47.5001238]}},{"properties":{"city":"Tijuana","country":"Mexico","id":"a6i8ymemdwui","state":"Baja California"},"type":"Feature","geometry":{"type":"Point","coordinates":[127.4197222,36.3213889]}},{"properties":{"city":"Ashgabat","country":"Turkmenistan","id":"a6i8ymakb1x4","state":null},"type":"Feature","geometry":{"type":"Point","coordinates":[58.3833333,37.95]}},{"properties":{"city":"Lisbon","country":"Portugal","id":"a6i8ymomdouc","state":null},"type":"Feature","geometry":{"type":"Point","coordinates":[-9.1333333,38.7166667]}},{"properties":{"city":"Washington","country":"United States","id":"a6i8ymldnjo0","state":"D.C."},"type":"Feature","geometry":{"type":"Point","coordinates":[-120.5014693,47.5001238]}},{"properties":{"city":"Chennai","country":"India","id":"a6i8ymltbwor","state":"Tamilnadu"},"type":"Feature","geometry":{"type":"Point","coordinates":[80.2784729003906,13.0878385345075]}},{"properties":{"city":"Baghdad","country":"Iraq","id":"a6i8ymjxh9rk","state":"APO AE"},"type":"Feature","geometry":{"type":"Point","coordinates":[44.3938889,33.3386111]}},{"properties":{"city":"NY - MANHATTAN","country":"United States","id":"a6i8ymc064ek","state":"NY"},"type":"Feature","geometry":{"type":"Point","coordinates":[22.0,38.0]}},{"properties":{"city":"Tripoli","country":"Libya","id":"a6i8ymdjlxqt","state":null},"type":"Feature","geometry":{"type":"Point","coordinates":[13.18,32.8925]}},{"properties":{"city":"Arlington","country":"United States","id":"a6i8ymky599j","state":"Va"},"type":"Feature","geometry":{"type":"Point","coordinates":[-97.1080656,32.735687]}},{"properties":{"city":"Springfield","country":"United States","id":"a6i8ymkw1pmh","state":"VA"},"type":"Feature","geometry":{"type":"Point","coordinates":[28.4,-26.25]}},{"properties":{"city":"Arlington","country":"United States","id":"a6i8ymlm1bzq","state":"Va"},"type":"Feature","geometry":{"type":"Point","coordinates":[-97.1080656,32.735687]}},{"properties":{"city":"Washington","country":"USA","id":"a6i8ympasn68","state":"DC"},"type":"Feature","geometry":{"type":"Point","coordinates":[-120.5014693,47.5001238]}},{"properties":{"city":"Havana","country":"Cuba","id":"a6i8ym9wpgti","state":null},"type":"Feature","geometry":{"type":"Point","coordinates":[-82.3641667,23.1319444]}},{"properties":{"city":"Washington","country":"United States","id":"a6i8ymisgr18","state":"DC"},"type":"Feature","geometry":{"type":"Point","coordinates":[-120.5014693,47.5001238]}},{"properties":{"city":"Washington","country":"USA","id":"a6i8ymj9z6fg","state":"DC"},"type":"Feature","geometry":{"type":"Point","coordinates":[-120.5014693,47.5001238]}},{"properties":{"city":"Cairo","country":"Egypt","id":"a6i8ymnz9bf7","state":"Cairo"},"type":"Feature","geometry":{"type":"Point","coordinates":[31.25,30.05]}},{"properties":{"city":"Washington","country":"United States","id":"a6i8ymj5whi8","state":"DC"},"type":"Feature","geometry":{"type":"Point","coordinates":[-120.5014693,47.5001238]}},{"properties":{"city":"Frankfurt","country":"Germany","id":"a6i8ymbia6bc","state":"Hessen"},"type":"Feature","geometry":{"type":"Point","coordinates":[8.6833333,50.1166667]}},{"properties":{"city":"Belgrade","country":"Serbia","id":"a6i8ymm9b9kf","state":null},"type":"Feature","geometry":{"type":"Point","coordinates":[20.4680556,44.8186111]}},{"properties":{"city":"Arlington","country":"United States","id":"a6i8ymldfesb","state":"Va"},"type":"Feature","geometry":{"type":"Point","coordinates":[-97.1080656,32.735687]}},{"properties":{"city":"NY - MANHATTAN","country":"United States","id":"a6i8ymc77ny7","state":"NY"},"type":"Feature","geometry":{"type":"Point","coordinates":[22.0,38.0]}},{"properties":{"city":"Tokyo","country":"Japan","id":"a6i8ymbtdmny","state":null},"type":"Feature","geometry":{"type":"Point","coordinates":[139.691677093506,35.6895265930799]}},{"properties":{"city":"Jakarta","country":"Indonesia","id":"a6i8ymndeygv","state":null},"type":"Feature","geometry":{"type":"Point","coordinates":[106.8294444,-6.1744444]}},{"properties":{"city":"Beijing","country":"China","id":"a6i8ymkp1t2l","state":null},"type":"Feature","geometry":{"type":"Point","coordinates":[116.397228240967,39.9074977414405]}},{"properties":{"city":"Perth","country":"Australia","id":"a6i8ymcpot78","state":"WA"},"type":"Feature","geometry":{"type":"Point","coordinates":[115.8333333,-31.9333333]}},{"properties":{"city":"Bridgetown","country":"Barbados","id":"a6i8ymhfu46o","state":null},"type":"Feature","geometry":{"type":"Point","coordinates":[-59.6166667,13.1]}},{"properties":{"city":"Newington","country":"United States","id":"a6i8ymejhjv3","state":"VA"},"type":"Feature","geometry":{"type":"Point","coordinates":[-72.7237063,41.6978777]}},{"properties":{"city":"Rome","country":"Italy","id":"a6i8ymmh7ewg","state":null},"type":"Feature","geometry":{"type":"Point","coordinates":[12.4833333,41.9]}},{"properties":{"city":"Washington","country":"United States","id":"a6i8ymccndzc","state":"DC"},"type":"Feature","geometry":{"type":"Point","coordinates":[-120.5014693,47.5001238]}},{"properties":{"city":"Jerusalem","country":"United States","id":"a6i8yminw6od","state":null},"type":"Feature","geometry":{"type":"Point","coordinates":[-81.0923265,39.8517389]}},{"properties":{"city":"Tel Aviv","country":"Israel","id":"a6i8ymf4h0ys","state":null},"type":"Feature","geometry":{"type":"Point","coordinates":[34.7666667,32.0666667]}},{"properties":{"city":"Washington","country":"US","id":"a6i8yma1lsn1","state":"DC"},"type":"Feature","geometry":{"type":"Point","coordinates":[-120.5014693,47.5001238]}},{"properties":{"city":"Guadalajara","country":"Mexico","id":"a6i8ymh1ctv1","state":"Jalisco"},"type":"Feature","geometry":{"type":"Point","coordinates":[-103.3333333,20.6666667]}},{"properties":{"city":"Guadalajara","country":"MEXICO","id":"a6i8ymi1l8yd","state":"Jalisco"},"type":"Feature","geometry":{"type":"Point","coordinates":[-103.3333333,20.6666667]}},{"properties":{"city":"Bucharest","country":"Romania","id":"a6i8ymifaqlp","state":"Bucharest"},"type":"Feature","geometry":{"type":"Point","coordinates":[-88.7867278,39.1880983]}},{"properties":{"city":"Rosslyn","country":"United States","id":"a6i8yme0omek","state":"Virginia"},"type":"Feature","geometry":{"type":"Point","coordinates":[5.6541667,35.6752778]}},{"properties":{"city":"Kabul","country":"Afghanistan","id":"a6i8ym9pwdid","state":"RC-Capital"},"type":"Feature","geometry":{"type":"Point","coordinates":[69.1833333,34.5166667]}},{"properties":{"city":"Frankfurt","country":"Germany","id":"a6i8ymbb2la4","state":"Hessen"},"type":"Feature","geometry":{"type":"Point","coordinates":[8.6833333,50.1166667]}},{"properties":{"city":"Washington","country":"United States","id":"a6i8yme3vn5e","state":"DC"},"type":"Feature","geometry":{"type":"Point","coordinates":[-120.5014693,47.5001238]}},{"properties":{"city":"Jeddah","country":"Saudi Arabia","id":"a6i8ymm78fl3","state":"Western Province"},"type":"Feature","geometry":{"type":"Point","coordinates":[39.2191667,21.5169444]}},{"properties":{"city":"Tirana","country":"Albania","id":"a6i8ym9pq8ad","state":"Tirana"},"type":"Feature","geometry":{"type":"Point","coordinates":[51.4244444,35.6719444]}},{"properties":{"city":null,"country":"United States","id":"a6i8yml5756l","state":null},"type":"Feature","geometry":null},{"properties":{"city":"Rome","country":"Italy","id":"a6i8ymblkinp","state":null},"type":"Feature","geometry":{"type":"Point","coordinates":[12.4833333,41.9]}},{"properties":{"city":"Vienna","country":"Austria","id":"a6i8ymmuycxg","state":null},"type":"Feature","geometry":{"type":"Point","coordinates":[16.3720750808716,48.2084877601653]}},{"properties":{"city":"Washington","country":"UNITED STATES","id":"a6i8ym9mpqe3","state":"DC"},"type":"Feature","geometry":{"type":"Point","coordinates":[-120.5014693,47.5001238]}},{"properties":{"city":"Pretoria","country":"South Africa","id":"a6i8ymonat36","state":"Gauteng"},"type":"Feature","geometry":{"type":"Point","coordinates":[28.2294444,-25.7069444]}},{"properties":{"city":"New Orleans","country":null,"id":"a6i8ymd0vfuy","state":"LA"},"type":"Feature","geometry":{"type":"Point","coordinates":[-89.950068,30.0335344]}},{"properties":{"city":"Washington","country":"United States","id":"a6i8ymey1hfi","state":"DC"},"type":"Feature","geometry":{"type":"Point","coordinates":[-120.5014693,47.5001238]}},{"properties":{"city":"Baku","country":"AZERBAIJAN","id":"a6i8ymg0u8we","state":null},"type":"Feature","geometry":{"type":"Point","coordinates":[49.8822222,40.3952778]}},{"properties":{"city":"Vienna","country":"Austria","id":"a6i8ymc1uqej","state":null},"type":"Feature","geometry":{"type":"Point","coordinates":[16.3720750808716,48.2084877601653]}},{"properties":{"city":"Madrid","country":"Spain","id":"a6i8yml15nt6","state":null},"type":"Feature","geometry":{"type":"Point","coordinates":[-3.68274615575072,40.4893538421231]}},{"properties":{"city":"London","country":"United Kingdom","id":"a6i8ym9wrmq1","state":null},"type":"Feature","geometry":{"type":"Point","coordinates":[-0.125532746315002,51.5084152563931]}},{"properties":{"city":"Moscow","country":"Russia","id":"a6i8yme55yp8","state":null},"type":"Feature","geometry":{"type":"Point","coordinates":[37.6155556,55.7522222]}},{"properties":{"city":"Rome","country":"Italy","id":"a6i8ymmakv75","state":null},"type":"Feature","geometry":{"type":"Point","coordinates":[12.4833333,41.9]}},{"properties":{"city":"Berlin","country":"Germany","id":"a6i8yma4mt24","state":null},"type":"Feature","geometry":{"type":"Point","coordinates":[13.4,52.5166667]}},{"properties":{"city":"Washington","country":"United States","id":"a6i8ymprfart","state":"DC"},"type":"Feature","geometry":{"type":"Point","coordinates":[-120.5014693,47.5001238]}},{"properties":{"city":"Washington","country":"US","id":"a6i8ymgj5s25","state":"DC"},"type":"Feature","geometry":{"type":"Point","coordinates":[-120.5014693,47.5001238]}},{"properties":{"city":"Washington","country":"US","id":"a6i8ymk15uwj","state":"DC"},"type":"Feature","geometry":{"type":"Point","coordinates":[-120.5014693,47.5001238]}},{"properties":{"city":"Cape Town","country":"South Africa","id":"a6i8ymbjb8zy","state":null},"type":"Feature","geometry":{"type":"Point","coordinates":[18.4166667,-33.9166667]}},{"properties":{"city":"Oslo","country":"Norway","id":"a6i8yml4fymt","state":null},"type":"Feature","geometry":{"type":"Point","coordinates":[10.7389211654663,59.9132457671591]}},{"properties":{"city":"Washington","country":"United States","id":"a6i8ymc42y4a","state":"DC"},"type":"Feature","geometry":{"type":"Point","coordinates":[-120.5014693,47.5001238]}},{"properties":{"city":"Paris","country":"France","id":"a6i8ymimc8m8","state":null},"type":"Feature","geometry":{"type":"Point","coordinates":[2.3488,48.85341]}},{"properties":{"city":"Washington","country":"United States","id":"a6i8ymcwzclt","state":"DC"},"type":"Feature","geometry":{"type":"Point","coordinates":[-120.5014693,47.5001238]}},{"properties":{"city":"Washington","country":null,"id":"a6i8ymmshl21","state":"DC"},"type":"Feature","geometry":{"type":"Point","coordinates":[-120.5014693,47.5001238]}},{"properties":{"city":"Arlington","country":null,"id":"a6i8ymjgrt10","state":"VA"},"type":"Feature","geometry":{"type":"Point","coordinates":[-97.1080656,32.735687]}},{"properties":{"city":"Istanbul","country":"Turkey","id":"a6i8ymbtb0nv","state":null},"type":"Feature","geometry":{"type":"Point","coordinates":[28.9833068847656,41.0350820029997]}},{"properties":{"city":"Milan","country":"Italy","id":"a6i8ymlxwi4x","state":null},"type":"Feature","geometry":{"type":"Point","coordinates":[9.1895055770874,45.4642693810258]}},{"properties":{"city":"Washington","country":"United States","id":"a6i8ymehh2y0","state":"DC"},"type":"Feature","geometry":{"type":"Point","coordinates":[-120.5014693,47.5001238]}},{"properties":{"city":"Washington","country":"US","id":"a6i8ymmqqklf","state":"DC"},"type":"Feature","geometry":{"type":"Point","coordinates":[-120.5014693,47.5001238]}},{"properties":{"city":"Naples","country":"Italy","id":"a6i8ymksgnxc","state":null},"type":"Feature","geometry":null},{"properties":{"city":"Washington","country":"United States","id":"a6i8ymnk2zqu","state":"DC"},"type":"Feature","geometry":{"type":"Point","coordinates":[-120.5014693,47.5001238]}},{"properties":{"city":"Washington","country":"United States","id":"a6i8ymokbezg","state":"DC"},"type":"Feature","geometry":{"type":"Point","coordinates":[-120.5014693,47.5001238]}},{"properties":{"city":"Port-au-Prince","country":"Haiti","id":"a6i8ymg7s718","state":null},"type":"Feature","geometry":{"type":"Point","coordinates":[-72.335,18.5391667]}},{"properties":{"city":"Arlington","country":null,"id":"a6i8ymckgnh6","state":"VA"},"type":"Feature","geometry":{"type":"Point","coordinates":[-97.1080656,32.735687]}},{"properties":{"city":"Chengdu","country":"China","id":"a6i8ymlpwu0b","state":null},"type":"Feature","geometry":{"type":"Point","coordinates":[104.0666667,30.6666667]}},{"properties":{"city":"Washington","country":"United States","id":"a6i8ymmqwrd2","state":"DC"},"type":"Feature","geometry":{"type":"Point","coordinates":[-120.5014693,47.5001238]}},{"properties":{"city":"Shanghai","country":"China","id":"a6i8ymce9q0z","state":null},"type":"Feature","geometry":{"type":"Point","coordinates":[121.4580556,31.2222222]}},{"properties":{"city":"Tucson","country":null,"id":"a6i8ymggcgzr","state":"AZ"},"type":"Feature","geometry":{"type":"Point","coordinates":[-110.926479,32.2217429]}},{"properties":{"city":"Vilnius","country":"Lithuania","id":"a6i8ymk4t5gy","state":null},"type":"Feature","geometry":{"type":"Point","coordinates":[25.3166667,54.6833333]}},{"properties":{"city":"Jeddah","country":"Saudi Arabia","id":"a6i8ymcjge6v","state":"Western Province"},"type":"Feature","geometry":{"type":"Point","coordinates":[39.2191667,21.5169444]}},{"properties":{"city":"Ciudad Juarez","country":"Mexico","id":"a6i8ymi6yye0","state":"Chihuahua"},"type":"Feature","geometry":{"type":"Point","coordinates":[-106.4833333,31.7333333]}},{"properties":{"city":"Pristina","country":"United States","id":"a6i8ymazbeuk","state":"Kosovo"},"type":"Feature","geometry":{"type":"Point","coordinates":[21.1666667,42.6666667]}},{"properties":{"city":"Washington","country":"United States","id":"a6i8ymd1mnwl","state":"DC"},"type":"Feature","geometry":{"type":"Point","coordinates":[-120.5014693,47.5001238]}},{"properties":{"city":"Quito","country":"Ecuador","id":"a6i8ymkxipzu","state":null},"type":"Feature","geometry":{"type":"Point","coordinates":[-78.5,-0.2166667]}},{"properties":{"city":"Quito","country":"Ecuador","id":"a6i8ymmm0s0n","state":null},"type":"Feature","geometry":{"type":"Point","coordinates":[-78.5,-0.2166667]}},{"properties":{"city":"Washington","country":"United States","id":"a6i8ymjice8b","state":"DC"},"type":"Feature","geometry":{"type":"Point","coordinates":[-120.5014693,47.5001238]}},{"properties":{"city":"Guayaquil","country":"Ecuador","id":"a6i8ymjbxbpq","state":"Guayas"},"type":"Feature","geometry":{"type":"Point","coordinates":[-79.9,-2.1666667]}},{"properties":{"city":"London","country":"United Kingdom","id":"a6i8ymaycdcb","state":null},"type":"Feature","geometry":{"type":"Point","coordinates":[-0.125532746315002,51.5084152563931]}},{"properties":{"city":"San Diego","country":null,"id":"a6i8yma3xrth","state":"CA"},"type":"Feature","geometry":{"type":"Point","coordinates":[108.9286111,34.2583333]}},{"properties":{"city":"Jerusalem","country":"United States","id":"a6i8ymp5zlov","state":null},"type":"Feature","geometry":{"type":"Point","coordinates":[-81.0923265,39.8517389]}},{"properties":{"city":"Tel Aviv","country":"Israel","id":"a6i8ymdaftxz","state":null},"type":"Feature","geometry":{"type":"Point","coordinates":[34.7666667,32.0666667]}},{"properties":{"city":"Ottawa","country":"Canada","id":"a6i8ymnlbfll","state":"ON"},"type":"Feature","geometry":{"type":"Point","coordinates":[-75.6902861595154,45.4209405046496]}},{"properties":{"city":"Washington","country":"UNITED STATES","id":"a6i8ymkwwghu","state":"DC"},"type":"Feature","geometry":{"type":"Point","coordinates":[-120.5014693,47.5001238]}},{"properties":{"city":"Arlington","country":"United States","id":"a6i8ymdnzmsw","state":"VA"},"type":"Feature","geometry":{"type":"Point","coordinates":[-97.1080656,32.735687]}},{"properties":{"city":"Washington","country":"USA","id":"a6i8ymbrhif8","state":"DC"},"type":"Feature","geometry":{"type":"Point","coordinates":[-120.5014693,47.5001238]}},{"properties":{"city":"Madrid","country":"Spain","id":"a6i8ymgjfyww","state":null},"type":"Feature","geometry":{"type":"Point","coordinates":[-3.68274615575072,40.4893538421231]}},{"properties":{"city":"Managua","country":"Nicaragua","id":"a6i8ymiybx15","state":null},"type":"Feature","geometry":{"type":"Point","coordinates":[-86.2683333,12.1508333]}},{"properties":{"city":"Washington","country":"UNITED STATES","id":"a6i8ymaf6nb5","state":"DC"},"type":"Feature","geometry":{"type":"Point","coordinates":[-120.5014693,47.5001238]}},{"properties":{"city":"Istanbul","country":"Turkey","id":"a6i8ymdufkhk","state":null},"type":"Feature","geometry":{"type":"Point","coordinates":[28.9833068847656,41.0350820029997]}},{"properties":{"city":"Hanoi","country":"Vietnam","id":"a6i8ymcfgbrz","state":null},"type":"Feature","geometry":{"type":"Point","coordinates":[105.85,21.0333333]}},{"properties":{"city":"Washington","country":"United States","id":"a6i8ymnm9i14","state":"DC"},"type":"Feature","geometry":{"type":"Point","coordinates":[-120.5014693,47.5001238]}},{"properties":{"city":"Washington","country":"US","id":"a6i8ymgyv5qj","state":"DC"},"type":"Feature","geometry":{"type":"Point","coordinates":[-120.5014693,47.5001238]}},{"properties":{"city":"Washington","country":"US","id":"a6i8ym9vte9o","state":"DC"},"type":"Feature","geometry":{"type":"Point","coordinates":[-120.5014693,47.5001238]}},{"properties":{"city":"Arlington","country":"United States","id":"a6i8ympeihzk","state":"VA"},"type":"Feature","geometry":{"type":"Point","coordinates":[-97.1080656,32.735687]}},{"properties":{"city":"Bangkok","country":"Thailand","id":"a6i8ymgrek1z","state":null},"type":"Feature","geometry":{"type":"Point","coordinates":[100.5166667,13.75]}},{"properties":{"city":"Washington","country":"USA","id":"a6i8ymaxljua","state":"DC"},"type":"Feature","geometry":{"type":"Point","coordinates":[-120.5014693,47.5001238]}},{"properties":{"city":"Washington","country":"United States","id":"a6i8ymg4xygx","state":"DC"},"type":"Feature","geometry":{"type":"Point","coordinates":[-120.5014693,47.5001238]}},{"properties":{"city":"Washington","country":"United States","id":"a6i8ymbr70s9","state":"DC"},"type":"Feature","geometry":{"type":"Point","coordinates":[-120.5014693,47.5001238]}},{"properties":{"city":"Tbilisi","country":"Georgia","id":"a6i8ymim6s8k","state":null},"type":"Feature","geometry":{"type":"Point","coordinates":[44.7908333,41.725]}},{"properties":{"city":"Port Louis","country":"Mauritius","id":"a6i8ymgobkdq","state":null},"type":"Feature","geometry":{"type":"Point","coordinates":[57.4988889,-20.1619444]}},{"properties":{"city":"Washington","country":"United States","id":"a6i8ymoq3mbn","state":"DC"},"type":"Feature","geometry":{"type":"Point","coordinates":[-120.5014693,47.5001238]}},{"properties":{"city":"Geneva","country":"Switzerland","id":"a6i8ymiwrzho","state":null},"type":"Feature","geometry":{"type":"Point","coordinates":[6.14569187164307,46.2022156980098]}},{"properties":{"city":"Washington","country":"USA","id":"a6i8ymlvc9yd","state":"DC"},"type":"Feature","geometry":{"type":"Point","coordinates":[-120.5014693,47.5001238]}},{"properties":{"city":"Podgorica","country":"Montenegro","id":"a6i8ymjcbm1g","state":null},"type":"Feature","geometry":{"type":"Point","coordinates":[19.2636111,42.4411111]}},{"properties":{"city":"Washington","country":"United States","id":"a6i8ymgdkssd","state":"DC"},"type":"Feature","geometry":{"type":"Point","coordinates":[-120.5014693,47.5001238]}},{"properties":{"city":"Washington","country":"United States","id":"a6i8ymbyaiyj","state":"DC"},"type":"Feature","geometry":{"type":"Point","coordinates":[-120.5014693,47.5001238]}},{"properties":{"city":"Sao Paulo","country":"Brazil","id":"a6i8ymiff8wf","state":null},"type":"Feature","geometry":{"type":"Point","coordinates":[-46.63611111,-23.5475]}},{"properties":{"city":"Bangkok","country":"Thailand","id":"a6i8ymegw5gs","state":null},"type":"Feature","geometry":{"type":"Point","coordinates":[100.5166667,13.75]}},{"properties":{"city":"Washington","country":"USA","id":"a6i8ymekyjoe","state":"DC"},"type":"Feature","geometry":{"type":"Point","coordinates":[-120.5014693,47.5001238]}},{"properties":{"city":null,"country":"United States","id":"a6i8ymiezkf4","state":null},"type":"Feature","geometry":null},{"properties":{"city":"Arlington","country":"USA","id":"a6i8ymizhk01","state":"VA"},"type":"Feature","geometry":{"type":"Point","coordinates":[-97.1080656,32.735687]}},{"properties":{"city":"Washington","country":"USA","id":"a6i8ymbd2dn6","state":"DC"},"type":"Feature","geometry":{"type":"Point","coordinates":[-120.5014693,47.5001238]}},{"properties":{"city":"Panama","country":"Panama","id":"a6i8ymarhbi7","state":"Panama"},"type":"Feature","geometry":{"type":"Point","coordinates":[-79.5333333,8.9666667]}},{"properties":{"city":"Washington","country":"United States","id":"a6i8ymg0p3jj","state":"DC"},"type":"Feature","geometry":{"type":"Point","coordinates":[-120.5014693,47.5001238]}},{"properties":{"city":"Windhoek","country":"Namibia","id":"a6i8ymn496xx","state":null},"type":"Feature","geometry":{"type":"Point","coordinates":[17.0836111,-22.57]}},{"properties":{"city":"Arlington","country":"United States","id":"a6i8ymfsdlel","state":"VA"},"type":"Feature","geometry":{"type":"Point","coordinates":[-97.1080656,32.735687]}},{"properties":{"city":"Copenhagen","country":"Denmark","id":"a6i8ymbxdvxb","state":null},"type":"Feature","geometry":{"type":"Point","coordinates":[12.5709342956543,55.6776812020993]}},{"properties":{"city":"Springfield","country":"United States","id":"a6i8ymhhbro8","state":"VA"},"type":"Feature","geometry":{"type":"Point","coordinates":[28.4,-26.25]}},{"properties":{"city":"Rome","country":"Italy","id":"a6i8ymg6h1hi","state":null},"type":"Feature","geometry":{"type":"Point","coordinates":[12.4833333,41.9]}},{"properties":{"city":"Arlington","country":"United States","id":"a6i8ymphl03m","state":"VA"},"type":"Feature","geometry":{"type":"Point","coordinates":[-97.1080656,32.735687]}},{"properties":{"city":"Washington","country":"United States","id":"a6i8ymmoy9o9","state":"D.C."},"type":"Feature","geometry":{"type":"Point","coordinates":[-120.5014693,47.5001238]}},{"properties":{"city":"Belgrade","country":"Serbia and Montenegro","id":"a6i8ymcvvncc","state":null},"type":"Feature","geometry":{"type":"Point","coordinates":[20.4680556,44.8186111]}},{"properties":{"city":"Fort Lauderdale","country":"United States","id":"a6i8ymatb23e","state":"FL"},"type":"Feature","geometry":{"type":"Point","coordinates":[-80.1433786,26.1223084]}},{"properties":{"city":"Conakry","country":"Guinea","id":"a6i8ym9sbsdd","state":null},"type":"Feature","geometry":{"type":"Point","coordinates":[-13.7122222,9.5091667]}},{"properties":{"city":"Budapest","country":"Hungary","id":"a6i8ym9iurpg","state":null},"type":"Feature","geometry":{"type":"Point","coordinates":[19.0833333,47.5]}},{"properties":{"city":"Arlington","country":null,"id":"a6i8ymoot8qp","state":"VA"},"type":"Feature","geometry":{"type":"Point","coordinates":[-97.1080656,32.735687]}},{"properties":{"city":"Astana","country":"Kazakhstan","id":"a6i8ymkw2ban","state":null},"type":"Feature","geometry":{"type":"Point","coordinates":[71.4277778,51.1811111]}},{"properties":{"city":"Tel Aviv","country":"Israel","id":"a6i8ymox6tf0","state":null},"type":"Feature","geometry":{"type":"Point","coordinates":[34.7666667,32.0666667]}},{"properties":{"city":"Podgorica","country":"Montenegro","id":"a6i8ymeun6th","state":null},"type":"Feature","geometry":{"type":"Point","coordinates":[19.2636111,42.4411111]}},{"properties":{"city":"Damascus","country":"Syria","id":"a6i8ymlr1h4c","state":null},"type":"Feature","geometry":{"type":"Point","coordinates":[36.3,33.5]}},{"properties":{"city":"Arlington","country":"United States","id":"a6i8ymlrbwlj","state":"VA"},"type":"Feature","geometry":{"type":"Point","coordinates":[-97.1080656,32.735687]}},{"properties":{"city":"Ciudad Juarez","country":"Mexico","id":"a6i8yml3oiot","state":"Chihuahua"},"type":"Feature","geometry":{"type":"Point","coordinates":[-106.4833333,31.7333333]}},{"properties":{"city":"Washington","country":"USA","id":"a6i8ymig2ljh","state":"DC"},"type":"Feature","geometry":{"type":"Point","coordinates":[-120.5014693,47.5001238]}},{"properties":{"city":"Washington","country":null,"id":"a6i8ymi2tl6o","state":"DC"},"type":"Feature","geometry":{"type":"Point","coordinates":[-120.5014693,47.5001238]}},{"properties":{"city":"Miami","country":null,"id":"a6i8ymmiirhs","state":"FL"},"type":"Feature","geometry":{"type":"Point","coordinates":[-80.1936589,25.7742658]}},{"properties":{"city":"Washington","country":"United States","id":"a6i8ymab8e9o","state":"DC"},"type":"Feature","geometry":{"type":"Point","coordinates":[-120.5014693,47.5001238]}},{"properties":{"city":"Belgrade","country":"Serbia","id":"a6i8ympc9ysu","state":null},"type":"Feature","geometry":{"type":"Point","coordinates":[20.4680556,44.8186111]}},{"properties":{"city":"Washington","country":"US","id":"a6i8ymmo1jpa","state":"DC"},"type":"Feature","geometry":{"type":"Point","coordinates":[-120.5014693,47.5001238]}},{"properties":{"city":"Arlington","country":"United States","id":"a6i8ymjnppcu","state":"VA"},"type":"Feature","geometry":{"type":"Point","coordinates":[-97.1080656,32.735687]}},{"properties":{"city":"Washington","country":"United States","id":"a6i8ymipsinm","state":"DC"},"type":"Feature","geometry":{"type":"Point","coordinates":[-120.5014693,47.5001238]}},{"properties":{"city":"Arlington","country":"United States","id":"a6i8ymdsn4o7","state":"VA"},"type":"Feature","geometry":{"type":"Point","coordinates":[-97.1080656,32.735687]}},{"properties":{"city":"Manila","country":"Philippines","id":"a6i8ymnexls1","state":null},"type":"Feature","geometry":{"type":"Point","coordinates":[120.9822222,14.6041667]}},{"properties":{"city":"Washington","country":"USA","id":"a6i8ymi2iqee","state":"DC"},"type":"Feature","geometry":{"type":"Point","coordinates":[-120.5014693,47.5001238]}},{"properties":{"city":"Paris","country":"France","id":"a6i8yml6xwvz","state":null},"type":"Feature","geometry":{"type":"Point","coordinates":[2.3488,48.85341]}},{"properties":{"city":"Beijing","country":"China","id":"a6i8ymkyktu2","state":null},"type":"Feature","geometry":{"type":"Point","coordinates":[116.397228240967,39.9074977414405]}},{"properties":{"city":"Taipei","country":"Taiwan","id":"a6i8ymll237o","state":null},"type":"Feature","geometry":{"type":"Point","coordinates":[121.525,25.0391667]}},{"properties":{"city":"Tirana","country":"Albania","id":"a6i8ymbrmh8n","state":"Tirana"},"type":"Feature","geometry":{"type":"Point","coordinates":[51.4244444,35.6719444]}},{"properties":{"city":"SUVA","country":"Fiji Islands","id":"a6i8ympmvzry","state":null},"type":"Feature","geometry":{"type":"Point","coordinates":[23.324146270752,42.6975135281805]}},{"properties":{"city":"Managua","country":"NICARAGUA","id":"a6i8yml7s0lg","state":null},"type":"Feature","geometry":{"type":"Point","coordinates":[-86.2683333,12.1508333]}},{"properties":{"city":"Washington","country":"United States","id":"a6i8ymo56uhu","state":"DC"},"type":"Feature","geometry":{"type":"Point","coordinates":[-120.5014693,47.5001238]}},{"properties":{"city":"Bangkok","country":"Thailand","id":"a6i8ymg7xgfm","state":null},"type":"Feature","geometry":{"type":"Point","coordinates":[100.5166667,13.75]}},{"properties":{"city":"Washington","country":null,"id":"a6i8ymny9xr0","state":"DC"},"type":"Feature","geometry":{"type":"Point","coordinates":[-120.5014693,47.5001238]}},{"properties":{"city":"Rosslyn","country":null,"id":"a6i8ymfw0dpv","state":"VA"},"type":"Feature","geometry":{"type":"Point","coordinates":[5.6541667,35.6752778]}},{"properties":{"city":"Arlington","country":"India","id":"a6i8ymg555xl","state":"VA"},"type":"Feature","geometry":{"type":"Point","coordinates":[-97.1080656,32.735687]}},{"properties":{"city":"Taipei","country":"Taiwan","id":"a6i8ymj9iysp","state":null},"type":"Feature","geometry":{"type":"Point","coordinates":[121.525,25.0391667]}},{"properties":{"city":"Kuwait City","country":"Kuwait","id":"a6i8ymg7uvmg","state":"Kuwait"},"type":"Feature","geometry":{"type":"Point","coordinates":[135.515670776367,34.7614289625356]}},{"properties":{"city":"Moscow","country":"Russia","id":"a6i8ymgjarax","state":null},"type":"Feature","geometry":{"type":"Point","coordinates":[37.6155556,55.7522222]}},{"properties":{"city":"St Petersburg","country":"Russia","id":"a6i8ymm2axkz","state":null},"type":"Feature","geometry":{"type":"Point","coordinates":[30.262503,59.800292]}},{"properties":{"city":"Bratislava","country":"Slovakia","id":"a6i8yma48d7j","state":null},"type":"Feature","geometry":{"type":"Point","coordinates":[17.1666667,48.3333333]}},{"properties":{"city":"Washington","country":"USA","id":"a6i8ymakcb33","state":"DC"},"type":"Feature","geometry":{"type":"Point","coordinates":[-120.5014693,47.5001238]}},{"properties":{"city":"Arlington","country":"United States","id":"a6i8ymhkpco7","state":"VA"},"type":"Feature","geometry":{"type":"Point","coordinates":[-97.1080656,32.735687]}},{"properties":{"city":null,"country":"Poland","id":"a6i8ymfefg10","state":null},"type":"Feature","geometry":null},{"properties":{"city":"Washington","country":"United States","id":"a6i8ymfi5i58","state":"DC"},"type":"Feature","geometry":{"type":"Point","coordinates":[-120.5014693,47.5001238]}},{"properties":{"city":"Washington","country":"United States","id":"a6i8ymfik8el","state":"DC"},"type":"Feature","geometry":{"type":"Point","coordinates":[-120.5014693,47.5001238]}},{"properties":{"city":"Arlington","country":"United States","id":"a6i8yma9c6he","state":"Va"},"type":"Feature","geometry":{"type":"Point","coordinates":[-97.1080656,32.735687]}},{"properties":{"city":"Ciudad Juarez","country":"Mexico","id":"a6i8ymde8kto","state":"Chihuahua"},"type":"Feature","geometry":{"type":"Point","coordinates":[-106.4833333,31.7333333]}},{"properties":{"city":"Athens","country":"Greece","id":"a6i8ymjae0tz","state":null},"type":"Feature","geometry":{"type":"Point","coordinates":[23.7333333,37.9833333]}},{"properties":{"city":"Arlington","country":"United States","id":"a6i8ymd8o8y8","state":"VA"},"type":"Feature","geometry":{"type":"Point","coordinates":[-97.1080656,32.735687]}},{"properties":{"city":"Dili","country":"Timor-Leste","id":"a6i8ymcm7gs2","state":null},"type":"Feature","geometry":{"type":"Point","coordinates":[9.7,4.0502778]}},{"properties":{"city":"Milan","country":"Italy","id":"a6i8ymjjsdao","state":null},"type":"Feature","geometry":{"type":"Point","coordinates":[9.1895055770874,45.4642693810258]}},{"properties":{"city":null,"country":"United States","id":"a6i8ym9glh80","state":null},"type":"Feature","geometry":null},{"properties":{"city":"Washington","country":"United States","id":"a6i8ymehritx","state":"DC"},"type":"Feature","geometry":{"type":"Point","coordinates":[-120.5014693,47.5001238]}},{"properties":{"city":"Bucharest","country":"Romania","id":"a6i8ymfmobmk","state":"Bucharest"},"type":"Feature","geometry":{"type":"Point","coordinates":[-88.7867278,39.1880983]}},{"properties":{"city":"Chennai","country":"India","id":"a6i8ymc6p3wo","state":"Tamilnadu"},"type":"Feature","geometry":{"type":"Point","coordinates":[80.2784729003906,13.0878385345075]}},{"properties":{"city":"Tirana","country":"Albania","id":"a6i8ymgowqpr","state":"Tirana"},"type":"Feature","geometry":{"type":"Point","coordinates":[51.4244444,35.6719444]}},{"properties":{"city":"Rome","country":"Italy","id":"a6i8ymlefx5n","state":null},"type":"Feature","geometry":{"type":"Point","coordinates":[12.4833333,41.9]}},{"properties":{"city":"Brasilia","country":"Brazil","id":"a6i8ymkcyo4r","state":null},"type":"Feature","geometry":{"type":"Point","coordinates":[-47.92972,-15.77972]}},{"properties":{"city":"Manama","country":"Bahrain","id":"a6i8ymnltzgt","state":"Bahrain"},"type":"Feature","geometry":{"type":"Point","coordinates":[50.5830556,26.2361111]}},{"properties":{"city":"Miami","country":"United States","id":"a6i8ymdpcm08","state":"FL"},"type":"Feature","geometry":{"type":"Point","coordinates":[-80.1936589,25.7742658]}},{"properties":{"city":"Washington","country":"United States","id":"a6i8ymosi2hf","state":"DC"},"type":"Feature","geometry":{"type":"Point","coordinates":[-120.5014693,47.5001238]}},{"properties":{"city":"Washington","country":"Belize","id":"a6i8ymm33gmp","state":"D.C."},"type":"Feature","geometry":{"type":"Point","coordinates":[-120.5014693,47.5001238]}},{"properties":{"city":"Washington","country":null,"id":"a6i8ymecp5tu","state":"DC"},"type":"Feature","geometry":{"type":"Point","coordinates":[-120.5014693,47.5001238]}},{"properties":{"city":"Washington","country":"US","id":"a6i8ymaup316","state":"DC"},"type":"Feature","geometry":{"type":"Point","coordinates":[-120.5014693,47.5001238]}},{"properties":{"city":"Arlington","country":"United States","id":"a6i8ymgh1urq","state":"VA"},"type":"Feature","geometry":{"type":"Point","coordinates":[-97.1080656,32.735687]}},{"properties":{"city":"Tegucigalpa","country":"Honduras","id":"a6i8ymj87yor","state":"PROG"},"type":"Feature","geometry":{"type":"Point","coordinates":[-87.2166667,14.1]}},{"properties":{"city":"Washington","country":"United States","id":"a6i8ymjdu52d","state":"DC"},"type":"Feature","geometry":{"type":"Point","coordinates":[-120.5014693,47.5001238]}},{"properties":{"city":"Arlington","country":"United States","id":"a6i8ymjrfsr0","state":"VA"},"type":"Feature","geometry":{"type":"Point","coordinates":[-97.1080656,32.735687]}},{"properties":{"city":"Washington","country":"United States","id":"a6i8ymca059s","state":"DC"},"type":"Feature","geometry":{"type":"Point","coordinates":[-120.5014693,47.5001238]}},{"properties":{"city":"Lisbon","country":"Portugal","id":"a6i8ympwmeri","state":null},"type":"Feature","geometry":{"type":"Point","coordinates":[-9.1333333,38.7166667]}},{"properties":{"city":"Arlinton","country":"United States","id":"a6i8ym9ysydw","state":"VA"},"type":"Feature","geometry":{"type":"Point","coordinates":[-50.5258207677165,-16.6768059291338]}},{"properties":{"city":"Arlington","country":"United States","id":"a6i8ymjm5hnn","state":"VA"},"type":"Feature","geometry":{"type":"Point","coordinates":[-97.1080656,32.735687]}},{"properties":{"city":"Buenos Aires","country":"Argentina","id":"a6i8ymemka8z","state":null},"type":"Feature","geometry":{"type":"Point","coordinates":[-58.4088134765625,-34.5761256318848]}},{"properties":{"city":"Minsk","country":"Belarus","id":"a6i8ymdoymxz","state":null},"type":"Feature","geometry":{"type":"Point","coordinates":[27.5666667,53.9]}},{"properties":{"city":"Chennai","country":"India","id":"a6i8ymjg6pue","state":"Tamilnadu"},"type":"Feature","geometry":{"type":"Point","coordinates":[80.2784729003906,13.0878385345075]}},{"properties":{"city":"Stockholm","country":"Sweden","id":"a6i8ymotk1jj","state":null},"type":"Feature","geometry":{"type":"Point","coordinates":[18.0649030208588,59.3325765361753]}},{"properties":{"city":"Seoul","country":"Korea","id":"a6i8ymnzlff2","state":"APO AP"},"type":"Feature","geometry":{"type":"Point","coordinates":[126.9997222,37.5663889]}},{"properties":{"city":"Baghdad","country":"Iraq","id":"a6i8ymoz94ph","state":"APO AE"},"type":"Feature","geometry":{"type":"Point","coordinates":[44.3938889,33.3386111]}},{"properties":{"city":"Luxembourg","country":"Luxembourg","id":"a6i8ympq6ngy","state":null},"type":"Feature","geometry":{"type":"Point","coordinates":[6.13,49.6116667]}},{"properties":{"city":"Arlington","country":"United States","id":"a6i8ymcihuom","state":"VA"},"type":"Feature","geometry":{"type":"Point","coordinates":[-97.1080656,32.735687]}},{"properties":{"city":"Hyderabad","country":"India","id":"a6i8ymacf59q","state":"Andhra Pradesh"},"type":"Feature","geometry":{"type":"Point","coordinates":[78.4744444,17.3752778]}},{"properties":{"city":"Guangzhou","country":"China","id":"a6i8ymhrbuti","state":null},"type":"Feature","geometry":{"type":"Point","coordinates":[113.25,23.1166667]}},{"properties":{"city":"New Orleans","country":null,"id":"a6i8ymaum310","state":"LA"},"type":"Feature","geometry":{"type":"Point","coordinates":[-89.950068,30.0335344]}},{"properties":{"city":"Washington","country":"United States","id":"a6i8ymnqf3e2","state":"DC"},"type":"Feature","geometry":{"type":"Point","coordinates":[-120.5014693,47.5001238]}},{"properties":{"city":"Ottawa","country":"Canada","id":"a6i8ymdjwjjn","state":"ON"},"type":"Feature","geometry":{"type":"Point","coordinates":[-75.6902861595154,45.4209405046496]}},{"properties":{"city":"Washington","country":"United States","id":"a6i8ymo4egcx","state":"DC"},"type":"Feature","geometry":{"type":"Point","coordinates":[-120.5014693,47.5001238]}},{"properties":{"city":"Arlington","country":"United States","id":"a6i8ymngv9rt","state":"Va"},"type":"Feature","geometry":{"type":"Point","coordinates":[-97.1080656,32.735687]}},{"properties":{"city":null,"country":"United States","id":"a6i8ymb2scdt","state":null},"type":"Feature","geometry":null},{"properties":{"city":"Washington","country":"United States","id":"a6i8ymgaqcy6","state":"DC"},"type":"Feature","geometry":{"type":"Point","coordinates":[-120.5014693,47.5001238]}},{"properties":{"city":"Lusaka","country":"Zambia","id":"a6i8ymlcj79i","state":"Zambia"},"type":"Feature","geometry":{"type":"Point","coordinates":[28.2833333,-15.4166667]}},{"properties":{"city":"Washington","country":"United States","id":"a6i8ymdoucy4","state":"DC"},"type":"Feature","geometry":{"type":"Point","coordinates":[-120.5014693,47.5001238]}},{"properties":{"city":"Belfast","country":"United Kingdom","id":"a6i8ymevj7lc","state":null},"type":"Feature","geometry":{"type":"Point","coordinates":[-5.9333333,54.5833333]}},{"properties":{"city":"New Orleans","country":null,"id":"a6i8ymej5gep","state":"LA"},"type":"Feature","geometry":{"type":"Point","coordinates":[-89.950068,30.0335344]}},{"properties":{"city":"Beijing","country":"China","id":"a6i8ymfq29kl","state":null},"type":"Feature","geometry":{"type":"Point","coordinates":[116.397228240967,39.9074977414405]}},{"properties":{"city":null,"country":"United States","id":"a6i8ymjci7i3","state":null},"type":"Feature","geometry":null},{"properties":{"city":"Washington","country":"United States","id":"a6i8ympvwfmi","state":"DC"},"type":"Feature","geometry":{"type":"Point","coordinates":[-120.5014693,47.5001238]}},{"properties":{"city":"Copenhagen","country":"Denmark","id":"a6i8ymjrw28k","state":null},"type":"Feature","geometry":{"type":"Point","coordinates":[12.5709342956543,55.6776812020993]}},{"properties":{"city":"Abuja","country":"Nigeria","id":"a6i8yme7seqp","state":null},"type":"Feature","geometry":{"type":"Point","coordinates":[7.5333333,9.0833333]}},{"properties":{"city":"Recife","country":"Brazil","id":"a6i8ymbantr8","state":"PE"},"type":"Feature","geometry":{"type":"Point","coordinates":[-34.88111111,-8.053888889]}},{"properties":{"city":"Washington","country":"United States","id":"a6i8ymhx4ozv","state":"DC"},"type":"Feature","geometry":{"type":"Point","coordinates":[-120.5014693,47.5001238]}},{"properties":{"city":"Washington","country":"United States","id":"a6i8ymm5262z","state":"DC"},"type":"Feature","geometry":{"type":"Point","coordinates":[-120.5014693,47.5001238]}},{"properties":{"city":"Washington","country":"United States","id":"a6i8ymcj9cym","state":"DC"},"type":"Feature","geometry":{"type":"Point","coordinates":[-120.5014693,47.5001238]}},{"properties":{"city":"Tbilisi","country":"Georgia","id":"a6i8ymgiv0mk","state":null},"type":"Feature","geometry":{"type":"Point","coordinates":[44.7908333,41.725]}},{"properties":{"city":"Moscow","country":"Russia","id":"a6i8ymi7jqcs","state":null},"type":"Feature","geometry":{"type":"Point","coordinates":[37.6155556,55.7522222]}},{"properties":{"city":"Moscow","country":"Russia","id":"a6i8ymmzpdlu","state":null},"type":"Feature","geometry":{"type":"Point","coordinates":[37.6155556,55.7522222]}},{"properties":{"city":"Washington","country":"USA","id":"a6i8ymn03xiz","state":"DC"},"type":"Feature","geometry":{"type":"Point","coordinates":[-120.5014693,47.5001238]}},{"properties":{"city":"Washington","country":"United States","id":"a6i8yml55d68","state":"DC"},"type":"Feature","geometry":{"type":"Point","coordinates":[-120.5014693,47.5001238]}},{"properties":{"city":"Valletta","country":"Malta","id":"a6i8ymbmd88a","state":null},"type":"Feature","geometry":{"type":"Point","coordinates":[14.5147222,35.8997222]}},{"properties":{"city":"Washington","country":"United States","id":"a6i8ymgj8zlg","state":"DC"},"type":"Feature","geometry":{"type":"Point","coordinates":[-120.5014693,47.5001238]}},{"properties":{"city":"Washington","country":null,"id":"a6i8ymmwiplk","state":"DC"},"type":"Feature","geometry":{"type":"Point","coordinates":[-120.5014693,47.5001238]}},{"properties":{"city":"Ankara","country":"TURKEY","id":"a6i8ymmqfzlt","state":null},"type":"Feature","geometry":{"type":"Point","coordinates":[32.8333333,39.9166667]}},{"properties":{"city":"Arlington","country":null,"id":"a6i8ymdtkhv1","state":"VA"},"type":"Feature","geometry":{"type":"Point","coordinates":[-97.1080656,32.735687]}},{"properties":{"city":"Beijing","country":"China","id":"a6i8ymhbwlyu","state":null},"type":"Feature","geometry":{"type":"Point","coordinates":[116.397228240967,39.9074977414405]}},{"properties":{"city":"Arlington","country":"United States","id":"a6i8ymegk5o0","state":"VA"},"type":"Feature","geometry":{"type":"Point","coordinates":[-97.1080656,32.735687]}},{"properties":{"city":"Washington","country":"United States","id":"a6i8ymm2h3dn","state":"DC"},"type":"Feature","geometry":{"type":"Point","coordinates":[-120.5014693,47.5001238]}},{"properties":{"city":"San Jose","country":"Costa Rica","id":"a6i8ymdv548m","state":"San Jose"},"type":"Feature","geometry":{"type":"Point","coordinates":[108.9286111,34.2583333]}},{"properties":{"city":"Washington","country":"US","id":"a6i8ymbov50p","state":"DC"},"type":"Feature","geometry":{"type":"Point","coordinates":[-120.5014693,47.5001238]}},{"properties":{"city":"Riyadh","country":"Saudi Arabia","id":"a6i8ymiyvmhv","state":null},"type":"Feature","geometry":{"type":"Point","coordinates":[46.7727778,24.6408333]}},{"properties":{"city":"Washington","country":"UNITED STATES","id":"a6i8ymgcl21q","state":"D.C."},"type":"Feature","geometry":{"type":"Point","coordinates":[-120.5014693,47.5001238]}},{"properties":{"city":"Washington","country":"United States","id":"a6i8ymga2dur","state":"DC"},"type":"Feature","geometry":{"type":"Point","coordinates":[-120.5014693,47.5001238]}},{"properties":{"city":"Washington","country":"United States","id":"a6i8ymhy0gxl","state":"DC"},"type":"Feature","geometry":{"type":"Point","coordinates":[-120.5014693,47.5001238]}},{"properties":{"city":"Dubai","country":"United Arab Emirates","id":"a6i8ymf6njbm","state":null},"type":"Feature","geometry":{"type":"Point","coordinates":[55.3333333,25.0]}},{"properties":{"city":"Washington","country":"United States","id":"a6i8ympugrsf","state":"DC"},"type":"Feature","geometry":{"type":"Point","coordinates":[-120.5014693,47.5001238]}},{"properties":{"city":"Washington","country":"United States","id":"a6i8ym9i7caa","state":"DC"},"type":"Feature","geometry":{"type":"Point","coordinates":[-120.5014693,47.5001238]}},{"properties":{"city":"Managua","country":"Nicaragua","id":"a6i8yml7k3ej","state":null},"type":"Feature","geometry":{"type":"Point","coordinates":[-86.2683333,12.1508333]}},{"properties":{"city":"Washington","country":"United States","id":"a6i8ymcu16x4","state":"DC"},"type":"Feature","geometry":{"type":"Point","coordinates":[-120.5014693,47.5001238]}},{"properties":{"city":"Colombo","country":"Sri Lanka","id":"a6i8ymj9rl6l","state":null},"type":"Feature","geometry":{"type":"Point","coordinates":[79.8477778,6.9319444]}},{"properties":{"city":"Washington","country":"United States","id":"a6i8ymbvudna","state":"DC"},"type":"Feature","geometry":{"type":"Point","coordinates":[-120.5014693,47.5001238]}},{"properties":{"city":"Washington","country":"United States","id":"a6i8ym9xxmfn","state":"DC"},"type":"Feature","geometry":{"type":"Point","coordinates":[-120.5014693,47.5001238]}},{"properties":{"city":"Washington","country":"United States","id":"a6i8ymkhiyuf","state":"DC"},"type":"Feature","geometry":{"type":"Point","coordinates":[-120.5014693,47.5001238]}},{"properties":{"city":"Rome","country":"Italy","id":"a6i8ympr7hbk","state":null},"type":"Feature","geometry":{"type":"Point","coordinates":[12.4833333,41.9]}},{"properties":{"city":"Arlington","country":"United States","id":"a6i8ymjk5ydn","state":"VA"},"type":"Feature","geometry":{"type":"Point","coordinates":[-97.1080656,32.735687]}},{"properties":{"city":"Washington","country":"United States","id":"a6i8ymf50t1k","state":"DC"},"type":"Feature","geometry":{"type":"Point","coordinates":[-120.5014693,47.5001238]}},{"properties":{"city":"Naples","country":"ITALY","id":"a6i8ymjxskkf","state":null},"type":"Feature","geometry":{"type":"Point","coordinates":[-81.7948103,26.1420358]}},{"properties":{"city":null,"country":"United States","id":"a6i8ymdlqurb","state":null},"type":"Feature","geometry":null},{"properties":{"city":null,"country":"United States","id":"a6i8ymkr03rh","state":null},"type":"Feature","geometry":null},{"properties":{"city":"Bern","country":"Switzerland","id":"a6i8ymphfr4h","state":"BE"},"type":"Feature","geometry":{"type":"Point","coordinates":[16.6079592704773,49.1952226735148]}},{"properties":{"city":"Arlington","country":"United States","id":"a6i8yma5hvs3","state":"VA"},"type":"Feature","geometry":{"type":"Point","coordinates":[-97.1080656,32.735687]}},{"properties":{"city":"Astana","country":"Kazakhstan","id":"a6i8ymdzqdis","state":null},"type":"Feature","geometry":{"type":"Point","coordinates":[71.4277778,51.1811111]}},{"properties":{"city":"Berlin","country":"Germany","id":"a6i8ymexh17l","state":null},"type":"Feature","geometry":{"type":"Point","coordinates":[13.4,52.5166667]}},{"properties":{"city":"Washington","country":"UNITED STATES","id":"a6i8ymo9wxw5","state":"DC"},"type":"Feature","geometry":{"type":"Point","coordinates":[-120.5014693,47.5001238]}},{"properties":{"city":"Washington","country":"US","id":"a6i8ympv5le4","state":"DC"},"type":"Feature","geometry":{"type":"Point","coordinates":[-120.5014693,47.5001238]}},{"properties":{"city":"Arlington","country":"United States","id":"a6i8ymjwihzm","state":"VA"},"type":"Feature","geometry":{"type":"Point","coordinates":[-97.1080656,32.735687]}},{"properties":{"city":"Washington","country":"United States","id":"a6i8ymigumhf","state":"DC"},"type":"Feature","geometry":{"type":"Point","coordinates":[-120.5014693,47.5001238]}},{"properties":{"city":"Kabul","country":"Afghanistan","id":"a6i8ympu3r11","state":"RC-Central"},"type":"Feature","geometry":{"type":"Point","coordinates":[69.1833333,34.5166667]}},{"properties":{"city":"Asuncion","country":"Paraguay","id":"a6i8ymfb8bya","state":null},"type":"Feature","geometry":{"type":"Point","coordinates":[-57.6666667,-25.2666667]}},{"properties":{"city":"Riyadh","country":"Saudi Arabia","id":"a6i8ymfjk2sb","state":null},"type":"Feature","geometry":{"type":"Point","coordinates":[46.7727778,24.6408333]}},{"properties":{"city":"Tijuana","country":"Mexico","id":"a6i8ymhjrl0a","state":"Baja California"},"type":"Feature","geometry":{"type":"Point","coordinates":[127.4197222,36.3213889]}},{"properties":{"city":"Bangkok","country":"Thailand","id":"a6i8ymi10whg","state":null},"type":"Feature","geometry":{"type":"Point","coordinates":[100.5166667,13.75]}},{"properties":{"city":"Buenos Aires","country":"Argentina","id":"a6i8ymab3ak0","state":null},"type":"Feature","geometry":{"type":"Point","coordinates":[-58.4088134765625,-34.5761256318848]}},{"properties":{"city":"Kabul","country":"Afghanistan","id":"a6i8ym9yshq3","state":null},"type":"Feature","geometry":{"type":"Point","coordinates":[69.1833333,34.5166667]}},{"properties":{"city":"Newington","country":"United States","id":"a6i8ymdbmxkf","state":"VA"},"type":"Feature","geometry":{"type":"Point","coordinates":[-72.7237063,41.6978777]}},{"properties":{"city":"Ft. Lauderdale","country":"United States","id":"a6i8ymgsr9uo","state":"FL"},"type":"Feature","geometry":{"type":"Point","coordinates":[-87.63336,34.9000855]}},{"properties":{"city":"Tbilisi","country":"Georgia","id":"a6i8ymg6aekz","state":null},"type":"Feature","geometry":{"type":"Point","coordinates":[44.7908333,41.725]}},{"properties":{"city":"Tel Aviv","country":"Israel","id":"a6i8ymbeajkw","state":null},"type":"Feature","geometry":{"type":"Point","coordinates":[34.7666667,32.0666667]}},{"properties":{"city":"Arlington","country":"United States","id":"a6i8ymmndslz","state":"VA"},"type":"Feature","geometry":{"type":"Point","coordinates":[-97.1080656,32.735687]}},{"properties":{"city":"Hong Kong","country":"Hong Kong SAR","id":"a6i8ymov9lrf","state":"SAR"},"type":"Feature","geometry":{"type":"Point","coordinates":[114.15007352829,22.2840136009625]}},{"properties":{"city":"Montevideo","country":"Uruguay","id":"a6i8yma3dpg1","state":"Montevideo"},"type":"Feature","geometry":{"type":"Point","coordinates":[-56.1708333,-34.8580556]}},{"properties":{"city":"Taipei","country":"Taiwan","id":"a6i8ymdyz22h","state":null},"type":"Feature","geometry":{"type":"Point","coordinates":[121.525,25.0391667]}},{"properties":{"city":"Islamabad","country":"Pakistan","id":"a6i8ympkjlxj","state":null},"type":"Feature","geometry":{"type":"Point","coordinates":[73.1666667,33.6666667]}},{"properties":{"city":"Amman","country":"Jordan","id":"a6i8ymj4fs8l","state":null},"type":"Feature","geometry":{"type":"Point","coordinates":[35.9333333,31.95]}},{"properties":{"city":"Stockholm","country":"Sweden","id":"a6i8ymd2a4fw","state":null},"type":"Feature","geometry":{"type":"Point","coordinates":[18.0649030208588,59.3325765361753]}},{"properties":{"city":"Moscow","country":"Russia","id":"a6i8ymk1hupd","state":null},"type":"Feature","geometry":{"type":"Point","coordinates":[37.6155556,55.7522222]}},{"properties":{"city":"Hamilton","country":"Bermuda","id":"a6i8ym9m1ejp","state":null},"type":"Feature","geometry":{"type":"Point","coordinates":[-64.7283333,32.3422222]}},{"properties":{"city":"Washington","country":"United States","id":"a6i8ymcpkbs9","state":"DC"},"type":"Feature","geometry":{"type":"Point","coordinates":[-120.5014693,47.5001238]}},{"properties":{"city":"Washington","country":"United States","id":"a6i8ymhtorl2","state":"D.C."},"type":"Feature","geometry":{"type":"Point","coordinates":[-120.5014693,47.5001238]}},{"properties":{"city":"Mexico City","country":"Mexico","id":"a6i8ymjnvip8","state":"Mexico"},"type":"Feature","geometry":{"type":"Point","coordinates":[-102.0,23.0]}},{"properties":{"city":"Brasilia","country":"Brazil","id":"a6i8yma50fu2","state":null},"type":"Feature","geometry":{"type":"Point","coordinates":[-47.92972,-15.77972]}},{"properties":{"city":"Addis Ababa","country":"Ethiopia","id":"a6i8ymnvgjuz","state":null},"type":"Feature","geometry":{"type":"Point","coordinates":[38.7,9.0333333]}},{"properties":{"city":"Arlington","country":"United States","id":"a6i8yml5gjem","state":"VA"},"type":"Feature","geometry":{"type":"Point","coordinates":[-97.1080656,32.735687]}},{"properties":{"city":"Bamako","country":"Mali","id":"a6i8ymhjkuc7","state":null},"type":"Feature","geometry":{"type":"Point","coordinates":[-8.0,12.65]}},{"properties":{"city":"Moscow","country":"Russia","id":"a6i8ymbqa88z","state":null},"type":"Feature","geometry":{"type":"Point","coordinates":[37.6155556,55.7522222]}},{"properties":{"city":"Arlington","country":"United States","id":"a6i8ymkimdkn","state":"VA"},"type":"Feature","geometry":{"type":"Point","coordinates":[-97.1080656,32.735687]}},{"properties":{"city":"Tbilisi","country":"Georgia","id":"a6i8yme0z870","state":null},"type":"Feature","geometry":{"type":"Point","coordinates":[44.7908333,41.725]}},{"properties":{"city":"Arlington","country":"United States","id":"a6i8ymgctxnh","state":"VA"},"type":"Feature","geometry":{"type":"Point","coordinates":[-97.1080656,32.735687]}},{"properties":{"city":"Arlington","country":"United States","id":"a6i8ymg01aw2","state":"VA"},"type":"Feature","geometry":{"type":"Point","coordinates":[-97.1080656,32.735687]}},{"properties":{"city":"Doha","country":"Qatar","id":"a6i8ymc8492w","state":null},"type":"Feature","geometry":{"type":"Point","coordinates":[51.5333333,25.2866667]}},{"properties":{"city":"Baku","country":"Azerbaijan","id":"a6i8ymaq9py5","state":null},"type":"Feature","geometry":{"type":"Point","coordinates":[49.8822222,40.3952778]}},{"properties":{"city":"Tbilisi","country":"Georgia","id":"a6i8ymlvrfim","state":null},"type":"Feature","geometry":{"type":"Point","coordinates":[44.7908333,41.725]}},{"properties":{"city":"NEW DELHI","country":"India","id":"a6i8ymfhg9gc","state":null},"type":"Feature","geometry":{"type":"Point","coordinates":[77.2166667,28.6666667]}},{"properties":{"city":"Washington","country":"USA","id":"a6i8yml854io","state":"DC"},"type":"Feature","geometry":{"type":"Point","coordinates":[-120.5014693,47.5001238]}},{"properties":{"city":"Calgary","country":"Canada","id":"a6i8ymmtcdju","state":"AB"},"type":"Feature","geometry":{"type":"Point","coordinates":[-114.085285152,51.050112282]}},{"properties":{"city":"Washington","country":"United States","id":"a6i8ymod7e7f","state":"DC"},"type":"Feature","geometry":{"type":"Point","coordinates":[-120.5014693,47.5001238]}},{"properties":{"city":"Tirana","country":"Albania","id":"a6i8ymo4p1ey","state":"Tirana"},"type":"Feature","geometry":{"type":"Point","coordinates":[51.4244444,35.6719444]}},{"properties":{"city":"Tirana","country":"Albania","id":"a6i8ymp2f4j9","state":"Tirana"},"type":"Feature","geometry":{"type":"Point","coordinates":[51.4244444,35.6719444]}},{"properties":{"city":"Washington","country":"United States","id":"a6i8ymh6c7dv","state":"DC"},"type":"Feature","geometry":{"type":"Point","coordinates":[-120.5014693,47.5001238]}},{"properties":{"city":"Lisbon","country":"Portugal","id":"a6i8ymoarowm","state":null},"type":"Feature","geometry":{"type":"Point","coordinates":[-9.1333333,38.7166667]}},{"properties":{"city":"Charleston","country":"United States","id":"a6i8ymi8f0m7","state":"South Carolina"},"type":"Feature","geometry":{"type":"Point","coordinates":[-79.966479,32.7668437]}},{"properties":{"city":"Arlington","country":null,"id":"a6i8yme8yuq6","state":"VA"},"type":"Feature","geometry":{"type":"Point","coordinates":[-97.1080656,32.735687]}},{"properties":{"city":"Sao Paulo","country":"Brazil","id":"a6i8ymfrvjcu","state":null},"type":"Feature","geometry":{"type":"Point","coordinates":[-46.63611111,-23.5475]}},{"properties":{"city":"NEW DELHI","country":"India","id":"a6i8ymmksh9x","state":null},"type":"Feature","geometry":{"type":"Point","coordinates":[77.2166667,28.6666667]}},{"properties":{"city":"Washington","country":"United States","id":"a6i8ymdp6sck","state":"DC"},"type":"Feature","geometry":{"type":"Point","coordinates":[-120.5014693,47.5001238]}},{"properties":{"city":"Miami","country":"United States","id":"a6i8ymfqov22","state":"FL"},"type":"Feature","geometry":{"type":"Point","coordinates":[-80.1936589,25.7742658]}},{"properties":{"city":"Ulaanbaatar","country":"Mongolia","id":"a6i8ymgpfluj","state":null},"type":"Feature","geometry":{"type":"Point","coordinates":[106.9166667,47.9166667]}},{"properties":{"city":"Tirana","country":"Albania","id":"a6i8ymc44rod","state":"Tirana"},"type":"Feature","geometry":{"type":"Point","coordinates":[51.4244444,35.6719444]}},{"properties":{"city":"Washington","country":"United States","id":"a6i8ymie9a1f","state":"DC"},"type":"Feature","geometry":{"type":"Point","coordinates":[-120.5014693,47.5001238]}},{"properties":{"city":"Kigali","country":"Rwanda","id":"a6i8ymgk3owy","state":"Kigali City"},"type":"Feature","geometry":{"type":"Point","coordinates":[29.9166667,40.9166667]}},{"properties":{"city":"Caracas","country":"United States","id":"a6i8ymifkr8j","state":null},"type":"Feature","geometry":{"type":"Point","coordinates":[-96.8108859,43.6646974]}},{"properties":{"city":"Harare","country":"Zimbabwe","id":"a6i8ymd7qe3x","state":null},"type":"Feature","geometry":{"type":"Point","coordinates":[31.0447222,-17.8177778]}},{"properties":{"city":"NEW DELHI","country":"India","id":"a6i8ymbcmdqb","state":null},"type":"Feature","geometry":{"type":"Point","coordinates":[77.2166667,28.6666667]}},{"properties":{"city":"Oslo","country":"Norway","id":"a6i8ymimqw0u","state":null},"type":"Feature","geometry":{"type":"Point","coordinates":[10.7389211654663,59.9132457671591]}},{"properties":{"city":null,"country":"Iraq","id":"a6i8ymi8k9mz","state":null},"type":"Feature","geometry":null},{"properties":{"city":"Muscat","country":"Oman","id":"a6i8ymo9nnqv","state":"NA"},"type":"Feature","geometry":{"type":"Point","coordinates":[58.5933333,23.6133333]}},{"properties":{"city":"Washington","country":"United States","id":"a6i8ym9gcqtz","state":"DC"},"type":"Feature","geometry":{"type":"Point","coordinates":[-120.5014693,47.5001238]}},{"properties":{"city":"Washington","country":"United States","id":"a6i8ymlu4tth","state":"DC"},"type":"Feature","geometry":{"type":"Point","coordinates":[-120.5014693,47.5001238]}},{"properties":{"city":"Arlington","country":"United States","id":"a6i8ymc965jo","state":"VA"},"type":"Feature","geometry":{"type":"Point","coordinates":[-97.1080656,32.735687]}},{"properties":{"city":"Baghdad","country":"Iraq","id":"a6i8ymo5gni4","state":"APO AE"},"type":"Feature","geometry":{"type":"Point","coordinates":[44.3938889,33.3386111]}},{"properties":{"city":"Arlington","country":"United States","id":"a6i8ymk9tygv","state":"VA"},"type":"Feature","geometry":{"type":"Point","coordinates":[-97.1080656,32.735687]}},{"properties":{"city":"Belgrade","country":"Serbia","id":"a6i8ymp502jr","state":null},"type":"Feature","geometry":{"type":"Point","coordinates":[20.4680556,44.8186111]}},{"properties":{"city":"Canberra","country":"Australia","id":"a6i8ymdpsu5b","state":"ACT"},"type":"Feature","geometry":{"type":"Point","coordinates":[149.128074645996,-35.2834624726481]}},{"properties":{"city":"Colombo","country":"Sri Lanka","id":"a6i8ymouueaw","state":null},"type":"Feature","geometry":{"type":"Point","coordinates":[79.8477778,6.9319444]}},{"properties":{"city":"Springfield","country":"United States","id":"a6i8ympj1a4i","state":null},"type":"Feature","geometry":{"type":"Point","coordinates":[-115.2450006,36.1080258]}},{"properties":{"city":"Arlington","country":"United States","id":"a6i8ymbg675d","state":"VA"},"type":"Feature","geometry":{"type":"Point","coordinates":[-97.1080656,32.735687]}},{"properties":{"city":"Ljubljana","country":"Slovenia","id":"a6i8ymig5h4m","state":null},"type":"Feature","geometry":{"type":"Point","coordinates":[14.5144444,46.0552778]}},{"properties":{"city":"Ottawa","country":"Canada","id":"a6i8ymh9sjtf","state":"ON"},"type":"Feature","geometry":{"type":"Point","coordinates":[-75.6902861595154,45.4209405046496]}},{"properties":{"city":"Dushanbe","country":"Tajikistan","id":"a6i8ymn8gu9z","state":null},"type":"Feature","geometry":{"type":"Point","coordinates":[68.7738889,38.56]}},{"properties":{"city":"Washimgton","country":"United States","id":"a6i8yml9qr1p","state":"DC"},"type":"Feature","geometry":{"type":"Point","coordinates":[100.5666667,14.4166667]}},{"properties":{"city":"Hanoi","country":"United States","id":"a6i8ymodv63j","state":null},"type":"Feature","geometry":{"type":"Point","coordinates":[-106.5619718,41.8699622]}},{"properties":{"city":"Springfield","country":"United States","id":"a6i8ymh3h911","state":"Virginia"},"type":"Feature","geometry":{"type":"Point","coordinates":[28.4,-26.25]}},{"properties":{"city":"Washington","country":"USA","id":"a6i8ymc3ybo4","state":"DC"},"type":"Feature","geometry":{"type":"Point","coordinates":[-120.5014693,47.5001238]}},{"properties":{"city":"Mexico City","country":"Mexico","id":"a6i8ymm0043o","state":"Mexico"},"type":"Feature","geometry":{"type":"Point","coordinates":[-102.0,23.0]}},{"properties":{"city":"Washington","country":"US","id":"a6i8ymbztxa5","state":"DC"},"type":"Feature","geometry":{"type":"Point","coordinates":[-120.5014693,47.5001238]}},{"properties":{"city":"Arlington","country":"USA","id":"a6i8ymd64twm","state":"VA"},"type":"Feature","geometry":{"type":"Point","coordinates":[-97.1080656,32.735687]}},{"properties":{"city":"Zagreb","country":"Croatia","id":"a6i8ympwn6l3","state":null},"type":"Feature","geometry":{"type":"Point","coordinates":[16.0,45.8]}},{"properties":{"city":"Monterrey","country":"United States","id":"a6i8ymedbtgf","state":"Nuevo Leon"},"type":"Feature","geometry":{"type":"Point","coordinates":[-100.3166667,25.6666667]}},{"properties":{"city":"Arlington","country":"United States","id":"a6i8ymledbkf","state":"VA"},"type":"Feature","geometry":{"type":"Point","coordinates":[-97.1080656,32.735687]}},{"properties":{"city":"Arlington","country":"United States","id":"a6i8ymjtryf7","state":"VA"},"type":"Feature","geometry":{"type":"Point","coordinates":[-97.1080656,32.735687]}},{"properties":{"city":"Athens","country":"Greece","id":"a6i8ymk8760k","state":null},"type":"Feature","geometry":{"type":"Point","coordinates":[23.7333333,37.9833333]}},{"properties":{"city":"Arlington","country":"United States","id":"a6i8ymbn2zh8","state":"VA"},"type":"Feature","geometry":{"type":"Point","coordinates":[-97.1080656,32.735687]}},{"properties":{"city":"Nassau","country":"Bahamas","id":"a6i8ymcx8h8j","state":null},"type":"Feature","geometry":{"type":"Point","coordinates":[-77.35,25.0833333]}},{"properties":{"city":"Washington","country":"United States","id":"a6i8ymgoqwxk","state":"D.C."},"type":"Feature","geometry":{"type":"Point","coordinates":[-120.5014693,47.5001238]}},{"properties":{"city":"Bridgetown","country":"Barbados","id":"a6i8yme25w1p","state":null},"type":"Feature","geometry":{"type":"Point","coordinates":[-59.6166667,13.1]}},{"properties":{"city":"Dhaka","country":"Bangladesh","id":"a6i8ymisxc8v","state":null},"type":"Feature","geometry":{"type":"Point","coordinates":[90.4086111,23.7230556]}},{"properties":{"city":"Lima","country":"Peru","id":"a6i8ymprr792","state":"Lima"},"type":"Feature","geometry":{"type":"Point","coordinates":[-77.05,-12.05]}},{"properties":{"city":"Washington","country":"USA","id":"a6i8ymojgddc","state":"DC"},"type":"Feature","geometry":{"type":"Point","coordinates":[-120.5014693,47.5001238]}},{"properties":{"city":"Lilongwe","country":"Malawi","id":"a6i8ymbu5mxy","state":null},"type":"Feature","geometry":{"type":"Point","coordinates":[33.7833333,-13.9833333]}},{"properties":{"city":"Bogota","country":"Colombia","id":"a6i8ymn8dfph","state":"D.C."},"type":"Feature","geometry":{"type":"Point","coordinates":[-74.0833333,4.6]}},{"properties":{"city":"Washington","country":"United States","id":"a6i8ympb51fr","state":"DC"},"type":"Feature","geometry":{"type":"Point","coordinates":[-120.5014693,47.5001238]}},{"properties":{"city":"Panama","country":"Panama","id":"a6i8ymmyw3sp","state":"Panama"},"type":"Feature","geometry":{"type":"Point","coordinates":[-79.5333333,8.9666667]}},{"properties":{"city":"Springfield","country":"United States","id":"a6i8ymf3xwzp","state":"Virginia"},"type":"Feature","geometry":{"type":"Point","coordinates":[28.4,-26.25]}},{"properties":{"city":"Quito","country":"Ecuador","id":"a6i8ymdb87o7","state":null},"type":"Feature","geometry":{"type":"Point","coordinates":[-78.5,-0.2166667]}},{"properties":{"city":"Ottawa","country":"Canada","id":"a6i8ymbr95os","state":"ON"},"type":"Feature","geometry":{"type":"Point","coordinates":[-75.6902861595154,45.4209405046496]}},{"properties":{"city":"Washington","country":"USA","id":"a6i8ymajtxw0","state":"DC"},"type":"Feature","geometry":{"type":"Point","coordinates":[-120.5014693,47.5001238]}},{"properties":{"city":"Washington","country":"United States","id":"a6i8yme1am44","state":"DC"},"type":"Feature","geometry":{"type":"Point","coordinates":[-120.5014693,47.5001238]}},{"properties":{"city":"Brussels","country":"Belgium","id":"a6i8ymefk84v","state":null},"type":"Feature","geometry":{"type":"Point","coordinates":[4.35277462005615,50.8465974826927]}},{"properties":{"city":"Brussels","country":"Belgium","id":"a6i8ymp49yqb","state":null},"type":"Feature","geometry":{"type":"Point","coordinates":[4.35277462005615,50.8465974826927]}},{"properties":{"city":"Ottawa","country":"Canada","id":"a6i8ymo489qg","state":"ON"},"type":"Feature","geometry":{"type":"Point","coordinates":[-75.6902861595154,45.4209405046496]}},{"properties":{"city":"Washington","country":"United States","id":"a6i8ymdq7qmt","state":"DC"},"type":"Feature","geometry":{"type":"Point","coordinates":[-120.5014693,47.5001238]}},{"properties":{"city":"Washington","country":"UNITED STATES","id":"a6i8ymjv35dh","state":"DC"},"type":"Feature","geometry":{"type":"Point","coordinates":[-120.5014693,47.5001238]}},{"properties":{"city":"Moscow","country":"Russia","id":"a6i8ymez4w4s","state":null},"type":"Feature","geometry":{"type":"Point","coordinates":[37.6155556,55.7522222]}},{"properties":{"city":null,"country":"United States","id":"a6i8ymaoki7f","state":null},"type":"Feature","geometry":null},{"properties":{"city":"Arlington","country":"United States","id":"a6i8ymf3e39p","state":"Va"},"type":"Feature","geometry":{"type":"Point","coordinates":[-97.1080656,32.735687]}},{"properties":{"city":"Copenhagen","country":"Denmark","id":"a6i8ymki5onp","state":null},"type":"Feature","geometry":{"type":"Point","coordinates":[12.5709342956543,55.6776812020993]}},{"properties":{"city":null,"country":"Iraq","id":"a6i8ymlemk9v","state":null},"type":"Feature","geometry":null},{"properties":{"city":"Washington","country":"US","id":"a6i8ymmqskjp","state":"DC"},"type":"Feature","geometry":{"type":"Point","coordinates":[-120.5014693,47.5001238]}},{"properties":{"city":"Washington","country":null,"id":"a6i8ymnranaq","state":"DC"},"type":"Feature","geometry":{"type":"Point","coordinates":[-120.5014693,47.5001238]}},{"properties":{"city":"Rome","country":"Italy","id":"a6i8ymh90ot7","state":null},"type":"Feature","geometry":{"type":"Point","coordinates":[12.4833333,41.9]}},{"properties":{"city":"Sao Paulo","country":"Brazil","id":"a6i8ym9stibl","state":null},"type":"Feature","geometry":{"type":"Point","coordinates":[-46.63611111,-23.5475]}},{"properties":{"city":"Washington","country":"United States","id":"a6i8ymmq4wnc","state":"DC"},"type":"Feature","geometry":{"type":"Point","coordinates":[-120.5014693,47.5001238]}},{"properties":{"city":"Baghdad","country":"United States","id":"a6i8ymhoflf1","state":"APO, AE"},"type":"Feature","geometry":{"type":"Point","coordinates":[44.3938889,33.3386111]}},{"properties":{"city":"Rome","country":"Italy","id":"a6i8ymc0vlmy","state":null},"type":"Feature","geometry":{"type":"Point","coordinates":[12.4833333,41.9]}},{"properties":{"city":"HAVANA","country":"Cuba","id":"a6i8ymccc4yk","state":null},"type":"Feature","geometry":{"type":"Point","coordinates":[-82.3641667,23.1319444]}},{"properties":{"city":"Washington","country":null,"id":"a6i8ymphb7bx","state":"DC"},"type":"Feature","geometry":{"type":"Point","coordinates":[-120.5014693,47.5001238]}},{"properties":{"city":"Brasilia","country":"Brazil","id":"a6i8ymgu40qz","state":null},"type":"Feature","geometry":{"type":"Point","coordinates":[-47.92972,-15.77972]}},{"properties":{"city":"Zagreb","country":"Croatia","id":"a6i8ymmt0scu","state":null},"type":"Feature","geometry":{"type":"Point","coordinates":[16.0,45.8]}},{"properties":{"city":"Yerevan","country":"Armenia","id":"a6i8ymnfq3mu","state":null},"type":"Feature","geometry":{"type":"Point","coordinates":[44.5136111,40.1811111]}},{"properties":{"city":"Arlington","country":"United States","id":"a6i8ymlg75gj","state":"VA"},"type":"Feature","geometry":{"type":"Point","coordinates":[-97.1080656,32.735687]}},{"properties":{"city":"Washington","country":"United States","id":"a6i8ymi8vbwn","state":"DC"},"type":"Feature","geometry":{"type":"Point","coordinates":[-120.5014693,47.5001238]}},{"properties":{"city":"New Orleans","country":null,"id":"a6i8ymozf48r","state":"LA"},"type":"Feature","geometry":{"type":"Point","coordinates":[-89.950068,30.0335344]}},{"properties":{"city":"Kabul","country":"Afghanistan","id":"a6i8ymip4gx7","state":null},"type":"Feature","geometry":{"type":"Point","coordinates":[69.1833333,34.5166667]}},{"properties":{"city":"Washington","country":"United States","id":"a6i8ymofwcqj","state":"DC"},"type":"Feature","geometry":{"type":"Point","coordinates":[-120.5014693,47.5001238]}},{"properties":{"city":"Washington","country":"USA","id":"a6i8ymahgco2","state":"DC"},"type":"Feature","geometry":{"type":"Point","coordinates":[-120.5014693,47.5001238]}},{"properties":{"city":"Tbilisi","country":"Georgia","id":"a6i8ymmtt2z0","state":null},"type":"Feature","geometry":{"type":"Point","coordinates":[44.7908333,41.725]}},{"properties":{"city":"Skopje","country":"Macedonia, Former Yugoslav Republic of","id":"a6i8ym9w2wk7","state":null},"type":"Feature","geometry":{"type":"Point","coordinates":[21.4333333,42.0]}},{"properties":{"city":"Washington","country":"USA","id":"a6i8ymp1zlez","state":"DC"},"type":"Feature","geometry":{"type":"Point","coordinates":[-120.5014693,47.5001238]}},{"properties":{"city":"Rome","country":"Italy","id":"a6i8ymf54oio","state":null},"type":"Feature","geometry":{"type":"Point","coordinates":[12.4833333,41.9]}},{"properties":{"city":"Madrid","country":"Spain","id":"a6i8ymds2aa3","state":null},"type":"Feature","geometry":{"type":"Point","coordinates":[-3.68274615575072,40.4893538421231]}},{"properties":{"city":"Washington","country":"United States","id":"a6i8ymftfj2u","state":"DC"},"type":"Feature","geometry":{"type":"Point","coordinates":[-120.5014693,47.5001238]}},{"properties":{"city":"Lahore","country":"Pakistan","id":"a6i8ymlxbdtf","state":"Punjab"},"type":"Feature","geometry":{"type":"Point","coordinates":[74.3436111,31.5497222]}},{"properties":{"city":"Frankfurt","country":"Germany","id":"a6i8ymolwbr6","state":"Hessen"},"type":"Feature","geometry":{"type":"Point","coordinates":[8.6833333,50.1166667]}},{"properties":{"city":"Bucharest","country":"Romania","id":"a6i8ymo6r0ut","state":"Bucharest"},"type":"Feature","geometry":{"type":"Point","coordinates":[-88.7867278,39.1880983]}},{"properties":{"city":"Washington","country":"United States","id":"a6i8ymf9x8y0","state":"DC"},"type":"Feature","geometry":{"type":"Point","coordinates":[-120.5014693,47.5001238]}},{"properties":{"city":"Ottawa","country":"Canada","id":"a6i8ymec3o68","state":"ON"},"type":"Feature","geometry":{"type":"Point","coordinates":[-75.6902861595154,45.4209405046496]}},{"properties":{"city":"Lahore","country":"Pakistan","id":"a6i8ym9k7bgg","state":"Punjab"},"type":"Feature","geometry":{"type":"Point","coordinates":[74.3436111,31.5497222]}},{"properties":{"city":"Tokyo","country":"Japan","id":"a6i8ymejpnk4","state":null},"type":"Feature","geometry":{"type":"Point","coordinates":[139.691677093506,35.6895265930799]}},{"properties":{"city":"Washington","country":"United States","id":"a6i8yma3czb7","state":"DC"},"type":"Feature","geometry":{"type":"Point","coordinates":[-120.5014693,47.5001238]}},{"properties":{"city":"Riyadh","country":"Saudi Arabia","id":"a6i8ymghktpf","state":null},"type":"Feature","geometry":{"type":"Point","coordinates":[46.7727778,24.6408333]}},{"properties":{"city":"Lima","country":"Peru","id":"a6i8ym9tl4au","state":"Lima"},"type":"Feature","geometry":{"type":"Point","coordinates":[-77.05,-12.05]}},{"properties":{"city":"London","country":"United Kingdom","id":"a6i8ymkab74w","state":null},"type":"Feature","geometry":{"type":"Point","coordinates":[-0.125532746315002,51.5084152563931]}},{"properties":{"city":"Lagos","country":"Nigeria","id":"a6i8ymop891g","state":null},"type":"Feature","geometry":{"type":"Point","coordinates":[3.3958333,6.4530556]}},{"properties":{"city":"Vancouver","country":"Canada","id":"a6i8ymiv9jjr","state":"BC"},"type":"Feature","geometry":{"type":"Point","coordinates":[-123.119340403,49.249657393]}},{"properties":{"city":"Hong Kong","country":"Hong Kong SAR","id":"a6i8ymlhhgrj","state":"SAR"},"type":"Feature","geometry":{"type":"Point","coordinates":[114.15007352829,22.2840136009625]}},{"properties":{"city":"Zagreb","country":"Croatia","id":"a6i8ymauueuv","state":null},"type":"Feature","geometry":{"type":"Point","coordinates":[16.0,45.8]}},{"properties":{"city":"Sarajevo","country":"Bosnia and Herzegovina","id":"a6i8ymg3hf61","state":null},"type":"Feature","geometry":{"type":"Point","coordinates":[18.3833333,43.85]}},{"properties":{"city":"Washington","country":"United States","id":"a6i8ym9jwugq","state":"DC"},"type":"Feature","geometry":{"type":"Point","coordinates":[-120.5014693,47.5001238]}},{"properties":{"city":"Washington","country":"United States","id":"a6i8ymgqp8c5","state":"DC"},"type":"Feature","geometry":{"type":"Point","coordinates":[-120.5014693,47.5001238]}},{"properties":{"city":"Budapest","country":"Hungary","id":"a6i8ymocz6dc","state":null},"type":"Feature","geometry":{"type":"Point","coordinates":[19.0833333,47.5]}},{"properties":{"city":"Washington","country":"United States","id":"a6i8ymmwzbgz","state":"DC"},"type":"Feature","geometry":{"type":"Point","coordinates":[-120.5014693,47.5001238]}},{"properties":{"city":"Washington","country":"USA","id":"a6i8ymdzg68z","state":"DC"},"type":"Feature","geometry":{"type":"Point","coordinates":[-120.5014693,47.5001238]}},{"properties":{"city":"Bucharest","country":"Romania","id":"a6i8ymfp4p6j","state":"Bucharest"},"type":"Feature","geometry":{"type":"Point","coordinates":[-88.7867278,39.1880983]}},{"properties":{"city":"Ulaanbaatar","country":"Mongolia","id":"a6i8ymlhl57z","state":null},"type":"Feature","geometry":{"type":"Point","coordinates":[106.9166667,47.9166667]}},{"properties":{"city":"Washington","country":"United States","id":"a6i8ymbi4bpf","state":"DC"},"type":"Feature","geometry":{"type":"Point","coordinates":[-120.5014693,47.5001238]}},{"properties":{"city":"Arlington","country":"United States","id":"a6i8ymp69ng1","state":"VA"},"type":"Feature","geometry":{"type":"Point","coordinates":[-97.1080656,32.735687]}},{"properties":{"city":"Geneva","country":"Switzerland","id":"a6i8yma3a303","state":null},"type":"Feature","geometry":{"type":"Point","coordinates":[6.14569187164307,46.2022156980098]}},{"properties":{"city":"Shanghai","country":"China","id":"a6i8ymb98rgg","state":null},"type":"Feature","geometry":{"type":"Point","coordinates":[121.4580556,31.2222222]}},{"properties":{"city":"Moscow","country":"Russia","id":"a6i8ymoxy63b","state":null},"type":"Feature","geometry":{"type":"Point","coordinates":[37.6155556,55.7522222]}},{"properties":{"city":"Kingston","country":"Jamaica","id":"a6i8ymcv8ws1","state":null},"type":"Feature","geometry":{"type":"Point","coordinates":[-76.7935752868652,17.9970194353704]}},{"properties":{"city":"San Francisco","country":null,"id":"a6i8ymp9xtme","state":"CA"},"type":"Feature","geometry":{"type":"Point","coordinates":[108.9286111,34.2583333]}},{"properties":{"city":"Kuala Lumpur","country":"Malaysia","id":"a6i8ymj42ag3","state":null},"type":"Feature","geometry":{"type":"Point","coordinates":[101.7,3.1666667]}},{"properties":{"city":"Skopje","country":"Macedonia, Former Yugoslav Republic of","id":"a6i8ymczqkpv","state":null},"type":"Feature","geometry":{"type":"Point","coordinates":[21.4333333,42.0]}},{"properties":{"city":"Washington","country":"United States","id":"a6i8ymg7r6n2","state":"DC"},"type":"Feature","geometry":{"type":"Point","coordinates":[-120.5014693,47.5001238]}},{"properties":{"city":"Lorton","country":"United States","id":"a6i8ymix7mnu","state":"VA"},"type":"Feature","geometry":{"type":"Point","coordinates":[-77.2277604,38.704282]}},{"properties":{"city":"Islamabad","country":"Pakistan","id":"a6i8ymp6b7b2","state":null},"type":"Feature","geometry":{"type":"Point","coordinates":[73.1666667,33.6666667]}},{"properties":{"city":null,"country":"United States","id":"a6i8ymkb413d","state":null},"type":"Feature","geometry":null},{"properties":{"city":"Washington","country":null,"id":"a6i8ympwqlst","state":"DC"},"type":"Feature","geometry":{"type":"Point","coordinates":[-120.5014693,47.5001238]}},{"properties":{"city":"Istanbul","country":"Turkey","id":"a6i8ymdef32h","state":null},"type":"Feature","geometry":{"type":"Point","coordinates":[28.9833068847656,41.0350820029997]}},{"properties":{"city":"Washington","country":"United States","id":"a6i8ymafay5k","state":"DC"},"type":"Feature","geometry":{"type":"Point","coordinates":[-120.5014693,47.5001238]}},{"properties":{"city":"Washington","country":"USA","id":"a6i8ymor2hwi","state":"DC"},"type":"Feature","geometry":{"type":"Point","coordinates":[-120.5014693,47.5001238]}},{"properties":{"city":"Washington","country":"United States","id":"a6i8ymni9ahs","state":"DC"},"type":"Feature","geometry":{"type":"Point","coordinates":[-120.5014693,47.5001238]}},{"properties":{"city":"London","country":"United Kingdom","id":"a6i8ymobf8bt","state":null},"type":"Feature","geometry":{"type":"Point","coordinates":[-0.125532746315002,51.5084152563931]}},{"properties":{"city":"Fort Lauderdale","country":"United States","id":"a6i8ymnp7m5k","state":"FL"},"type":"Feature","geometry":{"type":"Point","coordinates":[-80.1433786,26.1223084]}},{"properties":{"city":"Rome","country":"Italy","id":"a6i8ymfu1ad5","state":null},"type":"Feature","geometry":{"type":"Point","coordinates":[12.4833333,41.9]}},{"properties":{"city":"Washington","country":"USA","id":"a6i8ymgnaw2a","state":"DC"},"type":"Feature","geometry":{"type":"Point","coordinates":[-120.5014693,47.5001238]}},{"properties":{"city":"Washington","country":"United States","id":"a6i8ymfq6n5r","state":"DC"},"type":"Feature","geometry":{"type":"Point","coordinates":[-120.5014693,47.5001238]}},{"properties":{"city":"Frankfurt","country":"Germany","id":"a6i8ymotfxl1","state":"Hessen"},"type":"Feature","geometry":{"type":"Point","coordinates":[8.6833333,50.1166667]}},{"properties":{"city":"Arlington","country":null,"id":"a6i8ymjpwb48","state":"VA"},"type":"Feature","geometry":{"type":"Point","coordinates":[-97.1080656,32.735687]}},{"properties":{"city":"Chisinau","country":"United States","id":"a6i8ymdtytiy","state":null},"type":"Feature","geometry":{"type":"Point","coordinates":[-81.8609371,35.1484549]}},{"properties":{"city":"Bogota","country":"COLOMBIA","id":"a6i8ymcejbmo","state":"D.C."},"type":"Feature","geometry":{"type":"Point","coordinates":[-74.0833333,4.6]}},{"properties":{"city":"Washington","country":"UNITED STATES","id":"a6i8ymbpd5ri","state":"D.C."},"type":"Feature","geometry":{"type":"Point","coordinates":[-120.5014693,47.5001238]}},{"properties":{"city":"Vladivostok","country":"Russia","id":"a6i8ymbejxk1","state":null},"type":"Feature","geometry":{"type":"Point","coordinates":[131.873531341553,43.1056202305923]}},{"properties":{"city":"Belgrade","country":"Serbia","id":"a6i8ymkat1i3","state":"Serbia"},"type":"Feature","geometry":{"type":"Point","coordinates":[20.4680556,44.8186111]}},{"properties":{"city":"San Jose","country":"Costa Rica","id":"a6i8yma9s8ms","state":"San Jose"},"type":"Feature","geometry":{"type":"Point","coordinates":[108.9286111,34.2583333]}},{"properties":{"city":"Seoul","country":"Korea","id":"a6i8ymhm7fii","state":"APO AP"},"type":"Feature","geometry":{"type":"Point","coordinates":[126.9997222,37.5663889]}},{"properties":{"city":"Arlington","country":"United States","id":"a6i8ymcxvy49","state":"VA"},"type":"Feature","geometry":{"type":"Point","coordinates":[-97.1080656,32.735687]}},{"properties":{"city":"Mexico City","country":"Mexico","id":"a6i8ym9pzfdh","state":"Mexico"},"type":"Feature","geometry":{"type":"Point","coordinates":[-102.0,23.0]}},{"properties":{"city":"Addis Ababa","country":"Ethiopia","id":"a6i8ymd1gc20","state":null},"type":"Feature","geometry":{"type":"Point","coordinates":[38.7,9.0333333]}},{"properties":{"city":"Arlington","country":"United States","id":"a6i8ymc79wck","state":"VA"},"type":"Feature","geometry":{"type":"Point","coordinates":[-97.1080656,32.735687]}},{"properties":{"city":null,"country":"United States","id":"a6i8ymeal7mv","state":null},"type":"Feature","geometry":null},{"properties":{"city":"Copenhagen","country":"Denmark","id":"a6i8ym9v68um","state":null},"type":"Feature","geometry":{"type":"Point","coordinates":[12.5709342956543,55.6776812020993]}},{"properties":{"city":null,"country":"United States","id":"a6i8yma9b0co","state":null},"type":"Feature","geometry":null},{"properties":{"city":"Jakarta","country":"Indonesia","id":"a6i8ymc4twfx","state":"DKI Jakarta"},"type":"Feature","geometry":{"type":"Point","coordinates":[106.8294444,-6.1744444]}},{"properties":{"city":"Miami","country":"United States","id":"a6i8ymf3ygs7","state":"Florida"},"type":"Feature","geometry":{"type":"Point","coordinates":[-80.1936589,25.7742658]}},{"properties":{"city":"Cairo","country":"Egypt","id":"a6i8ymlg8ix0","state":"Cairo"},"type":"Feature","geometry":{"type":"Point","coordinates":[31.25,30.05]}},{"properties":{"city":"Washington","country":"United States","id":"a6i8ymg52qo0","state":"DC"},"type":"Feature","geometry":{"type":"Point","coordinates":[-120.5014693,47.5001238]}},{"properties":{"city":"Arlington","country":"United States","id":"a6i8ymkm63lq","state":"VA"},"type":"Feature","geometry":{"type":"Point","coordinates":[-97.1080656,32.735687]}},{"properties":{"city":"Singpaore","country":"Singapore","id":"a6i8ymecwpq4","state":null},"type":"Feature","geometry":{"type":"Point","coordinates":[103.8558333,1.2930556]}},{"properties":{"city":"Washington","country":"USA","id":"a6i8ymmdcf7z","state":"DC"},"type":"Feature","geometry":{"type":"Point","coordinates":[-120.5014693,47.5001238]}},{"properties":{"city":null,"country":"Nepal","id":"a6i8ymh3o35i","state":null},"type":"Feature","geometry":null},{"properties":{"city":"Springfield","country":"United States","id":"a6i8ymbkydae","state":"VA"},"type":"Feature","geometry":{"type":"Point","coordinates":[28.4,-26.25]}},{"properties":{"city":"Washington","country":"United States","id":"a6i8ymhqorhz","state":"DC"},"type":"Feature","geometry":{"type":"Point","coordinates":[-120.5014693,47.5001238]}},{"properties":{"city":"Charleston","country":"United States","id":"a6i8ymcnlszz","state":"South Carolina"},"type":"Feature","geometry":{"type":"Point","coordinates":[-79.966479,32.7668437]}},{"properties":{"city":"Hong Kong","country":"Hong Kong SAR","id":"a6i8ym9pjr4r","state":"SAR"},"type":"Feature","geometry":{"type":"Point","coordinates":[114.15007352829,22.2840136009625]}},{"properties":{"city":"Washington","country":"UNITED STATES","id":"a6i8ymehoai1","state":"D.C."},"type":"Feature","geometry":{"type":"Point","coordinates":[-120.5014693,47.5001238]}},{"properties":{"city":"Alexandria","country":"United States","id":"a6i8ymdhynd2","state":"VA"},"type":"Feature","geometry":{"type":"Point","coordinates":[29.9191667,31.1980556]}},{"properties":{"city":"Frankfurt","country":"Germany","id":"a6i8ymh864xs","state":"Hessen"},"type":"Feature","geometry":{"type":"Point","coordinates":[8.6833333,50.1166667]}},{"properties":{"city":"Munich","country":"Germany","id":"a6i8ymf8ko87","state":null},"type":"Feature","geometry":{"type":"Point","coordinates":[9.3666667,49.75]}},{"properties":{"city":"Chennai","country":"India","id":"a6i8ymn17u45","state":"Tamilnadu"},"type":"Feature","geometry":{"type":"Point","coordinates":[80.2784729003906,13.0878385345075]}},{"properties":{"city":"Sterling","country":null,"id":"a6i8ymgdubeh","state":"VA"},"type":"Feature","geometry":{"type":"Point","coordinates":[-83.0302033,42.5803122]}},{"properties":{"city":"Islamabad","country":"Pakistan","id":"a6i8ymn4xrju","state":null},"type":"Feature","geometry":{"type":"Point","coordinates":[73.1666667,33.6666667]}},{"properties":{"city":"Montevideo","country":"Uruguay","id":"a6i8ympm1upg","state":"Montevideo"},"type":"Feature","geometry":{"type":"Point","coordinates":[-56.1708333,-34.8580556]}},{"properties":{"city":"Paris","country":"France","id":"a6i8ymbk07ua","state":null},"type":"Feature","geometry":{"type":"Point","coordinates":[2.3488,48.85341]}},{"properties":{"city":"Washington","country":null,"id":"a6i8ymhw5bd9","state":"DC"},"type":"Feature","geometry":{"type":"Point","coordinates":[-120.5014693,47.5001238]}},{"properties":{"city":"Sterling","country":null,"id":"a6i8ymo5dvi7","state":"VA"},"type":"Feature","geometry":{"type":"Point","coordinates":[-83.0302033,42.5803122]}},{"properties":{"city":"Washington","country":"United States","id":"a6i8ymcj6puy","state":"DC"},"type":"Feature","geometry":{"type":"Point","coordinates":[-120.5014693,47.5001238]}},{"properties":{"city":"Tbilisi","country":"Georgia","id":"a6i8ymlwk6tn","state":null},"type":"Feature","geometry":{"type":"Point","coordinates":[44.7908333,41.725]}},{"properties":{"city":"Cairo","country":"Egypt","id":"a6i8ymbew9ml","state":"Cairo"},"type":"Feature","geometry":{"type":"Point","coordinates":[31.25,30.05]}},{"properties":{"city":"Arlington","country":"United States","id":"a6i8ymg7hmwj","state":"VA"},"type":"Feature","geometry":{"type":"Point","coordinates":[-97.1080656,32.735687]}},{"properties":{"city":"Taipei","country":"Taiwan","id":"a6i8yma9zwy5","state":null},"type":"Feature","geometry":{"type":"Point","coordinates":[121.525,25.0391667]}},{"properties":{"city":"Washington","country":"US","id":"a6i8ymc1l56n","state":"DC"},"type":"Feature","geometry":{"type":"Point","coordinates":[-120.5014693,47.5001238]}},{"properties":{"city":"Santo Domingo","country":"Dominican Republic","id":"a6i8ymi3sdq8","state":null},"type":"Feature","geometry":{"type":"Point","coordinates":[-69.9,18.4666667]}},{"properties":{"city":"Washington, D.C.","country":"United States","id":"a6i8ymnckgk0","state":null},"type":"Feature","geometry":{"type":"Point","coordinates":[-120.5014693,47.5001238]}},{"properties":{"city":"Kandahar","country":"Afghanistan","id":"a6i8ymic7evi","state":"RC-South"},"type":"Feature","geometry":{"type":"Point","coordinates":[65.7,31.61]}},{"properties":{"city":"Washington","country":"USA","id":"a6i8ympjamtb","state":"DC"},"type":"Feature","geometry":{"type":"Point","coordinates":[-120.5014693,47.5001238]}},{"properties":{"city":"Banjul","country":"Gambia, The","id":"a6i8ymbj43bs","state":null},"type":"Feature","geometry":{"type":"Point","coordinates":[112.78333,7.6]}},{"properties":{"city":"Miami","country":"United States","id":"a6i8ymchrv6i","state":"FL"},"type":"Feature","geometry":{"type":"Point","coordinates":[-80.1936589,25.7742658]}},{"properties":{"city":"Washington","country":"United States","id":"a6i8ymmgajgf","state":"DC"},"type":"Feature","geometry":{"type":"Point","coordinates":[-120.5014693,47.5001238]}},{"properties":{"city":"Arlington","country":null,"id":"a6i8ymkv6qnh","state":"VA"},"type":"Feature","geometry":{"type":"Point","coordinates":[-97.1080656,32.735687]}},{"properties":{"city":"Washington","country":"United States","id":"a6i8ymlfvl8q","state":"DC"},"type":"Feature","geometry":{"type":"Point","coordinates":[-120.5014693,47.5001238]}},{"properties":{"city":"Rosslyn","country":"United States","id":"a6i8ymed3eox","state":"VA"},"type":"Feature","geometry":{"type":"Point","coordinates":[5.6541667,35.6752778]}},{"properties":{"city":"Washington","country":"US","id":"a6i8ymjnv67y","state":"DC"},"type":"Feature","geometry":{"type":"Point","coordinates":[-120.5014693,47.5001238]}},{"properties":{"city":"Dakar","country":"Senegal","id":"a6i8ymo0amu1","state":null},"type":"Feature","geometry":{"type":"Point","coordinates":[-17.4438858032227,14.6951118854684]}},{"properties":{"city":"DOHA","country":"Qatar","id":"a6i8ymos19j0","state":null},"type":"Feature","geometry":{"type":"Point","coordinates":[51.5333333,25.2866667]}},{"properties":{"city":"Washington","country":"United States","id":"a6i8ymphixd2","state":"DC"},"type":"Feature","geometry":{"type":"Point","coordinates":[-120.5014693,47.5001238]}},{"properties":{"city":"Calgary","country":"Canada","id":"a6i8ymmdnpa5","state":"AB"},"type":"Feature","geometry":{"type":"Point","coordinates":[-114.085285152,51.050112282]}},{"properties":{"city":"Calgary","country":"Canada","id":"a6i8yme2i6ra","state":"AB"},"type":"Feature","geometry":{"type":"Point","coordinates":[-114.085285152,51.050112282]}},{"properties":{"city":"Manama","country":"Bahrain","id":"a6i8ymdchrtd","state":null},"type":"Feature","geometry":{"type":"Point","coordinates":[50.5830556,26.2361111]}},{"properties":{"city":"Seoul","country":"Korea","id":"a6i8ymak2qya","state":"APO AP"},"type":"Feature","geometry":{"type":"Point","coordinates":[126.9997222,37.5663889]}},{"properties":{"city":"Arlington","country":"United States","id":"a6i8ymld866n","state":"VA"},"type":"Feature","geometry":{"type":"Point","coordinates":[-97.1080656,32.735687]}},{"properties":{"city":"Quito","country":"Ecuador","id":"a6i8ymacfs5n","state":null},"type":"Feature","geometry":{"type":"Point","coordinates":[-78.5,-0.2166667]}},{"properties":{"city":"Hyderabad","country":"India","id":"a6i8ymimzc9x","state":"Andhra Pradesh"},"type":"Feature","geometry":{"type":"Point","coordinates":[78.4744444,17.3752778]}},{"properties":{"city":"Geneva","country":"Switzerland","id":"a6i8ymm0z28f","state":null},"type":"Feature","geometry":{"type":"Point","coordinates":[6.14569187164307,46.2022156980098]}},{"properties":{"city":"Copenhagen","country":"Denmark","id":"a6i8ymhrqlu3","state":null},"type":"Feature","geometry":{"type":"Point","coordinates":[12.5709342956543,55.6776812020993]}},{"properties":{"city":"Nagoya","country":"JAPAN","id":"a6i8ymnew8vu","state":null},"type":"Feature","geometry":{"type":"Point","coordinates":[136.906409561634,35.1814727966958]}},{"properties":{"city":"Washington","country":"United States","id":"a6i8ymfnjfg6","state":"DC"},"type":"Feature","geometry":{"type":"Point","coordinates":[-120.5014693,47.5001238]}},{"properties":{"city":"Kabul","country":"Afghanistan","id":"a6i8ymc1v0sk","state":null},"type":"Feature","geometry":{"type":"Point","coordinates":[69.1833333,34.5166667]}},{"properties":{"city":"Washington","country":"United States","id":"a6i8ymn3e3ey","state":"DC"},"type":"Feature","geometry":{"type":"Point","coordinates":[-120.5014693,47.5001238]}},{"properties":{"city":"Yekaterinburg","country":"Russia","id":"a6i8ymkhoxqs","state":null},"type":"Feature","geometry":{"type":"Point","coordinates":[60.6125,56.8575]}},{"properties":{"city":"Arlington","country":null,"id":"a6i8ymblzev4","state":"VA"},"type":"Feature","geometry":{"type":"Point","coordinates":[-97.1080656,32.735687]}},{"properties":{"city":"Manila","country":"Philippines","id":"a6i8ymf0iyhn","state":null},"type":"Feature","geometry":{"type":"Point","coordinates":[120.9822222,14.6041667]}},{"properties":{"city":"Arlington","country":"United States","id":"a6i8ymdo7wpl","state":"VA"},"type":"Feature","geometry":{"type":"Point","coordinates":[-97.1080656,32.735687]}},{"properties":{"city":"Moscow","country":"Russia","id":"a6i8ymdu6y9u","state":null},"type":"Feature","geometry":{"type":"Point","coordinates":[37.6155556,55.7522222]}},{"properties":{"city":"Seoul","country":"Korea","id":"a6i8ymnm95hq","state":"APO AP"},"type":"Feature","geometry":{"type":"Point","coordinates":[126.9997222,37.5663889]}},{"properties":{"city":"Washington","country":null,"id":"a6i8ymlex95c","state":"DC"},"type":"Feature","geometry":{"type":"Point","coordinates":[-120.5014693,47.5001238]}},{"properties":{"city":"Newington","country":"United States","id":"a6i8ymmsdvzs","state":"VA"},"type":"Feature","geometry":{"type":"Point","coordinates":[-72.7237063,41.6978777]}},{"properties":{"city":"Bangkok","country":"Thailand","id":"a6i8ymldovsu","state":null},"type":"Feature","geometry":{"type":"Point","coordinates":[100.5166667,13.75]}},{"properties":{"city":"Washington","country":"USA","id":"a6i8ymgbzhr4","state":"DC"},"type":"Feature","geometry":{"type":"Point","coordinates":[-120.5014693,47.5001238]}},{"properties":{"city":"Freetown","country":"Sierra Leone","id":"a6i8ymeju1k7","state":null},"type":"Feature","geometry":{"type":"Point","coordinates":[-13.2341667,8.49]}},{"properties":{"city":"Washington","country":"United States","id":"a6i8ymlqmdpx","state":"DC"},"type":"Feature","geometry":{"type":"Point","coordinates":[-120.5014693,47.5001238]}},{"properties":{"city":"NewDelhi","country":"India","id":"a6i8ymisb0my","state":null},"type":"Feature","geometry":{"type":"Point","coordinates":[77.2311401367188,28.6128189621009]}},{"properties":{"city":"Amman","country":"Jordan","id":"a6i8ymfnrlsl","state":null},"type":"Feature","geometry":{"type":"Point","coordinates":[35.9333333,31.95]}},{"properties":{"city":"Arlington","country":"United States","id":"a6i8ymiajulb","state":"VA"},"type":"Feature","geometry":{"type":"Point","coordinates":[-97.1080656,32.735687]}},{"properties":{"city":"Washington","country":"United States","id":"a6i8ymh27qit","state":"DC"},"type":"Feature","geometry":{"type":"Point","coordinates":[-120.5014693,47.5001238]}},{"properties":{"city":"Nassau","country":"Bahamas","id":"a6i8ymffokaj","state":null},"type":"Feature","geometry":{"type":"Point","coordinates":[-77.35,25.0833333]}},{"properties":{"city":"Baghdad","country":"Iraq","id":"a6i8ymfnc98y","state":"APO, AE"},"type":"Feature","geometry":{"type":"Point","coordinates":[44.3938889,33.3386111]}},{"properties":{"city":"Buenos Aires","country":"Argentina","id":"a6i8ymhadb9j","state":null},"type":"Feature","geometry":{"type":"Point","coordinates":[-58.4088134765625,-34.5761256318848]}},{"properties":{"city":"Ottawa","country":"Canada","id":"a6i8ymb7oxre","state":"ON"},"type":"Feature","geometry":{"type":"Point","coordinates":[-75.6902861595154,45.4209405046496]}},{"properties":{"city":"Frankfurt","country":"Germany","id":"a6i8ymlnlgrz","state":"Hessen"},"type":"Feature","geometry":{"type":"Point","coordinates":[8.6833333,50.1166667]}},{"properties":{"city":"Riyadh","country":"Saudi Arabia","id":"a6i8ymayuz1t","state":null},"type":"Feature","geometry":{"type":"Point","coordinates":[46.7727778,24.6408333]}},{"properties":{"city":"Abu Dhabi","country":"United Arab Emirates","id":"a6i8ymewpw1w","state":null},"type":"Feature","geometry":{"type":"Point","coordinates":[54.3666667,24.4666667]}},{"properties":{"city":"Washington","country":"United States","id":"a6i8ymgqwseg","state":"D.C"},"type":"Feature","geometry":{"type":"Point","coordinates":[-120.5014693,47.5001238]}},{"properties":{"city":"Malabo","country":"Equatorial Guinea","id":"a6i8ymdu9gq7","state":null},"type":"Feature","geometry":{"type":"Point","coordinates":[8.7833333,3.75]}},{"properties":{"city":"Arlington","country":"United States","id":"a6i8ymgwhq3y","state":"VA"},"type":"Feature","geometry":{"type":"Point","coordinates":[-97.1080656,32.735687]}},{"properties":{"city":"Washington","country":"UNITED STATES","id":"a6i8ymdvu20s","state":"DC"},"type":"Feature","geometry":{"type":"Point","coordinates":[-120.5014693,47.5001238]}},{"properties":{"city":"Washington","country":"United States","id":"a6i8ym9t7epx","state":"DC"},"type":"Feature","geometry":{"type":"Point","coordinates":[-120.5014693,47.5001238]}},{"properties":{"city":"Hyderabad","country":"India","id":"a6i8ymmzw2sh","state":"Andhra Pradesh"},"type":"Feature","geometry":{"type":"Point","coordinates":[78.4744444,17.3752778]}},{"properties":{"city":"Washington","country":null,"id":"a6i8ymi8rprq","state":"DC"},"type":"Feature","geometry":{"type":"Point","coordinates":[-120.5014693,47.5001238]}},{"properties":{"city":"Singapore","country":"Singapore","id":"a6i8ymamsl78","state":null},"type":"Feature","geometry":{"type":"Point","coordinates":[103.8558333,1.2930556]}},{"properties":{"city":"Arlington","country":"United States","id":"a6i8ymoywtpo","state":"VA"},"type":"Feature","geometry":{"type":"Point","coordinates":[-97.1080656,32.735687]}},{"properties":{"city":"Kabul","country":"Afghanistan","id":"a6i8ymnn0qjp","state":"RC-Capital"},"type":"Feature","geometry":{"type":"Point","coordinates":[69.1833333,34.5166667]}},{"properties":{"city":"Ciudad Juarez","country":"Mexico","id":"a6i8ymmb3msa","state":"Chihuahua"},"type":"Feature","geometry":{"type":"Point","coordinates":[-106.4833333,31.7333333]}},{"properties":{"city":"Tbilisi","country":"Georgia","id":"a6i8ymmzv52h","state":null},"type":"Feature","geometry":{"type":"Point","coordinates":[44.7908333,41.725]}},{"properties":{"city":"Rosslyn","country":"United States","id":"a6i8ymg8nhiv","state":"VA"},"type":"Feature","geometry":{"type":"Point","coordinates":[5.6541667,35.6752778]}},{"properties":{"city":null,"country":"Pakistan","id":"a6i8ymfonrw3","state":null},"type":"Feature","geometry":null},{"properties":{"city":"Santo Domingo","country":"Dominican Republic","id":"a6i8yme6logn","state":"DN"},"type":"Feature","geometry":{"type":"Point","coordinates":[69.0,25.5]}},{"properties":{"city":"Kuala Lumpur","country":"Malaysia","id":"a6i8ymimns2u","state":null},"type":"Feature","geometry":{"type":"Point","coordinates":[101.7,3.1666667]}},{"properties":{"city":"Yekaterinburg","country":"Russia","id":"a6i8ymeb1jyj","state":null},"type":"Feature","geometry":{"type":"Point","coordinates":[60.6125,56.8575]}},{"properties":{"city":"Washington","country":null,"id":"a6i8ymhgzlqt","state":"DC"},"type":"Feature","geometry":{"type":"Point","coordinates":[-120.5014693,47.5001238]}},{"properties":{"city":"Sofia","country":"Bulgaria","id":"a6i8ymp7d8y7","state":null},"type":"Feature","geometry":{"type":"Point","coordinates":[23.324146270752,42.6975135281805]}},{"properties":{"city":"Budapest","country":"Hungary","id":"a6i8ymawktco","state":null},"type":"Feature","geometry":{"type":"Point","coordinates":[19.0833333,47.5]}},{"properties":{"city":"Washington","country":"US","id":"a6i8ympcatt8","state":"DC"},"type":"Feature","geometry":{"type":"Point","coordinates":[-120.5014693,47.5001238]}},{"properties":{"city":"Tbilisi","country":"Georgia","id":"a6i8ymmsg49k","state":null},"type":"Feature","geometry":{"type":"Point","coordinates":[44.7908333,41.725]}},{"properties":{"city":"Washington","country":"USA","id":"a6i8ymfgye0q","state":"DC"},"type":"Feature","geometry":{"type":"Point","coordinates":[-120.5014693,47.5001238]}},{"properties":{"city":"New Orleans","country":null,"id":"a6i8ympi4ic4","state":"LA"},"type":"Feature","geometry":{"type":"Point","coordinates":[-89.950068,30.0335344]}},{"properties":{"city":"Perth","country":"Australia","id":"a6i8ymi0bu90","state":"WA"},"type":"Feature","geometry":{"type":"Point","coordinates":[115.8333333,-31.9333333]}},{"properties":{"city":"Port-au-Prince","country":"Haiti","id":"a6i8ymmpl7g1","state":null},"type":"Feature","geometry":{"type":"Point","coordinates":[-72.335,18.5391667]}},{"properties":{"city":"Vancouver","country":"Canada","id":"a6i8ymabvi7w","state":"BC"},"type":"Feature","geometry":{"type":"Point","coordinates":[-123.119340403,49.249657393]}},{"properties":{"city":"Tokyo","country":"Japan","id":"a6i8ymmt11rp","state":null},"type":"Feature","geometry":{"type":"Point","coordinates":[139.691677093506,35.6895265930799]}},{"properties":{"city":null,"country":"Niger","id":"a6i8ymkhw9zc","state":null},"type":"Feature","geometry":null},{"properties":{"city":"Frankfurt","country":"Germany","id":"a6i8ymkyybsn","state":"Hessen"},"type":"Feature","geometry":{"type":"Point","coordinates":[8.6833333,50.1166667]}},{"properties":{"city":"Zagreb","country":"Croatia","id":"a6i8ymj5cpph","state":null},"type":"Feature","geometry":{"type":"Point","coordinates":[16.0,45.8]}},{"properties":{"city":"Washington","country":"United States","id":"a6i8ymhwwgh3","state":"DC"},"type":"Feature","geometry":{"type":"Point","coordinates":[-120.5014693,47.5001238]}},{"properties":{"city":"Washington","country":"United States","id":"a6i8ymnzwd26","state":"DC"},"type":"Feature","geometry":{"type":"Point","coordinates":[-120.5014693,47.5001238]}},{"properties":{"city":"Arlington","country":"United States","id":"a6i8ymmd0ppl","state":"VA"},"type":"Feature","geometry":{"type":"Point","coordinates":[-97.1080656,32.735687]}},{"properties":{"city":"Managua","country":"Nicaragua","id":"a6i8ymeob174","state":null},"type":"Feature","geometry":{"type":"Point","coordinates":[-86.2683333,12.1508333]}},{"properties":{"city":"New Orleans","country":null,"id":"a6i8ymboh8xp","state":"LA"},"type":"Feature","geometry":{"type":"Point","coordinates":[-89.950068,30.0335344]}},{"properties":{"city":"Santo Domingo","country":"Dominican Republic","id":"a6i8yme9b160","state":"DN"},"type":"Feature","geometry":{"type":"Point","coordinates":[69.0,25.5]}},{"properties":{"city":null,"country":"Guyana","id":"a6i8ymba1m7u","state":null},"type":"Feature","geometry":null},{"properties":{"city":"San Salvador","country":"El Salvador","id":"a6i8ympl823p","state":null},"type":"Feature","geometry":{"type":"Point","coordinates":[-89.2030556,13.7086111]}},{"properties":{"city":"Washington","country":"United States","id":"a6i8ymcxlk59","state":"DC"},"type":"Feature","geometry":{"type":"Point","coordinates":[-120.5014693,47.5001238]}},{"properties":{"city":"Santo Domingo","country":"Dominican Republic","id":"a6i8ymjwfi1z","state":"DN"},"type":"Feature","geometry":{"type":"Point","coordinates":[69.0,25.5]}},{"properties":{"city":"Duesseldorf","country":"Germany","id":"a6i8ymbzra4a","state":"NRW"},"type":"Feature","geometry":{"type":"Point","coordinates":[6.77616119384766,51.2217225723832]}},{"properties":{"city":"Colombo 03,","country":"Sri Lanka","id":"a6i8ymm0ad19","state":null},"type":"Feature","geometry":{"type":"Point","coordinates":[79.8477778,6.9319444]}},{"properties":{"city":"Tirana","country":"Albania","id":"a6i8ymd35gy8","state":"Tirana"},"type":"Feature","geometry":{"type":"Point","coordinates":[51.4244444,35.6719444]}},{"properties":{"city":"Arlington","country":"United States","id":"a6i8ymnjfogi","state":"VA"},"type":"Feature","geometry":{"type":"Point","coordinates":[-97.1080656,32.735687]}},{"properties":{"city":"Tbilisi","country":"Georgia","id":"a6i8ymiplt2b","state":null},"type":"Feature","geometry":{"type":"Point","coordinates":[44.7908333,41.725]}},{"properties":{"city":"Washingon","country":"United States","id":"a6i8ymjrkg9m","state":"DC"},"type":"Feature","geometry":{"type":"Point","coordinates":[114.0122222,31.7688889]}},{"properties":{"city":"Copenhagen","country":"Denmark","id":"a6i8ymbyn21n","state":null},"type":"Feature","geometry":{"type":"Point","coordinates":[12.5709342956543,55.6776812020993]}},{"properties":{"city":"Washington","country":"UNITED STATES","id":"a6i8ymmzytfk","state":"DC"},"type":"Feature","geometry":{"type":"Point","coordinates":[-120.5014693,47.5001238]}},{"properties":{"city":"Frankfurt","country":"Germany","id":"a6i8ymn8006c","state":"Hessen"},"type":"Feature","geometry":{"type":"Point","coordinates":[8.6833333,50.1166667]}},{"properties":{"city":"Port Louis","country":"Mauritius","id":"a6i8ymkrukha","state":null},"type":"Feature","geometry":{"type":"Point","coordinates":[57.4988889,-20.1619444]}},{"properties":{"city":"Sao Paulo","country":"Brazil","id":"a6i8ymfeacuz","state":null},"type":"Feature","geometry":{"type":"Point","coordinates":[-46.63611111,-23.5475]}},{"properties":{"city":"Washington","country":"United States","id":"a6i8ymfpq724","state":"DC"},"type":"Feature","geometry":{"type":"Point","coordinates":[-120.5014693,47.5001238]}},{"properties":{"city":"Washington","country":"United States","id":"a6i8ymdjipxh","state":"DC"},"type":"Feature","geometry":{"type":"Point","coordinates":[-120.5014693,47.5001238]}},{"properties":{"city":null,"country":"United States","id":"a6i8ymdohki9","state":null},"type":"Feature","geometry":null},{"properties":{"city":"Arlington","country":"United States","id":"a6i8ymlinn4v","state":"VA"},"type":"Feature","geometry":{"type":"Point","coordinates":[-97.1080656,32.735687]}},{"properties":{"city":"Washington","country":"United States","id":"a6i8ymhzr079","state":"DC"},"type":"Feature","geometry":{"type":"Point","coordinates":[-120.5014693,47.5001238]}},{"properties":{"city":"Cairo","country":"Egypt","id":"a6i8ymo4l6m6","state":"Cairo"},"type":"Feature","geometry":{"type":"Point","coordinates":[31.25,30.05]}},{"properties":{"city":"Washington","country":"United States","id":"a6i8ymft4iq5","state":null},"type":"Feature","geometry":{"type":"Point","coordinates":[-120.5014693,47.5001238]}},{"properties":{"city":"Port-au-Prince","country":"Haiti","id":"a6i8ymh574gm","state":null},"type":"Feature","geometry":{"type":"Point","coordinates":[-72.335,18.5391667]}},{"properties":{"city":"Tbilisi","country":"Georgia","id":"a6i8ymhl1bxh","state":null},"type":"Feature","geometry":{"type":"Point","coordinates":[44.7908333,41.725]}},{"properties":{"city":"Stockholm","country":"Sweden","id":"a6i8ymbu9gty","state":null},"type":"Feature","geometry":{"type":"Point","coordinates":[18.0649030208588,59.3325765361753]}},{"properties":{"city":"Bishkek","country":"Kyrgyzstan","id":"a6i8ymn95iee","state":null},"type":"Feature","geometry":{"type":"Point","coordinates":[74.6002778,42.8730556]}},{"properties":{"city":"Brussels","country":"Belgium","id":"a6i8ymaor13z","state":null},"type":"Feature","geometry":{"type":"Point","coordinates":[4.35277462005615,50.8465974826927]}},{"properties":{"city":"Moscow","country":"Russia","id":"a6i8ymf97hlm","state":null},"type":"Feature","geometry":{"type":"Point","coordinates":[37.6155556,55.7522222]}},{"properties":{"city":"Hong Kong","country":"Hong Kong SAR","id":"a6i8ymox3kpe","state":"SAR"},"type":"Feature","geometry":{"type":"Point","coordinates":[114.15007352829,22.2840136009625]}},{"properties":{"city":"Istanbul","country":"Turkey","id":"a6i8yml7wde6","state":null},"type":"Feature","geometry":{"type":"Point","coordinates":[28.9833068847656,41.0350820029997]}},{"properties":{"city":"Guadalajara","country":"Mexico","id":"a6i8yma4hht2","state":"Jalisco"},"type":"Feature","geometry":{"type":"Point","coordinates":[-103.3333333,20.6666667]}},{"properties":{"city":"Guadalajara","country":"Mexico","id":"a6i8ymb332cb","state":"Jalisco"},"type":"Feature","geometry":{"type":"Point","coordinates":[-103.3333333,20.6666667]}},{"properties":{"city":"Vienna","country":"Austria","id":"a6i8ymk2dqou","state":null},"type":"Feature","geometry":{"type":"Point","coordinates":[16.3720750808716,48.2084877601653]}},{"properties":{"city":"Naples","country":"ITALY","id":"a6i8ymkwbu4t","state":null},"type":"Feature","geometry":{"type":"Point","coordinates":[-81.7948103,26.1420358]}},{"properties":{"city":"Dhaka","country":"Bangladesh","id":"a6i8ymgzz2hd","state":null},"type":"Feature","geometry":{"type":"Point","coordinates":[90.4086111,23.7230556]}},{"properties":{"city":"Arlington","country":"United States","id":"a6i8ymj3u71g","state":"VA"},"type":"Feature","geometry":{"type":"Point","coordinates":[-97.1080656,32.735687]}},{"properties":{"city":"Washington","country":"United States","id":"a6i8ymoa1omb","state":"DC"},"type":"Feature","geometry":{"type":"Point","coordinates":[-120.5014693,47.5001238]}},{"properties":{"city":"Dakar","country":"Senegal","id":"a6i8ymgd7m6c","state":null},"type":"Feature","geometry":{"type":"Point","coordinates":[-17.4438858032227,14.6951118854684]}},{"properties":{"city":"Washington","country":"USA","id":"a6i8ymlyk0nj","state":"DC"},"type":"Feature","geometry":{"type":"Point","coordinates":[-120.5014693,47.5001238]}},{"properties":{"city":"BOGOTA","country":"Colombia","id":"a6i8ymjbh5s9","state":"D.C."},"type":"Feature","geometry":{"type":"Point","coordinates":[-74.0833333,4.6]}},{"properties":{"city":"Tbilisi","country":"Georgia","id":"a6i8ymdyyiol","state":null},"type":"Feature","geometry":{"type":"Point","coordinates":[44.7908333,41.725]}},{"properties":{"city":"Madrid","country":"Spain","id":"a6i8ymhhxyyq","state":null},"type":"Feature","geometry":{"type":"Point","coordinates":[-3.68274615575072,40.4893538421231]}},{"properties":{"city":"Guayaquil","country":"Ecuador","id":"a6i8ymg1x8np","state":"Guayas"},"type":"Feature","geometry":{"type":"Point","coordinates":[-79.9,-2.1666667]}},{"properties":{"city":"Washington","country":"United States","id":"a6i8yme3usch","state":"DC"},"type":"Feature","geometry":{"type":"Point","coordinates":[-120.5014693,47.5001238]}},{"properties":{"city":"Istanbul","country":"Turkey","id":"a6i8ymj9uvwa","state":null},"type":"Feature","geometry":{"type":"Point","coordinates":[28.9833068847656,41.0350820029997]}},{"properties":{"city":"Arlington","country":"United States","id":"a6i8ymfdjf2y","state":"VA"},"type":"Feature","geometry":{"type":"Point","coordinates":[-97.1080656,32.735687]}},{"properties":{"city":"Washignton","country":"United States","id":"a6i8ymnon4jh","state":"DC"},"type":"Feature","geometry":{"type":"Point","coordinates":[117.525,30.725]}}],"is_temporal":false,"author":{"url":"","metadata":"","contact_name":"","contact_address":"","source":"","contact_phone":""},"source":"","pagination":{"sort":null,"start":0,"total":761,"limit":1000000},"state":"complete","tags":"","published":"2014-08-13T03:53:56-04:00","id":104734}