{"type":"FeatureCollection","data_type":"Dataset","url_type":null,"permissions":[{"permissions":{"download":true,"view":true},"group_id":"everyone"}],"classification":null,"title":"50 Companies That Climbed the Fortune 500, 2007","count":50,"stream_id":10497,"contributor":{"url":"http://geocommons.com/users/2943","name":"Margot"},"data_attributes":null,"calculation_params":null,"icon_link":null,"link":"http://geocommons.com/overlays/10497.json","extent":[-122.317,26.8578,-71.0581,47.5927],"geometry_types":["point"],"unique_name":null,"name":"50 Companies That Climbed the Fortune 500, 2007","feature_count":50,"description":"This is a list of 50 companies that climbed up the ranks of the Fortune list from 2005 to 2006. The locations were geocoded and uploaded into Geocommons as a csv. ","next_feature":null,"is_raster":false,"short_classification":"Y","stats":{"zip":{"max":98144,"mean":55114.36,"variance":1128684056.52082,"stdev":33595.8934472774,"min":1760,"median":73118},"fivhundrank":{"max":462,"mean":291.72,"variance":9381.34857142857,"stdev":96.8573619887955,"min":91,"median":312},"ohsixrank":{"max":499,"mean":351.44,"variance":10511.5983673469,"stdev":102.526086277332,"min":122,"median":381},"rankgain":{"max":208,"mean":59.72,"variance":1262.40979591837,"stdev":35.5304066387984,"min":30,"median":47},"lat":{"max":47.592726,"mean":37.02598626,"variance":21.6893142269921,"stdev":4.65717878409151,"min":26.85781,"median":37.423186},"long":{"max":-71.058052,"mean":-94.69840118,"variance":310.855723377127,"stdev":17.6311010256628,"min":-122.317064,"median":-95.387255}},"features":[{"properties":{"company":"Affiliated Computer Svcs.","city":"Dallas","zip":75204,"fivhundrank":424,"ohsixrank":471,"rankgain":47,"website":"www.acs-inc.com","phone":"214-841-6111","id":"a642s9il5lx2","address":"2828 N Haskell Ave","lat":32.806826,"state":"TX","long":-96.791613},"type":"Feature","geometry":{"type":"Point","coordinates":[-96.791613,32.806826]}},{"properties":{"company":"Amazon.com","city":"Seattle","zip":98144,"fivhundrank":237,"ohsixrank":272,"rankgain":35,"website":"www.amazon.com","phone":"206-266-1000","id":"a642s9um3y0j","address":"1200 12th Avenue S","lat":47.592726,"state":"WA","long":-122.317064},"type":"Feature","geometry":{"type":"Point","coordinates":[-122.317064,47.592726]}},{"properties":{"company":"Anadarko Petroleum","city":"The Woodlands","zip":77380,"fivhundrank":233,"ohsixrank":314,"rankgain":81,"website":"www.anadarko.com","phone":"832-636-1000","id":"a642s9r4vjp5","address":"1201 Lake Robbins Dr","lat":30.160988,"state":"TX","long":-95.453201},"type":"Feature","geometry":{"type":"Point","coordinates":[-95.453201,30.160988]}},{"properties":{"company":"Apple","city":"Cupertino","zip":95014,"fivhundrank":121,"ohsixrank":159,"rankgain":38,"website":"www.apple.com","phone":"408-996-1010","id":"a642s9y1pmko","address":"1 Infinite Loop","lat":37.332315,"state":"CA","long":-122.030749},"type":"Feature","geometry":{"type":"Point","coordinates":[-122.030749,37.332315]}},{"properties":{"company":"Applied Materials","city":"Santa Clara","zip":95054,"fivhundrank":274,"ohsixrank":317,"rankgain":43,"website":"www.appliedmaterials.com","phone":"408-727-5555","id":"a642s9s62sw7","address":"3050 Bowers Ave","lat":37.377742,"state":"CA","long":-121.977874},"type":"Feature","geometry":{"type":"Point","coordinates":[-121.977874,37.377742]}},{"properties":{"company":"Arrow Electronics","city":"Melville","zip":11747,"fivhundrank":179,"ohsixrank":209,"rankgain":30,"website":"www.arrow.com","phone":"631-847-2000","id":"a642s9xjal86","address":"50 Marcus Dr","lat":40.758962,"state":"NY","long":-73.411777},"type":"Feature","geometry":{"type":"Point","coordinates":[-73.411777,40.758962]}},{"properties":{"company":"Atmos Energy","city":"Dallas","zip":75240,"fivhundrank":372,"ohsixrank":430,"rankgain":58,"website":"www.atmosenergy.com","phone":"972-934-9227","id":"a642s9msu7lr","address":"5430 LBJ Freeway","lat":32.925354,"state":"TX","long":-96.816131},"type":"Feature","geometry":{"type":"Point","coordinates":[-96.816131,32.925354]}},{"properties":{"company":"Avnet","city":"Phoenix","zip":85034,"fivhundrank":172,"ohsixrank":212,"rankgain":40,"website":"www.avnet.com","phone":"480-643-2000","id":"a642s9wp9ei9","address":"2211 S 47th St","lat":33.426554,"state":"AZ","long":-111.981152},"type":"Feature","geometry":{"type":"Point","coordinates":[-111.981152,33.426554]}},{"properties":{"company":"Baker Hughes","city":"Houston","zip":77019,"fivhundrank":278,"ohsixrank":310,"rankgain":32,"website":"www.bakerhughes.com","phone":"713-439-8600","id":"a642s9wlr2f0","address":"2929 Allen Pkwy","lat":29.761275,"state":"TX","long":-95.396323},"type":"Feature","geometry":{"type":"Point","coordinates":[-95.396323,29.761275]}},{"properties":{"company":"Bank of New York Co.","city":"New York","zip":10286,"fivhundrank":209,"ohsixrank":278,"rankgain":69,"website":"www.bynmellon.com","phone":"212-495-1784","id":"a642s9vku3ce","address":"1 Wall St","lat":40.707664,"state":"NY","long":-74.011667},"type":"Feature","geometry":{"type":"Point","coordinates":[-74.011667,40.707664]}},{"properties":{"company":"Bear Stearns","city":"New York","zip":10179,"fivhundrank":138,"ohsixrank":202,"rankgain":64,"website":"www.bearstearns.com","phone":"212-272-2000","id":"a642s9y6rw8u","address":"383 Madison Ave","lat":40.7556,"state":"NY","long":-73.977034},"type":"Feature","geometry":{"type":"Point","coordinates":[-73.977034,40.7556]}},{"properties":{"company":"Boston Scientific","city":"Natick","zip":1760,"fivhundrank":308,"ohsixrank":346,"rankgain":38,"website":"www.bostonscientific.com","phone":"508-650-8000","id":"a642s9xfom23","address":"1 Boston Scientific Place","lat":42.302799,"state":"MA","long":-71.379578},"type":"Feature","geometry":{"type":"Point","coordinates":[-71.379578,42.302799]}},{"properties":{"company":"C.H. Robinson Worldwide","city":"Eden Prairie","zip":55347,"fivhundrank":349,"ohsixrank":379,"rankgain":30,"website":"www.chrobinson.com","phone":"952-937-8500","id":"a642s9szjcl8","address":"14701 Charlson Rd","lat":44.822997,"state":"MN","long":-93.463332},"type":"Feature","geometry":{"type":"Point","coordinates":[-93.463332,44.822997]}},{"properties":{"company":"CIT Group","city":"New York","zip":10017,"fivhundrank":335,"ohsixrank":384,"rankgain":49,"website":"www.cit.com","phone":"212-771-0505","id":"a642s9l6dyh2","address":"505 Fifth Ave","lat":40.753595,"state":"NY","long":-73.980718},"type":"Feature","geometry":{"type":"Point","coordinates":[-73.980718,40.753595]}},{"properties":{"company":"Cablevision Systems","city":"Bethpage","zip":11714,"fivhundrank":380,"ohsixrank":414,"rankgain":34,"website":"www.cablevision.com","phone":"516-803-2300","id":"a642s9ttslqi","address":"1111 Stewart Ave","lat":40.761657,"state":"NY","long":-73.493054},"type":"Feature","geometry":{"type":"Point","coordinates":[-73.493054,40.761657]}},{"properties":{"company":"Capital One Financial","city":"McLean","zip":22102,"fivhundrank":154,"ohsixrank":187,"rankgain":33,"website":"www.capitalone.com","phone":"703-720-1000","id":"a642s9q0msto","address":"1680 Capital One Dr","lat":38.936309,"state":"VA","long":-77.222849},"type":"Feature","geometry":{"type":"Point","coordinates":[-77.222849,38.936309]}},{"properties":{"company":"CarMax","city":"Richmond","zip":23238,"fivhundrank":365,"ohsixrank":411,"rankgain":46,"website":"www.carmax.com","phone":"804-747-0422","id":"a642s9lfitze","address":"12800 Tuckahoe Creek Pkwy","lat":37.639175,"state":"VA","long":-77.679885},"type":"Feature","geometry":{"type":"Point","coordinates":[-77.679885,37.639175]}},{"properties":{"company":"Chesapeake Energy","city":"Oklahoma City","zip":73118,"fivhundrank":325,"ohsixrank":451,"rankgain":126,"website":"www.chk.com","phone":"405-848-8000","id":"a642s9klyu10","address":"6100 N Western Ave","lat":35.534257,"state":"OK","long":-97.529644},"type":"Feature","geometry":{"type":"Point","coordinates":[-97.529644,35.534257]}},{"properties":{"company":"Countrywide Financial","city":"Calabasas","zip":91302,"fivhundrank":91,"ohsixrank":122,"rankgain":31,"website":"www.countrywide.com","phone":"818-225-3000","id":"a642s9n46kug","address":"4500 Park Granada","lat":34.149434,"state":"CA","long":-118.646893},"type":"Feature","geometry":{"type":"Point","coordinates":[-118.646893,34.149434]}},{"properties":{"company":"FPL Group","city":"Juno Beach","zip":33408,"fivhundrank":148,"ohsixrank":195,"rankgain":47,"website":"www.fplgroup.com","phone":"561-694-4000","id":"a642s9stdz3v","address":"700 Universe Blvd","lat":26.85781,"state":"FL","long":-80.058723},"type":"Feature","geometry":{"type":"Point","coordinates":[-80.058723,26.85781]}},{"properties":{"company":"Freeport-McMoRan Cpr. &amp; Gld","city":"Phoenix","zip":85004,"fivhundrank":398,"ohsixrank":480,"rankgain":82,"website":"www.fcx.com","phone":"602-366-8100","id":"a642s9u3tjtd","address":"1 N Central Ave","lat":33.448328,"state":"AZ","long":-112.073754},"type":"Feature","geometry":{"type":"Point","coordinates":[-112.073754,33.448328]}},{"properties":{"company":"Frontier Oil","city":"Houston","zip":77024,"fivhundrank":462,"ohsixrank":496,"rankgain":34,"website":"www.frontieroil.com","phone":"713-688-9600","id":"a642s9o9ulx6","address":"10000 Memorial Dr","lat":29.778724,"state":"TX","long":-95.480651},"type":"Feature","geometry":{"type":"Point","coordinates":[-95.480651,29.778724]}},{"properties":{"company":"Google","city":"Mountain View","zip":94043,"fivhundrank":241,"ohsixrank":353,"rankgain":112,"website":"www.google.com","phone":"650-253-0000","id":"a642s9ocslh8","address":"1600 Amphitheatre Pkwy","lat":37.423186,"state":"CA","long":-122.085995},"type":"Feature","geometry":{"type":"Point","coordinates":[-122.085995,37.423186]}},{"properties":{"company":"Harrah's Entertainment","city":"Las Vegas","zip":89109,"fivhundrank":254,"ohsixrank":309,"rankgain":55,"website":"www.harrahs.com","phone":"702-407-6000","id":"a642s9xjyym2","address":"1 Caesars Palace Dr","lat":36.117309,"state":"NV","long":-115.173661},"type":"Feature","geometry":{"type":"Point","coordinates":[-115.173661,36.117309]}},{"properties":{"company":"Hilton Hotels","city":"Beverly Hills","zip":90210,"fivhundrank":296,"ohsixrank":464,"rankgain":168,"website":"Website: http://www.hiltonworldwide.com","phone":"Phone: 310-278-4321","id":"a642s9nrzrie","address":"9336 Civic Center Dr.","lat":34.074731,"state":"CA","long":-118.398249},"type":"Feature","geometry":{"type":"Point","coordinates":[-118.398249,34.074731]}},{"properties":{"company":"Humana","city":"Louisville","zip":40202,"fivhundrank":110,"ohsixrank":150,"rankgain":40,"website":"www.humana.com","phone":"502-580-1000","id":"a642s9lx1d2e","address":"500 W Main St","lat":38.256734,"state":"KY","long":-85.758535},"type":"Feature","geometry":{"type":"Point","coordinates":[-85.758535,38.256734]}},{"properties":{"company":"Jacobs Engineering Grp.","city":"Pasadena","zip":91105,"fivhundrank":322,"ohsixrank":386,"rankgain":64,"website":"www.jacobs.com","phone":"626-578-3500","id":"a642s9nx0xqk","address":"1111 S Arroyo Pkwy","lat":34.131506,"state":"CA","long":-118.147542},"type":"Feature","geometry":{"type":"Point","coordinates":[-118.147542,34.131506]}},{"properties":{"company":"L-3 Communications","city":"New York","zip":10016,"fivhundrank":197,"ohsixrank":253,"rankgain":56,"website":"www.L-3com.com","phone":"212-697-1111","id":"a642s9vl9mvd","address":"600 Third Ave","lat":40.748955,"state":"NY","long":-73.975859},"type":"Feature","geometry":{"type":"Point","coordinates":[-73.975859,40.748955]}},{"properties":{"company":"Liberty Global","city":"Englewood","zip":80112,"fivhundrank":340,"ohsixrank":408,"rankgain":68,"website":"www.lgi.com","phone":"303-220-6600","id":"a642s9moc46e","address":"12300 Liberty Blvd","lat":39.55286,"state":"CO","long":-104.84668},"type":"Feature","geometry":{"type":"Point","coordinates":[-104.84668,39.55286]}},{"properties":{"company":"Lincoln National","city":"Radnor","zip":19087,"fivhundrank":277,"ohsixrank":396,"rankgain":119,"website":"www.lfg.com","phone":"484-583-1400","id":"a642s9ica7ke","address":"150 N Radnor Chester Rd","lat":40.04073,"state":"PA","long":-75.364278},"type":"Feature","geometry":{"type":"Point","coordinates":[-75.364278,40.04073]}},{"properties":{"company":"Marshall &amp; Ilsley Corp.","city":"Milwaukee","zip":53202,"fivhundrank":441,"ohsixrank":499,"rankgain":58,"website":"www.micorp.com","phone":"414-765-7700","id":"a642s9j19hew","address":"770 N Water St","lat":43.040396,"state":"WI","long":-87.909076},"type":"Feature","geometry":{"type":"Point","coordinates":[-87.909076,43.040396]}},{"properties":{"company":"Mosaic","city":"Plymouth","zip":55441,"fivhundrank":427,"ohsixrank":470,"rankgain":43,"website":"www.mosaicco.com","phone":"763-577-2700","id":"a642s9p4ext7","address":"3033 Campus Dr","lat":45.013133,"state":"MN","long":-93.453563},"type":"Feature","geometry":{"type":"Point","coordinates":[-93.453563,45.013133]}},{"properties":{"company":"NVR","city":"Reston","zip":20190,"fivhundrank":371,"ohsixrank":410,"rankgain":39,"website":"www.nvrinc.com","phone":"703-956-4000","id":"a642s9pdkf09","address":"11700 Plaza America Dr","lat":38.952896,"state":"VA","long":-77.350464},"type":"Feature","geometry":{"type":"Point","coordinates":[-77.350464,38.952896]}},{"properties":{"company":"National Oilwell Varco","city":"Houston","zip":77036,"fivhundrank":333,"ohsixrank":452,"rankgain":119,"website":"www.nov.com","phone":"713-346-7500","id":"a642s9iek3zt","address":"7909 Parkwood Circle Dr","lat":29.692479,"state":"TX","long":-95.555121},"type":"Feature","geometry":{"type":"Point","coordinates":[-95.555121,29.692479]}},{"properties":{"company":"Omnicare","city":"Covington","zip":41011,"fivhundrank":353,"ohsixrank":406,"rankgain":53,"website":"www.omnicare.com","phone":"859-392-3300","id":"a642s9kq3eyb","address":"100 E RiverCenter Blvd","lat":39.089835,"state":"KY","long":-84.510878},"type":"Feature","geometry":{"type":"Point","coordinates":[-84.510878,39.089835]}},{"properties":{"company":"PNC Financial Services Group","city":"Pittsburgh","zip":15222,"fivhundrank":231,"ohsixrank":290,"rankgain":59,"website":"www.pnc.com","phone":"412-762-2000","id":"a642s9r46khx","address":"249 Fifth Ave","lat":40.441122,"state":"PA","long":-80.001082},"type":"Feature","geometry":{"type":"Point","coordinates":[-80.001082,40.441122]}},{"properties":{"company":"Peter Kiewit Sons'","city":"Omaha","zip":68131,"fivhundrank":446,"ohsixrank":483,"rankgain":37,"website":"www.kiewit.com","phone":"402-342-2052","id":"a642s9l9hnka","address":"1000 Kiewit Plaza","lat":41.264581,"state":"NE","long":-95.964809},"type":"Feature","geometry":{"type":"Point","coordinates":[-95.964809,41.264581]}},{"properties":{"company":"Phelps Dodge","city":"Phoenix","zip":85004,"fivhundrank":206,"ohsixrank":260,"rankgain":54,"website":"Website: http://www.fcx.com","phone":"Phone: 602-366-8100","id":"a642s9p1j8b2","address":"1 N. Central Ave.","lat":33.448328,"state":"AZ","long":-112.073754},"type":"Feature","geometry":{"type":"Point","coordinates":[-112.073754,33.448328]}},{"properties":{"company":"Qualcomm","city":"San Diego","zip":92121,"fivhundrank":317,"ohsixrank":381,"rankgain":64,"website":"www.qualcomm.com","phone":"858-587-1121","id":"a642s9n9c4vo","address":"5775 Morehouse Dr","lat":32.896775,"state":"CA","long":-117.196122},"type":"Feature","geometry":{"type":"Point","coordinates":[-117.196122,32.896775]}},{"properties":{"company":"Regions Financial","city":"Birmingham","zip":35203,"fivhundrank":312,"ohsixrank":354,"rankgain":42,"website":"www.regions.com","phone":"205-944-1300","id":"a642s9u18tkl","address":"1900 Fifth Ave N","lat":33.51759,"state":"AL","long":-86.809503},"type":"Feature","geometry":{"type":"Point","coordinates":[-86.809503,33.51759]}},{"properties":{"company":"SLM","city":"Reston","zip":20190,"fivhundrank":284,"ohsixrank":331,"rankgain":47,"website":"www.salliemae.com","phone":"703-810-3000","id":"a642s9m80jtn","address":"12061 Bluemont Way","lat":38.957007,"state":"VA","long":-77.361132},"type":"Feature","geometry":{"type":"Point","coordinates":[-77.361132,38.957007]}},{"properties":{"company":"Smith International","city":"Houston","zip":77032,"fivhundrank":324,"ohsixrank":390,"rankgain":66,"website":"www.smith.com","phone":"281-443-3370","id":"a642s9nprblx","address":"16740 E Hardy Rd","lat":29.961991,"state":"TX","long":-95.387255},"type":"Feature","geometry":{"type":"Point","coordinates":[-95.387255,29.961991]}},{"properties":{"company":"State St. Corp.","city":"Boston","zip":2111,"fivhundrank":263,"ohsixrank":307,"rankgain":44,"website":"www.statestreet.com","phone":"617-786-3000","id":"a642s9kr0jrr","address":"1 Lincoln St","lat":42.353176,"state":"MA","long":-71.058052},"type":"Feature","geometry":{"type":"Point","coordinates":[-71.058052,42.353176]}},{"properties":{"company":"SunTrust Banks","city":"Atlanta","zip":30308,"fivhundrank":183,"ohsixrank":217,"rankgain":34,"website":"www.suntrust.com","phone":"404-588-7711","id":"a642s9si8ix0","address":"303 Peachtree St NE","lat":33.763182,"state":"GA","long":-84.386643},"type":"Feature","geometry":{"type":"Point","coordinates":[-84.386643,33.763182]}},{"properties":{"company":"Terex","city":"Westport","zip":6880,"fivhundrank":314,"ohsixrank":355,"rankgain":41,"website":"www.terex.com","phone":"203-222-7170","id":"a642s9ok5b82","address":"200 Nyala Farm Rd","lat":41.125366,"state":"CT","long":-73.330872},"type":"Feature","geometry":{"type":"Point","coordinates":[-73.330872,41.125366]}},{"properties":{"company":"US Airways Group","city":"Tempe","zip":85281,"fivhundrank":216,"ohsixrank":424,"rankgain":208,"website":"www.usairways.com","phone":"480-693-0800","id":"a642s9p0xb43","address":"111 W Rio Salado Pkwy","lat":33.429269,"state":"AZ","long":-111.941612},"type":"Feature","geometry":{"type":"Point","coordinates":[-111.941612,33.429269]}},{"properties":{"company":"Wesco International","city":"Pittsburgh","zip":15219,"fivhundrank":425,"ohsixrank":466,"rankgain":41,"website":"www.wesco.com","phone":"412-454-2200","id":"a642s9nsj65i","address":"225 West Station Square Dr","lat":40.433758,"state":"PA","long":-80.005362},"type":"Feature","geometry":{"type":"Point","coordinates":[-80.005362,40.433758]}},{"properties":{"company":"Whole Foods Market","city":"Austin","zip":78703,"fivhundrank":411,"ohsixrank":449,"rankgain":38,"website":"www.wholefoodsmarket.com","phone":"512-477-4455","id":"a642s9uwtwlp","address":"550 Bowie St","lat":30.27043,"state":"TX","long":-97.752966},"type":"Feature","geometry":{"type":"Point","coordinates":[-97.752966,30.27043]}},{"properties":{"company":"Yahoo","city":"Sunnyvale","zip":94089,"fivhundrank":357,"ohsixrank":412,"rankgain":55,"website":"www.yahoo.com","phone":"408-349-3300","id":"a642s9w1pf7v","address":"701 First Ave","lat":37.416397,"state":"CA","long":-122.025055},"type":"Feature","geometry":{"type":"Point","coordinates":[-122.025055,37.416397]}},{"properties":{"company":"eBay","city":"San Jose","zip":95125,"fivhundrank":383,"ohsixrank":458,"rankgain":75,"website":"www.ebay.com","phone":"408-376-7400","id":"a642s9ru755p","address":"2145 Hamilton Ave","lat":37.2945,"state":"CA","long":-121.922273},"type":"Feature","geometry":{"type":"Point","coordinates":[-121.922273,37.2945]}}],"is_temporal":false,"author":{"url":"http://money.cnn.com/magazines/fortune/fortune500/2007/fiftyfifty/1.html","metadata":"http://money.cnn.com/magazines/fortune/fortune500/2007/faq/","contact_name":"","contact_address":"","source":"CNNMoney.com","contact_phone":""},"source":"http://money.cnn.com/magazines/fortune/fortune500/2007/fiftyfifty/1.html","pagination":{"sort":null,"start":0,"total":50,"limit":1000000},"state":"complete","tags":"2007,business,cnn,companies,economy,finance,fortune,fortune1000,money,profits,revenue","published":"2007-04-30T12:00:00Z","id":10497}