{"type":"FeatureCollection","data_type":"Dataset","url_type":null,"permissions":[{"permissions":{"download":true,"view":true},"group_id":"everyone"}],"classification":null,"title":"Westboro Baptist Church Picketing Schedule, USA, March 2009 to July 2009","count":50,"stream_id":10501,"contributor":{"url":"http://geocommons.com/users/185","name":"emily"},"data_attributes":null,"calculation_params":null,"icon_link":null,"link":"http://geocommons.com/overlays/10501.json","extent":[-119.827,24.5541,-71.0347,42.5347],"geometry_types":["point"],"unique_name":null,"name":"Westboro Baptist Church Picketing Schedule, USA, March 2009 to July 2009","feature_count":50,"description":"This dataset provides the locations of upcoming protests by the Westboro Baptist Church. The locations are from their website. Please note: some sources say that if you go to their website, money is give to them. Locations were geocoded by batchgeocode and may not be exact","next_feature":null,"is_raster":false,"short_classification":"Y","stats":{"latitude":{"max":42.534713,"mean":35.27764282,"variance":42.1034157521258,"stdev":6.48871449149412,"min":24.554079,"median":38.94457},"longitude":{"max":-71.034705,"mean":-84.41353752,"variance":195.26040827446,"stdev":13.9735610448611,"min":-119.826601,"median":-80.281779}},"features":[{"properties":{"timestamp":"3/13/2009","city":"Cambridge, MA","latitude":42.373677,"time":"11:10 AM - 11:45 AM","title":"God Hates Fags","longitude":-71.111708,"id":"a635n43vjl48","address":"459 Broadway","location":"Cambridge Rindge &amp; Latin High School"},"type":"Feature","geometry":{"type":"Point","coordinates":[-71.111708,42.373677]}},{"properties":{"timestamp":"3/13/2009","city":"Lexington, MA","latitude":42.44455,"time":"12:30 PM - 1:15 PM","title":"God Has Cursed the USAF graduated to full","longitude":-71.261349,"id":"a635n42rvbdf","address":"Marrett Rd &amp; Forbes Rd","location":"Hanscom Air Force Base"},"type":"Feature","geometry":{"type":"Point","coordinates":[-71.261349,42.44455]}},{"properties":{"timestamp":"3/13/2009","city":"Lexington, MA","latitude":42.441821,"time":"2:20 PM - 3:00 PM","title":"God Hates You","longitude":-71.231558,"id":"a635n3wdjvsn","address":"251 Waltham St","location":"Lexington High School"},"type":"Feature","geometry":{"type":"Point","coordinates":[-71.231558,42.441821]}},{"properties":{"timestamp":"3/13/2009","city":"Reading, MA","latitude":42.534713,"time":"6:45 PM - 7:30 PM","title":"God H8s Matt","longitude":-71.107891,"id":"a635n43slnbn","address":"62 Oakland Road","location":"Reading Memorial High School Auditorium"},"type":"Feature","geometry":{"type":"Point","coordinates":[-71.107891,42.534713]}},{"properties":{"timestamp":"3/13/2009","city":"Kansas City, MO","latitude":39.097044,"time":"6:00 PM - 7:00 PM","title":"Women, keep silent","longitude":-94.580927,"id":"a635n3r1ftxa","address":"1407 Grand Blvd","location":"Sprint Center Women of Faith Farce"},"type":"Feature","geometry":{"type":"Point","coordinates":[-94.580927,39.097044]}},{"properties":{"timestamp":"3/14/2009","city":"Kansas City, MO","latitude":39.097044,"time":"08:00 AM - 09:00 AM","title":"Read James, and shut up","longitude":-94.580927,"id":"a635n4512kno","address":"1407 Grand Blvd","location":"Sprint Center Faithless Women"},"type":"Feature","geometry":{"type":"Point","coordinates":[-94.580927,39.097044]}},{"properties":{"timestamp":"3/17/2009","city":"Tulsa, OK","latitude":36.157109,"time":"6:30 PM - 7:30 PM","title":"Billy Joel @ BOK","longitude":-95.997376,"id":"a635n3rvvm2h","address":"200 N Denver Ave","location":"Sir Elton John"},"type":"Feature","geometry":{"type":"Point","coordinates":[-95.997376,36.157109]}},{"properties":{"timestamp":"3/20/2009","city":"Grandfield, OK","latitude":34.229537,"time":"2:30 PM - 3:15 PM","title":"Matt's Still in Hell, SILLY","longitude":-98.690357,"id":"a635n40pluq8","address":"811 W. 3rd Street","location":"Grandfield High School"},"type":"Feature","geometry":{"type":"Point","coordinates":[-98.690357,34.229537]}},{"properties":{"timestamp":"3/20/2009","city":"Boston, MA","latitude":42.357702,"time":"08:00 AM - 08:45 AM","title":"Po' Things, they're Cursed of God","longitude":-71.063167,"id":"a635n3tbu7zz","address":"24 Beacon St","location":"Massachusetts Statehouse"},"type":"Feature","geometry":{"type":"Point","coordinates":[-71.063167,42.357702]}},{"properties":{"timestamp":"3/20/2009","city":"Boston, MA","latitude":42.342157,"time":"09:00 AM - 09:45 AM","title":"WORD 2 U","longitude":-71.159994,"id":"a635n4635d0s","address":"20 Park Plaza","location":"Israel, Brazil, Peru &amp; Mexico Consulates General"},"type":"Feature","geometry":{"type":"Point","coordinates":[-71.159994,42.342157]}},{"properties":{"timestamp":"3/20/2009","city":"Cambridge, MA","latitude":42.3731,"time":"11:15 AM - 12:00 PM","title":"Where is the wise, the scribe, etc?","longitude":-71.114685,"id":"a635n3vwmmvn","address":"12 Quincy St","location":"Harvard University"},"type":"Feature","geometry":{"type":"Point","coordinates":[-71.114685,42.3731]}},{"properties":{"timestamp":"3/20/2009","city":"Canton, MA","latitude":42.161407,"time":"1:40 PM - 2:30 PM","title":"Y U think Ur Hard, Y U think God's NOT","longitude":-71.143885,"id":"a635n3yimhc6","address":"900 Washington St","location":"Canton High School"},"type":"Feature","geometry":{"type":"Point","coordinates":[-71.143885,42.161407]}},{"properties":{"timestamp":"3/20/2009","city":"East Boston, MA","latitude":42.380842,"time":"07:00 AM - 7:45 PM","title":"No God tighter than WBCs God","longitude":-71.034705,"id":"a635n3z4u47b","address":"86 White St.","location":"East Boston High School"},"type":"Feature","geometry":{"type":"Point","coordinates":[-71.034705,42.380842]}},{"properties":{"timestamp":"3/27/2009","city":"Daytona Beach, FL","latitude":29.189103,"time":"5:00 PM - 6:00 PM","title":"God STILL Hates Fags, dummies","longitude":-81.045612,"id":"a635n3zhxx4f","address":"600 S. Clyde Morris Blvd","location":"The FL Collegiat Pride Conf"},"type":"Feature","geometry":{"type":"Point","coordinates":[-81.045612,29.189103]}},{"properties":{"timestamp":"3/28/2009","city":"Daytona Beach, FL","latitude":29.189103,"time":"10:00 AM - 11:00 AM","title":"There are no Fags In Heaven","longitude":-81.045612,"id":"a635n45lw0ih","address":"600 S. Clyde Morris Blvd","location":"The FL Collegiat Pride Conf"},"type":"Feature","geometry":{"type":"Point","coordinates":[-81.045612,29.189103]}},{"properties":{"timestamp":"3/28/2009","city":"Orlando, FL","latitude":28.521434,"time":"5:15 PM - 6:00 PM","title":"YOU HATE YOUR NEIGHBOUR","longitude":-81.41778,"id":"a635n3ud6udc","address":"3000 S. John Young Parkway","location":"First Baptist Church of Orlando"},"type":"Feature","geometry":{"type":"Point","coordinates":[-81.41778,28.521434]}},{"properties":{"timestamp":"3/30/2009","city":"Fairfax, VA","latitude":38.859808,"time":"06:45 AM - 07:25 AM","title":"Rebel Pride indeed","longitude":-77.284096,"id":"a635n3svmwbl","address":"3501 Rebel Run","location":"Fairfax High School"},"type":"Feature","geometry":{"type":"Point","coordinates":[-77.284096,38.859808]}},{"properties":{"timestamp":"3/30/2009","city":"Fairfax, VA","latitude":38.835096,"time":"07:45 AM - 08:30 AM","title":"Fag Pride? There is NO REPENTANCE","longitude":-77.310872,"id":"a635n41ydzfd","address":"4400 University Drive","location":"George Mason University"},"type":"Feature","geometry":{"type":"Point","coordinates":[-77.310872,38.835096]}},{"properties":{"timestamp":"3/30/2009","city":"Washington, DC","latitude":38.916188,"time":"10:00 AM - 10:30 AM","title":"Planes Crash and God Laughs","longitude":-77.055935,"id":"a635n43o7yo1","address":"2525 Massachusetts Ave NW","location":"Turkey Embassy"},"type":"Feature","geometry":{"type":"Point","coordinates":[-77.055935,38.916188]}},{"properties":{"timestamp":"3/30/2009","city":"Washington, DC","latitude":38.94457,"time":"10:45 AM - 11:15 AM","title":"God Hates You and Yr Going 2 Hell","longitude":-77.055358,"id":"a635n3yt7hry","address":"4200 Linnean Ave NW","location":"Netherlands Embassy"},"type":"Feature","geometry":{"type":"Point","coordinates":[-77.055358,38.94457]}},{"properties":{"timestamp":"3/30/2009","city":"Baltimore, MD","latitude":39.28642,"time":"4:30 PM - 5:15 PM","title":"Beast Obama Will H8s you","longitude":-76.617539,"id":"a635n41gqp6n","address":"Hopkins Place &amp; W Pratt St","location":"Federal Courthouse in Baltimore"},"type":"Feature","geometry":{"type":"Point","coordinates":[-76.617539,39.28642]}},{"properties":{"timestamp":"3/30/2009","city":"Towson, MD","latitude":39.391184,"time":"2:10 PM - 2:45 PM","title":"God Is Dealing With Your Brats","longitude":-76.601652,"id":"a635n3tmpuo1","address":"69 Cedar Avenue","location":"Towson High School"},"type":"Feature","geometry":{"type":"Point","coordinates":[-76.601652,39.391184]}},{"properties":{"timestamp":"3/30/2009","city":"Washington, DC","latitude":38.89859,"time":"11:30 AM - 12:15 PM","title":"Pray for God to SHORTLY destroy Antichrist","longitude":-77.035971,"id":"a635n3zcz6p2","address":"1600 Pennsylvania","location":"White House"},"type":"Feature","geometry":{"type":"Point","coordinates":[-77.035971,38.89859]}},{"properties":{"timestamp":"4/24/2009","city":"Baltimore, MD","latitude":39.356723,"time":"6:45 PM - 7:30 PM","title":"Hell is real: ask Matt","longitude":-76.635081,"id":"a635n3th7vk1","address":"5204 Roland Avenue","location":"Roland Park Country School"},"type":"Feature","geometry":{"type":"Point","coordinates":[-76.635081,39.356723]}},{"properties":{"timestamp":"4/24/2009","city":"Bethesda, MD","latitude":38.981467,"time":"2:00 PM - 2:40 PM","title":"Dead Fag ALERT","longitude":-77.125895,"id":"a635n3r449k9","address":"7100 Whittier Boulevard","location":"Walt Whitman High School"},"type":"Feature","geometry":{"type":"Point","coordinates":[-77.125895,38.981467]}},{"properties":{"timestamp":"4/24/2009","city":"Baltimore, MD","latitude":39.28642,"time":"4:45 PM - 5:30 PM","title":"Obama Hates YOU","longitude":-76.617539,"id":"a635n3zp79el","address":"Hopkins Place &amp; W. Pratt Street","location":"Federal Courthouse in Baltimore"},"type":"Feature","geometry":{"type":"Point","coordinates":[-76.617539,39.28642]}},{"properties":{"timestamp":"4/3/2009","city":"Carson City, NV","latitude":39.161862,"time":"11:00 AM - 11:45 AM","title":"God Hates Nevada","longitude":-119.766955,"id":"a635n3twrv27","address":"401 S. Carson St.","location":"Nevada Legislative Building"},"type":"Feature","geometry":{"type":"Point","coordinates":[-119.766955,39.161862]}},{"properties":{"timestamp":"4/3/2009","city":"Carson City, NV","latitude":39.170423,"time":"1:45 PM - 2:30 PM","title":"Put away your false gods, little dummy","longitude":-119.750834,"id":"a635n408iyh9","address":"1111 North Saliman","location":"Carson High School"},"type":"Feature","geometry":{"type":"Point","coordinates":[-119.750834,39.170423]}},{"properties":{"timestamp":"4/3/2009","city":"Reno, NV","latitude":39.547917,"time":"08:15 AM - 09:00 AM","title":"Pride goeth before destruction","longitude":-119.820966,"id":"a635n3xmualv","address":"1664 N. Virginia St","location":"University of Nevada"},"type":"Feature","geometry":{"type":"Point","coordinates":[-119.820966,39.547917]}},{"properties":{"timestamp":"4/3/2009","city":"Reno, NV","latitude":39.517352,"time":"07:20 AM - 08:00 AM","title":"Lookie here squirts: God H8s Fag Enablers","longitude":-119.826601,"id":"a635n3xwarjf","address":"395 Booth Street","location":"Reno High School"},"type":"Feature","geometry":{"type":"Point","coordinates":[-119.826601,39.517352]}},{"properties":{"timestamp":"4/3/2009","city":"Carson City, NV","latitude":39.186186,"time":"09:45 AM - 10:30 AM","title":"You Are Going To Hell","longitude":-119.789719,"id":"a635n45a1q1y","address":"2201 West College Parkway","location":"Western Nevada College"},"type":"Feature","geometry":{"type":"Point","coordinates":[-119.789719,39.186186]}},{"properties":{"timestamp":"5/16/2009","city":"Omaha, NE","latitude":41.260758,"time":"09:00 AM - 10:00 AM","title":"Omaha North High School is DOOMED","longitude":-95.940002,"id":"a635n4336lno","address":"1804 Capitol Ave","location":"Omaha Civic Auditorium"},"type":"Feature","geometry":{"type":"Point","coordinates":[-95.940002,41.260758]}},{"properties":{"timestamp":"5/16/2009","city":"Omaha, NE","latitude":41.260758,"time":"1:00 PM - 2:00 PM","title":"Off to hell with Omaha Central","longitude":-95.940002,"id":"a635n43e0c1l","address":"1804 Capitol Ave","location":"Omaha Civic Auditorium"},"type":"Feature","geometry":{"type":"Point","coordinates":[-95.940002,41.260758]}},{"properties":{"timestamp":"5/17/2009","city":"Ft. Lauderdale, FL","latitude":26.202895,"time":"11:00 AM - 12:00 PM","title":"R U Kidding me? God H8s U","longitude":-80.175068,"id":"a635n41m5zz4","address":"2401 W. Cypress Creek Rd","location":"Calvary Chapel Ft. Lauderdale"},"type":"Feature","geometry":{"type":"Point","coordinates":[-80.175068,26.202895]}},{"properties":{"timestamp":"5/17/2009","city":"Coral Gables, FL","latitude":25.741748,"time":"10:30 AM - 11:00 AM","title":"God H8s Liars","longitude":-80.266921,"id":"a635n3wpnzt4","address":"624 Anastasia Ave.","location":"University Baptist Church"},"type":"Feature","geometry":{"type":"Point","coordinates":[-80.266921,25.741748]}},{"properties":{"timestamp":"5/17/2009","city":"Coral Gables, FL","latitude":25.689509,"time":"09:30 AM - 10:00 AM","title":"Episcopal = SIN X 10","longitude":-80.284449,"id":"a635n3tgsm4h","address":"5690 N. Kendall Drive","location":"St. Thomas Episcopal Church"},"type":"Feature","geometry":{"type":"Point","coordinates":[-80.284449,25.689509]}},{"properties":{"timestamp":"5/17/2009","city":"Miami, FL","latitude":25.728985,"time":"11:15 AM - 11:45 AM","title":"God Hates You Both","longitude":-80.237419,"id":"a635n3voc3zp","address":"800 Bricknell Ave","location":"Argentina &amp; Chile Consulates"},"type":"Feature","geometry":{"type":"Point","coordinates":[-80.237419,25.728985]}},{"properties":{"timestamp":"5/17/2009","city":"Miami, FL","latitude":25.766223,"time":"11:15 AM - 11:45 AM","title":"Thank God for Hiroshima Bomb","longitude":-80.194828,"id":"a635n41npzab","address":"80 SW 8th St","location":"Brazil &amp; Japan Consulates"},"type":"Feature","geometry":{"type":"Point","coordinates":[-80.194828,25.766223]}},{"properties":{"timestamp":"5/17/2009","city":"Coral Gables, FL","latitude":25.745498,"time":"12:00 PM - 12:30 PM","title":"Priests Rape CHILDREN","longitude":-80.281779,"id":"a635n3tj8xhw","address":"2711 Indian Mound Trail","location":"Church of the Little Flower"},"type":"Feature","geometry":{"type":"Point","coordinates":[-80.281779,25.745498]}},{"properties":{"timestamp":"5/17/2009","city":"Omaha, NE","latitude":41.260758,"time":"1:00 PM - 2:00 PM","title":"Omaha South Hates God","longitude":-95.940002,"id":"a635n40ze3tn","address":"1804 Capitol Avenue","location":"Omaha Civic Center"},"type":"Feature","geometry":{"type":"Point","coordinates":[-95.940002,41.260758]}},{"properties":{"timestamp":"5/17/2009","city":"Coral Gables, FL","latitude":25.715551,"time":"1:00 PM - 2:00 PM","title":"Bloody Lawyers","longitude":-80.278289,"id":"a635n436rs33","address":"1245 Dauer Drive","location":"University of Miami Law School Graduation"},"type":"Feature","geometry":{"type":"Point","coordinates":[-80.278289,25.715551]}},{"properties":{"timestamp":"5/22/2009","city":"Key West, FL","latitude":24.556243,"time":"3:45 PM - 4:15 PM","title":"GSA Club = Hell Obama H8s you","longitude":-81.777875,"id":"a635n3qvu7ta","address":"2100 Flagler Ave","location":"Key West High School"},"type":"Feature","geometry":{"type":"Point","coordinates":[-81.777875,24.556243]}},{"properties":{"timestamp":"5/22/2009","city":"Key West, FL","latitude":24.56799,"time":"4:20 PM - 4:55 PM","title":"Do NOT take Obama's Mark","longitude":-81.769319,"id":"a635n42y8zm4","address":"N. Roosevelt Blvd &amp; Kennedy Drive","location":"Sigsbee Park NAS Key West"},"type":"Feature","geometry":{"type":"Point","coordinates":[-81.769319,24.56799]}},{"properties":{"timestamp":"5/22/2009","city":"Key West, FL","latitude":24.554079,"time":"5:00 PM - 6:00 PM","title":"Bloody Obama","longitude":-81.800941,"id":"a635n3vf08wd","address":"N. Roosevelt Blvd &amp; Overseas Highway","location":"Overseas Highway leading into Key West"},"type":"Feature","geometry":{"type":"Point","coordinates":[-81.800941,24.554079]}},{"properties":{"timestamp":"7/18/2009","city":"Jacksonville, FL","latitude":30.202587,"time":"3:45 PM - 4:15 PM","title":"Anchors ALL GONE, you fools","longitude":-81.790588,"id":"a635n43khj8n","address":"Collins Rd. &amp; Roosevelt Blvd.","location":"Jacksonville Naval Air Station"},"type":"Feature","geometry":{"type":"Point","coordinates":[-81.790588,30.202587]}},{"properties":{"timestamp":"7/18/2009","city":"Jacksonville, FL","latitude":30.159678,"time":"4:45 PM - 5:30 PM","title":"God doesn't hear your prayers","longitude":-81.599075,"id":"a635n43a4mxa","address":"11730 Old Augustine Rd.","location":"St. Joseph Catholic Church"},"type":"Feature","geometry":{"type":"Point","coordinates":[-81.599075,30.159678]}},{"properties":{"timestamp":"7/19/2009","city":"Jacksonville, FL","latitude":30.329038,"time":"09:15 AM - 10:00 AM","title":"think Iron Undies","longitude":-81.65552,"id":"a635n46pn30w","address":"121 E. Duval St.","location":"Immaculate Conception Catholic Church"},"type":"Feature","geometry":{"type":"Point","coordinates":[-81.65552,30.329038]}},{"properties":{"timestamp":"7/19/2009","city":"Jacksonville, FL","latitude":30.331004,"time":"09:30 AM - 10:20 AM","title":"'Bout as Baptist As Balaam's Ass","longitude":-81.658545,"id":"a635n3xx25ur","address":"124 W. Ashley St","location":"First Baptist Church"},"type":"Feature","geometry":{"type":"Point","coordinates":[-81.658545,30.331004]}},{"properties":{"timestamp":"7/19/2009","city":"Jacksonville, FL","latitude":30.336017,"time":"10:00 AM - 10:45 AM","title":"Again with the lying","longitude":-81.658297,"id":"a635n3txkmwb","address":"215 Bethel Baptist St.","location":"Bethel Baptist Institutional Church"},"type":"Feature","geometry":{"type":"Point","coordinates":[-81.658297,30.336017]}},{"properties":{"timestamp":"7/19/2009","city":"Jacksonville, FL","latitude":30.242273,"time":"10:45 AM - 11:30 AM","title":"Celebrating in route to hell?","longitude":-81.545411,"id":"a635n46ol1v2","address":"10302 Deerwood Park Blvd","location":"Celebration Church"},"type":"Feature","geometry":{"type":"Point","coordinates":[-81.545411,30.242273]}}],"is_temporal":true,"author":{"url":"http://www.westborobaptistchurch.com/schedule.html","metadata":"","contact_name":"","contact_address":"","source":"Westboro Baptist Church","contact_phone":""},"source":"http://www.westborobaptistchurch.com/schedule.html","pagination":{"sort":null,"start":0,"total":50,"limit":1000000},"state":"complete","tags":"hate,homophobia,protest,racism,radicals,religion,wbc","published":"2009-03-11T12:00:00Z","id":10501}