{"type":"FeatureCollection","data_type":"Dataset","url_type":null,"permissions":[{"permissions":{"download":true,"view":true},"group_id":"everyone"}],"classification":null,"title":"Lp1 exports map","count":206,"stream_id":105400,"contributor":{"url":"http://geocommons.com/users/22774","name":"mcleodm02"},"data_attributes":null,"calculation_params":null,"icon_link":null,"link":"http://geocommons.com/overlays/105400.json","extent":[0.0,0.0,0.0,0.0],"geometry_types":null,"unique_name":null,"name":"Lp1 exports map","feature_count":206,"description":"","next_feature":null,"is_raster":false,"short_classification":"Y","stats":{},"features":[{"properties":{"city":null,"full name":"Adam Smith","id":"a6fl9i68b737","state":null},"type":"Feature","geometry":null},{"properties":{"city":"raleigh","full name":"Dwight Carter","id":"a6fl9hzryfmz","state":"NC"},"type":"Feature","geometry":null},{"properties":{"city":"raleigh","full name":"Tommie Smith","id":"a6fl9iad6iw7","state":"NC"},"type":"Feature","geometry":null},{"properties":{"city":null,"full name":"David Easterbrooks","id":"a6fl9ic6vs9y","state":null},"type":"Feature","geometry":null},{"properties":{"city":"raleigh","full name":"Orlan Johnson","id":"a6fl9i0s1pf1","state":"NC"},"type":"Feature","geometry":null},{"properties":{"city":"raleigh","full name":"Bob Daniels","id":"a6fl9hxys1ty","state":"NC"},"type":"Feature","geometry":null},{"properties":{"city":"raleigh","full name":"Steve Holdaway","id":"a6fl9i2c29co","state":"NC"},"type":"Feature","geometry":null},{"properties":{"city":"raleigh","full name":"Christian Desgroux","id":"a6fl9i54rmb3","state":"NC"},"type":"Feature","geometry":null},{"properties":{"city":"raleigh","full name":"Bill Warner","id":"a6fl9i2i4fdk","state":"NC"},"type":"Feature","geometry":null},{"properties":{"city":"raleigh","full name":"Travis Carter","id":"a6fl9ibg1zdg","state":"NC"},"type":"Feature","geometry":null},{"properties":{"city":"raleigh","full name":"Sam Whitt","id":"a6fl9i1rllvf","state":"NC"},"type":"Feature","geometry":null},{"properties":{"city":"raleigh","full name":"Eric Garrison","id":"a6fl9i4zmxpo","state":"NC"},"type":"Feature","geometry":null},{"properties":{"city":"raleigh","full name":"Dale Siler","id":"a6fl9ibir0jl","state":"NC"},"type":"Feature","geometry":null},{"properties":{"city":"raleigh","full name":"Drew Stamp","id":"a6fl9hy0fk5n","state":"NC"},"type":"Feature","geometry":null},{"properties":{"city":"Atlanta","full name":"Mike Flanter","id":"a6fl9iczw30a","state":"Ga"},"type":"Feature","geometry":null},{"properties":{"city":"Doraville","full name":"gilman cousin doraville","id":"a6fl9i9w8r6v","state":"ga"},"type":"Feature","geometry":null},{"properties":{"city":"raleigh","full name":"Bob Brumbaugh","id":"a6fl9iar9iq6","state":"NC"},"type":"Feature","geometry":null},{"properties":{"city":"raleigh","full name":"Kathleen Carter","id":"a6fl9ia66p7v","state":"NC"},"type":"Feature","geometry":null},{"properties":{"city":"raleigh","full name":"Matt Carter","id":"a6fl9hznvff1","state":"NC"},"type":"Feature","geometry":null},{"properties":{"city":"raleigh","full name":"David Rowe","id":"a6fl9hz1626d","state":"NC"},"type":"Feature","geometry":null},{"properties":{"city":"raleigh","full name":"Ellis Moore","id":"a6fl9hyei5zo","state":"NC"},"type":"Feature","geometry":null},{"properties":{"city":"raleigh","full name":"Ron Wooten","id":"a6fl9hzyj5ro","state":"NC"},"type":"Feature","geometry":null},{"properties":{"city":"Orlando","full name":"Karl Mayenshine","id":"a6fl9ickujon","state":"fl"},"type":"Feature","geometry":null},{"properties":{"city":"Lynchburg","full name":"Mike Lowry","id":"a6fl9i3tsj7k","state":"VA"},"type":"Feature","geometry":null},{"properties":{"city":"Presquille","full name":"Bruce Sargent","id":"a6fl9i8a9l4l","state":"me"},"type":"Feature","geometry":null},{"properties":{"city":"portland","full name":"Tyler Brewer","id":"a6fl9i5ory4q","state":"me"},"type":"Feature","geometry":null},{"properties":{"city":"Presquille","full name":"Wade McCrum","id":"a6fl9i2k0pku","state":"me"},"type":"Feature","geometry":null},{"properties":{"city":"new york","full name":"Howard Keenan","id":"a6fl9i1hvgge","state":"ny"},"type":"Feature","geometry":null},{"properties":{"city":"boston","full name":"Rich Prout","id":"a6fl9i5u4fo2","state":"ma"},"type":"Feature","geometry":null},{"properties":{"city":"Kernersville","full name":"Aaron Tabor","id":"a6fl9hx9msem","state":"nc"},"type":"Feature","geometry":null},{"properties":{"city":"San Fransico","full name":"cisco","id":"a6fl9i5do0m7","state":"ca"},"type":"Feature","geometry":null},{"properties":{"city":"Rustburg","full name":"Charles Ferris","id":"a6fl9hxjlntt","state":"va"},"type":"Feature","geometry":null},{"properties":{"city":"Rouse point","full name":"Bobby Treadwell","id":"a6fl9i9a1sf6","state":"ny"},"type":"Feature","geometry":null},{"properties":{"city":"St. Louis","full name":"ussellman","id":"a6fl9i6cjid8","state":"mo"},"type":"Feature","geometry":null},{"properties":{"city":"Lyncburg","full name":"Terry Falwell","id":"a6fl9hzypusp","state":"va"},"type":"Feature","geometry":null},{"properties":{"city":"Lynchburg","full name":"Bill Stockwell","id":"a6fl9hxvgkhs","state":"VA"},"type":"Feature","geometry":null},{"properties":{"city":"Lynchburg","full name":"george caylor  commonwealth, VA","id":"a6fl9hxrv3kv","state":"va"},"type":"Feature","geometry":null},{"properties":{"city":"Brewer","full name":"Milan family","id":"a6fl9i0h5669","state":"Me"},"type":"Feature","geometry":null},{"properties":{"city":"Lyncburg","full name":"Rob Eagel","id":"a6fl9i2vpf9r","state":"va"},"type":"Feature","geometry":null},{"properties":{"city":"orrington","full name":"john oulette trash biz owner","id":"a6fl9i2aede4","state":"me"},"type":"Feature","geometry":null},{"properties":{"city":"Fairfeild","full name":"tim bailey","id":"a6fl9ib3l4d7","state":"ME"},"type":"Feature","geometry":null},{"properties":{"city":"Lynchburg","full name":"mr rice","id":"a6fl9idbf70n","state":"VA"},"type":"Feature","geometry":null},{"properties":{"city":"Bangor","full name":"carroll conelly","id":"a6fl9hxkezni","state":"me"},"type":"Feature","geometry":null},{"properties":{"city":"Lynchburg","full name":"Wayne Booth","id":"a6fl9hxxg838","state":"va"},"type":"Feature","geometry":null},{"properties":{"city":null,"full name":"chris herrington","id":"a6fl9id7hbtq","state":"??"},"type":"Feature","geometry":null},{"properties":{"city":"Lynchburg","full name":"LU investment guy","id":"a6fl9hxxoida","state":"va"},"type":"Feature","geometry":null},{"properties":{"city":"Pheonix","full name":"Markus Ellison","id":"a6fl9i6pixcp","state":"az"},"type":"Feature","geometry":null},{"properties":{"city":"Bristol","full name":"jon lundburg","id":"a6fl9i3l2pit","state":"tn"},"type":"Feature","geometry":null},{"properties":{"city":"Bangor","full name":"chris hutchins","id":"a6fl9i4u5c64","state":"me"},"type":"Feature","geometry":null},{"properties":{"city":"Charlotsville","full name":"port stansberry","id":"a6fl9i7mhegb","state":"NC"},"type":"Feature","geometry":null},{"properties":{"city":"Bangor","full name":"tim chandler","id":"a6fl9i7pritx","state":"me"},"type":"Feature","geometry":null},{"properties":{"city":"Washington","full name":"jim wiltraut","id":"a6fl9i7ayz4o","state":"dc"},"type":"Feature","geometry":null},{"properties":{"city":"Bangor","full name":"aj walker","id":"a6fl9hycjfb3","state":"me"},"type":"Feature","geometry":null},{"properties":{"city":"Forest","full name":"Tim Hamilton @ valtim","id":"a6fl9hypj5zt","state":"va"},"type":"Feature","geometry":null},{"properties":{"city":"Lyncburg","full name":"polly woldridge","id":"a6fl9iavyfox","state":"va"},"type":"Feature","geometry":null},{"properties":{"city":"Bangor","full name":"Rick Paresian","id":"a6fl9i9cc7xi","state":"me"},"type":"Feature","geometry":null},{"properties":{"city":"Forest","full name":"barry's trucking neighbor from roanoke","id":"a6fl9hznhrfd","state":"Va"},"type":"Feature","geometry":null},{"properties":{"city":"lynchburg","full name":"larry richmond","id":"a6fl9iaghjg0","state":"va"},"type":"Feature","geometry":null},{"properties":{"city":"Nashville","full name":"gary stuart","id":"a6fl9i0yuxe3","state":"tn"},"type":"Feature","geometry":null},{"properties":{"city":"Baltimore","full name":"bill spencer","id":"a6fl9i9vwar4","state":"md"},"type":"Feature","geometry":null},{"properties":{"city":"Hamptons","full name":"jack mulderick","id":"a6fl9hzg39qe","state":"ny"},"type":"Feature","geometry":null},{"properties":{"city":"Bangor","full name":"Park Johnson","id":"a6fl9i61u3ma","state":"me"},"type":"Feature","geometry":null},{"properties":{"city":"Houston","full name":"brian fertig's cousin in TX","id":"a6fl9i73owhy","state":"tx"},"type":"Feature","geometry":null},{"properties":{"city":"Bangor","full name":"Tim Horton's owner .","id":"a6fl9i30hh4k","state":"me"},"type":"Feature","geometry":null},{"properties":{"city":"Orlando","full name":"nathan reardon","id":"a6fl9ibmet1z","state":"fl"},"type":"Feature","geometry":null},{"properties":{"city":"lyncburg","full name":"Jim Thomas","id":"a6fl9ibo6d84","state":"VA"},"type":"Feature","geometry":null},{"properties":{"city":"Lynchburg","full name":"tom dewitt","id":"a6fl9i6aru8x","state":"va"},"type":"Feature","geometry":null},{"properties":{"city":"Bangor","full name":"John Miller","id":"a6fl9iar2q1f","state":"ME"},"type":"Feature","geometry":null},{"properties":{"city":"New York","full name":"charles glover","id":"a6fl9i35qvhq","state":"NY"},"type":"Feature","geometry":null},{"properties":{"city":"Bangor","full name":"tom obey","id":"a6fl9i8sm3ts","state":"me"},"type":"Feature","geometry":null},{"properties":{"city":"Philadelphia","full name":"Steve Haney","id":"a6fl9i7fha0d","state":"pa"},"type":"Feature","geometry":null},{"properties":{"city":"Bedford","full name":"allen greggory","id":"a6fl9iafaexr","state":"va"},"type":"Feature","geometry":null},{"properties":{"city":"Nashville","full name":"steve stuart","id":"a6fl9i69jsuj","state":"tn"},"type":"Feature","geometry":null},{"properties":{"city":null,"full name":"elizabeth sims 2 rich folks","id":"a6fl9hyd0na6","state":null},"type":"Feature","geometry":null},{"properties":{"city":"Forest","full name":"rev davidson gleaning","id":"a6fl9hxc621l","state":"VA"},"type":"Feature","geometry":null},{"properties":{"city":"lynchburg","full name":"Ron Ferrin","id":"a6fl9ib6im2o","state":"va"},"type":"Feature","geometry":null},{"properties":{"city":"Raleigh","full name":"paynes father","id":"a6fl9i4pcps4","state":"nc"},"type":"Feature","geometry":null},{"properties":{"city":null,"full name":"henry penix","id":"a6fl9ic4xhzl","state":null},"type":"Feature","geometry":null},{"properties":{"city":"San Diego","full name":"wang trading","id":"a6fl9i8khcc3","state":"ca"},"type":"Feature","geometry":null},{"properties":{"city":"Bangor","full name":"quirk","id":"a6fl9icmqvox","state":"Me"},"type":"Feature","geometry":null},{"properties":{"city":"Bangor","full name":"darling","id":"a6fl9i80w7x8","state":"Me"},"type":"Feature","geometry":null},{"properties":{"city":null,"full name":"Les Swartz Decision Bar","id":"a6fl9ib0sakw","state":null},"type":"Feature","geometry":null},{"properties":{"city":"Lynchburg","full name":"Galen Eddy","id":"a6fl9hzof6ab","state":"va"},"type":"Feature","geometry":null},{"properties":{"city":"Lynchbrg","full name":"Reggie Powell","id":"a6fl9iao80pu","state":"va"},"type":"Feature","geometry":null},{"properties":{"city":"Atlanta","full name":"william edge","id":"a6fl9i3sy6qa","state":"GA"},"type":"Feature","geometry":null},{"properties":{"city":"Lynchburg","full name":"silver pawn guy's brother nathan","id":"a6fl9i3n882e","state":"VA"},"type":"Feature","geometry":null},{"properties":{"city":"Lyncburg","full name":"Mickey Herzing","id":"a6fl9i66x7it","state":"Va"},"type":"Feature","geometry":null},{"properties":{"city":"Veazie","full name":"Rod Hathaway","id":"a6fl9i873rri","state":"ME"},"type":"Feature","geometry":null},{"properties":{"city":"Orlando","full name":"wayne frost","id":"a6fl9i111j54","state":"fl"},"type":"Feature","geometry":null},{"properties":{"city":"Mansfield","full name":"Pat Hord","id":"a6fl9i6x19n9","state":"oh"},"type":"Feature","geometry":null},{"properties":{"city":"Agusta","full name":"dennis keller","id":"a6fl9i7fskr6","state":"me"},"type":"Feature","geometry":null},{"properties":{"city":"Chalotsville","full name":"joe polumbo in charlotsville","id":"a6fl9idab6qh","state":"NC"},"type":"Feature","geometry":null},{"properties":{"city":"Bangor","full name":"David Palmer","id":"a6fl9i3ojs3f","state":"me"},"type":"Feature","geometry":null},{"properties":{"city":"Holden","full name":"Rollin Stearns","id":"a6fl9hz85blf","state":"me"},"type":"Feature","geometry":null},{"properties":{"city":"Tulsa","full name":"kurt able","id":"a6fl9i4stgrz","state":"ok"},"type":"Feature","geometry":null},{"properties":{"city":null,"full name":"byron taber","id":"a6fl9i7dq9gu","state":"nc"},"type":"Feature","geometry":null},{"properties":{"city":"Lynhburg","full name":"bruce braunn","id":"a6fl9iblf90e","state":"va"},"type":"Feature","geometry":null},{"properties":{"city":"Boston","full name":"ed luchetti","id":"a6fl9i37ezg0","state":"ma"},"type":"Feature","geometry":null},{"properties":{"city":"Charlotte","full name":"byron tabor","id":"a6fl9i4jb626","state":"NC"},"type":"Feature","geometry":null},{"properties":{"city":"Greensboro","full name":"hales greensboro relative","id":"a6fl9i2tztk5","state":"nc"},"type":"Feature","geometry":null},{"properties":{"city":"Ellsworth","full name":"john linnehan","id":"a6fl9i83w0hn","state":"me"},"type":"Feature","geometry":null},{"properties":{"city":"Lyncburg","full name":"mr. reber who thomas knows","id":"a6fl9hyaxo9q","state":"Va"},"type":"Feature","geometry":null},{"properties":{"city":"Agusta","full name":"maine bank","id":"a6fl9i0bw4g8","state":"me"},"type":"Feature","geometry":null},{"properties":{"city":"Lyncburg","full name":"randy dunton","id":"a6fl9hywbny6","state":"va"},"type":"Feature","geometry":null},{"properties":{"city":"Bangor","full name":"jamie campbell","id":"a6fl9hzogi8r","state":"me"},"type":"Feature","geometry":null},{"properties":{"city":"Spartansburg","full name":"Crews","id":"a6fl9i5hwkv0","state":"SC"},"type":"Feature","geometry":null},{"properties":{"city":"Charlottsville","full name":"cheif nesbit","id":"a6fl9i46j85f","state":"NC"},"type":"Feature","geometry":null},{"properties":{"city":"Madison","full name":"mitch lambert","id":"a6fl9i9nbnp4","state":"wi"},"type":"Feature","geometry":null},{"properties":{"city":"Bangor","full name":"Tim Varney","id":"a6fl9ic5yevt","state":"Me"},"type":"Feature","geometry":null},{"properties":{"city":"Bangor","full name":"pudge harrison","id":"a6fl9i5igwti","state":"me"},"type":"Feature","geometry":null},{"properties":{"city":"Orlando","full name":"steve saint","id":"a6fl9hxznk2f","state":"fl"},"type":"Feature","geometry":null},{"properties":{"city":"RedHook","full name":"dan viles","id":"a6fl9i72djm9","state":"ny"},"type":"Feature","geometry":null},{"properties":{"city":"Portland","full name":"john hathaway","id":"a6fl9i6jopkq","state":"me"},"type":"Feature","geometry":null},{"properties":{"city":"Orlando","full name":"billy speer","id":"a6fl9i5uehki","state":"fl"},"type":"Feature","geometry":null},{"properties":{"city":"Forest","full name":"jeff haringtons","id":"a6fl9hy2uxr4","state":"va"},"type":"Feature","geometry":null},{"properties":{"city":"Lynchburg","full name":"tip killoingsworth","id":"a6fl9i2of2s0","state":"va"},"type":"Feature","geometry":null},{"properties":{"city":"Hollywood","full name":"bill shortridge","id":"a6fl9hys63xe","state":"ca"},"type":"Feature","geometry":null},{"properties":{"city":"Bangor","full name":"french family","id":"a6fl9i87g0zk","state":"Me"},"type":"Feature","geometry":null},{"properties":{"city":"Bangor","full name":"Tom Lynch","id":"a6fl9i6qulj4","state":"me"},"type":"Feature","geometry":null},{"properties":{"city":"Lynchburg","full name":"Dustin Slightham","id":"a6fl9i6kwuqi","state":"va"},"type":"Feature","geometry":null},{"properties":{"city":null,"full name":"Mills Bennett","id":"a6fl9ic7lumy","state":null},"type":"Feature","geometry":null},{"properties":{"city":"Lyncburg","full name":"noah's dad, in service","id":"a6fl9idhowf0","state":"Va"},"type":"Feature","geometry":null},{"properties":{"city":"Vaezie","full name":"bill reed","id":"a6fl9i3jzkws","state":"me"},"type":"Feature","geometry":null},{"properties":{"city":"forest","full name":"Charles Spangler","id":"a6fl9ico6yh1","state":"Va"},"type":"Feature","geometry":null},{"properties":{"city":null,"full name":"Bill MacDonald","id":"a6fl9ia39it5","state":null},"type":"Feature","geometry":null},{"properties":{"city":"Bangor","full name":"bill macdonald","id":"a6fl9hzm1hbx","state":"me"},"type":"Feature","geometry":null},{"properties":{"city":null,"full name":"energy funds, cold calls","id":"a6fl9i9uz41v","state":null},"type":"Feature","geometry":null},{"properties":{"city":"Forest","full name":"Steve Powell","id":"a6fl9idf0ctu","state":"va"},"type":"Feature","geometry":null},{"properties":{"city":"Bangor","full name":"Alison &amp; Doug Reed","id":"a6fl9i6wrenj","state":"me"},"type":"Feature","geometry":null},{"properties":{"city":"Brewer","full name":"daniel marden","id":"a6fl9i6q3jqx","state":"me"},"type":"Feature","geometry":null},{"properties":{"city":"Nashville","full name":"Steve Strout","id":"a6fl9iaw3c8w","state":"tn"},"type":"Feature","geometry":null},{"properties":{"city":null,"full name":"mark chiavelli","id":"a6fl9iaakp00","state":null},"type":"Feature","geometry":null},{"properties":{"city":"Lynchburg","full name":"duke westover","id":"a6fl9hxi434d","state":"va"},"type":"Feature","geometry":null},{"properties":{"city":"Lynchburg","full name":"john gauger","id":"a6fl9i1pc8yr","state":"va"},"type":"Feature","geometry":null},{"properties":{"city":"San Diego","full name":"Andrew D. Horowitz, CPhD","id":"a6fl9i6ulu0x","state":"ca"},"type":"Feature","geometry":null},{"properties":{"city":"Atlanta","full name":"Beth's cousin in atlanta","id":"a6fl9hyen6tn","state":"ga"},"type":"Feature","geometry":null},{"properties":{"city":"Lynchburg","full name":"mike troxel","id":"a6fl9hz41yvy","state":"va"},"type":"Feature","geometry":null},{"properties":{"city":"Lynchburg","full name":"bob miller","id":"a6fl9i1s9571","state":"va"},"type":"Feature","geometry":null},{"properties":{"city":"San Diego","full name":"Connie Koch","id":"a6fl9i3uxbvt","state":"ca"},"type":"Feature","geometry":null},{"properties":{"city":"brewer","full name":"Allen Campbell","id":"a6fl9hxkdrck","state":"me"},"type":"Feature","geometry":null},{"properties":{"city":null,"full name":"tom thayer","id":"a6fl9i9t4fyw","state":null},"type":"Feature","geometry":null},{"properties":{"city":"Lynchburg","full name":"troxel","id":"a6fl9ia0s0x3","state":"va"},"type":"Feature","geometry":null},{"properties":{"city":"Brewer","full name":"terry hunt","id":"a6fl9i8eb8nh","state":"me"},"type":"Feature","geometry":null},{"properties":{"city":"Forest","full name":"chip staple","id":"a6fl9ib2gfsv","state":"Va"},"type":"Feature","geometry":null},{"properties":{"city":null,"full name":"issa ?where is she?","id":"a6fl9ib5n147","state":null},"type":"Feature","geometry":null},{"properties":{"city":null,"full name":"Andy Shuman","id":"a6fl9i33mq7q","state":null},"type":"Feature","geometry":null},{"properties":{"city":"Orono","full name":"Annie O'Reilly","id":"a6fl9i0dimu2","state":"me"},"type":"Feature","geometry":null},{"properties":{"city":"Lynchburg","full name":"steve tosure","id":"a6fl9iaw6pzf","state":"Va"},"type":"Feature","geometry":null},{"properties":{"city":"Bangor","full name":"Andrew Cushing","id":"a6fl9icqgo2f","state":"ME"},"type":"Feature","geometry":null},{"properties":{"city":"Wilmington","full name":"kapler","id":"a6fl9i5ppxt4","state":"de"},"type":"Feature","geometry":null},{"properties":{"city":"Lynchburg","full name":"doug hales","id":"a6fl9i1partc","state":"va"},"type":"Feature","geometry":null},{"properties":{"city":"Mars Hill","full name":"dalton","id":"a6fl9hy1ayn7","state":"me"},"type":"Feature","geometry":null},{"properties":{"city":"Hermon","full name":"Tim Dysart","id":"a6fl9i5kenb4","state":"me"},"type":"Feature","geometry":null},{"properties":{"city":"forest","full name":"??","id":"a6fl9iby46c8","state":null},"type":"Feature","geometry":null},{"properties":{"city":"Carmel","full name":"Howie Soule","id":"a6fl9hxiesjp","state":"me"},"type":"Feature","geometry":null},{"properties":{"city":null,"full name":"ta truck stops","id":"a6fl9i97a58m","state":null},"type":"Feature","geometry":null},{"properties":{"city":"Dairy","full name":"david clater","id":"a6fl9i4txyz5","state":"nh"},"type":"Feature","geometry":null},{"properties":{"city":"charlottsville","full name":"stansberry investments charlottsville","id":"a6fl9icyynjr","state":"NC"},"type":"Feature","geometry":null},{"properties":{"city":"Lynchburg","full name":"rob branch","id":"a6fl9ib5l2p7","state":"va"},"type":"Feature","geometry":null},{"properties":{"city":"Lynchburg","full name":"mr howell, carrie's dad","id":"a6fl9i4ejrba","state":"Va"},"type":"Feature","geometry":null},{"properties":{"city":"San Diego","full name":"Andrew Horawitz","id":"a6fl9hyxyh43","state":"ca"},"type":"Feature","geometry":null},{"properties":{"city":null,"full name":"Aaron Kuhl","id":"a6fl9iaddqny","state":null},"type":"Feature","geometry":null},{"properties":{"city":"kittery","full name":"linda bean","id":"a6fl9i8qw80d","state":"me"},"type":"Feature","geometry":null},{"properties":{"city":"Cambridge","full name":"thatcher JR.","id":"a6fl9hzyj12t","state":"Ma"},"type":"Feature","geometry":null},{"properties":{"city":"Raleigh","full name":"don gilman","id":"a6fl9ich8hgg","state":"NC"},"type":"Feature","geometry":null},{"properties":{"city":"Lynchburg","full name":"donna soothy king","id":"a6fl9i969q36","state":"Va"},"type":"Feature","geometry":null},{"properties":{"city":"Lynchburg","full name":"smissen","id":"a6fl9i9ch0kk","state":"VA"},"type":"Feature","geometry":null},{"properties":{"city":"Bangor","full name":"brent Dumphie","id":"a6fl9i5ppk88","state":"me"},"type":"Feature","geometry":null},{"properties":{"city":"Richmond","full name":"Darios Kamgaing","id":"a6fl9i1wt22e","state":"VA"},"type":"Feature","geometry":null},{"properties":{"city":"Dallas","full name":"Barb's brother","id":"a6fl9hx3g3lz","state":"Tx"},"type":"Feature","geometry":null},{"properties":{"city":"Colfax","full name":"Bob Nesss","id":"a6fl9hzwqxna","state":"La"},"type":"Feature","geometry":null},{"properties":{"city":"Lynchburg","full name":"Fred Newton","id":"a6fl9i65q01y","state":"va"},"type":"Feature","geometry":null},{"properties":{"city":"Lynchburg","full name":"Jay Kumar","id":"a6fl9ibt3lzi","state":"Va"},"type":"Feature","geometry":null},{"properties":{"city":"wilmington","full name":"John Griffin","id":"a6fl9i0r9mb7","state":"DE"},"type":"Feature","geometry":null},{"properties":{"city":"Seatle","full name":"John Kappler","id":"a6fl9icd62c1","state":"Wa"},"type":"Feature","geometry":null},{"properties":{"city":"crossvile","full name":"Tom Prieur","id":"a6fl9hxym9pz","state":"TN"},"type":"Feature","geometry":null},{"properties":{"city":"amery","full name":"Norm Osero","id":"a6fl9i72wesn","state":"WI"},"type":"Feature","geometry":null},{"properties":{"city":"Middletown","full name":"Micky Cockren","id":"a6fl9i12d216","state":"DE"},"type":"Feature","geometry":null},{"properties":{"city":"Lynchburg","full name":"Ricky Thompson","id":"a6fl9i98a15r","state":"va"},"type":"Feature","geometry":null},{"properties":{"city":"Middletown","full name":"Bill Baron","id":"a6fl9i5jn8al","state":"DE"},"type":"Feature","geometry":null},{"properties":{"city":null,"full name":"mike major","id":"a6fl9i63d931","state":"australia"},"type":"Feature","geometry":null},{"properties":{"city":"Middletown","full name":"Charles Stanley","id":"a6fl9i50kdb4","state":"DE"},"type":"Feature","geometry":null},{"properties":{"city":"Middletown","full name":"Barb Stanley","id":"a6fl9i8p0bix","state":"DE"},"type":"Feature","geometry":null},{"properties":{"city":"Gladys","full name":"Ted Vasser","id":"a6fl9i70lefr","state":"Va"},"type":"Feature","geometry":null},{"properties":{"city":"Lynchburg","full name":"Chris Malbury","id":"a6fl9i9u0r9k","state":"Va"},"type":"Feature","geometry":null},{"properties":{"city":"Lynchburg","full name":"ron ferrin","id":"a6fl9hzequvr","state":"va"},"type":"Feature","geometry":null},{"properties":{"city":"Middletown","full name":"Jay Baron","id":"a6fl9i37s7b9","state":"DE"},"type":"Feature","geometry":null},{"properties":{"city":"Lyncburg","full name":"english construction","id":"a6fl9i3ucwor","state":"va"},"type":"Feature","geometry":null},{"properties":{"city":"Lyncburg","full name":"nissan lynchburg guy","id":"a6fl9i3fc2zh","state":"va"},"type":"Feature","geometry":null},{"properties":{"city":"Lynchburg","full name":"New Ocean Funding, jay kumar","id":"a6fl9i43mzde","state":"va"},"type":"Feature","geometry":null},{"properties":{"city":"Bedford","full name":"Brent Bedford Guy ?benlley","id":"a6fl9i7qgwf5","state":"va"},"type":"Feature","geometry":null},{"properties":{"city":"Richmond","full name":"Marty Cox","id":"a6fl9i3imlss","state":"Va"},"type":"Feature","geometry":null},{"properties":{"city":"Amery","full name":"Brad Marquand","id":"a6fl9i2iom59","state":"WI"},"type":"Feature","geometry":null},{"properties":{"city":"Lynchburg","full name":"runck and pratt","id":"a6fl9i6mhvk7","state":"va"},"type":"Feature","geometry":null},{"properties":{"city":"Middletown","full name":"Donnie Buriss","id":"a6fl9i8uk9r2","state":"DE"},"type":"Feature","geometry":null},{"properties":{"city":"Lynchburg","full name":"Cooper","id":"a6fl9i7inlvz","state":"VA"},"type":"Feature","geometry":null},{"properties":{"city":null,"full name":"Gary Quillen","id":"a6fl9i7g2x06","state":null},"type":"Feature","geometry":null},{"properties":{"city":"Wilmington","full name":"John Candeloro","id":"a6fl9i01lizb","state":"DE"},"type":"Feature","geometry":null},{"properties":{"city":"Lyncburg","full name":"english construction","id":"a6fl9hyshaz6","state":"Va"},"type":"Feature","geometry":null},{"properties":{"city":null,"full name":"Virginia Venture Calendar - March 2011","id":"a6fl9i0h3brm","state":null},"type":"Feature","geometry":null},{"properties":{"city":null,"full name":"Stephen Ally","id":"a6fl9ib3p0pg","state":null},"type":"Feature","geometry":null},{"properties":{"city":null,"full name":"libby fujinaka","id":"a6fl9i7bmime","state":null},"type":"Feature","geometry":null},{"properties":{"city":null,"full name":"Peter","id":"a6fl9i57pqlz","state":null},"type":"Feature","geometry":null},{"properties":{"city":null,"full name":"scott smith","id":"a6fl9hyip2k5","state":null},"type":"Feature","geometry":null},{"properties":{"city":null,"full name":"Rod A","id":"a6fl9i0xy3wb","state":null},"type":"Feature","geometry":null},{"properties":{"city":null,"full name":"Suresh Sharma","id":"a6fl9i67yj89","state":null},"type":"Feature","geometry":null}],"is_temporal":false,"author":{"url":"","metadata":"","contact_name":"","contact_address":"","source":"","contact_phone":""},"source":"","pagination":{"sort":null,"start":0,"total":206,"limit":1000000},"state":"complete","tags":"","published":"2014-08-13T05:20:40-04:00","id":105400}