{"type":"FeatureCollection","data_type":"Dataset","url_type":null,"permissions":[{"permissions":{"download":true,"view":true},"group_id":"everyone"}],"classification":null,"title":"pbstores","count":713,"stream_id":105430,"contributor":{"url":"http://geocommons.com/users/24668","name":"mnye82"},"data_attributes":null,"calculation_params":null,"icon_link":null,"link":"http://geocommons.com/overlays/105430.json","extent":[-87.911,38.861,-80.0045,46.4808],"geometry_types":["point"],"unique_name":null,"name":"pbstores","feature_count":713,"description":"","next_feature":null,"is_raster":false,"short_classification":"Y","stats":{},"features":[{"properties":{"city":"CINCINNATI","zip":"45219","geo_score":0.922,"id":"a6wig4ct0td4","geo_precision":"range","address":"1 W CORRY ST","state":"OH"},"type":"Feature","geometry":{"type":"Point","coordinates":[-84.509631,39.129099]}},{"properties":{"city":"CINCINNATI","zip":"45209","geo_score":0.902,"id":"a6wig479vzgq","geo_precision":"range","address":"3822 PAXTON AVE","state":"OH"},"type":"Feature","geometry":{"type":"Point","coordinates":[-84.430262,39.145935]}},{"properties":{"city":"BEREA","zip":"44017","geo_score":1.0,"id":"a6wig48sev93","geo_precision":"range","address":"6 E BAGLEY ROAD","state":"OH"},"type":"Feature","geometry":{"type":"Point","coordinates":[-81.852938,41.372717]}},{"properties":{"city":"STERLING  HEIGHTS","zip":"48313","geo_score":1.0,"id":"a6wig42u81s5","geo_precision":"range","address":"13700 CANAL RD","state":"MI"},"type":"Feature","geometry":{"type":"Point","coordinates":[-82.991604,42.614766]}},{"properties":{"city":"WYANDOTTE","zip":"48192","geo_score":0.71,"id":"a6wig42en8bj","geo_precision":"street","address":"3221 FORT ST","state":"MI"},"type":"Feature","geometry":{"type":"Point","coordinates":[-83.180084,42.200899]}},{"properties":{"city":"MAINEVILLE","zip":"45039","geo_score":0.792,"id":"a6wig3yf32xp","geo_precision":"range","address":"68 W US 22/3","state":"OH"},"type":"Feature","geometry":{"type":"Point","coordinates":[-84.219352,39.339015]}},{"properties":{"city":"COLUMBUS","zip":"43207","geo_score":0.916,"id":"a6wig47con5v","geo_precision":"range","address":"3445 S  HIGH ST","state":"OH"},"type":"Feature","geometry":{"type":"Point","coordinates":[-82.996565,39.891797]}},{"properties":{"city":"NORTH CANTON","zip":"44721","geo_score":0.9,"id":"a6wig46n1m8d","geo_precision":"range","address":"6421 MARKET AVE.","state":"OH"},"type":"Feature","geometry":{"type":"Point","coordinates":[-81.363919,40.873385]}},{"properties":{"city":"YOUNGSTOWN","zip":"44502","geo_score":0.922,"id":"a6wig3z1coag","geo_precision":"range","address":"525 E MIDLOTHIAN","state":"OH"},"type":"Feature","geometry":{"type":"Point","coordinates":[-80.645425,41.060794]}},{"properties":{"city":"LEBANON","zip":"46052","geo_score":0.93,"id":"a6wig41vwi8d","geo_precision":"range","address":"1130 N LEBANON  ST","state":"IN"},"type":"Feature","geometry":{"type":"Point","coordinates":[-86.470644,40.056653]}},{"properties":{"city":"CINCINNATI","zip":"45213","geo_score":0.869,"id":"a6wig45pdrj3","geo_precision":"range","address":"6204 MONTGOMERY","state":"OH"},"type":"Feature","geometry":{"type":"Point","coordinates":[-84.424528,39.183612]}},{"properties":{"city":"TROTWOOD","zip":"45426","geo_score":0.927,"id":"a6wig3yrisuy","geo_precision":"range","address":"5271 SALEM AVENUE","state":"OH"},"type":"Feature","geometry":{"type":"Point","coordinates":[-84.283366,39.820167]}},{"properties":{"city":"ST CLAIR SHORES","zip":"48080","geo_score":0.982,"id":"a6wig3wyb1xi","geo_precision":"range","address":"21211 HARPER AVE","state":"MI"},"type":"Feature","geometry":{"type":"Point","coordinates":[-82.914369,42.451456]}},{"properties":{"city":"HOWELL","zip":"48843","geo_score":0.875,"id":"a6wig412klpu","geo_precision":"range","address":"2321 E GRAND RIVER AVE","state":"MI"},"type":"Feature","geometry":{"type":"Point","coordinates":[-83.907974,42.599148]}},{"properties":{"city":"MONROE","zip":"48162","geo_score":0.878,"id":"a6wig465lbqf","geo_precision":"range","address":"1285 N MONROE ST","state":"MI"},"type":"Feature","geometry":{"type":"Point","coordinates":[-83.389701,41.93321]}},{"properties":{"city":"CALUMET CITY","zip":"60409","geo_score":0.947,"id":"a6wig4bohra9","geo_precision":"range","address":"626 RIVER OAKS DR","state":"IL"},"type":"Feature","geometry":{"type":"Point","coordinates":[-87.540518,41.599791]}},{"properties":{"city":"INDEPENDENCE","zip":"44131","geo_score":0.911,"id":"a6wig46qvb7b","geo_precision":"range","address":"6900 ROCKSIDE RD","state":"OH"},"type":"Feature","geometry":{"type":"Point","coordinates":[-81.643264,41.394518]}},{"properties":{"city":"DEER PARK","zip":"45236","geo_score":0.913,"id":"a6wig48gae9y","geo_precision":"range","address":"4090 E GALBRAITH RD","state":"OH"},"type":"Feature","geometry":{"type":"Point","coordinates":[-84.399639,39.208472]}},{"properties":{"city":"DEER PARK","zip":"45236","geo_score":0.913,"id":"a6wig46pjx3z","geo_precision":"range","address":"4090 E GALBRAITH RD","state":"OH"},"type":"Feature","geometry":{"type":"Point","coordinates":[-84.399639,39.208472]}},{"properties":{"city":"KANKAKEE","zip":"60901","geo_score":0.785,"id":"a6wig49e9u6h","geo_precision":"range","address":"1700 E COURT","state":"IL"},"type":"Feature","geometry":{"type":"Point","coordinates":[-87.843426,41.118926]}},{"properties":{"city":"GARFIELD HEIGHTS","zip":"44125","geo_score":1.0,"id":"a6wig3xkz8c4","geo_precision":"range","address":"5090 TURNEY  ROAD","state":"OH"},"type":"Feature","geometry":{"type":"Point","coordinates":[-81.610271,41.422844]}},{"properties":{"city":"HARVEY","zip":"60426","geo_score":0.77,"id":"a6wig42dsmiw","geo_precision":"range","address":"15901 SOUTH WOOD","state":"IL"},"type":"Feature","geometry":{"type":"Point","coordinates":[-87.660778,41.60083]}},{"properties":{"city":"BEDFORD","zip":"47421","geo_score":0.805,"id":"a6wig4cf6ahr","geo_precision":"range","address":"1215 16TH STREET","state":"IN"},"type":"Feature","geometry":{"type":"Point","coordinates":[-86.487345,38.861006]}},{"properties":{"city":"ANGOLA","zip":"46703","geo_score":0.919,"id":"a6wig4amrrqm","geo_precision":"range","address":"2012 N WAYNE ST","state":"IN"},"type":"Feature","geometry":{"type":"Point","coordinates":[-84.999531,41.655772]}},{"properties":{"city":"HARVEY","zip":"60426","geo_score":0.786,"id":"a6wig3zsnsle","geo_precision":"range","address":"14700 SO HALSTED","state":"IL"},"type":"Feature","geometry":{"type":"Point","coordinates":[-87.641395,41.622612]}},{"properties":{"city":"GRAND RAPIDS","zip":"49507","geo_score":0.958,"id":"a6wig4220k31","geo_precision":"range","address":"1601 KALAMAZOO AVE","state":"MI"},"type":"Feature","geometry":{"type":"Point","coordinates":[-85.639196,42.934633]}},{"properties":{"city":"SPRINGDALE","zip":"45246","geo_score":1.0,"id":"a6wig42wtr0j","geo_precision":"range","address":"385 NORTHLAND BLVD","state":"OH"},"type":"Feature","geometry":{"type":"Point","coordinates":[-84.493828,39.28164]}},{"properties":{"city":"CINCINNATI","zip":"45242","geo_score":0.912,"id":"a6wig49wj0mc","geo_precision":"range","address":"9580 KENWOOD RD","state":"OH"},"type":"Feature","geometry":{"type":"Point","coordinates":[-84.377,39.231767]}},{"properties":{"city":"WYOMING","zip":"49548","geo_score":0.911,"id":"a6wig4aup47j","geo_precision":"range","address":"4425 S DIVISION AVE","state":"MI"},"type":"Feature","geometry":{"type":"Point","coordinates":[-85.664709,42.883219]}},{"properties":{"city":"SHARON","zip":"16146","geo_score":0.92,"id":"a6wig4b3y042","geo_precision":"range","address":"900 EAST STATE ST","state":"PA"},"type":"Feature","geometry":{"type":"Point","coordinates":[-80.492901,41.233032]}},{"properties":{"city":"PORTAGE","zip":"46368","geo_score":0.815,"id":"a6wig41bvxeb","geo_precision":"range","address":"6030 CENTRAL","state":"IN"},"type":"Feature","geometry":{"type":"Point","coordinates":[-87.182253,41.575807]}},{"properties":{"city":"INDIANAPOLIS","zip":"46222","geo_score":0.846,"id":"a6wig47n5e4m","geo_precision":"range","address":"3003 KESSLER BLVD NORTH DR","state":"IN"},"type":"Feature","geometry":{"type":"Point","coordinates":[-86.211104,39.809827]}},{"properties":{"city":"INDIANAPOLIS","zip":"46218","geo_score":0.916,"id":"a6wig49iezcp","geo_precision":"range","address":"3734 E 38TH ST","state":"IN"},"type":"Feature","geometry":{"type":"Point","coordinates":[-86.103383,39.825333]}},{"properties":{"city":"INDIANAPOLIS","zip":"46201","geo_score":0.919,"id":"a6wig49pplkn","geo_precision":"range","address":"3205 E WASHINGTON ST","state":"IN"},"type":"Feature","geometry":{"type":"Point","coordinates":[-86.110576,39.768766]}},{"properties":{"city":"INDIANAPOLIS","zip":"46219","geo_score":0.922,"id":"a6wig3xhn70o","geo_precision":"range","address":"5460 E WASHINGTON STR","state":"IN"},"type":"Feature","geometry":{"type":"Point","coordinates":[-86.074496,39.770598]}},{"properties":{"city":"INDIANAPOLIS","zip":"46219","geo_score":0.838,"id":"a6wig4byu6tp","geo_precision":"range","address":"8905 E 10TH ST","state":"IN"},"type":"Feature","geometry":{"type":"Point","coordinates":[-86.011026,39.782028]}},{"properties":{"city":"INDIANAPOLIS","zip":"46217","geo_score":0.928,"id":"a6wig44r65rv","geo_precision":"range","address":"8933 S MERIDIAN ST","state":"IN"},"type":"Feature","geometry":{"type":"Point","coordinates":[-86.15841,39.636753]}},{"properties":{"city":"GRAND RAPIDS","zip":"49504","geo_score":0.92,"id":"a6wig4cs84ro","geo_precision":"range","address":"800 LEONARD ST NW","state":"MI"},"type":"Feature","geometry":{"type":"Point","coordinates":[-85.688059,42.985244]}},{"properties":{"city":"INDIANAPOLIS","zip":"46205","geo_score":0.916,"id":"a6wig4724di9","geo_precision":"range","address":"711 E 38TH STREET","state":"IN"},"type":"Feature","geometry":{"type":"Point","coordinates":[-86.14494,39.825072]}},{"properties":{"city":"HOLLAND","zip":"49424","geo_score":1.0,"id":"a6wig3za2907","geo_precision":"range","address":"11236 E LAKEWOOD BLVD","state":"MI"},"type":"Feature","geometry":{"type":"Point","coordinates":[-86.058763,42.805036]}},{"properties":{"city":"INDIANAPOLIS","zip":"46227","geo_score":0.92,"id":"a6wig4ay9hj6","geo_precision":"range","address":"6961 MADISON AVE","state":"IN"},"type":"Feature","geometry":{"type":"Point","coordinates":[-86.127274,39.665423]}},{"properties":{"city":"BATTLE CREEK","zip":"49017","geo_score":0.956,"id":"a6wig44aku0o","geo_precision":"range","address":"800 CAPITAL AVE NE","state":"MI"},"type":"Feature","geometry":{"type":"Point","coordinates":[-85.155604,42.330864]}},{"properties":{"city":"CINCINNATI","zip":"45255","geo_score":0.561,"id":"a6wig47r6j67","geo_precision":"street","address":"1982 8 MILE ROAD","state":"OH"},"type":"Feature","geometry":{"type":"Point","coordinates":[-84.545853,39.261818]}},{"properties":{"city":"GRAND RAPIDS","zip":"49503","geo_score":1.0,"id":"a6wig3xsojiq","geo_precision":"range","address":"956 MICHIGAN STR NE","state":"MI"},"type":"Feature","geometry":{"type":"Point","coordinates":[-85.645974,42.970018]}},{"properties":{"city":"HOLLAND","zip":"49424","geo_score":0.947,"id":"a6wig42rssjf","geo_precision":"range","address":"494 BUTTERNUT","state":"MI"},"type":"Feature","geometry":{"type":"Point","coordinates":[-86.122247,42.812895]}},{"properties":{"city":"INDIANAPOLIS","zip":"46226","geo_score":0.827,"id":"a6wig49mk49o","geo_precision":"range","address":"5050 E 56TH ST","state":"IN"},"type":"Feature","geometry":{"type":"Point","coordinates":[-86.084854,39.855103]}},{"properties":{"city":"INDIANAPOLIS","zip":"46205","geo_score":0.927,"id":"a6wig47qd313","geo_precision":"range","address":"5199 N KEYSTONE","state":"IN"},"type":"Feature","geometry":{"type":"Point","coordinates":[-86.122016,39.847597]}},{"properties":{"city":"FORT WAYNE","zip":"46816","geo_score":0.86,"id":"a6wig48hcs8m","geo_precision":"range","address":"1701 E PAULDING","state":"IN"},"type":"Feature","geometry":{"type":"Point","coordinates":[-85.113937,41.031779]}},{"properties":{"city":"INDIANAPOLIS","zip":"46227","geo_score":0.92,"id":"a6wig463yie2","geo_precision":"range","address":"4001 MADISON AVE","state":"IN"},"type":"Feature","geometry":{"type":"Point","coordinates":[-86.142663,39.708282]}},{"properties":{"city":"BEECH GROVE","zip":"46107","geo_score":0.967,"id":"a6wig3xirbv3","geo_precision":"range","address":"1808 N ALBANY ST","state":"IN"},"type":"Feature","geometry":{"type":"Point","coordinates":[-86.103004,39.723382]}},{"properties":{"city":"COVINGTON","zip":"41011","geo_score":0.902,"id":"a6wig46cnyln","geo_precision":"range","address":"1026 MADISON AVE","state":"KY"},"type":"Feature","geometry":{"type":"Point","coordinates":[-84.509197,39.079895]}},{"properties":{"city":"GRANDVILLE","zip":"49418","geo_score":0.625,"id":"a6wig4545ix3","geo_precision":"street","address":"3191 28TH ST S.W.","state":"MI"},"type":"Feature","geometry":{"type":"Point","coordinates":[-85.734659,42.913756]}},{"properties":{"city":"KALAMAZOO","zip":"49006","geo_score":0.916,"id":"a6wig49w3vwe","geo_precision":"range","address":"1722 WEST MAIN","state":"MI"},"type":"Feature","geometry":{"type":"Point","coordinates":[-85.609999,42.294205]}},{"properties":{"city":"INDIANAPOLIS","zip":"46226","geo_score":0.911,"id":"a6wig42caj1u","geo_precision":"range","address":"4555 N SHADELAND AVE","state":"IN"},"type":"Feature","geometry":{"type":"Point","coordinates":[-86.046042,39.839274]}},{"properties":{"city":"INDIANAPOLIS","zip":"46228","geo_score":1.0,"id":"a6wig3yma60y","geo_precision":"range","address":"5675 N MICHIGAN RD","state":"IN"},"type":"Feature","geometry":{"type":"Point","coordinates":[-86.196216,39.856825]}},{"properties":{"city":"INDIANAPOLIS","zip":"46241","geo_score":0.911,"id":"a6wig3y5ylrf","geo_precision":"range","address":"5720 W WASHINGTON ST","state":"IN"},"type":"Feature","geometry":{"type":"Point","coordinates":[-86.257636,39.750518]}},{"properties":{"city":"FORT WAYNE","zip":"46815","geo_score":0.911,"id":"a6wig3xzi99u","geo_precision":"range","address":"6201 STELLHORN RD","state":"IN"},"type":"Feature","geometry":{"type":"Point","coordinates":[-85.062941,41.12031]}},{"properties":{"city":"INDIANAPOLIS","zip":"46221","geo_score":1.0,"id":"a6wig45j149w","geo_precision":"range","address":"3455 MANN RD","state":"IN"},"type":"Feature","geometry":{"type":"Point","coordinates":[-86.238504,39.71349]}},{"properties":{"city":"KALAMAZOO","zip":"49048","geo_score":1.0,"id":"a6wig460vphu","geo_precision":"range","address":"918 RIVERVIEW DR","state":"MI"},"type":"Feature","geometry":{"type":"Point","coordinates":[-85.569148,42.300242]}},{"properties":{"city":"LOGANSPORT","zip":"46947","geo_score":0.912,"id":"a6wig3y90fsg","geo_precision":"range","address":"2301 E MARKET ST","state":"IN"},"type":"Feature","geometry":{"type":"Point","coordinates":[-86.338848,40.75747]}},{"properties":{"city":"HOMEWOOD","zip":"60430","geo_score":0.902,"id":"a6wig419rnko","geo_precision":"range","address":"820 183RD ST","state":"IL"},"type":"Feature","geometry":{"type":"Point","coordinates":[-87.637637,41.557388]}},{"properties":{"city":"INDIANAPOLIS","zip":"46236","geo_score":0.721,"id":"a6wig3zw833w","geo_precision":"range","address":"9050 E 38TH ST","state":"IN"},"type":"Feature","geometry":{"type":"Point","coordinates":[-86.009196,39.826061]}},{"properties":{"city":"KOKOMO","zip":"46901","geo_score":0.913,"id":"a6wig40ai12s","geo_precision":"range","address":"107 S  WASHINGTON ST","state":"IN"},"type":"Feature","geometry":{"type":"Point","coordinates":[-86.133676,40.486393]}},{"properties":{"city":"CLEVELAND","zip":"44105","geo_score":0.909,"id":"a6wig45xi5si","geo_precision":"range","address":"6410 BROADWAY AVE","state":"OH"},"type":"Feature","geometry":{"type":"Point","coordinates":[-81.645939,41.462843]}},{"properties":{"city":"CARMEL","zip":"46032","geo_score":0.916,"id":"a6wig4bz068q","geo_precision":"range","address":"1215 S RANGE LINE RD","state":"IN"},"type":"Feature","geometry":{"type":"Point","coordinates":[-86.126853,39.961199]}},{"properties":{"city":"GOSHEN","zip":"46526","geo_score":0.909,"id":"a6wig4b1bmfw","geo_precision":"range","address":"429 W PIKE ST","state":"IN"},"type":"Feature","geometry":{"type":"Point","coordinates":[-85.840105,41.589128]}},{"properties":{"city":"CLEVELAND","zip":"44135","geo_score":0.913,"id":"a6wig3zxf6ak","geo_precision":"range","address":"4281 W 130TH ST","state":"OH"},"type":"Feature","geometry":{"type":"Point","coordinates":[-81.779907,41.437822]}},{"properties":{"city":"SHAKER HEIGHTS","zip":"44120","geo_score":1.0,"id":"a6wig45du0v0","geo_precision":"range","address":"16400 CHAGRIN BLVD","state":"OH"},"type":"Feature","geometry":{"type":"Point","coordinates":[-81.566448,41.464455]}},{"properties":{"city":"EAST CLEVELAND","zip":"44112","geo_score":1.0,"id":"a6wig43j601f","geo_precision":"range","address":"14525 EUCLID AVE","state":"OH"},"type":"Feature","geometry":{"type":"Point","coordinates":[-81.58079,41.531548]}},{"properties":{"city":"CLEVELAND","zip":"44105","geo_score":0.909,"id":"a6wig45nljhq","geo_precision":"range","address":"11401 UNION AVE","state":"OH"},"type":"Feature","geometry":{"type":"Point","coordinates":[-81.604169,41.463649]}},{"properties":{"city":"NORTH CANTON","zip":"44720","geo_score":0.925,"id":"a6wig486m3hu","geo_precision":"range","address":"1000 S MAIN ST","state":"OH"},"type":"Feature","geometry":{"type":"Point","coordinates":[-81.399127,40.868911]}},{"properties":{"city":"AKRON","zip":"44313","geo_score":0.932,"id":"a6wig4345jcg","geo_precision":"range","address":"1925 W MARKET ST","state":"OH"},"type":"Feature","geometry":{"type":"Point","coordinates":[-81.576994,41.112926]}},{"properties":{"city":"AKRON","zip":"44303","geo_score":1.0,"id":"a6wig481ib1x","geo_precision":"range","address":"834 W MARKET ST","state":"OH"},"type":"Feature","geometry":{"type":"Point","coordinates":[-81.544137,41.096844]}},{"properties":{"city":"AKRON","zip":"44320","geo_score":0.911,"id":"a6wig3z02hs1","geo_precision":"range","address":"1303 COPLEY RD","state":"OH"},"type":"Feature","geometry":{"type":"Point","coordinates":[-81.568873,41.083932]}},{"properties":{"city":"AKRON","zip":"44306","geo_score":1.0,"id":"a6wig3xtopih","geo_precision":"range","address":"1130 S ARLINGTON ST","state":"OH"},"type":"Feature","geometry":{"type":"Point","coordinates":[-81.491228,41.041395]}},{"properties":{"city":"CLEVELAND","zip":"44110","geo_score":0.932,"id":"a6wig4cti1ah","geo_precision":"range","address":"15609 LAKE SHORE BLVD","state":"OH"},"type":"Feature","geometry":{"type":"Point","coordinates":[-81.571977,41.578664]}},{"properties":{"city":"CLEVELAND","zip":"44109","geo_score":1.0,"id":"a6wig424iu1i","geo_precision":"range","address":"4265 STATE RD","state":"OH"},"type":"Feature","geometry":{"type":"Point","coordinates":[-81.706931,41.437853]}},{"properties":{"city":"CLEVELAND","zip":"44111","geo_score":0.732,"id":"a6wig4389wjy","geo_precision":"street","address":"16803 LORAIN RD","state":"OH"},"type":"Feature","geometry":{"type":"Point","coordinates":[-81.783245,41.457726]}},{"properties":{"city":"EUCLID","zip":"44123","geo_score":0.955,"id":"a6wig3xssbid","geo_precision":"range","address":"22401 LAKE SHR BLVD","state":"OH"},"type":"Feature","geometry":{"type":"Point","coordinates":[-81.524954,41.610799]}},{"properties":{"city":"MAPLE HEIGHTS","zip":"44137","geo_score":1.0,"id":"a6wig4702ydl","geo_precision":"range","address":"5264 LEE RD","state":"OH"},"type":"Feature","geometry":{"type":"Point","coordinates":[-81.566006,41.417806]}},{"properties":{"city":"PARMA","zip":"44129","geo_score":1.0,"id":"a6wig4d0rae9","geo_precision":"range","address":"5400 PEARL RD","state":"OH"},"type":"Feature","geometry":{"type":"Point","coordinates":[-81.733004,41.414331]}},{"properties":{"city":"SOUTH EUCLID","zip":"44121","geo_score":1.0,"id":"a6wig3x6o31h","geo_precision":"range","address":"4365 MAYFIELD RD","state":"OH"},"type":"Feature","geometry":{"type":"Point","coordinates":[-81.522895,41.520438]}},{"properties":{"city":"GRAND HAVEN","zip":"49417","geo_score":1.0,"id":"a6wig45p2m90","geo_precision":"range","address":"510 N BEACON BLVD","state":"MI"},"type":"Feature","geometry":{"type":"Point","coordinates":[-86.220325,43.066791]}},{"properties":{"city":"HAMMOND","zip":"46323","geo_score":0.913,"id":"a6wig4c7u52a","geo_precision":"range","address":"6905 KENNEDY AVE","state":"IN"},"type":"Feature","geometry":{"type":"Point","coordinates":[-87.461638,41.588268]}},{"properties":{"city":"INDIANAPOLIS","zip":"46240","geo_score":0.841,"id":"a6wig48zbpux","geo_precision":"range","address":"1505 E 86TH ST","state":"IN"},"type":"Feature","geometry":{"type":"Point","coordinates":[-86.133707,39.912524]}},{"properties":{"city":"NILES","zip":"49120","geo_score":0.845,"id":"a6wig42cpbuw","geo_precision":"range","address":"907 S 11TH ST","state":"MI"},"type":"Feature","geometry":{"type":"Point","coordinates":[-86.247202,41.81862]}},{"properties":{"city":"BLUE ISLAND","zip":"60406","geo_score":0.973,"id":"a6wig4ar4zmz","geo_precision":"range","address":"12625 S WESTERN AVE","state":"IL"},"type":"Feature","geometry":{"type":"Point","coordinates":[-87.680267,41.663754]}},{"properties":{"city":"FORT WAYNE","zip":"46806","geo_score":1.0,"id":"a6wig426lckz","geo_precision":"range","address":"222 E PETTIT AVE","state":"IN"},"type":"Feature","geometry":{"type":"Point","coordinates":[-85.135918,41.03884]}},{"properties":{"city":"GRAND RAPIDS","zip":"49525","geo_score":1.0,"id":"a6wig42ytnqe","geo_precision":"range","address":"3610 PLAINFIELD AVE NE","state":"MI"},"type":"Feature","geometry":{"type":"Point","coordinates":[-85.631194,43.028729]}},{"properties":{"city":"SOUTH BEND","zip":"46614","geo_score":0.913,"id":"a6wig44kbym7","geo_precision":"range","address":"1010 E IRELAND RD","state":"IN"},"type":"Feature","geometry":{"type":"Point","coordinates":[-86.237245,41.629307]}},{"properties":{"city":"INDIANAPOLIS","zip":"46250","geo_score":0.927,"id":"a6wig4av3u10","geo_precision":"range","address":"7506 N SHADELAND AVE","state":"IN"},"type":"Feature","geometry":{"type":"Point","coordinates":[-86.046114,39.891253]}},{"properties":{"city":"ANDERSON","zip":"46016","geo_score":0.916,"id":"a6wig45nyp41","geo_precision":"range","address":"128 W 14TH ST","state":"IN"},"type":"Feature","geometry":{"type":"Point","coordinates":[-85.680908,40.102131]}},{"properties":{"city":"NEW HAVEN","zip":"46774","geo_score":0.915,"id":"a6wig4ant6xm","geo_precision":"range","address":"907 LINCOLN HWY W","state":"IN"},"type":"Feature","geometry":{"type":"Point","coordinates":[-85.038932,41.070033]}},{"properties":{"city":"COLUMBUS","zip":"47203","geo_score":1.0,"id":"a6wig49h13vg","geo_precision":"range","address":"2400 BEAM RD","state":"IN"},"type":"Feature","geometry":{"type":"Point","coordinates":[-85.8883,39.221992]}},{"properties":{"city":"CUYAHOGA FALLS","zip":"44223","geo_score":1.0,"id":"a6wig4015ink","geo_precision":"range","address":"2645 STATE RD","state":"OH"},"type":"Feature","geometry":{"type":"Point","coordinates":[-81.508532,41.145771]}},{"properties":{"city":"INDIANAPOLIS","zip":"46237","geo_score":1.0,"id":"a6wig48fu0w0","geo_precision":"range","address":"5095 E THOMPSON RD","state":"IN"},"type":"Feature","geometry":{"type":"Point","coordinates":[-86.082899,39.694589]}},{"properties":{"city":"OLYMPIA FIELDS","zip":"60461","geo_score":1.0,"id":"a6wig3yqdt44","geo_precision":"range","address":"20950 GOVERNORS HWY","state":"IL"},"type":"Feature","geometry":{"type":"Point","coordinates":[-87.710507,41.510215]}},{"properties":{"city":"CINCINNATI","zip":"45231","geo_score":0.923,"id":"a6wig467rsr7","geo_precision":"range","address":"2335 JOHN GRAY RD","state":"OH"},"type":"Feature","geometry":{"type":"Point","coordinates":[-84.562821,39.308084]}},{"properties":{"city":"VALPARAISO","zip":"46383","geo_score":0.912,"id":"a6wig4brruys","geo_precision":"range","address":"1903 CALUMET AVE","state":"IN"},"type":"Feature","geometry":{"type":"Point","coordinates":[-87.050884,41.485427]}},{"properties":{"city":"FORT WAYNE","zip":"46803","geo_score":0.909,"id":"a6wig3ya4tvs","geo_precision":"range","address":"110 E CREIGHTON AVE","state":"IN"},"type":"Feature","geometry":{"type":"Point","coordinates":[-85.137857,41.064269]}},{"properties":{"city":"AKRON","zip":"44312","geo_score":0.429,"id":"a6wig4009gaj","geo_precision":"street","address":"302 S. CANTON RD.","state":"OH"},"type":"Feature","geometry":{"type":"Point","coordinates":[-81.439281,41.06267]}},{"properties":{"city":"LOVELAND","zip":"45140","geo_score":0.586,"id":"a6wig48i6ba7","geo_precision":"street","address":"9520 FIELDS ERTEL RD","state":"OH"},"type":"Feature","geometry":{"type":"Point","coordinates":[-84.29024,39.290859]}},{"properties":{"city":"CINCINNATI","zip":"45248","geo_score":0.912,"id":"a6wig4cdzorr","geo_precision":"range","address":"5508 BRIDGETOWN RD.","state":"OH"},"type":"Feature","geometry":{"type":"Point","coordinates":[-84.629969,39.157722]}},{"properties":{"city":"CINCINNATI","zip":"45245","geo_score":0.911,"id":"a6wig3wwojub","geo_precision":"range","address":"719 OHIO PIKE","state":"OH"},"type":"Feature","geometry":{"type":"Point","coordinates":[-84.290133,39.065272]}},{"properties":{"city":"HAZELCREST","zip":"60429","geo_score":0.884,"id":"a6wig45fsc9d","geo_precision":"range","address":"18301 PULASKI","state":"IL"},"type":"Feature","geometry":{"type":"Point","coordinates":[-87.713614,41.557131]}},{"properties":{"city":"CANTON","zip":"44703","geo_score":1.0,"id":"a6wig46hzcur","geo_precision":"range","address":"1223 CLEVELAND AVE NW","state":"OH"},"type":"Feature","geometry":{"type":"Point","coordinates":[-81.376397,40.809987]}},{"properties":{"city":"CRESCENT SPRINGS","zip":"41017","geo_score":0.915,"id":"a6wig4cyhjeh","geo_precision":"range","address":"606 BUTTERMILK PIKE","state":"KY"},"type":"Feature","geometry":{"type":"Point","coordinates":[-84.577427,39.051977]}},{"properties":{"city":"CANTON","zip":"44708","geo_score":0.917,"id":"a6wig489m3e9","geo_precision":"range","address":"5122 TUSCARAWAS ST W","state":"OH"},"type":"Feature","geometry":{"type":"Point","coordinates":[-81.446425,40.792476]}},{"properties":{"city":"CLEVELAND HEIGHTS","zip":"44118","geo_score":0.954,"id":"a6wig49ah6yy","geo_precision":"range","address":"3020 MAYFIELD RD","state":"OH"},"type":"Feature","geometry":{"type":"Point","coordinates":[-81.572466,41.51462]}},{"properties":{"city":"KANKAKEE","zip":"60901","geo_score":0.571,"id":"a6wig3yv7ilk","geo_precision":"street","address":"1050 N. KENNEDY DRIVE","state":"IL"},"type":"Feature","geometry":{"type":"Point","coordinates":[-87.875632,41.121629]}},{"properties":{"city":"ORLAND PARK","zip":"60462","geo_score":0.922,"id":"a6wig48gfeg4","geo_precision":"range","address":"7960 W 159TH ST","state":"IL"},"type":"Feature","geometry":{"type":"Point","coordinates":[-87.812805,41.601988]}},{"properties":{"city":"PARMA HEIGHTS","zip":"44130","geo_score":1.0,"id":"a6wig45jzx2a","geo_precision":"range","address":"6300 PEARL RD","state":"OH"},"type":"Feature","geometry":{"type":"Point","coordinates":[-81.762194,41.389422]}},{"properties":{"city":"FT WAYNE","zip":"46809","geo_score":0.935,"id":"a6wig4dc8lcs","geo_precision":"range","address":"6730 BLUFFTON RD","state":"IN"},"type":"Feature","geometry":{"type":"Point","coordinates":[-85.169282,41.020996]}},{"properties":{"city":"SEVEN HILLS","zip":"44131","geo_score":0.912,"id":"a6wig4d7yv9n","geo_precision":"range","address":"127 E PLEASANT VALLEY RD","state":"OH"},"type":"Feature","geometry":{"type":"Point","coordinates":[-81.68459,41.3615]}},{"properties":{"city":"SEVEN HILLS","zip":"44131","geo_score":0.912,"id":"a6wig3y9zjke","geo_precision":"range","address":"127 E PLEASANT VALLEY RD","state":"OH"},"type":"Feature","geometry":{"type":"Point","coordinates":[-81.68459,41.3615]}},{"properties":{"city":"GRIFFITH","zip":"46319","geo_score":0.922,"id":"a6wig498olge","geo_precision":"range","address":"1225 E RIDGE RD","state":"IN"},"type":"Feature","geometry":{"type":"Point","coordinates":[-87.41427,41.54965]}},{"properties":{"city":"WATERFORD","zip":"48329","geo_score":1.0,"id":"a6wig3y1oulm","geo_precision":"range","address":"4800 DIXIE HWY.","state":"MI"},"type":"Feature","geometry":{"type":"Point","coordinates":[-83.38521,42.689634]}},{"properties":{"city":"CINCINNATI","zip":"45247","geo_score":0.922,"id":"a6wig42k7ui7","geo_precision":"range","address":"5403 N BEND RD","state":"OH"},"type":"Feature","geometry":{"type":"Point","coordinates":[-84.601899,39.188152]}},{"properties":{"city":"CINCINNATI","zip":"45247","geo_score":0.922,"id":"a6wig3xgbui1","geo_precision":"range","address":"5403 N BEND RD","state":"OH"},"type":"Feature","geometry":{"type":"Point","coordinates":[-84.601899,39.188152]}},{"properties":{"city":"CINCINNATI","zip":"45238","geo_score":0.912,"id":"a6wig45cvqa9","geo_precision":"range","address":"2320 BOUDINOT AVE","state":"OH"},"type":"Feature","geometry":{"type":"Point","coordinates":[-84.605384,39.12876]}},{"properties":{"city":"FRASER","zip":"48026","geo_score":1.0,"id":"a6wig4b679xy","geo_precision":"range","address":"31100 GROESBECK HWY.","state":"MI"},"type":"Feature","geometry":{"type":"Point","coordinates":[-82.945289,42.525718]}},{"properties":{"city":"ST JOHN","zip":"46373","geo_score":0.774,"id":"a6wig4bep5b7","geo_precision":"street","address":"9280 WICKER AVE","state":"IN"},"type":"Feature","geometry":{"type":"Point","coordinates":[-87.470213,41.453043]}},{"properties":{"city":"HIGHLAND HEIGHTS","zip":"41076","geo_score":1.0,"id":"a6wig4aom9fy","geo_precision":"range","address":"2840 ALEXANDRIA PIKE","state":"KY"},"type":"Feature","geometry":{"type":"Point","coordinates":[-84.45172,39.031918]}},{"properties":{"city":"WILLOUGHBY","zip":"44094","geo_score":0.967,"id":"a6wig42nzelw","geo_precision":"range","address":"5881 SOM CENTER RD","state":"OH"},"type":"Feature","geometry":{"type":"Point","coordinates":[-81.43978,41.606807]}},{"properties":{"city":"STOW","zip":"44224","geo_score":0.912,"id":"a6wig44okr71","geo_precision":"range","address":"2086 GRAHAM RD","state":"OH"},"type":"Feature","geometry":{"type":"Point","coordinates":[-81.439322,41.166715]}},{"properties":{"city":"WESTLAND","zip":"48185","geo_score":1.0,"id":"a6wig479rj1d","geo_precision":"range","address":"7210 N MIDDLEBELT RD","state":"MI"},"type":"Feature","geometry":{"type":"Point","coordinates":[-83.331581,42.340105]}},{"properties":{"city":"LIVONIA","zip":"48152","geo_score":0.512,"id":"a6wig45scuez","geo_precision":"street","address":"29200 6 MILE RD","state":"MI"},"type":"Feature","geometry":{"type":"Point","coordinates":[-84.106966,42.087182]}},{"properties":{"city":"WYOMING","zip":"49548","geo_score":0.477,"id":"a6wig43ceqgy","geo_precision":"street","address":"2829 S. DIVISION AVE","state":"MI"},"type":"Feature","geometry":{"type":"Point","coordinates":[-85.665895,42.911327]}},{"properties":{"city":"ST CLAIR SHORES","zip":"48082","geo_score":0.982,"id":"a6wig47km38n","geo_precision":"range","address":"32201 HARPER AVE","state":"MI"},"type":"Feature","geometry":{"type":"Point","coordinates":[-82.888457,42.532219]}},{"properties":{"city":"MENTOR","zip":"44060","geo_score":0.941,"id":"a6wig4b1gpid","geo_precision":"range","address":"9400 MENTOR AVE.","state":"OH"},"type":"Feature","geometry":{"type":"Point","coordinates":[-81.303358,41.679528]}},{"properties":{"city":"CHICAGO HEIGHTS","zip":"60411","geo_score":0.974,"id":"a6wig40ge09p","geo_precision":"range","address":"1401 WESTERN AVE","state":"IL"},"type":"Feature","geometry":{"type":"Point","coordinates":[-87.674341,41.506097]}},{"properties":{"city":"DEARBORN HEIGHTS","zip":"48127","geo_score":1.0,"id":"a6wig440orh8","geo_precision":"range","address":"8706 N TELEGRAPH RD","state":"MI"},"type":"Feature","geometry":{"type":"Point","coordinates":[-83.274212,42.356038]}},{"properties":{"city":"DETROIT","zip":"48228","geo_score":1.0,"id":"a6wig426kgoa","geo_precision":"range","address":"19800 PLYMOUTH RD.","state":"MI"},"type":"Feature","geometry":{"type":"Point","coordinates":[-83.235036,42.371905]}},{"properties":{"city":"LAFAYETTE","zip":"47904","geo_score":0.833,"id":"a6wig40fdk87","geo_precision":"range","address":"1801 SOUTH ST.","state":"IN"},"type":"Feature","geometry":{"type":"Point","coordinates":[-86.877044,40.417348]}},{"properties":{"city":"BOARDMAN","zip":"44512","geo_score":1.0,"id":"a6wig48guydf","geo_precision":"range","address":"7295 MARKET ST","state":"OH"},"type":"Feature","geometry":{"type":"Point","coordinates":[-80.662736,41.024431]}},{"properties":{"city":"TROY","zip":"48083","geo_score":1.0,"id":"a6wig49djigd","geo_precision":"range","address":"1965 E BIG BEAVER RD","state":"MI"},"type":"Feature","geometry":{"type":"Point","coordinates":[-83.110299,42.563549]}},{"properties":{"city":"GRAND RAPIDS","zip":"49546","geo_score":1.0,"id":"a6wig4abjuus","geo_precision":"range","address":"6790 CASCADE RD SE","state":"MI"},"type":"Feature","geometry":{"type":"Point","coordinates":[-85.499057,42.913096]}},{"properties":{"city":"INKSTER","zip":"48141","geo_score":0.371,"id":"a6wig4cm9gti","geo_precision":"street","address":"120 S. INKSTER","state":"MI"},"type":"Feature","geometry":{"type":"Point","coordinates":[-83.647031,42.450965]}},{"properties":{"city":"CHESTERFIELD","zip":"48051","geo_score":0.911,"id":"a6wig3zuemkz","geo_precision":"range","address":"51008 GRATIOT AVE","state":"MI"},"type":"Feature","geometry":{"type":"Point","coordinates":[-82.83317,42.674796]}},{"properties":{"city":"MACOMB TWP","zip":"48044","geo_score":0.967,"id":"a6wig3zo5nzd","geo_precision":"range","address":"47100 HAYES RD","state":"MI"},"type":"Feature","geometry":{"type":"Point","coordinates":[-82.973878,42.642463]}},{"properties":{"city":"NOVI","zip":"48375","geo_score":1.0,"id":"a6wig4d8izvh","geo_precision":"range","address":"24100 NOVI RD","state":"MI"},"type":"Feature","geometry":{"type":"Point","coordinates":[-83.47468,42.466002]}},{"properties":{"city":"HAMMOND","zip":"46320","geo_score":1.0,"id":"a6wig44yq7md","geo_precision":"range","address":"6510 COLUMBIA AVE","state":"IN"},"type":"Feature","geometry":{"type":"Point","coordinates":[-87.500155,41.595365]}},{"properties":{"city":"SCHERERVILLE","zip":"46375","geo_score":0.74,"id":"a6wig3ywh10i","geo_precision":"street","address":"5520 US HIGHWAY 30","state":"IN"},"type":"Feature","geometry":{"type":"Point","coordinates":[-87.391769,41.473278]}},{"properties":{"city":"TAYLOR","zip":"48180","geo_score":1.0,"id":"a6wig3x84uxv","geo_precision":"range","address":"20090 GODDARD RD","state":"MI"},"type":"Feature","geometry":{"type":"Point","coordinates":[-83.230673,42.227521]}},{"properties":{"city":"DETROIT","zip":"48236","geo_score":0.927,"id":"a6wig476ibob","geo_precision":"range","address":"22380 MOROSS RD.","state":"MI"},"type":"Feature","geometry":{"type":"Point","coordinates":[-82.912033,42.417673]}},{"properties":{"city":"WARREN","zip":"48089","geo_score":1.0,"id":"a6wig428odg9","geo_precision":"range","address":"22950 VAN DYKE AVE.","state":"MI"},"type":"Feature","geometry":{"type":"Point","coordinates":[-83.02669,42.462709]}},{"properties":{"city":"MIAMISBURG","zip":"45342","geo_score":0.886,"id":"a6wig40zj4qv","geo_precision":"range","address":"1260 CENTRAL AVE","state":"OH"},"type":"Feature","geometry":{"type":"Point","coordinates":[-84.265657,39.640324]}},{"properties":{"city":"HUBER HEIGHTS","zip":"45424","geo_score":0.839,"id":"a6wig466v8s1","geo_precision":"range","address":"6495 OLD TROY PIKE","state":"OH"},"type":"Feature","geometry":{"type":"Point","coordinates":[-84.139364,39.848208]}},{"properties":{"city":"CINCINNATI","zip":"45251","geo_score":1.0,"id":"a6wig416o9iy","geo_precision":"range","address":"9775 COLERAIN AVE","state":"OH"},"type":"Feature","geometry":{"type":"Point","coordinates":[-84.596974,39.249286]}},{"properties":{"city":"CINCINNATI","zip":"45251","geo_score":1.0,"id":"a6wig3xwq0ln","geo_precision":"range","address":"9775 COLERAIN AVE","state":"OH"},"type":"Feature","geometry":{"type":"Point","coordinates":[-84.596974,39.249286]}},{"properties":{"city":"PARK FOREST","zip":"60466","geo_score":0.909,"id":"a6wig42y5pdq","geo_precision":"range","address":"15 S ORCHARD DR","state":"IL"},"type":"Feature","geometry":{"type":"Point","coordinates":[-87.684057,41.484261]}},{"properties":{"city":"SAINT JOSEPH","zip":"49085","geo_score":0.733,"id":"a6wig46elxnd","geo_precision":"range","address":"1260 HILLTOP ST","state":"MI"},"type":"Feature","geometry":{"type":"Point","coordinates":[-86.484536,42.079896]}},{"properties":{"city":"PORTAGE","zip":"46368","geo_score":0.902,"id":"a6wig46qhcq8","geo_precision":"range","address":"5995 US HWY 6","state":"IN"},"type":"Feature","geometry":{"type":"Point","coordinates":[-87.18289,41.550481]}},{"properties":{"city":"DAYTON","zip":"45459","geo_score":0.922,"id":"a6wig46n7g69","geo_precision":"range","address":"6485 WILMINGTON PIKE","state":"OH"},"type":"Feature","geometry":{"type":"Point","coordinates":[-84.110447,39.632811]}},{"properties":{"city":"HOBART","zip":"46342","geo_score":0.849,"id":"a6wig4axz03p","geo_precision":"range","address":"1605 E 37TH AVE","state":"IN"},"type":"Feature","geometry":{"type":"Point","coordinates":[-87.240705,41.550706]}},{"properties":{"city":"RIVERVIEW","zip":"48192","geo_score":0.806,"id":"a6wig491l0eu","geo_precision":"street","address":"17071 FORT ST","state":"MI"},"type":"Feature","geometry":{"type":"Point","coordinates":[-83.189239,42.183393]}},{"properties":{"city":"GREENWOOD","zip":"46143","geo_score":1.0,"id":"a6wig41t8ad7","geo_precision":"range","address":"700 US HIGHWAY 31 S","state":"IN"},"type":"Feature","geometry":{"type":"Point","coordinates":[-86.108589,39.606359]}},{"properties":{"city":"PONTIAC","zip":"48342","geo_score":0.975,"id":"a6wig40mg90q","geo_precision":"range","address":"690 MARTIN LUTHER KING BLVD N","state":"MI"},"type":"Feature","geometry":{"type":"Point","coordinates":[-83.276046,42.655092]}},{"properties":{"city":"CLINTON TWP","zip":"48036","geo_score":0.524,"id":"a6wig3xfq4el","geo_precision":"street","address":"1045 S. GRATIOT AVE.","state":"MI"},"type":"Feature","geometry":{"type":"Point","coordinates":[-82.890352,42.572416]}},{"properties":{"city":"DAYTON","zip":"45405","geo_score":0.805,"id":"a6wig416r1n1","geo_precision":"street","address":"4855 N MAIN ST","state":"OH"},"type":"Feature","geometry":{"type":"Point","coordinates":[-84.193615,39.765809]}},{"properties":{"city":"WAYNE","zip":"48184","geo_score":1.0,"id":"a6wig45vexgu","geo_precision":"range","address":"32732 MICHIGAN AVE.","state":"MI"},"type":"Feature","geometry":{"type":"Point","coordinates":[-83.362189,42.28357]}},{"properties":{"city":"MICHIGAN CITY","zip":"46360","geo_score":0.902,"id":"a6wig4ads2z8","geo_precision":"range","address":"101 W US HIGHWAY 20","state":"IN"},"type":"Feature","geometry":{"type":"Point","coordinates":[-86.893973,41.680343]}},{"properties":{"city":"KETTERING","zip":"45429","geo_score":0.913,"id":"a6wig43tdxs0","geo_precision":"range","address":"4497 FAR HILLS AVE.","state":"OH"},"type":"Feature","geometry":{"type":"Point","coordinates":[-84.166805,39.681476]}},{"properties":{"city":"ROCHESTER HILLS","zip":"48307","geo_score":0.556,"id":"a6wig42hm3wn","geo_precision":"street","address":"2050 S. ROCHESTER RD.","state":"MI"},"type":"Feature","geometry":{"type":"Point","coordinates":[-83.133727,42.67939]}},{"properties":{"city":"STERLING HEIGHTS","zip":"48310","geo_score":1.0,"id":"a6wig3zn7jji","geo_precision":"range","address":"4019 METROPOLITAN PKWY","state":"MI"},"type":"Feature","geometry":{"type":"Point","coordinates":[-83.069765,42.564673]}},{"properties":{"city":"CROWN POINT","zip":"46307","geo_score":0.912,"id":"a6wig47mkmfg","geo_precision":"range","address":"1003 N MAIN ST","state":"IN"},"type":"Feature","geometry":{"type":"Point","coordinates":[-87.364924,41.42759]}},{"properties":{"city":"FLINT","zip":"48507","geo_score":0.614,"id":"a6wig419l9at","geo_precision":"street","address":"5703 S. SAGINAW RD","state":"MI"},"type":"Feature","geometry":{"type":"Point","coordinates":[-83.675851,42.987987]}},{"properties":{"city":"GARFIELD HEIGHTS","zip":"44125","geo_score":1.0,"id":"a6wig3zomthr","geo_precision":"range","address":"12777 ROCK SIDE RD","state":"OH"},"type":"Feature","geometry":{"type":"Point","coordinates":[-81.594989,41.400907]}},{"properties":{"city":"SOUTH EUCLID","zip":"44121","geo_score":1.0,"id":"a6wig45ap9jl","geo_precision":"range","address":"2135 WARRENSVILLE CENTER RD","state":"OH"},"type":"Feature","geometry":{"type":"Point","coordinates":[-81.536294,41.501588]}},{"properties":{"city":"SOUTH EUCLID","zip":"44121","geo_score":1.0,"id":"a6wig42t3d9k","geo_precision":"range","address":"2135 WARRENSVILLE CENTER RD","state":"OH"},"type":"Feature","geometry":{"type":"Point","coordinates":[-81.536294,41.501588]}},{"properties":{"city":"MADISON HEIGHTS","zip":"48071","geo_score":1.0,"id":"a6wig4d6bul0","geo_precision":"range","address":"26800 JOHN R RD","state":"MI"},"type":"Feature","geometry":{"type":"Point","coordinates":[-83.105178,42.488952]}},{"properties":{"city":"MARKHAM","zip":"60426","geo_score":0.708,"id":"a6wig3xb1ij0","geo_precision":"street","address":"3148 W 159TH ST","state":"IL"},"type":"Feature","geometry":{"type":"Point","coordinates":[-87.681947,41.600834]}},{"properties":{"city":"GRAND RAPIDS","zip":"49548","geo_score":0.927,"id":"a6wig425c0kp","geo_precision":"range","address":"8 68TH ST SW","state":"MI"},"type":"Feature","geometry":{"type":"Point","coordinates":[-85.663968,42.840713]}},{"properties":{"city":"MADEIRA","zip":"45243","geo_score":0.92,"id":"a6wig4bz15n1","geo_precision":"range","address":"6901 MIAMI AVE","state":"OH"},"type":"Feature","geometry":{"type":"Point","coordinates":[-84.36334,39.187951]}},{"properties":{"city":"TINLEY PARK","zip":"60477","geo_score":0.876,"id":"a6wig45feyx6","geo_precision":"range","address":"16675 S OAK PARK AVE","state":"IL"},"type":"Feature","geometry":{"type":"Point","coordinates":[-87.78481,41.588067]}},{"properties":{"city":"ROYAL OAK","zip":"48073","geo_score":1.0,"id":"a6wig44q4ces","geo_precision":"range","address":"30852  WOODWARD AVE.","state":"MI"},"type":"Feature","geometry":{"type":"Point","coordinates":[-83.184957,42.516779]}},{"properties":{"city":"LINCOLN PARK","zip":"48146","geo_score":1.0,"id":"a6wig4d6rt7b","geo_precision":"range","address":"1765 FORT ST.","state":"MI"},"type":"Feature","geometry":{"type":"Point","coordinates":[-83.175973,42.251142]}},{"properties":{"city":"LINCOLN PARK","zip":"48146","geo_score":1.0,"id":"a6wig45j3t2r","geo_precision":"range","address":"1765 FORT ST.","state":"MI"},"type":"Feature","geometry":{"type":"Point","coordinates":[-83.175973,42.251142]}},{"properties":{"city":"MERRILLVILLE","zip":"46410","geo_score":0.498,"id":"a6wig3zz61wf","geo_precision":"street","address":"400 W. 81ST AVE","state":"IN"},"type":"Feature","geometry":{"type":"Point","coordinates":[-87.340693,41.47109]}},{"properties":{"city":"TWINSBURG","zip":"44087","geo_score":1.0,"id":"a6wig44gnr4s","geo_precision":"range","address":"9043 DARROW RD","state":"OH"},"type":"Feature","geometry":{"type":"Point","coordinates":[-81.44026,41.311879]}},{"properties":{"city":"BARBERTON","zip":"44203","geo_score":0.9,"id":"a6wig419jols","geo_precision":"range","address":"900 WOOSTER RD NORTH","state":"OH"},"type":"Feature","geometry":{"type":"Point","coordinates":[-81.622215,41.010923]}},{"properties":{"city":"EASTPOINTE","zip":"48021","geo_score":0.878,"id":"a6wig3wz2q75","geo_precision":"range","address":"25016 GRATIOT AVE.","state":"MI"},"type":"Feature","geometry":{"type":"Point","coordinates":[-82.948342,42.47975]}},{"properties":{"city":"DETROIT","zip":"48207","geo_score":1.0,"id":"a6wig4c26j37","geo_precision":"range","address":"6331 E JEFFERSON AVE","state":"MI"},"type":"Feature","geometry":{"type":"Point","coordinates":[-83.009646,42.343896]}},{"properties":{"city":"CROWN POINT","zip":"46307","geo_score":0.912,"id":"a6wig45q79uj","geo_precision":"range","address":"10920 RANDOLPH ST.","state":"IN"},"type":"Feature","geometry":{"type":"Point","coordinates":[-87.239042,41.419871]}},{"properties":{"city":"MUSKEGON","zip":"49442","geo_score":0.866,"id":"a6wig40ykpkn","geo_precision":"range","address":"1000 GETTY ST.","state":"MI"},"type":"Feature","geometry":{"type":"Point","coordinates":[-86.224139,43.234289]}},{"properties":{"city":"WEST BLOOMFIELD","zip":"48322","geo_score":0.805,"id":"a6wig3z3fl9n","geo_precision":"street","address":"7380 ORCHARD LAKE RD.","state":"MI"},"type":"Feature","geometry":{"type":"Point","coordinates":[-83.360962,42.548078]}},{"properties":{"city":"SHARONVILLE","zip":"45241","geo_score":0.92,"id":"a6wig470fabh","geo_precision":"range","address":"12110 LEBANON RD.","state":"OH"},"type":"Feature","geometry":{"type":"Point","coordinates":[-84.391787,39.296624]}},{"properties":{"city":"WARREN","zip":"48092","geo_score":0.967,"id":"a6wig45zah2e","geo_precision":"range","address":"4010 E 13 MILE RD","state":"MI"},"type":"Feature","geometry":{"type":"Point","coordinates":[-83.067861,42.520397]}},{"properties":{"city":"LIVONIA","zip":"48150","geo_score":1.0,"id":"a6wig4al65bf","geo_precision":"range","address":"8850 NEWBURGH RD.","state":"MI"},"type":"Feature","geometry":{"type":"Point","coordinates":[-83.410375,42.353531]}},{"properties":{"city":"CHESTERTON","zip":"46304","geo_score":0.688,"id":"a6wig43lo45j","geo_precision":"street","address":"580 E INDIAN BOUNDARY","state":"IN"},"type":"Feature","geometry":{"type":"Point","coordinates":[-87.033723,41.616932]}},{"properties":{"city":"CRESTWOOD","zip":"60445","geo_score":0.806,"id":"a6wig3x02jca","geo_precision":"street","address":"13501 S CICERO AVE","state":"IL"},"type":"Feature","geometry":{"type":"Point","coordinates":[-87.7383,41.653166]}},{"properties":{"city":"FRANKFORT","zip":"60423","geo_score":0.916,"id":"a6wig3yso8ve","geo_precision":"range","address":"7209 W LINCOLN HWY","state":"IL"},"type":"Feature","geometry":{"type":"Point","coordinates":[-87.794626,41.506257]}},{"properties":{"city":"DAYTON","zip":"45410","geo_score":1.0,"id":"a6wig44xi0vd","geo_precision":"range","address":"1542 WAYNE AVE","state":"OH"},"type":"Feature","geometry":{"type":"Point","coordinates":[-84.171914,39.747226]}},{"properties":{"city":"DAYTON","zip":"45406","geo_score":0.941,"id":"a6wig41tnm42","geo_precision":"range","address":"2710 SALEM AVE","state":"OH"},"type":"Feature","geometry":{"type":"Point","coordinates":[-84.235029,39.787419]}},{"properties":{"city":"CANTON","zip":"44718","geo_score":1.0,"id":"a6wig46aogrj","geo_precision":"range","address":"4024 FULTON DR NW","state":"OH"},"type":"Feature","geometry":{"type":"Point","coordinates":[-81.424389,40.836771]}},{"properties":{"city":"KALAMAZOO","zip":"49008","geo_score":0.607,"id":"a6wig46kdldj","geo_precision":"street","address":"3016 S. WESTNEDGE AVE.","state":"MI"},"type":"Feature","geometry":{"type":"Point","coordinates":[-85.589102,42.2826]}},{"properties":{"city":"DEARBORN","zip":"48126","geo_score":1.0,"id":"a6wig4c8inel","geo_precision":"range","address":"15450 MICHIGAN AVE","state":"MI"},"type":"Feature","geometry":{"type":"Point","coordinates":[-83.194268,42.316814]}},{"properties":{"city":"MAYFIELD HEIGHTS","zip":"44124","geo_score":0.915,"id":"a6wig49etab8","geo_precision":"range","address":"6605 MAYFIELD RD","state":"OH"},"type":"Feature","geometry":{"type":"Point","coordinates":[-81.441216,41.520097]}},{"properties":{"city":"MIDDLEBURG HEIGHTS","zip":"44130","geo_score":0.943,"id":"a6wig3wz13li","geo_precision":"range","address":"7260 PEARL ROAD","state":"OH"},"type":"Feature","geometry":{"type":"Point","coordinates":[-81.804262,41.368123]}},{"properties":{"city":"DEARBORN","zip":"48126","geo_score":0.614,"id":"a6wig40xe440","geo_precision":"street","address":"13601 W. WARREN AVE.","state":"MI"},"type":"Feature","geometry":{"type":"Point","coordinates":[-83.148431,42.344688]}},{"properties":{"city":"ALSIP","zip":"60803","geo_score":1.0,"id":"a6wig45t4ep0","geo_precision":"range","address":"12290 S PULASKI RD","state":"IL"},"type":"Feature","geometry":{"type":"Point","coordinates":[-87.719459,41.669499]}},{"properties":{"city":"WARREN","zip":"48091","geo_score":0.361,"id":"a6wig3xljp94","geo_precision":"street","address":"1921 E. 8 MILE RD.","state":"MI"},"type":"Feature","geometry":{"type":"Point","coordinates":[-82.928429,43.012617]}},{"properties":{"city":"EASTPOINTE","zip":"48021","geo_score":0.361,"id":"a6wig402mcjx","geo_precision":"street","address":"17755 E. 8 MILE RD.","state":"MI"},"type":"Feature","geometry":{"type":"Point","coordinates":[-82.928429,43.012617]}},{"properties":{"city":"DETROIT","zip":"48219","geo_score":0.955,"id":"a6wig454fwpy","geo_precision":"range","address":"24133 GRAND RIVER AVE","state":"MI"},"type":"Feature","geometry":{"type":"Point","coordinates":[-83.278334,42.424632]}},{"properties":{"city":"SOUTH CHICAGO HEIGHTS","zip":"60411","geo_score":1.0,"id":"a6wig44ynv3l","geo_precision":"range","address":"3120 CHICAGO RD.","state":"IL"},"type":"Feature","geometry":{"type":"Point","coordinates":[-87.637933,41.48217]}},{"properties":{"city":"GRAND RAPIDS","zip":"49505","geo_score":0.649,"id":"a6wig46twrm5","geo_precision":"street","address":"1964 FULLER AVE. NE","state":"MI"},"type":"Feature","geometry":{"type":"Point","coordinates":[-85.639873,42.984424]}},{"properties":{"city":"SAGINAW","zip":"48603","geo_score":0.916,"id":"a6wig48v30ud","geo_precision":"range","address":"4989 STATE ST.","state":"MI"},"type":"Feature","geometry":{"type":"Point","coordinates":[-84.013702,43.436859]}},{"properties":{"city":"OAK FOREST","zip":"60452","geo_score":0.625,"id":"a6wig3wwdcar","geo_precision":"street","address":"5525 W. 159TH ST","state":"IL"},"type":"Feature","geometry":{"type":"Point","coordinates":[-87.731453,41.603348]}},{"properties":{"city":"FORT WAYNE","zip":"46845","geo_score":1.0,"id":"a6wig47vrmcr","geo_precision":"range","address":"10412 COLDWATER ROAD","state":"IN"},"type":"Feature","geometry":{"type":"Point","coordinates":[-85.131448,41.178323]}},{"properties":{"city":"JENISON","zip":"49428","geo_score":1.0,"id":"a6wig422tlnk","geo_precision":"range","address":"378 BALDWIN ST.","state":"MI"},"type":"Feature","geometry":{"type":"Point","coordinates":[-85.790799,42.907133]}},{"properties":{"city":"LANSING","zip":"60438","geo_score":0.916,"id":"a6wig3xhm16u","geo_precision":"range","address":"3564 RIDGE RD","state":"IL"},"type":"Feature","geometry":{"type":"Point","coordinates":[-87.530774,41.564122]}},{"properties":{"city":"LANSING","zip":"60438","geo_score":0.916,"id":"a6wig486lw5v","geo_precision":"range","address":"18133 TORRENCE AVE","state":"IL"},"type":"Feature","geometry":{"type":"Point","coordinates":[-87.558769,41.566044]}},{"properties":{"city":"SAUK VILLAGE","zip":"60411","geo_score":0.928,"id":"a6wig483kyv3","geo_precision":"range","address":"2601 E SAUK TRAIL","state":"IL"},"type":"Feature","geometry":{"type":"Point","coordinates":[-87.55996,41.490881]}},{"properties":{"city":"ELYRIA","zip":"44035","geo_score":0.74,"id":"a6wig4ckrvmn","geo_precision":"street","address":"100 CLEVELAND ST.","state":"OH"},"type":"Feature","geometry":{"type":"Point","coordinates":[-82.094084,41.372727]}},{"properties":{"city":"ELYRIA","zip":"44035","geo_score":0.74,"id":"a6wig41fhb9s","geo_precision":"street","address":"100 CLEVELAND ST.","state":"OH"},"type":"Feature","geometry":{"type":"Point","coordinates":[-82.094084,41.372727]}},{"properties":{"city":"LAPORTE","zip":"46350","geo_score":0.754,"id":"a6wig4d807iu","geo_precision":"range","address":"1302 W SR 2","state":"IN"},"type":"Feature","geometry":{"type":"Point","coordinates":[-86.733975,41.600871]}},{"properties":{"city":"INDIANAPOLIS","zip":"46250","geo_score":0.907,"id":"a6wig3xhn0md","geo_precision":"range","address":"9610 N ALLISONVILLE RD","state":"IN"},"type":"Feature","geometry":{"type":"Point","coordinates":[-86.065971,39.927168]}},{"properties":{"city":"BAY CITY","zip":"48706","geo_score":0.619,"id":"a6wig40s0adv","geo_precision":"street","address":"416 S. EUCLID AVE.","state":"MI"},"type":"Feature","geometry":{"type":"Point","coordinates":[-83.916113,43.556866]}},{"properties":{"city":"BROWNSTOWN","zip":"48134","geo_score":0.912,"id":"a6wig4afsfc1","geo_precision":"range","address":"23007 TELEGRAPH RD.","state":"MI"},"type":"Feature","geometry":{"type":"Point","coordinates":[-83.266165,42.13804]}},{"properties":{"city":"TRENTON","zip":"48183","geo_score":0.767,"id":"a6wig48ay6rt","geo_precision":"range","address":"1700 WEST ROAD","state":"MI"},"type":"Feature","geometry":{"type":"Point","coordinates":[-83.188685,42.141324]}},{"properties":{"city":"BRIGHTON","zip":"48116","geo_score":0.958,"id":"a6wig4am6gta","geo_precision":"range","address":"8720 W GRAND RIVER AVE","state":"MI"},"type":"Feature","geometry":{"type":"Point","coordinates":[-83.785516,42.539141]}},{"properties":{"city":"CLARKSTON","zip":"48346","geo_score":0.951,"id":"a6wig430adrq","geo_precision":"range","address":"7110 DIXIE HWY","state":"MI"},"type":"Feature","geometry":{"type":"Point","coordinates":[-83.429476,42.725342]}},{"properties":{"city":"POSEN","zip":"60469","geo_score":0.963,"id":"a6wig40z6rbe","geo_precision":"range","address":"3145 W 147TH ST","state":"IL"},"type":"Feature","geometry":{"type":"Point","coordinates":[-87.696972,41.625926]}},{"properties":{"city":"LOWELL","zip":"46356","geo_score":0.911,"id":"a6wig40nw5je","geo_precision":"range","address":"1704 E COMMERCIAL AVE","state":"IN"},"type":"Feature","geometry":{"type":"Point","coordinates":[-87.399771,41.289899]}},{"properties":{"city":"FAIRFIELD","zip":"45014","geo_score":0.902,"id":"a6wig451po9c","geo_precision":"range","address":"6355  DIXIE HIGHWAY","state":"OH"},"type":"Feature","geometry":{"type":"Point","coordinates":[-84.504733,39.323081]}},{"properties":{"city":"HAMILTON","zip":"45011","geo_score":0.919,"id":"a6wig3xxw346","geo_precision":"range","address":"1090 HIGH ST","state":"OH"},"type":"Feature","geometry":{"type":"Point","coordinates":[-84.549039,39.395926]}},{"properties":{"city":"MASON","zip":"45040","geo_score":1.0,"id":"a6wig4971w1e","geo_precision":"range","address":"1086 READING RD","state":"OH"},"type":"Feature","geometry":{"type":"Point","coordinates":[-84.338779,39.340226]}},{"properties":{"city":"LAKEWOOD","zip":"44107","geo_score":1.0,"id":"a6wig42h0umd","geo_precision":"range","address":"11701 DETROIT AVE","state":"OH"},"type":"Feature","geometry":{"type":"Point","coordinates":[-81.768751,41.483616]}},{"properties":{"city":"LANSING","zip":"48917","geo_score":0.916,"id":"a6wig3wx6rko","geo_precision":"range","address":"3915 W SAGINAW HWY","state":"MI"},"type":"Feature","geometry":{"type":"Point","coordinates":[-84.603019,42.741111]}},{"properties":{"city":"TROY","zip":"48085","geo_score":0.468,"id":"a6wig41p3fie","geo_precision":"street","address":"2932 E. LONG LAKE RD.","state":"MI"},"type":"Feature","geometry":{"type":"Point","coordinates":[-83.149025,42.591572]}},{"properties":{"city":"HIGHLAND PARK","zip":"48203","geo_score":1.0,"id":"a6wig453v9qm","geo_precision":"range","address":"14048 WOODWARD AVE","state":"MI"},"type":"Feature","geometry":{"type":"Point","coordinates":[-83.097985,42.406975]}},{"properties":{"city":"NEW BALTIMORE","zip":"48047","geo_score":0.927,"id":"a6wig4cb9xp0","geo_precision":"range","address":"51200 WASHINGTON ST","state":"MI"},"type":"Feature","geometry":{"type":"Point","coordinates":[-82.736896,42.681149]}},{"properties":{"city":"VALPARAISO","zip":"46383","geo_score":0.717,"id":"a6wig46unsc1","geo_precision":"street","address":"252 MORTHLAND DRIVE","state":"IN"},"type":"Feature","geometry":{"type":"Point","coordinates":[-87.026369,41.453694]}},{"properties":{"city":"INDIANAPOLIS","zip":"46254","geo_score":0.526,"id":"a6wig402dkxq","geo_precision":"street","address":"6269 W. 38TH ST.","state":"IN"},"type":"Feature","geometry":{"type":"Point","coordinates":[-86.221515,39.824219]}},{"properties":{"city":"FARMINGTON HILLS","zip":"48336","geo_score":0.967,"id":"a6wig44mkg6e","geo_precision":"range","address":"24140 ORCHARD LAKE RD","state":"MI"},"type":"Feature","geometry":{"type":"Point","coordinates":[-83.357162,42.469725]}},{"properties":{"city":"SHELBY TOWNSHIP","zip":"48315","geo_score":0.561,"id":"a6wig40gbdyk","geo_precision":"street","address":"13664 23 MILE RD","state":"MI"},"type":"Feature","geometry":{"type":"Point","coordinates":[-83.487606,42.638976]}},{"properties":{"city":"MUSKEGON","zip":"49441","geo_score":0.486,"id":"a6wig3yosgpx","geo_precision":"street","address":"840 W. SHERMAN BLVD","state":"MI"},"type":"Feature","geometry":{"type":"Point","coordinates":[-86.261868,43.205279]}},{"properties":{"city":"ROCHESTER","zip":"46975","geo_score":0.913,"id":"a6wig4aj8l43","geo_precision":"range","address":"906 MAIN STREET","state":"IN"},"type":"Feature","geometry":{"type":"Point","coordinates":[-86.216049,41.064895]}},{"properties":{"city":"TOLEDO","zip":"43605","geo_score":1.0,"id":"a6wig4b03igy","geo_precision":"range","address":"925 WOODVILLE RD","state":"OH"},"type":"Feature","geometry":{"type":"Point","coordinates":[-83.516519,41.635132]}},{"properties":{"city":"MONROE","zip":"48162","geo_score":0.571,"id":"a6wig4buha48","geo_precision":"street","address":"484 S. TELEGRAPH RD.","state":"MI"},"type":"Feature","geometry":{"type":"Point","coordinates":[-83.414974,41.923262]}},{"properties":{"city":"WARREN","zip":"48093","geo_score":0.361,"id":"a6wig4asnc2d","geo_precision":"street","address":"11635 E. 13 MILE RD","state":"MI"},"type":"Feature","geometry":{"type":"Point","coordinates":[-82.928429,43.012617]}},{"properties":{"city":"TOLEDO","zip":"43614","geo_score":1.0,"id":"a6wig3ybo1dz","geo_precision":"range","address":"1910 S REYNOLDS RD","state":"OH"},"type":"Feature","geometry":{"type":"Point","coordinates":[-83.664615,41.604657]}},{"properties":{"city":"TOLEDO","zip":"43615","geo_score":0.922,"id":"a6wig40s2r14","geo_precision":"range","address":"1330 N REYNOLDS ROAD","state":"OH"},"type":"Feature","geometry":{"type":"Point","coordinates":[-83.664656,41.652049]}},{"properties":{"city":"FORT WAYNE","zip":"46814","geo_score":0.707,"id":"a6wig494jhwp","geo_precision":"street","address":"10211 CHESTNUT PLAZA DR","state":"IN"},"type":"Feature","geometry":{"type":"Point","coordinates":[-85.290357,41.076812]}},{"properties":{"city":"CHICAGO HEIGHTS","zip":"60411","geo_score":0.974,"id":"a6wig4b2o3vm","geo_precision":"range","address":"650 DIXIE HWY","state":"IL"},"type":"Feature","geometry":{"type":"Point","coordinates":[-87.649185,41.51957]}},{"properties":{"city":"SAGINAW","zip":"48603","geo_score":0.794,"id":"a6wig49jxmrb","geo_precision":"range","address":"2990 BAY ROAD","state":"MI"},"type":"Feature","geometry":{"type":"Point","coordinates":[-83.975547,43.450754]}},{"properties":{"city":"FRANKLIN","zip":"46131","geo_score":0.505,"id":"a6wig46fzi7w","geo_precision":"street","address":"20 S. MORTON ST.","state":"IN"},"type":"Feature","geometry":{"type":"Point","coordinates":[-86.06418,39.48112]}},{"properties":{"city":"YPSILANTI","zip":"48197","geo_score":0.911,"id":"a6wig4ctc476","geo_precision":"range","address":"2170 WASHTENAW ROAD","state":"MI"},"type":"Feature","geometry":{"type":"Point","coordinates":[-83.646877,42.248568]}},{"properties":{"city":"OAK PARK","zip":"48237","geo_score":0.512,"id":"a6wig4a036wg","geo_precision":"range","address":"13550 W. 9 MILE RD.","state":"MI"},"type":"Feature","geometry":{"type":"Point","coordinates":[-83.147875,42.236937]}},{"properties":{"city":"ROYAL OAK","zip":"48073","geo_score":1.0,"id":"a6wig442cddw","geo_precision":"range","address":"1815 ROCHESTER RD.","state":"MI"},"type":"Feature","geometry":{"type":"Point","coordinates":[-83.143088,42.504537]}},{"properties":{"city":"DAYTON","zip":"45402","geo_score":1.0,"id":"a6wig4cfcs3m","geo_precision":"range","address":"4121 HOOVER AVE.","state":"OH"},"type":"Feature","geometry":{"type":"Point","coordinates":[-84.252428,39.761424]}},{"properties":{"city":"BRUNSWICK","zip":"44212","geo_score":1.0,"id":"a6wig4crsrrh","geo_precision":"range","address":"1337 PEARL RD","state":"OH"},"type":"Feature","geometry":{"type":"Point","coordinates":[-81.841332,41.23906]}},{"properties":{"city":"FORT WAYNE","zip":"46805","geo_score":0.887,"id":"a6wig3yxt65h","geo_precision":"range","address":"2410 N COLISEUM BLVD","state":"IN"},"type":"Feature","geometry":{"type":"Point","coordinates":[-85.089619,41.104064]}},{"properties":{"city":"WESTLAKE","zip":"44145","geo_score":1.0,"id":"a6wig47y8rhq","geo_precision":"range","address":"25524 CENTER RIDGE RD","state":"OH"},"type":"Feature","geometry":{"type":"Point","coordinates":[-81.902644,41.455856]}},{"properties":{"city":"PETOSKEY","zip":"49770","geo_score":0.915,"id":"a6wig4a67acm","geo_precision":"range","address":"710 SPRING ST","state":"MI"},"type":"Feature","geometry":{"type":"Point","coordinates":[-84.970804,45.370301]}},{"properties":{"city":"LANSING","zip":"48912","geo_score":0.821,"id":"a6wig406mbdk","geo_precision":"street","address":"3425 E SAGINAW ST","state":"MI"},"type":"Feature","geometry":{"type":"Point","coordinates":[-84.505003,42.741022]}},{"properties":{"city":"FORT WAYNE","zip":"46804","geo_score":0.913,"id":"a6wig4cfl1j5","geo_precision":"range","address":"9030 US HIGHWAY 24 W","state":"IN"},"type":"Feature","geometry":{"type":"Point","coordinates":[-85.260703,41.029309]}},{"properties":{"city":"DAYTON","zip":"45420","geo_score":1.0,"id":"a6wig4cvni2b","geo_precision":"range","address":"2600 SOUTH SMITHVILLE ROAD","state":"OH"},"type":"Feature","geometry":{"type":"Point","coordinates":[-84.141184,39.729744]}},{"properties":{"city":"KENTWOOD","zip":"49508","geo_score":0.913,"id":"a6wig453o2nc","geo_precision":"range","address":"6020 KALAMAZOO AVE SE","state":"MI"},"type":"Feature","geometry":{"type":"Point","coordinates":[-85.624866,42.854356]}},{"properties":{"city":"COLUMBUS","zip":"43224","geo_score":1.0,"id":"a6wig3ymykha","geo_precision":"range","address":"4401 CLEVELAND AVE","state":"OH"},"type":"Feature","geometry":{"type":"Point","coordinates":[-82.953024,40.059398]}},{"properties":{"city":"ERLANGER","zip":"41018","geo_score":0.939,"id":"a6wig40z334n","geo_precision":"range","address":"3104   DIXIE HIGHWAY","state":"KY"},"type":"Feature","geometry":{"type":"Point","coordinates":[-84.589321,39.021007]}},{"properties":{"city":"WARREN","zip":"44481","geo_score":0.824,"id":"a6wig3xoz9ws","geo_precision":"range","address":"804 WEST MARKET ST.","state":"OH"},"type":"Feature","geometry":{"type":"Point","coordinates":[-80.829136,41.234011]}},{"properties":{"city":"ROCKY RIVER","zip":"44116","geo_score":0.955,"id":"a6wig42fd405","geo_precision":"range","address":"21010 CENTER RIDGE","state":"OH"},"type":"Feature","geometry":{"type":"Point","coordinates":[-81.852801,41.461726]}},{"properties":{"city":"LUDINGTON","zip":"49431","geo_score":0.467,"id":"a6wig43l6l6e","geo_precision":"street","address":"33 S. PERE MARQUETTE HWY","state":"MI"},"type":"Feature","geometry":{"type":"Point","coordinates":[-86.445058,43.957681]}},{"properties":{"city":"PLAINFIELD","zip":"46168","geo_score":0.504,"id":"a6wig43vuai7","geo_precision":"street","address":"1516 E. MAIN STREET","state":"IN"},"type":"Feature","geometry":{"type":"Point","coordinates":[-86.397647,39.704433]}},{"properties":{"city":"PORT HURON","zip":"48060","geo_score":0.816,"id":"a6wig44rzwld","geo_precision":"range","address":"1617 10TH STREET","state":"MI"},"type":"Feature","geometry":{"type":"Point","coordinates":[-82.432492,42.967103]}},{"properties":{"city":"TAYLOR","zip":"48180","geo_score":0.771,"id":"a6wig49yfw8q","geo_precision":"street","address":"15009 TELEGRAPH","state":"MI"},"type":"Feature","geometry":{"type":"Point","coordinates":[-83.267755,42.197569]}},{"properties":{"city":"HAMMOND","zip":"46327","geo_score":1.0,"id":"a6wig4ahg5zd","geo_precision":"range","address":"4445 CALUMET AVE","state":"IN"},"type":"Feature","geometry":{"type":"Point","coordinates":[-87.508746,41.632966]}},{"properties":{"city":"CINCINNATI","zip":"45217","geo_score":0.92,"id":"a6wig44xfe1d","geo_precision":"range","address":"9 WEST MITCHELL AVE.","state":"OH"},"type":"Feature","geometry":{"type":"Point","coordinates":[-84.504676,39.160425]}},{"properties":{"city":"KENT","zip":"44240","geo_score":0.498,"id":"a6wig41bg34m","geo_precision":"street","address":"320 S. WATER STREET","state":"OH"},"type":"Feature","geometry":{"type":"Point","coordinates":[-81.358184,41.152708]}},{"properties":{"city":"MARION","zip":"46952","geo_score":0.922,"id":"a6wig3zy7oxn","geo_precision":"range","address":"1323 N BALDWIN AVE","state":"IN"},"type":"Feature","geometry":{"type":"Point","coordinates":[-85.674156,40.57503]}},{"properties":{"city":"LAKE ORION","zip":"48362","geo_score":0.619,"id":"a6wig49vdl3i","geo_precision":"street","address":"450 N. PARK BLVD.","state":"MI"},"type":"Feature","geometry":{"type":"Point","coordinates":[-83.239828,42.78192]}},{"properties":{"city":"JACKSON","zip":"49202","geo_score":0.607,"id":"a6wig3y4qmuj","geo_precision":"street","address":"3040 E. MICHIGAN AVE.","state":"MI"},"type":"Feature","geometry":{"type":"Point","coordinates":[-84.423431,42.24742]}},{"properties":{"city":"CINCINNATI","zip":"45237","geo_score":0.835,"id":"a6wig44eka1y","geo_precision":"range","address":"1776 SEYMOUR","state":"OH"},"type":"Feature","geometry":{"type":"Point","coordinates":[-84.464212,39.189707]}},{"properties":{"city":"INDIANAPOLIS","zip":"46236","geo_score":0.514,"id":"a6wig4crfa66","geo_precision":"street","address":"10845 E. 79TH ST.","state":"IN"},"type":"Feature","geometry":{"type":"Point","coordinates":[-85.993123,39.898491]}},{"properties":{"city":"CEDAR LAKE","zip":"46303","geo_score":0.922,"id":"a6wig4aksa2a","geo_precision":"range","address":"13242 WICKER AVE","state":"IN"},"type":"Feature","geometry":{"type":"Point","coordinates":[-87.470026,41.378252]}},{"properties":{"city":"AVON","zip":"46123","geo_score":0.963,"id":"a6wig434oire","geo_precision":"range","address":"7975 E US HWY 36","state":"IN"},"type":"Feature","geometry":{"type":"Point","coordinates":[-86.392115,39.762802]}},{"properties":{"city":"WEST CHESTER","zip":"45069","geo_score":0.911,"id":"a6wig4c4yrn9","geo_precision":"range","address":"7804 CINCINNATI-DAYTON RD","state":"OH"},"type":"Feature","geometry":{"type":"Point","coordinates":[-84.395046,39.357357]}},{"properties":{"city":"FLORENCE","zip":"41042","geo_score":0.902,"id":"a6wig3y0k8ns","geo_precision":"range","address":"8193 MALL ROAD","state":"KY"},"type":"Feature","geometry":{"type":"Point","coordinates":[-84.649979,38.981948]}},{"properties":{"city":"RICHTON PARK","zip":"60471","geo_score":1.0,"id":"a6wig3yzfvlx","geo_precision":"range","address":"4889 SAUK TRAIL","state":"IL"},"type":"Feature","geometry":{"type":"Point","coordinates":[-87.733953,41.484313]}},{"properties":{"city":"SCHERERVILLE","zip":"46375","geo_score":0.935,"id":"a6wig3zlj618","geo_precision":"range","address":"651 W US HWY 30","state":"IN"},"type":"Feature","geometry":{"type":"Point","coordinates":[-87.46736,41.490714]}},{"properties":{"city":"MUNCIE","zip":"47303","geo_score":0.911,"id":"a6wig3ylsy9r","geo_precision":"range","address":"100 E MCGALLIARD RD","state":"IN"},"type":"Feature","geometry":{"type":"Point","coordinates":[-85.386877,40.219004]}},{"properties":{"city":"MUNCIE","zip":"47303","geo_score":0.852,"id":"a6wig433lxka","geo_precision":"range","address":"2720 W JACKSON","state":"IN"},"type":"Feature","geometry":{"type":"Point","coordinates":[-85.418084,40.192972]}},{"properties":{"city":"INDIANAPOLIS","zip":"46227","geo_score":0.92,"id":"a6wig4399m4m","geo_precision":"range","address":"455 E EPLER AVE","state":"IN"},"type":"Feature","geometry":{"type":"Point","coordinates":[-86.150488,39.686319]}},{"properties":{"city":"MENTOR ON THE LAKE","zip":"44060","geo_score":0.948,"id":"a6wig4421rwm","geo_precision":"range","address":"6101 ANDREWS ROAD","state":"OH"},"type":"Feature","geometry":{"type":"Point","coordinates":[-81.36129,41.705268]}},{"properties":{"city":"PAINESVILLE","zip":"44077","geo_score":0.956,"id":"a6wig47pu8ym","geo_precision":"range","address":"132 RICHMOND ST.","state":"OH"},"type":"Feature","geometry":{"type":"Point","coordinates":[-81.248378,41.725395]}},{"properties":{"city":"LANSING","zip":"48910","geo_score":0.625,"id":"a6wig44dxi5f","geo_precision":"street","address":"3404 S. MARTIN LUTHER KING JR.","state":"MI"},"type":"Feature","geometry":{"type":"Point","coordinates":[-84.550232,42.71487]}},{"properties":{"city":"ANN  ARBOR","zip":"48104","geo_score":1.0,"id":"a6wig4c8wnav","geo_precision":"range","address":"3255 WASHTENAW AVE","state":"MI"},"type":"Feature","geometry":{"type":"Point","coordinates":[-83.694704,42.256485]}},{"properties":{"city":"GREENWOOD","zip":"46143","geo_score":0.614,"id":"a6wig492m7uq","geo_precision":"street","address":"720 S. STATE ROAD 135","state":"IN"},"type":"Feature","geometry":{"type":"Point","coordinates":[-86.1591,39.59764]}},{"properties":{"city":"AKRON","zip":"44305","geo_score":0.957,"id":"a6wig494u9nc","geo_precision":"range","address":"830 BRITTAIN ROAD","state":"OH"},"type":"Feature","geometry":{"type":"Point","coordinates":[-81.466976,41.085323]}},{"properties":{"city":"OREGON","zip":"43616","geo_score":0.927,"id":"a6wig45wcltu","geo_precision":"range","address":"2562 NAVARRE AVE","state":"OH"},"type":"Feature","geometry":{"type":"Point","coordinates":[-83.487412,41.636643]}},{"properties":{"city":"FLINT","zip":"48506","geo_score":1.0,"id":"a6wig47emqql","geo_precision":"range","address":"2815 DAVISON RD.","state":"MI"},"type":"Feature","geometry":{"type":"Point","coordinates":[-83.65506,43.032908]}},{"properties":{"city":"FLINT","zip":"48507","geo_score":0.625,"id":"a6wig3zihz4u","geo_precision":"street","address":"3753 S. DORT HWY","state":"MI"},"type":"Feature","geometry":{"type":"Point","coordinates":[-83.653821,43.000099]}},{"properties":{"city":"FORT WAYNE","zip":"46825","geo_score":0.902,"id":"a6wig4bp41eb","geo_precision":"range","address":"5830 N CLINTON ST","state":"IN"},"type":"Feature","geometry":{"type":"Point","coordinates":[-85.121881,41.132392]}},{"properties":{"city":"CLINTON  TWP","zip":"48038","geo_score":0.967,"id":"a6wig48dopt4","geo_precision":"range","address":"16741 CANAL RD.","state":"MI"},"type":"Feature","geometry":{"type":"Point","coordinates":[-82.953464,42.605431]}},{"properties":{"city":"SOUTHFIELD","zip":"48034","geo_score":0.922,"id":"a6wig49eitwk","geo_precision":"range","address":"29030 NORTHWESTERN HWY","state":"MI"},"type":"Feature","geometry":{"type":"Point","coordinates":[-83.296714,42.496641]}},{"properties":{"city":"WARREN","zip":"48089","geo_score":0.927,"id":"a6wig41f92vj","geo_precision":"range","address":"24900 SCHOENHER","state":"MI"},"type":"Feature","geometry":{"type":"Point","coordinates":[-82.986703,42.477735]}},{"properties":{"city":"INDIANAPOLIS","zip":"46236","geo_score":0.919,"id":"a6wig405h7w4","geo_precision":"range","address":"11020 PENDLETON PIKE","state":"IN"},"type":"Feature","geometry":{"type":"Point","coordinates":[-85.97241,39.862692]}},{"properties":{"city":"HAMMOND","zip":"46320","geo_score":0.927,"id":"a6wig40a2afk","geo_precision":"range","address":"7 SIBLEY RD","state":"IN"},"type":"Feature","geometry":{"type":"Point","coordinates":[-87.525089,41.620842]}},{"properties":{"city":"SCHERERVILLE","zip":"46375","geo_score":0.935,"id":"a6wig3zoh2vj","geo_precision":"range","address":"22 US HIGHWAY 41","state":"IN"},"type":"Feature","geometry":{"type":"Point","coordinates":[-87.471338,41.522583]}},{"properties":{"city":"SAGINAW","zip":"48601","geo_score":0.533,"id":"a6wig47uh0om","geo_precision":"street","address":"3424 E. GENESEE AVE","state":"MI"},"type":"Feature","geometry":{"type":"Point","coordinates":[-83.883164,43.428931]}},{"properties":{"city":"PORT HURON","zip":"48060","geo_score":0.524,"id":"a6wig49fb6yt","geo_precision":"street","address":"3990 24TH AVE.","state":"MI"},"type":"Feature","geometry":{"type":"Point","coordinates":[-82.451237,42.941306]}},{"properties":{"city":"FLUSHING","zip":"48433","geo_score":0.476,"id":"a6wig43p0gi7","geo_precision":"street","address":"1570 E. PIERSON RD.","state":"MI"},"type":"Feature","geometry":{"type":"Point","coordinates":[-83.783767,43.060421]}},{"properties":{"city":"HUNTINGTON","zip":"46750","geo_score":0.883,"id":"a6wig3xz7mza","geo_precision":"range","address":"1804 N JEFFERSON","state":"IN"},"type":"Feature","geometry":{"type":"Point","coordinates":[-85.504138,40.891511]}},{"properties":{"city":"SAGINAW","zip":"48602","geo_score":0.61,"id":"a6wig44s88ss","geo_precision":"street","address":"409 W. GENESEE AVE.","state":"MI"},"type":"Feature","geometry":{"type":"Point","coordinates":[-83.942348,43.433853]}},{"properties":{"city":"COLDWATER","zip":"49036","geo_score":0.916,"id":"a6wig401baby","geo_precision":"range","address":"500 E CHICAGO ST","state":"MI"},"type":"Feature","geometry":{"type":"Point","coordinates":[-84.980897,41.937401]}},{"properties":{"city":"DYER","zip":"46311","geo_score":0.922,"id":"a6wig48mvi8a","geo_precision":"range","address":"770 JOLIET STREET","state":"IN"},"type":"Feature","geometry":{"type":"Point","coordinates":[-87.509565,41.492975]}},{"properties":{"city":"DUBLIN","zip":"43016","geo_score":0.716,"id":"a6wig4abhuhb","geo_precision":"street","address":"6805 PERIMETER LOOP","state":"OH"},"type":"Feature","geometry":{"type":"Point","coordinates":[-83.165151,40.105129]}},{"properties":{"city":"POWELL","zip":"43065","geo_score":0.902,"id":"a6wig47fer2f","geo_precision":"range","address":"9110 DUBLIN ROAD","state":"OH"},"type":"Feature","geometry":{"type":"Point","coordinates":[-83.136937,40.174538]}},{"properties":{"city":"COLUMBUS","zip":"43213","geo_score":0.837,"id":"a6wig4bh9iu2","geo_precision":"range","address":"3583 E BROAD","state":"OH"},"type":"Feature","geometry":{"type":"Point","coordinates":[-82.905626,39.972843]}},{"properties":{"city":"BLACKLICK","zip":"43004","geo_score":0.91,"id":"a6wig4c6zw8h","geo_precision":"range","address":"7900 E BROAD STREET","state":"OH"},"type":"Feature","geometry":{"type":"Point","coordinates":[-82.791097,39.985248]}},{"properties":{"city":"CARMEL","zip":"46032","geo_score":0.916,"id":"a6wig45xpo2u","geo_precision":"range","address":"10595 N MICHIGAN RD","state":"IN"},"type":"Feature","geometry":{"type":"Point","coordinates":[-86.236718,39.940733]}},{"properties":{"city":"TOLEDO","zip":"43613","geo_score":1.0,"id":"a6wig45esgtf","geo_precision":"range","address":"4580 MONROE ST","state":"OH"},"type":"Feature","geometry":{"type":"Point","coordinates":[-83.622498,41.689439]}},{"properties":{"city":"CLINTON TWP","zip":"48035","geo_score":0.912,"id":"a6wig3ze9gli","geo_precision":"range","address":"34899 GROESBECK HWY","state":"MI"},"type":"Feature","geometry":{"type":"Point","coordinates":[-82.925237,42.553378]}},{"properties":{"city":"LOVELAND","zip":"45140","geo_score":0.902,"id":"a6wig4bgkb2w","geo_precision":"range","address":"10529 LOVELAND MADEIRA RD","state":"OH"},"type":"Feature","geometry":{"type":"Point","coordinates":[-84.296515,39.251291]}},{"properties":{"city":"HOBART","zip":"46342","geo_score":0.922,"id":"a6wig41rlcg4","geo_precision":"range","address":"742 W OLD RIDGE ROAD","state":"IN"},"type":"Feature","geometry":{"type":"Point","coordinates":[-87.268692,41.539551]}},{"properties":{"city":"TAYLOR","zip":"48180","geo_score":1.0,"id":"a6wig4badft2","geo_precision":"range","address":"20030 ECORSE RD","state":"MI"},"type":"Feature","geometry":{"type":"Point","coordinates":[-83.231494,42.256388]}},{"properties":{"city":"REYNOLDSBURG","zip":"43068","geo_score":0.514,"id":"a6wig4aynp0i","geo_precision":"street","address":"6320 E. MAIN ST.","state":"OH"},"type":"Feature","geometry":{"type":"Point","coordinates":[-82.831115,39.954782]}},{"properties":{"city":"COLUMBUS","zip":"43209","geo_score":0.459,"id":"a6wig440jzo9","geo_precision":"street","address":"3015 E. LIVINGSTON AVE.","state":"OH"},"type":"Feature","geometry":{"type":"Point","coordinates":[-82.947321,39.948553]}},{"properties":{"city":"MUSKEGON","zip":"49442","geo_score":0.902,"id":"a6wig48ui575","geo_precision":"range","address":"1991 E APPLE AVENUE","state":"MI"},"type":"Feature","geometry":{"type":"Point","coordinates":[-86.194989,43.234204]}},{"properties":{"city":"FISHERS","zip":"46038","geo_score":1.0,"id":"a6wig445e3p5","geo_precision":"range","address":"12570 REYNOLDS DR.","state":"IN"},"type":"Feature","geometry":{"type":"Point","coordinates":[-86.00238,39.971179]}},{"properties":{"city":"LIVONIA","zip":"48150","geo_score":1.0,"id":"a6wig4ap0e13","geo_precision":"range","address":"29370  PLYMOUTH RD","state":"MI"},"type":"Feature","geometry":{"type":"Point","coordinates":[-83.332637,42.36918]}},{"properties":{"city":"FARMINGTON  HILLS","zip":"48336","geo_score":0.922,"id":"a6wig4aouabd","geo_precision":"range","address":"27750 GRAND RIVER AVE","state":"MI"},"type":"Feature","geometry":{"type":"Point","coordinates":[-83.321229,42.442274]}},{"properties":{"city":"SOUTHFIELD","zip":"48076","geo_score":0.923,"id":"a6wig4bpzaxb","geo_precision":"range","address":"28901 GREENFIELD RD","state":"MI"},"type":"Feature","geometry":{"type":"Point","coordinates":[-83.203053,42.502884]}},{"properties":{"city":"DOLTON","zip":"60419","geo_score":0.61,"id":"a6wig4a7toh9","geo_precision":"street","address":"1150 E. SIBLEY AVENUE","state":"IL"},"type":"Feature","geometry":{"type":"Point","coordinates":[-87.617117,41.622657]}},{"properties":{"city":"LIVONIA","zip":"48152","geo_score":0.512,"id":"a6wig45ybfea","geo_precision":"street","address":"33333 6 MILE RD","state":"MI"},"type":"Feature","geometry":{"type":"Point","coordinates":[-84.106966,42.087182]}},{"properties":{"city":"DETROIT","zip":"48219","geo_score":0.512,"id":"a6wig439duio","geo_precision":"range","address":"20001 W. 7 MILE RD.","state":"MI"},"type":"Feature","geometry":{"type":"Point","coordinates":[-83.14783,42.236954]}},{"properties":{"city":"LANSING","zip":"48910","geo_score":1.0,"id":"a6wig45ep439","geo_precision":"range","address":"410 E JOLLY RD","state":"MI"},"type":"Feature","geometry":{"type":"Point","coordinates":[-84.549326,42.683035]}},{"properties":{"city":"PALOS PARK","zip":"60464","geo_score":0.286,"id":"a6wig45ox3ag","geo_precision":"street","address":"13023 S. LA GRANGE ROAD","state":"IL"},"type":"Feature","geometry":{"type":"Point","coordinates":[-87.752484,41.62446]}},{"properties":{"city":"COLUMBUS","zip":"43204","geo_score":0.496,"id":"a6wig403c82e","geo_precision":"street","address":"2770 W. BROAD ST.","state":"OH"},"type":"Feature","geometry":{"type":"Point","coordinates":[-83.060895,39.955572]}},{"properties":{"city":"MUNCIE","zip":"47302","geo_score":0.828,"id":"a6wig43o8pg1","geo_precision":"range","address":"400 E 12TH ST","state":"IN"},"type":"Feature","geometry":{"type":"Point","coordinates":[-85.382954,40.178309]}},{"properties":{"city":"RENSSELAER","zip":"47978","geo_score":0.496,"id":"a6wig48rw8au","geo_precision":"street","address":"550 S. COLLEGE AVE.","state":"IN"},"type":"Feature","geometry":{"type":"Point","coordinates":[-87.156033,40.926812]}},{"properties":{"city":"ORLAND PARK","zip":"60467","geo_score":0.805,"id":"a6wig4ampq46","geo_precision":"street","address":"17955 S WOLF ROAD","state":"IL"},"type":"Feature","geometry":{"type":"Point","coordinates":[-87.892359,41.62977]}},{"properties":{"city":"STEVENSVILLE","zip":"49127","geo_score":0.884,"id":"a6wig4bzsh6m","geo_precision":"range","address":"2485 W GLENLORD RD","state":"MI"},"type":"Feature","geometry":{"type":"Point","coordinates":[-86.513509,42.043416]}},{"properties":{"city":"CINCINNATI","zip":"45216","geo_score":0.938,"id":"a6wig40plqzo","geo_precision":"range","address":"8254 VINE ST","state":"OH"},"type":"Feature","geometry":{"type":"Point","coordinates":[-84.474315,39.2107]}},{"properties":{"city":"BROWNSBURG","zip":"46112","geo_score":0.457,"id":"a6wig3ypkdda","geo_precision":"street","address":"20 W. MAIN STREET","state":"IN"},"type":"Feature","geometry":{"type":"Point","coordinates":[-86.396911,39.843055]}},{"properties":{"city":"MOORESVILLE","zip":"46158","geo_score":0.814,"id":"a6wig48te0os","geo_precision":"range","address":"115 FIELDS RD.","state":"IN"},"type":"Feature","geometry":{"type":"Point","coordinates":[-86.372622,39.542494]}},{"properties":{"city":"WEST LAFAYETTE","zip":"47906","geo_score":0.917,"id":"a6wig3xl648f","geo_precision":"range","address":"1000 SAGAMORE PKWY W","state":"IN"},"type":"Feature","geometry":{"type":"Point","coordinates":[-86.919315,40.453261]}},{"properties":{"city":"MEDINA","zip":"44256","geo_score":0.8,"id":"a6wig43wmuzo","geo_precision":"range","address":"805 N COURT ST","state":"OH"},"type":"Feature","geometry":{"type":"Point","coordinates":[-81.86357,41.149012]}},{"properties":{"city":"WATERFORD","zip":"48328","geo_score":0.571,"id":"a6wig44cukp7","geo_precision":"street","address":"4400 HIGHLAND RD (M-59)","state":"MI"},"type":"Feature","geometry":{"type":"Point","coordinates":[-83.355655,42.641842]}},{"properties":{"city":"MIDDLETOWN","zip":"45044","geo_score":0.922,"id":"a6wig441irfo","geo_precision":"range","address":"700 S BREIEL BLVD","state":"OH"},"type":"Feature","geometry":{"type":"Point","coordinates":[-84.355217,39.503564]}},{"properties":{"city":"DELAWARE","zip":"43015","geo_score":0.922,"id":"a6wig40hqnub","geo_precision":"range","address":"19 LONDON RD","state":"OH"},"type":"Feature","geometry":{"type":"Point","coordinates":[-83.068922,40.290281]}},{"properties":{"city":"SPRINGFIELD","zip":"45503","geo_score":0.92,"id":"a6wig4ajos69","geo_precision":"range","address":"2609 E MAIN ST","state":"OH"},"type":"Feature","geometry":{"type":"Point","coordinates":[-83.769381,39.923353]}},{"properties":{"city":"SPRINGFIELD","zip":"45505","geo_score":1.0,"id":"a6wig4b7xaeh","geo_precision":"range","address":"1880 S LIMESTONE STREET","state":"OH"},"type":"Feature","geometry":{"type":"Point","coordinates":[-83.810834,39.901518]}},{"properties":{"city":"SAINT CLAIR SHORES","zip":"48081","geo_score":1.0,"id":"a6wig49p68s8","geo_precision":"range","address":"29520 HARPER AVE","state":"MI"},"type":"Feature","geometry":{"type":"Point","coordinates":[-82.898345,42.510062]}},{"properties":{"city":"TAYLOR","zip":"48180","geo_score":0.807,"id":"a6wig4b16z7w","geo_precision":"street","address":"9100 TELEGRAPH RD","state":"MI"},"type":"Feature","geometry":{"type":"Point","coordinates":[-83.269589,42.242796]}},{"properties":{"city":"CANTON","zip":"48187","geo_score":1.0,"id":"a6wig44zwpvz","geo_precision":"range","address":"44300 FORD RD","state":"MI"},"type":"Feature","geometry":{"type":"Point","coordinates":[-83.477623,42.322171]}},{"properties":{"city":"MIDLAND","zip":"48640","geo_score":0.487,"id":"a6wig46gxt1t","geo_precision":"street","address":"931 S. SAGINAW RD.","state":"MI"},"type":"Feature","geometry":{"type":"Point","coordinates":[-84.227049,43.626531]}},{"properties":{"city":"CALUMET CITY","zip":"60409","geo_score":1.0,"id":"a6wig4647sbf","geo_precision":"range","address":"522 TORRENCE AVE","state":"IL"},"type":"Feature","geometry":{"type":"Point","coordinates":[-87.559136,41.620482]}},{"properties":{"city":"LORAIN","zip":"44053","geo_score":0.893,"id":"a6wig4c3rtwh","geo_precision":"range","address":"5411 LEAVITT ROAD","state":"OH"},"type":"Feature","geometry":{"type":"Point","coordinates":[-82.208812,41.421416]}},{"properties":{"city":"ORLAND PARK","zip":"60462","geo_score":0.493,"id":"a6wig4as4wru","geo_precision":"street","address":"14680 LA GRANGE ROAD","state":"IL"},"type":"Feature","geometry":{"type":"Point","coordinates":[-87.907018,41.575561]}},{"properties":{"city":"AVON LAKE","zip":"44012","geo_score":1.0,"id":"a6wig47kinu4","geo_precision":"range","address":"32798 WALKER ROAD","state":"OH"},"type":"Feature","geometry":{"type":"Point","coordinates":[-82.021965,41.493173]}},{"properties":{"city":"AUSTINTOWN","zip":"44515","geo_score":0.902,"id":"a6wig43ncsyo","geo_precision":"range","address":"5501 MAHONING AVE","state":"OH"},"type":"Feature","geometry":{"type":"Point","coordinates":[-80.763852,41.099615]}},{"properties":{"city":"STERLING  HEIGHTS","zip":"48312","geo_score":0.675,"id":"a6wig4c4mnqt","geo_precision":"street","address":"13901 METRO PKWY","state":"MI"},"type":"Feature","geometry":{"type":"Point","coordinates":[-83.040624,42.561862]}},{"properties":{"city":"BURLINGTON","zip":"41005","geo_score":0.883,"id":"a6wig428nl93","geo_precision":"range","address":"1747 PATRICK DRIVE S","state":"KY"},"type":"Feature","geometry":{"type":"Point","coordinates":[-84.690868,39.018776]}},{"properties":{"city":"CINCINNATI","zip":"45241","geo_score":0.912,"id":"a6wig4d1ery2","geo_precision":"range","address":"3105 GLENDALE MILFORD ROAD","state":"OH"},"type":"Feature","geometry":{"type":"Point","coordinates":[-84.422567,39.254101]}},{"properties":{"city":"CLEVELAND","zip":"44128","geo_score":0.927,"id":"a6wig4dev6o7","geo_precision":"range","address":"4071 LEE RD","state":"OH"},"type":"Feature","geometry":{"type":"Point","coordinates":[-81.564832,41.448503]}},{"properties":{"city":"FORT WAYNE","zip":"46804","geo_score":0.913,"id":"a6wig43lu8nl","geo_precision":"range","address":"6202 WEST JEFFERSON BLVD.","state":"IN"},"type":"Feature","geometry":{"type":"Point","coordinates":[-85.220409,41.058274]}},{"properties":{"city":"YOUNGSTOWN","zip":"44505","geo_score":0.821,"id":"a6wig45wepqw","geo_precision":"range","address":"2560 BELMONT AVE","state":"OH"},"type":"Feature","geometry":{"type":"Point","coordinates":[-80.665453,41.133163]}},{"properties":{"city":"WEST CHESTER","zip":"45069","geo_score":0.723,"id":"a6wig43w5t1b","geo_precision":"street","address":"8614 PRINCETON GLENDALE ROAD","state":"OH"},"type":"Feature","geometry":{"type":"Point","coordinates":[-84.462041,39.337306]}},{"properties":{"city":"HIGHLAND","zip":"46322","geo_score":1.0,"id":"a6wig49rltu3","geo_precision":"range","address":"2401 RIDGE RD","state":"IN"},"type":"Feature","geometry":{"type":"Point","coordinates":[-87.470754,41.555974]}},{"properties":{"city":"DETROIT","zip":"48227","geo_score":0.955,"id":"a6wig491ekg4","geo_precision":"range","address":"15516 GRAND RIVER AVE","state":"MI"},"type":"Feature","geometry":{"type":"Point","coordinates":[-83.198627,42.392799]}},{"properties":{"city":"LAKE STATION","zip":"46405","geo_score":1.0,"id":"a6wig43oybk8","geo_precision":"range","address":"3500 CENTRAL AVENUE","state":"IN"},"type":"Feature","geometry":{"type":"Point","coordinates":[-87.241511,41.574637]}},{"properties":{"city":"ANDERSON","zip":"46013","geo_score":0.98,"id":"a6wig45lev6e","geo_precision":"range","address":"3736 S SCATTERFIELD RD","state":"IN"},"type":"Feature","geometry":{"type":"Point","coordinates":[-85.65268,40.077112]}},{"properties":{"city":"INDIANAPOLIS","zip":"46220","geo_score":0.927,"id":"a6wig43vtrlh","geo_precision":"range","address":"6191 N KEYSTONE AVE","state":"IN"},"type":"Feature","geometry":{"type":"Point","coordinates":[-86.122235,39.868502]}},{"properties":{"city":"CINCINNATI","zip":"45239","geo_score":0.483,"id":"a6wig4cdktz1","geo_precision":"street","address":"3084 W. GALBRAITH ROAD","state":"OH"},"type":"Feature","geometry":{"type":"Point","coordinates":[-84.551378,39.217948]}},{"properties":{"city":"FLINT","zip":"48532","geo_score":1.0,"id":"a6wig3zgb4jl","geo_precision":"range","address":"502 S BALLENGER HWY","state":"MI"},"type":"Feature","geometry":{"type":"Point","coordinates":[-83.733804,43.012759]}},{"properties":{"city":"FORT WAYNE","zip":"46808","geo_score":0.625,"id":"a6wig4cwr3ph","geo_precision":"street","address":"330 W. STATE BLVD","state":"IN"},"type":"Feature","geometry":{"type":"Point","coordinates":[-85.188283,41.095676]}},{"properties":{"city":"NILES","zip":"44446","geo_score":0.831,"id":"a6wig4cdv4xe","geo_precision":"range","address":"5027 YOUNGSTOWN ROAD","state":"OH"},"type":"Feature","geometry":{"type":"Point","coordinates":[-80.760816,41.212709]}},{"properties":{"city":"SOLON","zip":"44139","geo_score":0.922,"id":"a6wig3xilkab","geo_precision":"range","address":"6270 SOM CENTER ROAD","state":"OH"},"type":"Feature","geometry":{"type":"Point","coordinates":[-81.437747,41.388902]}},{"properties":{"city":"SOLON","zip":"44139","geo_score":0.922,"id":"a6wig40n9wwg","geo_precision":"range","address":"6270 SOM CENTER ROAD","state":"OH"},"type":"Feature","geometry":{"type":"Point","coordinates":[-81.437747,41.388902]}},{"properties":{"city":"MERRILLVILLE","zip":"46410","geo_score":0.913,"id":"a6wig44kpyf4","geo_precision":"range","address":"6097 BROADWAY","state":"IN"},"type":"Feature","geometry":{"type":"Point","coordinates":[-87.336059,41.507389]}},{"properties":{"city":"HOLLAND","zip":"49424","geo_score":1.0,"id":"a6wig44jq5sl","geo_precision":"range","address":"12576 RILEY ST","state":"MI"},"type":"Feature","geometry":{"type":"Point","coordinates":[-86.092602,42.826524]}},{"properties":{"city":"KOKOMO","zip":"46902","geo_score":1.0,"id":"a6wig47hvevf","geo_precision":"range","address":"3608 S LAFOUNTAIN STREET","state":"IN"},"type":"Feature","geometry":{"type":"Point","coordinates":[-86.127098,40.445275]}},{"properties":{"city":"GRANGER","zip":"46530","geo_score":1.0,"id":"a6wig48mmbto","geo_precision":"range","address":"15005 STATE RD 23","state":"IN"},"type":"Feature","geometry":{"type":"Point","coordinates":[-86.159666,41.732495]}},{"properties":{"city":"COLUMBUS","zip":"43204","geo_score":0.912,"id":"a6wig4488oou","geo_precision":"range","address":"1280 DEMOREST ROAD","state":"OH"},"type":"Feature","geometry":{"type":"Point","coordinates":[-83.09041,39.92786]}},{"properties":{"city":"FAIRBORN","zip":"45324","geo_score":0.715,"id":"a6wig406iyej","geo_precision":"street","address":"183 E DAYTON YELLOW SPRINGS RD","state":"OH"},"type":"Feature","geometry":{"type":"Point","coordinates":[-83.946272,39.793019]}},{"properties":{"city":"INDIANAPOLIS","zip":"46234","geo_score":0.911,"id":"a6wig43kovr2","geo_precision":"range","address":"9240 ROCKVILLE RD","state":"IN"},"type":"Feature","geometry":{"type":"Point","coordinates":[-86.324654,39.76379]}},{"properties":{"city":"STERLING  HEIGHTS","zip":"48314","geo_score":1.0,"id":"a6wig42ckps6","geo_precision":"range","address":"43250 VAN DYKE AVE","state":"MI"},"type":"Feature","geometry":{"type":"Point","coordinates":[-83.031647,42.610719]}},{"properties":{"city":"MOUNT HEALTHY","zip":"45231","geo_score":0.93,"id":"a6wig43f853w","geo_precision":"range","address":"7864 HAMILTON AVENUE","state":"OH"},"type":"Feature","geometry":{"type":"Point","coordinates":[-84.547864,39.236394]}},{"properties":{"city":"FAIRFIELD","zip":"45014","geo_score":0.902,"id":"a6wig4bv9ybq","geo_precision":"range","address":"4610 PLEASANT AVE","state":"OH"},"type":"Feature","geometry":{"type":"Point","coordinates":[-84.558811,39.352423]}},{"properties":{"city":"CINCINNATI","zip":"45202","geo_score":1.0,"id":"a6wig46ndfaj","geo_precision":"range","address":"601 RACE STREET","state":"OH"},"type":"Feature","geometry":{"type":"Point","coordinates":[-84.514928,39.102205]}},{"properties":{"city":"CINCINNATI","zip":"45202","geo_score":1.0,"id":"a6wig3zsnb5j","geo_precision":"range","address":"601 RACE STREET","state":"OH"},"type":"Feature","geometry":{"type":"Point","coordinates":[-84.514928,39.102205]}},{"properties":{"city":"FENTON","zip":"48430","geo_score":0.902,"id":"a6wig44s164d","geo_precision":"range","address":"3270 W SILVER LAKE RD","state":"MI"},"type":"Feature","geometry":{"type":"Point","coordinates":[-83.733562,42.804418]}},{"properties":{"city":"WEST BLOOMFIELD","zip":"48322","geo_score":1.0,"id":"a6wig43avdgt","geo_precision":"range","address":"7490 HAGGERTY RD","state":"MI"},"type":"Feature","geometry":{"type":"Point","coordinates":[-83.437742,42.53516]}},{"properties":{"city":"COLUMBUS","zip":"43224","geo_score":1.0,"id":"a6wig48fa3cy","geo_precision":"range","address":"3093 CLEVELAND AVE","state":"OH"},"type":"Feature","geometry":{"type":"Point","coordinates":[-82.964094,40.030606]}},{"properties":{"city":"FRANKFORT","zip":"60423","geo_score":0.916,"id":"a6wig3z2zn5j","geo_precision":"range","address":"11200 W LARAWAY RD","state":"IL"},"type":"Feature","geometry":{"type":"Point","coordinates":[-87.887739,41.484019]}},{"properties":{"city":"GRAND RAPIDS","zip":"49525","geo_score":0.902,"id":"a6wig41evvxm","geo_precision":"street","address":"5100 E BELTLINE AVENUE NE","state":"MI"},"type":"Feature","geometry":{"type":"Point","coordinates":[-85.579852,43.055187]}},{"properties":{"city":"BATTLE CREEK","zip":"49015","geo_score":0.861,"id":"a6wig3yxvpuv","geo_precision":"range","address":"50 COLUMBIA AVE W","state":"MI"},"type":"Feature","geometry":{"type":"Point","coordinates":[-85.198476,42.29856]}},{"properties":{"city":"GRANDVILLE","zip":"49418","geo_score":1.0,"id":"a6wig48k9ra6","geo_precision":"range","address":"4445 IVANREST AVE SW","state":"MI"},"type":"Feature","geometry":{"type":"Point","coordinates":[-85.743266,42.883771]}},{"properties":{"city":"GREENFIELD","zip":"46140","geo_score":0.922,"id":"a6wig433lgvn","geo_precision":"range","address":"1195 N STATE ST","state":"IN"},"type":"Feature","geometry":{"type":"Point","coordinates":[-85.769682,39.799391]}},{"properties":{"city":"CINCINNATI","zip":"45205","geo_score":0.912,"id":"a6wig3x9gll0","geo_precision":"range","address":"4241 GLENWAY AVENUE","state":"OH"},"type":"Feature","geometry":{"type":"Point","coordinates":[-84.58424,39.114339]}},{"properties":{"city":"CINCINNATI","zip":"45211","geo_score":0.922,"id":"a6wig4aoi2ds","geo_precision":"range","address":"3186 HARRISON AVE","state":"OH"},"type":"Feature","geometry":{"type":"Point","coordinates":[-84.602699,39.153354]}},{"properties":{"city":"DEARBORN HEIGHTS","zip":"48125","geo_score":1.0,"id":"a6wig41sebc1","geo_precision":"range","address":"5709 S TELEGRAPH RD","state":"MI"},"type":"Feature","geometry":{"type":"Point","coordinates":[-83.270138,42.269836]}},{"properties":{"city":"SOUTHFIELD","zip":"48034","geo_score":0.824,"id":"a6wig47f4j2k","geo_precision":"range","address":"23111 LAHSER RD","state":"MI"},"type":"Feature","geometry":{"type":"Point","coordinates":[-83.260111,42.458739]}},{"properties":{"city":"HAMILTON","zip":"45013","geo_score":0.913,"id":"a6wig49v5aft","geo_precision":"range","address":"562 MAIN STREET","state":"OH"},"type":"Feature","geometry":{"type":"Point","coordinates":[-84.572694,39.406445]}},{"properties":{"city":"MOUNT PLEASANT","zip":"48858","geo_score":0.917,"id":"a6wig3yjlwbv","geo_precision":"range","address":"1309 S MISSION ST","state":"MI"},"type":"Feature","geometry":{"type":"Point","coordinates":[-84.767496,43.589743]}},{"properties":{"city":"KETTERING","zip":"45420","geo_score":0.924,"id":"a6wig42xyv3k","geo_precision":"range","address":"2140 E DOROTHY LANE","state":"OH"},"type":"Feature","geometry":{"type":"Point","coordinates":[-84.124925,39.702794]}},{"properties":{"city":"BELLEVILLE","zip":"48111","geo_score":0.912,"id":"a6wig4agd67g","geo_precision":"range","address":"10276 BELLEVILLE RD","state":"MI"},"type":"Feature","geometry":{"type":"Point","coordinates":[-83.484984,42.225808]}},{"properties":{"city":"ADRIAN","zip":"49221","geo_score":0.912,"id":"a6wig4063z5h","geo_precision":"range","address":"706 S MAIN STREET","state":"MI"},"type":"Feature","geometry":{"type":"Point","coordinates":[-84.043386,41.889342]}},{"properties":{"city":"TROY","zip":"45373","geo_score":0.805,"id":"a6wig473mg4t","geo_precision":"range","address":"20 W MARKET STREET","state":"OH"},"type":"Feature","geometry":{"type":"Point","coordinates":[-84.209367,40.032208]}},{"properties":{"city":"LEBANON","zip":"45036","geo_score":0.912,"id":"a6wig4990z1v","geo_precision":"range","address":"904 COLUMBUS AVE","state":"OH"},"type":"Feature","geometry":{"type":"Point","coordinates":[-84.188368,39.446907]}},{"properties":{"city":"NEWPORT","zip":"41071","geo_score":0.902,"id":"a6wig48o2s8e","geo_precision":"range","address":"1601 MONMOUTH ST","state":"KY"},"type":"Feature","geometry":{"type":"Point","coordinates":[-84.484352,39.083975]}},{"properties":{"city":"COLUMBUS","zip":"43214","geo_score":1.0,"id":"a6wig47di2v5","geo_precision":"range","address":"4890 N HIGH ST","state":"OH"},"type":"Feature","geometry":{"type":"Point","coordinates":[-83.019506,40.062256]}},{"properties":{"city":"TRAVERSE CITY","zip":"49686","geo_score":0.833,"id":"a6wig42bpfga","geo_precision":"range","address":"2350 US 31 N","state":"MI"},"type":"Feature","geometry":{"type":"Point","coordinates":[-85.535292,44.745919]}},{"properties":{"city":"ZANESVILLE","zip":"43701","geo_score":0.902,"id":"a6wig417vf3b","geo_precision":"range","address":"1033 MILITARY ROAD","state":"OH"},"type":"Feature","geometry":{"type":"Point","coordinates":[-82.018052,39.979561]}},{"properties":{"city":"OLYMPIA FIELDS","zip":"60461","geo_score":0.902,"id":"a6wig45jacvf","geo_precision":"range","address":"3200 VOLLMER ROAD","state":"IL"},"type":"Feature","geometry":{"type":"Point","coordinates":[-87.693889,41.527995]}},{"properties":{"city":"BIG RAPIDS","zip":"49307","geo_score":0.911,"id":"a6wig42knqyw","geo_precision":"range","address":"1010 S STATE ST","state":"MI"},"type":"Feature","geometry":{"type":"Point","coordinates":[-85.48371,43.686768]}},{"properties":{"city":"KNOX","zip":"46534","geo_score":0.935,"id":"a6wig45xe5h5","geo_precision":"range","address":"1207 S HEATON ST","state":"IN"},"type":"Feature","geometry":{"type":"Point","coordinates":[-86.620682,41.286336]}},{"properties":{"city":"KALAMAZOO","zip":"49009","geo_score":1.0,"id":"a6wig48204hk","geo_precision":"range","address":"5020  W MAIN STREET","state":"MI"},"type":"Feature","geometry":{"type":"Point","coordinates":[-85.648686,42.296278]}},{"properties":{"city":"NORWOOD","zip":"45212","geo_score":0.965,"id":"a6wig42pkn4r","geo_precision":"range","address":"4605 MONTGOMERY ROAD","state":"OH"},"type":"Feature","geometry":{"type":"Point","coordinates":[-84.456276,39.160458]}},{"properties":{"city":"NORWOOD","zip":"45212","geo_score":0.965,"id":"a6wig41a2xsc","geo_precision":"range","address":"4605 MONTGOMERY ROAD","state":"OH"},"type":"Feature","geometry":{"type":"Point","coordinates":[-84.456276,39.160458]}},{"properties":{"city":"LIMA","zip":"45805","geo_score":1.0,"id":"a6wig4agoziv","geo_precision":"range","address":"701 N CABLE ROAD","state":"OH"},"type":"Feature","geometry":{"type":"Point","coordinates":[-84.147026,40.748483]}},{"properties":{"city":"NORTH  MUSKEGON","zip":"49445","geo_score":1.0,"id":"a6wig49d9itm","geo_precision":"range","address":"1771 HOLTON RD","state":"MI"},"type":"Feature","geometry":{"type":"Point","coordinates":[-86.224157,43.284693]}},{"properties":{"city":"HARRISON","zip":"45030","geo_score":0.817,"id":"a6wig4392abv","geo_precision":"street","address":"1032 HARRISON AVENUE","state":"OH"},"type":"Feature","geometry":{"type":"Point","coordinates":[-84.808557,39.260615]}},{"properties":{"city":"BLUFFTON","zip":"46714","geo_score":0.707,"id":"a6wig41ihsym","geo_precision":"street","address":"1975 N MAIN ST","state":"IN"},"type":"Feature","geometry":{"type":"Point","coordinates":[-85.201507,40.791181]}},{"properties":{"city":"RICHMOND HEIGHTS","zip":"44143","geo_score":0.974,"id":"a6wig454hwra","geo_precision":"range","address":"751 RICHMOND  ROAD","state":"OH"},"type":"Feature","geometry":{"type":"Point","coordinates":[-81.497172,41.539482]}},{"properties":{"city":"PLAINWELL","zip":"49080","geo_score":0.938,"id":"a6wig42w0a8o","geo_precision":"range","address":"1277 M-89","state":"MI"},"type":"Feature","geometry":{"type":"Point","coordinates":[-85.667815,42.449972]}},{"properties":{"city":"AMELIA","zip":"45102","geo_score":0.912,"id":"a6wig3z7jeii","geo_precision":"range","address":"57 W MAIN STREET","state":"OH"},"type":"Feature","geometry":{"type":"Point","coordinates":[-84.218807,39.028904]}},{"properties":{"city":"FLINT","zip":"48532","geo_score":1.0,"id":"a6wig3yobmso","geo_precision":"range","address":"5020 CORUNNA RD","state":"MI"},"type":"Feature","geometry":{"type":"Point","coordinates":[-83.773282,43.002016]}},{"properties":{"city":"FLINT","zip":"48507","geo_score":0.571,"id":"a6wig3y0lamu","geo_precision":"street","address":"G4010 FENTON RD","state":"MI"},"type":"Feature","geometry":{"type":"Point","coordinates":[-83.693569,43.0036]}},{"properties":{"city":"FRASER","zip":"48026","geo_score":0.561,"id":"a6wig46v33b2","geo_precision":"street","address":"15267 14 MILE RD","state":"MI"},"type":"Feature","geometry":{"type":"Point","coordinates":[-82.526597,42.621977]}},{"properties":{"city":"GALLOWAY","zip":"43119","geo_score":0.748,"id":"a6wig3x76p11","geo_precision":"street","address":"5690 W BROAD STREET","state":"OH"},"type":"Feature","geometry":{"type":"Point","coordinates":[-83.153977,39.951215]}},{"properties":{"city":"CANAL WINCHESTER","zip":"43110","geo_score":0.915,"id":"a6wig48pz53w","geo_precision":"range","address":"6266  GENDER RD","state":"OH"},"type":"Feature","geometry":{"type":"Point","coordinates":[-82.828315,39.853735]}},{"properties":{"city":"COLUMBUS","zip":"43229","geo_score":0.902,"id":"a6wig49d9tn5","geo_precision":"range","address":"2150 E DUBLIN GRANVILLE ROAD","state":"OH"},"type":"Feature","geometry":{"type":"Point","coordinates":[-82.95968,40.086459]}},{"properties":{"city":"MACOMB","zip":"48042","geo_score":0.561,"id":"a6wig44v1h7y","geo_precision":"street","address":"21828 23 MILE ROAD","state":"MI"},"type":"Feature","geometry":{"type":"Point","coordinates":[-82.526597,42.621977]}},{"properties":{"city":"NEWARK","zip":"43055","geo_score":0.833,"id":"a6wig46czd9d","geo_precision":"range","address":"1425 N 21ST STREET","state":"OH"},"type":"Feature","geometry":{"type":"Point","coordinates":[-82.427312,40.087835]}},{"properties":{"city":"WESTFIELD","zip":"46062","geo_score":0.582,"id":"a6wig3yc594h","geo_precision":"street","address":"14625 N GRAY RD","state":"IN"},"type":"Feature","geometry":{"type":"Point","coordinates":[-86.108718,40.022163]}},{"properties":{"city":"EAST CHICAGO","zip":"46312","geo_score":1.0,"id":"a6wig414hcqx","geo_precision":"range","address":"720 W CHICAGO AVE","state":"IN"},"type":"Feature","geometry":{"type":"Point","coordinates":[-87.47971,41.62922]}},{"properties":{"city":"CENTERVILLE","zip":"45459","geo_score":0.899,"id":"a6wig42my6ag","geo_precision":"range","address":"1402 MIAMISBURG-CENTERVILLE RO","state":"OH"},"type":"Feature","geometry":{"type":"Point","coordinates":[-84.194605,39.629997]}},{"properties":{"city":"MILFORD","zip":"45150","geo_score":0.959,"id":"a6wig41vogsd","geo_precision":"range","address":"1243 STATE ROUTE 28","state":"OH"},"type":"Feature","geometry":{"type":"Point","coordinates":[-84.223061,39.201635]}},{"properties":{"city":"CADILLAC","zip":"49601","geo_score":0.922,"id":"a6wig46f3ezo","geo_precision":"range","address":"1220 N MITCHELL ST","state":"MI"},"type":"Feature","geometry":{"type":"Point","coordinates":[-85.406231,44.265281]}},{"properties":{"city":"MARTINSVILLE","zip":"46151","geo_score":0.902,"id":"a6wig425on20","geo_precision":"range","address":"1900 S OHIO ST","state":"IN"},"type":"Feature","geometry":{"type":"Point","coordinates":[-86.42333,39.409698]}},{"properties":{"city":"FINDLAY","zip":"45840","geo_score":0.494,"id":"a6wig48f71r1","geo_precision":"street","address":"15031 US 224 - EAST","state":"OH"},"type":"Feature","geometry":{"type":"Point","coordinates":[-83.589615,41.056177]}},{"properties":{"city":"LIMA","zip":"45804","geo_score":1.0,"id":"a6wig485tzvt","geo_precision":"range","address":"2366 HARDING HWY","state":"OH"},"type":"Feature","geometry":{"type":"Point","coordinates":[-84.062378,40.730745]}},{"properties":{"city":"NEW CASTLE","zip":"47362","geo_score":0.719,"id":"a6wig4a0zv7s","geo_precision":"street","address":"100 N MEMORIAL DR","state":"IN"},"type":"Feature","geometry":{"type":"Point","coordinates":[-85.38255,39.935075]}},{"properties":{"city":"MUNSTER","zip":"46321","geo_score":0.916,"id":"a6wig4daw86c","geo_precision":"range","address":"8930 CALUMET AVENUE","state":"IN"},"type":"Feature","geometry":{"type":"Point","coordinates":[-87.508998,41.551299]}},{"properties":{"city":"MACEDONIA","zip":"44056","geo_score":0.967,"id":"a6wig49x0tdr","geo_precision":"range","address":"663  AURORA RD","state":"OH"},"type":"Feature","geometry":{"type":"Point","coordinates":[-81.515103,41.313879]}},{"properties":{"city":"CRAWFORDSVILLE","zip":"47933","geo_score":0.944,"id":"a6wig48zmv4d","geo_precision":"range","address":"110 W MARKET ST","state":"IN"},"type":"Feature","geometry":{"type":"Point","coordinates":[-86.901928,40.042885]}},{"properties":{"city":"CLINTON  TWP","zip":"48038","geo_score":0.967,"id":"a6wig47u3r8d","geo_precision":"range","address":"39040 GARFIELD RD","state":"MI"},"type":"Feature","geometry":{"type":"Point","coordinates":[-82.951909,42.583951]}},{"properties":{"city":"LANSING","zip":"48917","geo_score":0.916,"id":"a6wig4am6n5f","geo_precision":"range","address":"6421 W SAGINAW HWY","state":"MI"},"type":"Feature","geometry":{"type":"Point","coordinates":[-84.642578,42.741064]}},{"properties":{"city":"ST CLAIR  SHORES","zip":"48080","geo_score":0.982,"id":"a6wig402nz18","geo_precision":"range","address":"25015 LITTLE MACK AVE","state":"MI"},"type":"Feature","geometry":{"type":"Point","coordinates":[-82.907171,42.480075]}},{"properties":{"city":"ANDERSON","zip":"46012","geo_score":0.805,"id":"a6wig46phmfw","geo_precision":"street","address":"320 S SCATTERFIELD RD","state":"IN"},"type":"Feature","geometry":{"type":"Point","coordinates":[-85.65276,40.113261]}},{"properties":{"city":"LANCASTER","zip":"43130","geo_score":0.924,"id":"a6wig3yuxvoo","geo_precision":"range","address":"911 N MEMORIAL DR","state":"OH"},"type":"Feature","geometry":{"type":"Point","coordinates":[-82.608281,39.724223]}},{"properties":{"city":"CHILLICOTHE","zip":"45601","geo_score":0.823,"id":"a6wig40d2y94","geo_precision":"range","address":"850 NORTH BRIDGE STREET","state":"OH"},"type":"Feature","geometry":{"type":"Point","coordinates":[-82.976172,39.344123]}},{"properties":{"city":"GARDEN CITY","zip":"48135","geo_score":1.0,"id":"a6wig3xezw56","geo_precision":"range","address":"31415 FORD RD","state":"MI"},"type":"Feature","geometry":{"type":"Point","coordinates":[-83.35058,42.325121]}},{"properties":{"city":"POLAND","zip":"44514","geo_score":1.0,"id":"a6wig483xqgu","geo_precision":"range","address":"30 W MCKINLEY WAY","state":"OH"},"type":"Feature","geometry":{"type":"Point","coordinates":[-80.615194,41.024248]}},{"properties":{"city":"MASSILLON","zip":"44646","geo_score":0.913,"id":"a6wig45aa4j8","geo_precision":"range","address":"1950  WALES RD  NE","state":"OH"},"type":"Feature","geometry":{"type":"Point","coordinates":[-81.503203,40.820955]}},{"properties":{"city":"TRAVERSE CITY","zip":"49684","geo_score":0.482,"id":"a6wig3yp1f0g","geo_precision":"street","address":"3900 N US 31 S","state":"MI"},"type":"Feature","geometry":{"type":"Point","coordinates":[-85.656224,44.671949]}},{"properties":{"city":"CINCINNATI","zip":"45227","geo_score":0.912,"id":"a6wig46pwx5j","geo_precision":"range","address":"7398  WOOSTER PIKE","state":"OH"},"type":"Feature","geometry":{"type":"Point","coordinates":[-84.359868,39.141904]}},{"properties":{"city":"SPRINGFIELD","zip":"45503","geo_score":0.92,"id":"a6wig43c0x6s","geo_precision":"range","address":"1140 N LIMESTONE ST","state":"OH"},"type":"Feature","geometry":{"type":"Point","coordinates":[-83.805582,39.937732]}},{"properties":{"city":"DAYTON","zip":"45449","geo_score":1.0,"id":"a6wig4bf30u1","geo_precision":"range","address":"5901 SPRINGBORO PIKE","state":"OH"},"type":"Feature","geometry":{"type":"Point","coordinates":[-84.222107,39.670437]}},{"properties":{"city":"ROCHESTER HILLS","zip":"48309","geo_score":0.965,"id":"a6wig40lfwy5","geo_precision":"range","address":"2985 CROOKS RD","state":"MI"},"type":"Feature","geometry":{"type":"Point","coordinates":[-83.170513,42.635784]}},{"properties":{"city":"KALAMAZOO","zip":"49048","geo_score":0.806,"id":"a6wig46gc2xi","geo_precision":"street","address":"5815 GULL RD","state":"MI"},"type":"Feature","geometry":{"type":"Point","coordinates":[-85.512346,42.3279]}},{"properties":{"city":"MOUNT WASHINGTON","zip":"45230","geo_score":0.928,"id":"a6wig472r85o","geo_precision":"range","address":"2203 BEECHMONT  AVE","state":"OH"},"type":"Feature","geometry":{"type":"Point","coordinates":[-84.387067,39.094074]}},{"properties":{"city":"WARSAW","zip":"46580","geo_score":0.913,"id":"a6wig4b5e2r8","geo_precision":"range","address":"2400 E CENTER ST","state":"IN"},"type":"Feature","geometry":{"type":"Point","coordinates":[-85.824486,41.237969]}},{"properties":{"city":"COLUMBIA CITY","zip":"46725","geo_score":0.915,"id":"a6wig3x6qprf","geo_precision":"range","address":"535 N LINE ST","state":"IN"},"type":"Feature","geometry":{"type":"Point","coordinates":[-85.491468,41.167073]}},{"properties":{"city":"MANSFIELD","zip":"44907","geo_score":1.0,"id":"a6wig3yfn2uw","geo_precision":"range","address":"1380 LEXINGTON AVE","state":"OH"},"type":"Feature","geometry":{"type":"Point","coordinates":[-82.544392,40.720446]}},{"properties":{"city":"THREE RIVERS","zip":"49093","geo_score":0.725,"id":"a6wig3ztf2tp","geo_precision":"street","address":"301 S US HWY 131","state":"MI"},"type":"Feature","geometry":{"type":"Point","coordinates":[-85.651693,41.921636]}},{"properties":{"city":"WESTERVILLE","zip":"43082","geo_score":1.0,"id":"a6wig43gleme","geo_precision":"range","address":"748 N STATE ST","state":"OH"},"type":"Feature","geometry":{"type":"Point","coordinates":[-82.925171,40.144903]}},{"properties":{"city":"SIDNEY","zip":"45365","geo_score":0.902,"id":"a6wig4bflsd7","geo_precision":"range","address":"1400 MICHIGAN ST","state":"OH"},"type":"Feature","geometry":{"type":"Point","coordinates":[-84.176196,40.287885]}},{"properties":{"city":"WHITEHALL","zip":"43213","geo_score":0.91,"id":"a6wig3zn0hua","geo_precision":"range","address":"4617 E MAIN ST","state":"OH"},"type":"Feature","geometry":{"type":"Point","coordinates":[-82.875207,39.955412]}},{"properties":{"city":"IONIA","zip":"48846","geo_score":0.922,"id":"a6wig3xuh2ap","geo_precision":"range","address":"2450 S STATE RD","state":"MI"},"type":"Feature","geometry":{"type":"Point","coordinates":[-85.074751,42.951772]}},{"properties":{"city":"GROVE CITY","zip":"43123","geo_score":0.922,"id":"a6wig46enxz6","geo_precision":"range","address":"2110 STRINGTOWN RD","state":"OH"},"type":"Feature","geometry":{"type":"Point","coordinates":[-83.059712,39.878587]}},{"properties":{"city":"MILFORD","zip":"45150","geo_score":0.834,"id":"a6wig481wyj1","geo_precision":"range","address":"932 LILA ST","state":"OH"},"type":"Feature","geometry":{"type":"Point","coordinates":[-84.274181,39.173066]}},{"properties":{"city":"MANSFIELD","zip":"44902","geo_score":0.805,"id":"a6wig42lq6ly","geo_precision":"street","address":"1000 PARK AVE WEST","state":"OH"},"type":"Feature","geometry":{"type":"Point","coordinates":[-82.52487,40.758875]}},{"properties":{"city":"SHAKER HEIGHTS","zip":"44122","geo_score":0.917,"id":"a6wig45k5xsj","geo_precision":"range","address":"20200  VAN AKEN BLVD","state":"OH"},"type":"Feature","geometry":{"type":"Point","coordinates":[-81.537258,41.465055]}},{"properties":{"city":"WARREN","zip":"44483","geo_score":0.927,"id":"a6wig46knbv9","geo_precision":"range","address":"3390 ELM RD  NE","state":"OH"},"type":"Feature","geometry":{"type":"Point","coordinates":[-80.782913,41.265536]}},{"properties":{"city":"MIDLAND","zip":"48640","geo_score":0.791,"id":"a6wig40codea","geo_precision":"range","address":"1615 N SAGINAW RD","state":"MI"},"type":"Feature","geometry":{"type":"Point","coordinates":[-84.245868,43.641332]}},{"properties":{"city":"ROCHESTER","zip":"48307","geo_score":0.805,"id":"a6wig4c7brqd","geo_precision":"street","address":"1490 N ROCHESTER RD","state":"MI"},"type":"Feature","geometry":{"type":"Point","coordinates":[-83.134385,42.695671]}},{"properties":{"city":"COLUMBUS","zip":"43230","geo_score":0.902,"id":"a6wig48817om","geo_precision":"range","address":"5195 N HAMILTON RD","state":"OH"},"type":"Feature","geometry":{"type":"Point","coordinates":[-82.86316,40.062929]}},{"properties":{"city":"PLYMOUTH","zip":"46563","geo_score":0.902,"id":"a6wig45nc6mo","geo_precision":"range","address":"2014 N MICHIGAN ST","state":"IN"},"type":"Feature","geometry":{"type":"Point","coordinates":[-86.311447,41.358296]}},{"properties":{"city":"LANCASTER","zip":"43130","geo_score":0.924,"id":"a6wig40wnpjr","geo_precision":"range","address":"859 E MAIN ST","state":"OH"},"type":"Feature","geometry":{"type":"Point","coordinates":[-82.584463,39.713493]}},{"properties":{"city":"COMMERCE TWP","zip":"48382","geo_score":0.973,"id":"a6wig47p5kvu","geo_precision":"range","address":"2270 UNION LAKE RD","state":"MI"},"type":"Feature","geometry":{"type":"Point","coordinates":[-83.446494,42.604019]}},{"properties":{"city":"ROCHESTER HILLS","zip":"48307","geo_score":0.965,"id":"a6wig438wf8p","geo_precision":"range","address":"1280 WALTON BLVD","state":"MI"},"type":"Feature","geometry":{"type":"Point","coordinates":[-83.151335,42.681692]}},{"properties":{"city":"RICHMOND","zip":"47374","geo_score":0.912,"id":"a6wig44ukq9c","geo_precision":"range","address":"3700 NATIONAL RD E","state":"IN"},"type":"Feature","geometry":{"type":"Point","coordinates":[-84.851526,39.831002]}},{"properties":{"city":"NOBLESVILLE","zip":"46060","geo_score":0.947,"id":"a6wig4a4gupc","geo_precision":"range","address":"2380 E PLEASANT ST","state":"IN"},"type":"Feature","geometry":{"type":"Point","coordinates":[-85.99608,40.039386]}},{"properties":{"city":"BATTLE CREEK","zip":"49016","geo_score":0.805,"id":"a6wig47r4tup","geo_precision":"range","address":"5991 BECKLEY RD","state":"MI"},"type":"Feature","geometry":{"type":"Point","coordinates":[-85.179564,42.261047]}},{"properties":{"city":"GRAND RAPIDS","zip":"49507","geo_score":0.902,"id":"a6wig4bbthdv","geo_precision":"range","address":"2643 KALAMAZOO AVE SE","state":"MI"},"type":"Feature","geometry":{"type":"Point","coordinates":[-85.63068,42.91633]}},{"properties":{"city":"GREENVILLE","zip":"48838","geo_score":0.912,"id":"a6wig4531ygp","geo_precision":"range","address":"1420 W WASHINGTON ST","state":"MI"},"type":"Feature","geometry":{"type":"Point","coordinates":[-85.270996,43.177287]}},{"properties":{"city":"JACKSON","zip":"49201","geo_score":0.598,"id":"a6wig49ne7gx","geo_precision":"street","address":"1314 N WEST AVE","state":"MI"},"type":"Feature","geometry":{"type":"Point","coordinates":[-84.423378,42.254715]}},{"properties":{"city":"COLUMBUS","zip":"43223","geo_score":0.902,"id":"a6wig43ohkar","geo_precision":"range","address":"1162 HARRISBURG PIKE","state":"OH"},"type":"Feature","geometry":{"type":"Point","coordinates":[-83.047928,39.932342]}},{"properties":{"city":"STURGIS","zip":"49091","geo_score":0.913,"id":"a6wig4269po3","geo_precision":"range","address":"950 S CENTERVILLE  RD","state":"MI"},"type":"Feature","geometry":{"type":"Point","coordinates":[-85.428294,41.789287]}},{"properties":{"city":"ALPENA","zip":"49707","geo_score":0.639,"id":"a6wig4a29qb7","geo_precision":"range","address":"1011 M 32 W","state":"MI"},"type":"Feature","geometry":{"type":"Point","coordinates":[-83.454288,45.061705]}},{"properties":{"city":"FLORENCE","zip":"41042","geo_score":0.902,"id":"a6wig48eeqvc","geo_precision":"range","address":"6617 DIXIE HIGHWAY","state":"KY"},"type":"Feature","geometry":{"type":"Point","coordinates":[-84.617436,39.005325]}},{"properties":{"city":"REYNOLDSBURG","zip":"43068","geo_score":0.919,"id":"a6wig4469lnx","geo_precision":"range","address":"2615 BRICE ROAD","state":"OH"},"type":"Feature","geometry":{"type":"Point","coordinates":[-82.830857,39.931264]}},{"properties":{"city":"SOUTH BEND","zip":"46628","geo_score":0.683,"id":"a6wig3yxa5vq","geo_precision":"street","address":"2845 W CLEVELAND RD","state":"IN"},"type":"Feature","geometry":{"type":"Point","coordinates":[-86.271957,41.723]}},{"properties":{"city":"LAKE ORION","zip":"48359","geo_score":1.0,"id":"a6wig42uax1x","geo_precision":"range","address":"3520 S BALDWIN RD","state":"MI"},"type":"Feature","geometry":{"type":"Point","coordinates":[-83.307706,42.728593]}},{"properties":{"city":"HIGHLAND","zip":"48356","geo_score":1.0,"id":"a6wig47tfr0y","geo_precision":"range","address":"2821 E HIGHLAND RD","state":"MI"},"type":"Feature","geometry":{"type":"Point","coordinates":[-83.574012,42.653906]}},{"properties":{"city":"INDIANAPOLIS","zip":"46229","geo_score":0.927,"id":"a6wig43mrgq5","geo_precision":"range","address":"11025 E WASHINGTON ST","state":"IN"},"type":"Feature","geometry":{"type":"Point","coordinates":[-85.970849,39.775821]}},{"properties":{"city":"MARION","zip":"46953","geo_score":1.0,"id":"a6wig44nld9m","geo_precision":"range","address":"2620 S WESTERN AVE","state":"IN"},"type":"Feature","geometry":{"type":"Point","coordinates":[-85.673701,40.538078]}},{"properties":{"city":"REYNOLDSBURG","zip":"43068","geo_score":0.919,"id":"a6wig48iyaqc","geo_precision":"range","address":"2300 STATE ROUTE 256","state":"OH"},"type":"Feature","geometry":{"type":"Point","coordinates":[-82.792752,39.941608]}},{"properties":{"city":"GARY","zip":"46404","geo_score":0.902,"id":"a6wig44tst4d","geo_precision":"range","address":"2500 GRANT ST","state":"IN"},"type":"Feature","geometry":{"type":"Point","coordinates":[-87.356115,41.573306]}},{"properties":{"city":"LA PORTE","zip":"46350","geo_score":0.916,"id":"a6wig4dc5ld2","geo_precision":"range","address":"525 E LINCOLNWAY","state":"IN"},"type":"Feature","geometry":{"type":"Point","coordinates":[-86.707882,41.617479]}},{"properties":{"city":"FRANKFORT","zip":"60423","geo_score":0.721,"id":"a6wig46xzj8e","geo_precision":"street","address":"9554 E LINCOLN HWY","state":"IL"},"type":"Feature","geometry":{"type":"Point","coordinates":[-87.887881,41.503184]}},{"properties":{"city":"HOMEWOOD","zip":"60430","geo_score":0.902,"id":"a6wig4ainysk","geo_precision":"range","address":"18300 GOVERNORS HWY","state":"IL"},"type":"Feature","geometry":{"type":"Point","coordinates":[-87.681119,41.557199]}},{"properties":{"city":"TINLEY PARK","zip":"60487","geo_score":0.429,"id":"a6wig437dl9z","geo_precision":"street","address":"8400 W. 171ST STREET","state":"IL"},"type":"Feature","geometry":{"type":"Point","coordinates":[-87.733226,41.578919]}},{"properties":{"city":"TOLEDO","zip":"43623","geo_score":1.0,"id":"a6wig44norhl","geo_precision":"range","address":"5815 SECOR RD","state":"OH"},"type":"Feature","geometry":{"type":"Point","coordinates":[-83.624178,41.721076]}},{"properties":{"city":"STREETSBORO","zip":"44241","geo_score":1.0,"id":"a6wig48dsvko","geo_precision":"range","address":"9166 STATE ROUTE 43","state":"OH"},"type":"Feature","geometry":{"type":"Point","coordinates":[-81.345472,41.240745]}},{"properties":{"city":"PALOS HEIGHTS","zip":"60463","geo_score":1.0,"id":"a6wig3xy30mk","geo_precision":"range","address":"12659 S RIDGELAND AVE","state":"IL"},"type":"Feature","geometry":{"type":"Point","coordinates":[-87.777618,41.660502]}},{"properties":{"city":"GREENDALE","zip":"47025","geo_score":0.902,"id":"a6wig4ah1c5t","geo_precision":"range","address":"432 CRAIG AVE","state":"IN"},"type":"Feature","geometry":{"type":"Point","coordinates":[-84.84985,39.123377]}},{"properties":{"city":"FLORENCE","zip":"41042","geo_score":0.591,"id":"a6wig4agrnl2","geo_precision":"street","address":"8820 US 42","state":"KY"},"type":"Feature","geometry":{"type":"Point","coordinates":[-84.675547,38.96624]}},{"properties":{"city":"NORTH RIDGEVILLE","zip":"44039","geo_score":1.0,"id":"a6wig4be6fcm","geo_precision":"range","address":"33760 CENTER RIDGE RD","state":"OH"},"type":"Feature","geometry":{"type":"Point","coordinates":[-81.991113,41.400497]}},{"properties":{"city":"SALEM","zip":"44460","geo_score":0.951,"id":"a6wig47cmss6","geo_precision":"range","address":"2124 E STATE ST","state":"OH"},"type":"Feature","geometry":{"type":"Point","coordinates":[-80.83136,40.900912]}},{"properties":{"city":"ALLIANCE","zip":"44601","geo_score":0.524,"id":"a6wig4dd4n3r","geo_precision":"street","address":"2012 S. UNION","state":"OH"},"type":"Feature","geometry":{"type":"Point","coordinates":[-81.105846,40.920114]}},{"properties":{"city":"LAKEWOOD","zip":"44107","geo_score":1.0,"id":"a6wig3wws4o7","geo_precision":"range","address":"14815 MADISON AVE","state":"OH"},"type":"Feature","geometry":{"type":"Point","coordinates":[-81.800376,41.47727]}},{"properties":{"city":"PERRYSBURG","zip":"43551","geo_score":0.857,"id":"a6wig3zpcdsd","geo_precision":"range","address":"10003 FREMONT PIKE RD","state":"OH"},"type":"Feature","geometry":{"type":"Point","coordinates":[-83.586922,41.5434]}},{"properties":{"city":"BAD AXE","zip":"48413","geo_score":0.902,"id":"a6wig3xlxvex","geo_precision":"range","address":"830 N VAN DYKE RD","state":"MI"},"type":"Feature","geometry":{"type":"Point","coordinates":[-83.001013,43.820518]}},{"properties":{"city":"MISHAWAKA","zip":"46545","geo_score":1.0,"id":"a6wig3zigaou","geo_precision":"range","address":"110 E MCKINLEY AVE","state":"IN"},"type":"Feature","geometry":{"type":"Point","coordinates":[-86.181247,41.680408]}},{"properties":{"city":"DEFIANCE","zip":"43512","geo_score":0.915,"id":"a6wig4bswheu","geo_precision":"range","address":"1829 N CLINTON ST","state":"OH"},"type":"Feature","geometry":{"type":"Point","coordinates":[-84.360745,41.302081]}},{"properties":{"city":"GREENSBURG","zip":"47240","geo_score":0.919,"id":"a6wig44zq2a4","geo_precision":"range","address":"2215 N STATE ROAD 3","state":"IN"},"type":"Feature","geometry":{"type":"Point","coordinates":[-85.479577,39.368911]}},{"properties":{"city":"SHELBYVILLE","zip":"46176","geo_score":0.914,"id":"a6wig3y81b1a","geo_precision":"range","address":"1010 EAST STATE RD 44","state":"IN"},"type":"Feature","geometry":{"type":"Point","coordinates":[-85.761501,39.521305]}},{"properties":{"city":"LIBERTY TOWNSHIP","zip":"45011","geo_score":0.909,"id":"a6wig40t9rdh","geo_precision":"range","address":"5011 PRINCETON ROAD","state":"OH"},"type":"Feature","geometry":{"type":"Point","coordinates":[-84.453619,39.388185]}},{"properties":{"city":"COLUMBUS","zip":"43229","geo_score":0.902,"id":"a6wig40t8n1d","geo_precision":"range","address":"975 E DUBLIN GRANVILLE RD","state":"OH"},"type":"Feature","geometry":{"type":"Point","coordinates":[-82.992446,40.087799]}},{"properties":{"city":"COLUMBUS","zip":"43220","geo_score":1.0,"id":"a6wig45x93x6","geo_precision":"range","address":"4530 KENNY RD","state":"OH"},"type":"Feature","geometry":{"type":"Point","coordinates":[-83.049618,40.053588]}},{"properties":{"city":"NEW ALBANY","zip":"43054","geo_score":0.805,"id":"a6wig44d1e7n","geo_precision":"street","address":"5555 NEW ALBANY RD EAST","state":"OH"},"type":"Feature","geometry":{"type":"Point","coordinates":[-82.801726,40.103279]}},{"properties":{"city":"WEST CHESTER","zip":"45069","geo_score":0.717,"id":"a6wig3x694sr","geo_precision":"street","address":"7776 COX LANE","state":"OH"},"type":"Feature","geometry":{"type":"Point","coordinates":[-84.364763,39.35283]}},{"properties":{"city":"LOVELAND","zip":"45140","geo_score":0.902,"id":"a6wig44wocs6","geo_precision":"range","address":"6385 BRANCH HILL GUINEA  PIKE","state":"OH"},"type":"Feature","geometry":{"type":"Point","coordinates":[-84.256103,39.228909]}},{"properties":{"city":"NOBLESVILLE","zip":"46060","geo_score":0.974,"id":"a6wig461n7ok","geo_precision":"range","address":"555 WESTFIELD ROAD","state":"IN"},"type":"Feature","geometry":{"type":"Point","coordinates":[-86.026136,40.047017]}},{"properties":{"city":"HUBBARD","zip":"44425","geo_score":0.927,"id":"a6wig4cay61a","geo_precision":"range","address":"15 SOUTH MAIN STREET","state":"OH"},"type":"Feature","geometry":{"type":"Point","coordinates":[-80.568886,41.156217]}},{"properties":{"city":"WABASH","zip":"46992","geo_score":0.756,"id":"a6wig40b8waf","geo_precision":"street","address":"487 N CASS STREET","state":"IN"},"type":"Feature","geometry":{"type":"Point","coordinates":[-85.826794,40.803711]}},{"properties":{"city":"SOUTH HAVEN","zip":"49090","geo_score":0.842,"id":"a6wig4crx9b9","geo_precision":"street","address":"1100 PHOENIX ST","state":"MI"},"type":"Feature","geometry":{"type":"Point","coordinates":[-86.259196,42.403459]}},{"properties":{"city":"DAYTON","zip":"45414","geo_score":0.635,"id":"a6wig3x7txtl","geo_precision":"street","address":"5651 NEEDMORE AVE","state":"OH"},"type":"Feature","geometry":{"type":"Point","coordinates":[-84.157129,39.820121]}},{"properties":{"city":"FRANKLIN","zip":"45005","geo_score":0.744,"id":"a6wig3zgmncg","geo_precision":"street","address":"1300 E 2ND ST","state":"OH"},"type":"Feature","geometry":{"type":"Point","coordinates":[-84.280799,39.563801]}},{"properties":{"city":"AURORA","zip":"47001","geo_score":0.916,"id":"a6wig492o6dw","geo_precision":"range","address":"512 GREEN BLVD","state":"IN"},"type":"Feature","geometry":{"type":"Point","coordinates":[-84.899086,39.06123]}},{"properties":{"city":"CINCINNATI","zip":"45202","geo_score":1.0,"id":"a6wig4bk3pf3","geo_precision":"range","address":"406 MAIN STREET","state":"OH"},"type":"Feature","geometry":{"type":"Point","coordinates":[-84.509471,39.100499]}},{"properties":{"city":"HERMITAGE","zip":"16148","geo_score":0.625,"id":"a6wig46a24sv","geo_precision":"street","address":"3229 E. STATE ST.","state":"PA"},"type":"Feature","geometry":{"type":"Point","coordinates":[-80.481894,41.233197]}},{"properties":{"city":"FORT WAYNE","zip":"46825","geo_score":0.902,"id":"a6wig4686wd3","geo_precision":"range","address":"5435 E DUPONT RD","state":"IN"},"type":"Feature","geometry":{"type":"Point","coordinates":[-85.076455,41.179672]}},{"properties":{"city":"MISHAWAKA","zip":"46544","geo_score":0.805,"id":"a6wig44kykxh","geo_precision":"street","address":"3425 BREMEN HWY","state":"IN"},"type":"Feature","geometry":{"type":"Point","coordinates":[-86.176839,41.643982]}},{"properties":{"city":"NORTH VERNON","zip":"47265","geo_score":0.709,"id":"a6wig42119j8","geo_precision":"street","address":"9 N STATE ST","state":"IN"},"type":"Feature","geometry":{"type":"Point","coordinates":[-85.627726,39.004464]}},{"properties":{"city":"PERU","zip":"46970","geo_score":0.922,"id":"a6wig44oz6jm","geo_precision":"range","address":"720 N BROADWAY","state":"IN"},"type":"Feature","geometry":{"type":"Point","coordinates":[-86.078072,40.767776]}},{"properties":{"city":"ASHTABULA","zip":"44004","geo_score":0.639,"id":"a6wig4atoecm","geo_precision":"street","address":"318 PROSPECT AVE","state":"OH"},"type":"Feature","geometry":{"type":"Point","coordinates":[-80.790118,41.866594]}},{"properties":{"city":"FORT WAYNE","zip":"46835","geo_score":0.922,"id":"a6wig42f6i5m","geo_precision":"range","address":"10170 MAYSVILLE RD","state":"IN"},"type":"Feature","geometry":{"type":"Point","coordinates":[-85.013052,41.128365]}},{"properties":{"city":"CENTERVILLE","zip":"45458","geo_score":0.503,"id":"a6wig4a2hyuw","geo_precision":"street","address":"911 S. MAIN","state":"OH"},"type":"Feature","geometry":{"type":"Point","coordinates":[-84.159686,39.619617]}},{"properties":{"city":"DECATUR","zip":"46733","geo_score":0.819,"id":"a6wig4aql6sl","geo_precision":"range","address":"123 N 13TH ST","state":"IN"},"type":"Feature","geometry":{"type":"Point","coordinates":[-84.937686,40.828245]}},{"properties":{"city":"YOUNGSTOWN","zip":"44511","geo_score":0.912,"id":"a6wig47h1ssz","geo_precision":"range","address":"3800 TIPPECANOE RD.","state":"OH"},"type":"Feature","geometry":{"type":"Point","coordinates":[-80.71107,41.061836]}},{"properties":{"city":"HILLIARD","zip":"43026","geo_score":0.902,"id":"a6wig49dun67","geo_precision":"range","address":"5383 CEMETERY ROAD,","state":"OH"},"type":"Feature","geometry":{"type":"Point","coordinates":[-83.159821,40.030001]}},{"properties":{"city":"OXFORD","zip":"45056","geo_score":0.833,"id":"a6wig40p12eb","geo_precision":"range","address":"200 S LOCUST STREET","state":"OH"},"type":"Feature","geometry":{"type":"Point","coordinates":[-84.749366,39.507467]}},{"properties":{"city":"SOUTH HOLLAND","zip":"60473","geo_score":0.915,"id":"a6wig49w8plo","geo_precision":"range","address":"390 E 162ND ST","state":"IL"},"type":"Feature","geometry":{"type":"Point","coordinates":[-87.607471,41.600821]}},{"properties":{"city":"WATERFORD TWP.","zip":"48328","geo_score":0.976,"id":"a6wig4cwyiv4","geo_precision":"range","address":"20 S TELEGRAPH RD","state":"MI"},"type":"Feature","geometry":{"type":"Point","coordinates":[-83.325673,42.634617]}},{"properties":{"city":"BAY VILLAGE","zip":"44140","geo_score":1.0,"id":"a6wig49bmvj6","geo_precision":"range","address":"27251 WOLF RD","state":"OH"},"type":"Feature","geometry":{"type":"Point","coordinates":[-81.921427,41.485001]}},{"properties":{"city":"BRECKSVILLE","zip":"44141","geo_score":0.92,"id":"a6wig48gahyb","geo_precision":"range","address":"8966 BRECKSVILLE RD","state":"OH"},"type":"Feature","geometry":{"type":"Point","coordinates":[-81.62685,41.318701]}},{"properties":{"city":"COLUMBUS","zip":"43213","geo_score":0.91,"id":"a6wig436si8p","geo_precision":"range","address":"6201 E BROAD STREET","state":"OH"},"type":"Feature","geometry":{"type":"Point","coordinates":[-82.835252,39.98036]}},{"properties":{"city":"MASON","zip":"45040","geo_score":1.0,"id":"a6wig4135pe8","geo_precision":"range","address":"8060 S MASON MONTGOMERY RD","state":"OH"},"type":"Feature","geometry":{"type":"Point","coordinates":[-84.312652,39.322334]}},{"properties":{"city":"UPPER ARLINGTON","zip":"43221","geo_score":1.0,"id":"a6wig42vhgx8","geo_precision":"range","address":"3141 TREMONT ROAD","state":"OH"},"type":"Feature","geometry":{"type":"Point","coordinates":[-83.061346,40.020827]}},{"properties":{"city":"KOKOMO","zip":"46901","geo_score":0.913,"id":"a6wig3zymt9i","geo_precision":"range","address":"2400 W SYCAMORE ST","state":"IN"},"type":"Feature","geometry":{"type":"Point","coordinates":[-86.164957,40.487736]}},{"properties":{"city":"KOKOMO","zip":"46901","geo_score":0.48,"id":"a6wig419gv1v","geo_precision":"street","address":"2345 E. MARKLAND AVE","state":"IN"},"type":"Feature","geometry":{"type":"Point","coordinates":[-86.131236,40.476471]}},{"properties":{"city":"BENTON HARBOR","zip":"49022","geo_score":0.83,"id":"a6wig49x7eh3","geo_precision":"range","address":"875 E NAPIER RD","state":"MI"},"type":"Feature","geometry":{"type":"Point","coordinates":[-86.437501,42.087083]}},{"properties":{"city":"NORTON SHORES","zip":"49444","geo_score":0.716,"id":"a6wig4bm23xy","geo_precision":"street","address":"1171 E SHERMAN BLVD","state":"MI"},"type":"Feature","geometry":{"type":"Point","coordinates":[-86.191316,43.205881]}},{"properties":{"city":"KALAMAZOO","zip":"49024","geo_score":0.913,"id":"a6wig44zsbqf","geo_precision":"range","address":"7920 SHAVER ROAD","state":"MI"},"type":"Feature","geometry":{"type":"Point","coordinates":[-85.590808,42.201997]}},{"properties":{"city":"PORTAGE","zip":"49002","geo_score":0.902,"id":"a6wig492rom3","geo_precision":"range","address":"5933 S WESTNEDGE AVE","state":"MI"},"type":"Feature","geometry":{"type":"Point","coordinates":[-85.589512,42.230878]}},{"properties":{"city":"CROWN POINT","zip":"46307","geo_score":0.912,"id":"a6wig3y50eyt","geo_precision":"range","address":"10795 BROADWAY","state":"IN"},"type":"Feature","geometry":{"type":"Point","coordinates":[-87.33539,41.422042]}},{"properties":{"city":"ELKHART","zip":"46514","geo_score":0.911,"id":"a6wig437cajm","geo_precision":"range","address":"1400 CASSOPOLIS ST","state":"IN"},"type":"Feature","geometry":{"type":"Point","coordinates":[-85.971865,41.701249]}},{"properties":{"city":"BYRON CENTER","zip":"49315","geo_score":0.929,"id":"a6wig3z9eimt","geo_precision":"range","address":"8364 BYRON CENTER AVE SW","state":"MI"},"type":"Feature","geometry":{"type":"Point","coordinates":[-85.722981,42.812649]}},{"properties":{"city":"MANSFIELD","zip":"44905","geo_score":0.97,"id":"a6wig486ht3i","geo_precision":"range","address":"770 ASHLAND RD","state":"OH"},"type":"Feature","geometry":{"type":"Point","coordinates":[-82.485734,40.770628]}},{"properties":{"city":"FISHERS","zip":"46037","geo_score":1.0,"id":"a6wig4aem4ho","geo_precision":"range","address":"13741 EAST 116TH ST","state":"IN"},"type":"Feature","geometry":{"type":"Point","coordinates":[-85.919961,39.957746]}},{"properties":{"city":"SOUTH BEND","zip":"46615","geo_score":1.0,"id":"a6wig472ldxq","geo_precision":"range","address":"1351 N IRONWOOD DR.","state":"IN"},"type":"Feature","geometry":{"type":"Point","coordinates":[-86.21641,41.693684]}},{"properties":{"city":"TRAVERSE CITY","zip":"49684","geo_score":0.706,"id":"a6wig4a1q3dq","geo_precision":"range","address":"1029 M 37 S","state":"MI"},"type":"Feature","geometry":{"type":"Point","coordinates":[-85.656228,44.671258]}},{"properties":{"city":"BEDFORD","zip":"44146","geo_score":0.911,"id":"a6wig4636ilq","geo_precision":"range","address":"520 BROADWAY AVE","state":"OH"},"type":"Feature","geometry":{"type":"Point","coordinates":[-81.540676,41.395394]}},{"properties":{"city":"LORAIN","zip":"44052","geo_score":0.92,"id":"a6wig3x47z12","geo_precision":"range","address":"2730 BROADWAY AVE","state":"OH"},"type":"Feature","geometry":{"type":"Point","coordinates":[-82.16511,41.445799]}},{"properties":{"city":"ALMA","zip":"48801","geo_score":1.0,"id":"a6wig4a6akpf","geo_precision":"range","address":"1420 WRIGHT AVE","state":"MI"},"type":"Feature","geometry":{"type":"Point","coordinates":[-84.666773,43.391831]}},{"properties":{"city":"ST. JOHNS","zip":"48879","geo_score":0.785,"id":"a6wig43lxzgi","geo_precision":"range","address":"1410 S US HIGHWAY 27","state":"MI"},"type":"Feature","geometry":{"type":"Point","coordinates":[-84.544963,42.990949]}},{"properties":{"city":"HILLSDALE","zip":"49242","geo_score":0.902,"id":"a6wig48tf50v","geo_precision":"range","address":"196 W CARLETON RD","state":"MI"},"type":"Feature","geometry":{"type":"Point","coordinates":[-84.641394,41.929135]}},{"properties":{"city":"MARION","zip":"43302","geo_score":0.922,"id":"a6wig448780t","geo_precision":"range","address":"1321 DELAWARE AVE","state":"OH"},"type":"Feature","geometry":{"type":"Point","coordinates":[-83.12037,40.565064]}},{"properties":{"city":"INDEPENDENCE","zip":"41051","geo_score":0.526,"id":"a6wig3xu07ib","geo_precision":"street","address":"2005 CENTENNIAL BLVD","state":"KY"},"type":"Feature","geometry":{"type":"Point","coordinates":[-84.675002,39.014592]}},{"properties":{"city":"GREENVILLE","zip":"45331","geo_score":0.902,"id":"a6wig483tqap","geo_precision":"range","address":"1000 E MAIN STREET","state":"OH"},"type":"Feature","geometry":{"type":"Point","coordinates":[-84.623215,40.109126]}},{"properties":{"city":"PARMA","zip":"44130","geo_score":0.943,"id":"a6wig4aw6cv0","geo_precision":"range","address":"7888 YORK ROAD","state":"OH"},"type":"Feature","geometry":{"type":"Point","coordinates":[-81.759736,41.35112]}},{"properties":{"city":"BOURBONNAIS","zip":"60914","geo_score":0.902,"id":"a6wig3xmrup5","geo_precision":"range","address":"501 N CONVENT STREET","state":"IL"},"type":"Feature","geometry":{"type":"Point","coordinates":[-87.875311,41.162603]}},{"properties":{"city":"WALKER","zip":"49544","geo_score":0.911,"id":"a6wig3xtl60o","geo_precision":"range","address":"3596 ALPINE AVE NW","state":"MI"},"type":"Feature","geometry":{"type":"Point","coordinates":[-85.689374,43.029035]}},{"properties":{"city":"LIVONIA","zip":"48154","geo_score":1.0,"id":"a6wig3yrhat3","geo_precision":"range","address":"17001 NEWBURGH RD","state":"MI"},"type":"Feature","geometry":{"type":"Point","coordinates":[-83.413388,42.409776]}},{"properties":{"city":"GAYLORD","zip":"49735","geo_score":0.51,"id":"a6wig4bfkc7a","geo_precision":"street","address":"1290 W. MAIN ST","state":"MI"},"type":"Feature","geometry":{"type":"Point","coordinates":[-84.675843,45.027376]}},{"properties":{"city":"SAULT STE MARIE","zip":"49783","geo_score":0.932,"id":"a6wig4089h93","geo_precision":"range","address":"2101 ASHMUN ST.","state":"MI"},"type":"Feature","geometry":{"type":"Point","coordinates":[-84.353726,46.480846]}},{"properties":{"city":"WEST BRANCH","zip":"48661","geo_score":0.727,"id":"a6wig40anl7q","geo_precision":"street","address":"2480 E HOUGHTON AVE","state":"MI"},"type":"Feature","geometry":{"type":"Point","coordinates":[-84.225828,44.276257]}},{"properties":{"city":"WESTFIELD","zip":"46074","geo_score":0.707,"id":"a6wig49o6bds","geo_precision":"range","address":"3275 E SR 32","state":"IN"},"type":"Feature","geometry":{"type":"Point","coordinates":[-86.112603,40.042857]}},{"properties":{"city":"CALUMET PARK","zip":"60827","geo_score":0.92,"id":"a6wig3y6nj3i","geo_precision":"range","address":"12854 S ASHLAND AVE","state":"IL"},"type":"Feature","geometry":{"type":"Point","coordinates":[-87.660795,41.659734]}},{"properties":{"city":"INDIANAPOLIS","zip":"46237","geo_score":1.0,"id":"a6wig4b63ujg","geo_precision":"range","address":"6745 E SOUTHPORT RD","state":"IN"},"type":"Feature","geometry":{"type":"Point","coordinates":[-86.049812,39.666553]}},{"properties":{"city":"PRUDENVILLE","zip":"48651","geo_score":0.878,"id":"a6wig470v8e1","geo_precision":"range","address":"729 W HOUGHTON LAKE DR","state":"MI"},"type":"Feature","geometry":{"type":"Point","coordinates":[-84.655186,44.298448]}},{"properties":{"city":"CINCINNATI","zip":"45238","geo_score":0.912,"id":"a6wig47b1q8f","geo_precision":"range","address":"398 ANDERSON FERRY RD","state":"OH"},"type":"Feature","geometry":{"type":"Point","coordinates":[-84.618206,39.09388]}},{"properties":{"city":"HARTLAND","zip":"48353","geo_score":0.973,"id":"a6wig432fopu","geo_precision":"range","address":"10081 E HIGHLAND RD","state":"MI"},"type":"Feature","geometry":{"type":"Point","coordinates":[-83.751983,42.63313]}},{"properties":{"city":"BATTLECREEK","zip":"49017","geo_score":0.61,"id":"a6wig46fuhlo","geo_precision":"street","address":"605 N AVE","state":"MI"},"type":"Feature","geometry":{"type":"Point","coordinates":[-85.716419,42.245101]}},{"properties":{"city":"CHEBOYGAN","zip":"49721","geo_score":0.919,"id":"a6wig41p87do","geo_precision":"range","address":"991 S MAIN ST","state":"MI"},"type":"Feature","geometry":{"type":"Point","coordinates":[-84.478492,45.628143]}},{"properties":{"city":"HOLLAND","zip":"49423","geo_score":0.716,"id":"a6wig3yuwfuw","geo_precision":"street","address":"780 S WASHINGTON AVENUE","state":"MI"},"type":"Feature","geometry":{"type":"Point","coordinates":[-86.114179,42.754162]}},{"properties":{"city":"MADISON","zip":"44057","geo_score":0.959,"id":"a6wig4a85hxg","geo_precision":"range","address":"6707 N RIDGE RD","state":"OH"},"type":"Feature","geometry":{"type":"Point","coordinates":[-81.048436,41.802114]}},{"properties":{"city":"YOUNGSTOWN","zip":"44505","geo_score":0.919,"id":"a6wig4831mq0","geo_precision":"range","address":"2864 MCCARTNEY RD","state":"OH"},"type":"Feature","geometry":{"type":"Point","coordinates":[-80.5937,41.090524]}},{"properties":{"city":"ERIE","zip":"16508","geo_score":1.0,"id":"a6wig3xdflk6","geo_precision":"range","address":"3727 PEACH ST","state":"PA"},"type":"Feature","geometry":{"type":"Point","coordinates":[-80.081192,42.097899]}},{"properties":{"city":"EAST CHICAGO","zip":"46312","geo_score":1.0,"id":"a6wig3zbm75e","geo_precision":"range","address":"2123 E COLUMBUS DR","state":"IN"},"type":"Feature","geometry":{"type":"Point","coordinates":[-87.444773,41.639011]}},{"properties":{"city":"MONTICELLO","zip":"47960","geo_score":0.49,"id":"a6wig44msemg","geo_precision":"street","address":"812 W. BROADWAY ST.","state":"IN"},"type":"Feature","geometry":{"type":"Point","coordinates":[-86.7611,40.744949]}},{"properties":{"city":"MUNCIE","zip":"47304","geo_score":0.916,"id":"a6wig43k6twz","geo_precision":"range","address":"3250 N MORRISON RD","state":"IN"},"type":"Feature","geometry":{"type":"Point","coordinates":[-85.442679,40.218192]}},{"properties":{"city":"WHITING","zip":"46394","geo_score":0.911,"id":"a6wig4b79sgt","geo_precision":"range","address":"1939 INDIANAPOLIS BLVD","state":"IN"},"type":"Feature","geometry":{"type":"Point","coordinates":[-87.498422,41.678595]}},{"properties":{"city":"AURORA","zip":"44202","geo_score":0.91,"id":"a6wig4atwgds","geo_precision":"range","address":"95 W GARFIELD RD","state":"OH"},"type":"Feature","geometry":{"type":"Point","coordinates":[-81.349089,41.317423]}},{"properties":{"city":"NILES","zip":"44446","geo_score":0.734,"id":"a6wig3x9w1lq","geo_precision":"street","address":"2249 YOUNGSTOWN WARREN RD","state":"OH"},"type":"Feature","geometry":{"type":"Point","coordinates":[-80.740427,41.205425]}},{"properties":{"city":"BRYAN","zip":"43506","geo_score":0.52,"id":"a6wig3zdzgq5","geo_precision":"street","address":"403 S. MAIN ST.","state":"OH"},"type":"Feature","geometry":{"type":"Point","coordinates":[-84.651021,41.462484]}},{"properties":{"city":"HUBER HEIGHTS","zip":"45424","geo_score":0.919,"id":"a6wig49qy4ic","geo_precision":"range","address":"5000 BRANDT PIKE","state":"OH"},"type":"Feature","geometry":{"type":"Point","coordinates":[-84.122402,39.825514]}},{"properties":{"city":"INDIANAPOLIS","zip":"46227","geo_score":0.92,"id":"a6wig4ain3at","geo_precision":"range","address":"8945 MADISON AVE","state":"IN"},"type":"Feature","geometry":{"type":"Point","coordinates":[-86.117479,39.636342]}},{"properties":{"city":"TOLEDO","zip":"43617","geo_score":0.92,"id":"a6wig47v4pyj","geo_precision":"range","address":"6636 WEST CENTRAL","state":"OH"},"type":"Feature","geometry":{"type":"Point","coordinates":[-83.701864,41.67532]}},{"properties":{"city":"EUCLID","zip":"44117","geo_score":1.0,"id":"a6wig46x8eje","geo_precision":"range","address":"20485 EUCLID AVE","state":"OH"},"type":"Feature","geometry":{"type":"Point","coordinates":[-81.53731,41.567173]}},{"properties":{"city":"GARY","zip":"46403","geo_score":0.5,"id":"a6wig3zhkoxf","geo_precision":"street","address":"801 S. LAKE ST","state":"IN"},"type":"Feature","geometry":{"type":"Point","coordinates":[-87.266331,41.593806]}},{"properties":{"city":"ORLAND PARK","zip":"60467","geo_score":1.0,"id":"a6wig46zj5j7","geo_precision":"range","address":"11349 W 159TH ST","state":"IL"},"type":"Feature","geometry":{"type":"Point","coordinates":[-87.894934,41.600603]}},{"properties":{"city":"MILFORD","zip":"48381","geo_score":1.0,"id":"a6wig429ewyx","geo_precision":"range","address":"140 S MILFORD RD","state":"MI"},"type":"Feature","geometry":{"type":"Point","coordinates":[-83.610757,42.582467]}},{"properties":{"city":"SOUTH LYON","zip":"48178","geo_score":0.917,"id":"a6wig4c1wyjv","geo_precision":"range","address":"22318 PONTIAC TR","state":"MI"},"type":"Feature","geometry":{"type":"Point","coordinates":[-83.65063,42.449432]}},{"properties":{"city":"RAVENNA","zip":"44266","geo_score":0.725,"id":"a6wig4a11fyr","geo_precision":"street","address":"144 E MAIN ST","state":"OH"},"type":"Feature","geometry":{"type":"Point","coordinates":[-81.300062,41.157803]}},{"properties":{"city":"KENTWOOD","zip":"49512","geo_score":0.725,"id":"a6wig4byi1p4","geo_precision":"street","address":"2425 44TH ST SE","state":"MI"},"type":"Feature","geometry":{"type":"Point","coordinates":[-85.509008,42.884122]}},{"properties":{"city":"LAMBERTVILLE","zip":"48144","geo_score":1.0,"id":"a6wig46kaj1y","geo_precision":"range","address":"7420 SECOR RD","state":"MI"},"type":"Feature","geometry":{"type":"Point","coordinates":[-83.62566,41.749436]}},{"properties":{"city":"HEATH","zip":"43056","geo_score":1.0,"id":"a6wig3y8eqgg","geo_precision":"range","address":"764 HEBRON RD","state":"OH"},"type":"Feature","geometry":{"type":"Point","coordinates":[-82.437871,40.031373]}},{"properties":{"city":"MEADVILLE","zip":"16335","geo_score":0.774,"id":"a6wig488to0n","geo_precision":"range","address":"379 NORTH ST","state":"PA"},"type":"Feature","geometry":{"type":"Point","coordinates":[-80.147611,41.640311]}},{"properties":{"city":"COLUMBUS","zip":"47201","geo_score":0.913,"id":"a6wig46adq4v","geo_precision":"range","address":"2140 W JONATHAN MOORE PIKE","state":"IN"},"type":"Feature","geometry":{"type":"Point","coordinates":[-85.947639,39.200267]}},{"properties":{"city":"LAFAYETTE","zip":"47905","geo_score":0.902,"id":"a6wig42wy86l","geo_precision":"range","address":"130 S CREASY LN","state":"IN"},"type":"Feature","geometry":{"type":"Point","coordinates":[-86.838887,40.415721]}},{"properties":{"city":"BOWLING GREEN","zip":"43402","geo_score":0.911,"id":"a6wig4a3q7kg","geo_precision":"range","address":"1013 N MAIN ST","state":"OH"},"type":"Feature","geometry":{"type":"Point","coordinates":[-83.650474,41.38652]}},{"properties":{"city":"LINCOLN PARK","zip":"48146","geo_score":0.805,"id":"a6wig42tqidw","geo_precision":"street","address":"1901 SOUTHFIELD RD","state":"MI"},"type":"Feature","geometry":{"type":"Point","coordinates":[-83.176313,42.250014]}},{"properties":{"city":"BELLEFONTAINE","zip":"43311","geo_score":0.917,"id":"a6wig425bj52","geo_precision":"range","address":"101 E SANDUSKY AVE","state":"OH"},"type":"Feature","geometry":{"type":"Point","coordinates":[-83.759566,40.362595]}},{"properties":{"city":"INDIANAPOLIS","zip":"46203","geo_score":0.941,"id":"a6wig3zbsnrl","geo_precision":"range","address":"1650 E RAYMOND","state":"IN"},"type":"Feature","geometry":{"type":"Point","coordinates":[-86.131699,39.73764]}},{"properties":{"city":"MATTESON","zip":"60443","geo_score":0.918,"id":"a6wig3y95pzz","geo_precision":"range","address":"5640 211TH ST","state":"IL"},"type":"Feature","geometry":{"type":"Point","coordinates":[-87.753824,41.506148]}},{"properties":{"city":"DAVISON","zip":"48423","geo_score":0.506,"id":"a6wig40qdx90","geo_precision":"street","address":"901 S. STATE ST. ( M-15 )","state":"MI"},"type":"Feature","geometry":{"type":"Point","coordinates":[-83.51795,43.030833]}},{"properties":{"city":"NORWALK","zip":"44857","geo_score":0.916,"id":"a6wig47kfulo","geo_precision":"range","address":"4 EAST LEAGUE ST.","state":"OH"},"type":"Feature","geometry":{"type":"Point","coordinates":[-82.618315,41.247875]}},{"properties":{"city":"INDIANAPOLIS","zip":"46202","geo_score":0.61,"id":"a6wig42lbyvh","geo_precision":"street","address":"1530 N. MERIDIAN ST.","state":"IN"},"type":"Feature","geometry":{"type":"Point","coordinates":[-86.158018,39.76909]}},{"properties":{"city":"LAFAYETTE","zip":"47909","geo_score":0.878,"id":"a6wig45s96kp","geo_precision":"street","address":"2800 OLD US HIGHWAY 231 S","state":"IN"},"type":"Feature","geometry":{"type":"Point","coordinates":[-86.904269,40.389732]}},{"properties":{"city":"MICHIGAN CITY","zip":"46360","geo_score":0.902,"id":"a6wig45bu2va","geo_precision":"range","address":"1816 FRANKLIN ST","state":"IN"},"type":"Feature","geometry":{"type":"Point","coordinates":[-86.896332,41.706251]}},{"properties":{"city":"SOUTH BEND","zip":"46637","geo_score":0.935,"id":"a6wig472ihnb","geo_precision":"range","address":"52482 STATE RD  933","state":"IN"},"type":"Feature","geometry":{"type":"Point","coordinates":[-86.25063,41.730653]}},{"properties":{"city":"MIDLOTHIAN","zip":"60445","geo_score":0.596,"id":"a6wig3yl977f","geo_precision":"street","address":"4800 W 148TH ST","state":"IL"},"type":"Feature","geometry":{"type":"Point","coordinates":[-87.74326,41.622523]}},{"properties":{"city":"FAIRLAWN","zip":"44333","geo_score":1.0,"id":"a6wig439k3l0","geo_precision":"range","address":"3009 W MARKET ST","state":"OH"},"type":"Feature","geometry":{"type":"Point","coordinates":[-81.610464,41.128383]}},{"properties":{"city":"POWELL","zip":"43065","geo_score":0.796,"id":"a6wig3y6tl7u","geo_precision":"range","address":"9669 SAWMILL PARKWAY","state":"OH"},"type":"Feature","geometry":{"type":"Point","coordinates":[-83.088436,40.157739]}},{"properties":{"city":"YPSILANTI","zip":"48198","geo_score":0.902,"id":"a6wig456b2lx","geo_precision":"range","address":"419 E MICHIGAN AVE","state":"MI"},"type":"Feature","geometry":{"type":"Point","coordinates":[-83.603688,42.241125]}},{"properties":{"city":"HILLSBORO","zip":"45133","geo_score":0.757,"id":"a6wig4cglu0h","geo_precision":"street","address":"1090 NORTHVIEW DRIVE","state":"OH"},"type":"Feature","geometry":{"type":"Point","coordinates":[-83.608356,39.219575]}},{"properties":{"city":"ANN ARBOR","zip":"48103","geo_score":1.0,"id":"a6wig47p4mbu","geo_precision":"range","address":"2355 JACKSON AVE","state":"MI"},"type":"Feature","geometry":{"type":"Point","coordinates":[-83.779369,42.280517]}},{"properties":{"city":"ORLAND PARK","zip":"60467","geo_score":1.0,"id":"a6wig46xd0vi","geo_precision":"range","address":"11981 WEST 143RD ST","state":"IL"},"type":"Feature","geometry":{"type":"Point","coordinates":[-87.911029,41.629415]}},{"properties":{"city":"INDIANAPOLIS","zip":"46268","geo_score":0.502,"id":"a6wig41ymlk7","geo_precision":"street","address":"3545 W. 86TH STREET","state":"IN"},"type":"Feature","geometry":{"type":"Point","coordinates":[-86.203029,39.911948]}},{"properties":{"city":"WYOMING","zip":"49509","geo_score":0.854,"id":"a6wig48j8wv7","geo_precision":"range","address":"1550 36TH ST SW STE A","state":"MI"},"type":"Feature","geometry":{"type":"Point","coordinates":[-85.702819,42.898896]}},{"properties":{"city":"MACOMB TOWNSHIP","zip":"48044","geo_score":0.561,"id":"a6wig48trjo4","geo_precision":"street","address":"21790 21 MILE RD","state":"MI"},"type":"Feature","geometry":{"type":"Point","coordinates":[-82.526597,42.621977]}},{"properties":{"city":"STEVENSVILLE","zip":"49127","geo_score":0.911,"id":"a6wig41iav1c","geo_precision":"range","address":"1710 W JOHN BEERS RD","state":"MI"},"type":"Feature","geometry":{"type":"Point","coordinates":[-86.495041,42.014387]}},{"properties":{"city":"CINCINNATI","zip":"45231","geo_score":0.923,"id":"a6wig472c1o6","geo_precision":"range","address":"8210 WINTON RD","state":"OH"},"type":"Feature","geometry":{"type":"Point","coordinates":[-84.518258,39.216143]}},{"properties":{"city":"MARIETTA","zip":"45750","geo_score":0.967,"id":"a6wig3yjfdi1","geo_precision":"range","address":"300 GREENE STREET","state":"OH"},"type":"Feature","geometry":{"type":"Point","coordinates":[-81.449379,39.412279]}},{"properties":{"city":"CHILLICOTHE","zip":"45601","geo_score":0.92,"id":"a6wig49arrxe","geo_precision":"range","address":"1070 WESTERN AVE","state":"OH"},"type":"Feature","geometry":{"type":"Point","coordinates":[-83.013059,39.332969]}},{"properties":{"city":"MANISTEE","zip":"49660","geo_score":0.902,"id":"a6wig4cdvlbp","geo_precision":"range","address":"1525 MANISTEE HWY","state":"MI"},"type":"Feature","geometry":{"type":"Point","coordinates":[-86.310956,44.226714]}},{"properties":{"city":"DUNLAP","zip":"46526","geo_score":0.819,"id":"a6wig45mg2d6","geo_precision":"range","address":"4430 ELKHART RD","state":"IN"},"type":"Feature","geometry":{"type":"Point","coordinates":[-85.905175,41.62583]}},{"properties":{"city":"SHELBY TOWNSHIP","zip":"48316","geo_score":0.909,"id":"a6wig4540fyr","geo_precision":"range","address":"56805 VAN DYKE AVE","state":"MI"},"type":"Feature","geometry":{"type":"Point","coordinates":[-83.035202,42.711945]}},{"properties":{"city":"ALLENDALE","zip":"49401","geo_score":0.882,"id":"a6wig3y5hnm1","geo_precision":"range","address":"6840 LK MICHIGAN DR","state":"MI"},"type":"Feature","geometry":{"type":"Point","coordinates":[-85.954864,42.972059]}},{"properties":{"city":"WHITEHALL","zip":"49461","geo_score":0.66,"id":"a6wig45xmqhz","geo_precision":"street","address":"3284 COLBY RD","state":"MI"},"type":"Feature","geometry":{"type":"Point","coordinates":[-86.326291,43.409178]}},{"properties":{"city":"ERIE","zip":"16510","geo_score":0.916,"id":"a6wig3x05klt","geo_precision":"range","address":"4309 BUFFALO RD","state":"PA"},"type":"Feature","geometry":{"type":"Point","coordinates":[-80.004487,42.14553]}},{"properties":{"city":"GOSHEN","zip":"46526","geo_score":0.909,"id":"a6wig3zjw4ag","geo_precision":"range","address":"1755 LINCOLNWAY E","state":"IN"},"type":"Feature","geometry":{"type":"Point","coordinates":[-85.80307,41.566208]}},{"properties":{"city":"SEYMOUR","zip":"47274","geo_score":0.915,"id":"a6wig44gk23i","geo_precision":"range","address":"319 E TIPTON ST","state":"IN"},"type":"Feature","geometry":{"type":"Point","coordinates":[-85.885222,38.95754]}},{"properties":{"city":"DEARBORN HEIGHTS","zip":"48127","geo_score":1.0,"id":"a6wig4dbhpg8","geo_precision":"range","address":"25700 FORD RD","state":"MI"},"type":"Feature","geometry":{"type":"Point","coordinates":[-83.290768,42.326611]}},{"properties":{"city":"KENDALLVILLE","zip":"46755","geo_score":0.482,"id":"a6wig42un4vf","geo_precision":"street","address":"124 E. NORTH ST.","state":"IN"},"type":"Feature","geometry":{"type":"Point","coordinates":[-85.266904,41.452299]}},{"properties":{"city":"ALEXANDRIA","zip":"41001","geo_score":0.888,"id":"a6wig45r2aoz","geo_precision":"range","address":"1 VIEWPOINT DR","state":"KY"},"type":"Feature","geometry":{"type":"Point","coordinates":[-84.40818,38.984801]}},{"properties":{"city":"BEAVERCREEK","zip":"45431","geo_score":0.92,"id":"a6wig447dxzc","geo_precision":"range","address":"2269 N FAIRFIELD RD","state":"OH"},"type":"Feature","geometry":{"type":"Point","coordinates":[-84.053915,39.755936]}},{"properties":{"city":"TRENTON","zip":"45067","geo_score":0.805,"id":"a6wig4c4bo30","geo_precision":"street","address":"1001 W STATE ST","state":"OH"},"type":"Feature","geometry":{"type":"Point","coordinates":[-84.477458,39.480661]}},{"properties":{"city":"GRANGER","zip":"46530","geo_score":1.0,"id":"a6wig4bquqet","geo_precision":"range","address":"13060 ADAMS RD","state":"IN"},"type":"Feature","geometry":{"type":"Point","coordinates":[-86.125879,41.753566]}},{"properties":{"city":"LYNDHURST","zip":"44124","geo_score":0.902,"id":"a6wig43qfjz5","geo_precision":"range","address":"5644 MAYFIELD RD","state":"OH"},"type":"Feature","geometry":{"type":"Point","coordinates":[-81.47614,41.520002]}},{"properties":{"city":"REDFORD","zip":"48239","geo_score":0.463,"id":"a6wig42xtkpl","geo_precision":"street","address":"25905 5 MILE RD","state":"MI"},"type":"Feature","geometry":{"type":"Point","coordinates":[-83.066682,42.425096]}},{"properties":{"city":"ELKHART","zip":"46517","geo_score":0.916,"id":"a6wig4548fit","geo_precision":"range","address":"102 E HIVELY AVE","state":"IN"},"type":"Feature","geometry":{"type":"Point","coordinates":[-85.965271,41.659417]}},{"properties":{"city":"INDIANAPOLIS","zip":"46260","geo_score":0.842,"id":"a6wig43i8fcp","geo_precision":"range","address":"1330 W 86TH ST","state":"IN"},"type":"Feature","geometry":{"type":"Point","coordinates":[-86.182491,39.912236]}},{"properties":{"city":"MISHAWAKA","zip":"46544","geo_score":1.0,"id":"a6wig40ffn54","geo_precision":"range","address":"4620 LINCOLNWAY E","state":"IN"},"type":"Feature","geometry":{"type":"Point","coordinates":[-86.109185,41.663338]}},{"properties":{"city":"CINCINNATI","zip":"45231","geo_score":0.923,"id":"a6wig41rjvwn","geo_precision":"range","address":"6918 HAMILTON AVE","state":"OH"},"type":"Feature","geometry":{"type":"Point","coordinates":[-84.549464,39.218024]}},{"properties":{"city":"FOREST PARK","zip":"45240","geo_score":0.928,"id":"a6wig3xmwmwv","geo_precision":"range","address":"1198 W KEMPER RD","state":"OH"},"type":"Feature","geometry":{"type":"Point","coordinates":[-84.523195,39.288849]}},{"properties":{"city":"GRAYLING","zip":"49738","geo_score":0.393,"id":"a6wig47vz0yg","geo_precision":"street","address":"2045 S I75 BUSINESS LOOP","state":"MI"},"type":"Feature","geometry":{"type":"Point","coordinates":[-83.669136,45.018302]}},{"properties":{"city":"COSHOCTON","zip":"43812","geo_score":0.902,"id":"a6wig4c1gkco","geo_precision":"range","address":"190 CHESTNUT ST.","state":"OH"},"type":"Feature","geometry":{"type":"Point","coordinates":[-81.868922,40.275126]}},{"properties":{"city":"CORTLAND","zip":"44410","geo_score":0.915,"id":"a6wig449k28a","geo_precision":"range","address":"600 S MECCA ST","state":"OH"},"type":"Feature","geometry":{"type":"Point","coordinates":[-80.731143,41.320177]}},{"properties":{"city":"AKRON","zip":"44319","geo_score":0.789,"id":"a6wig4d8fi0l","geo_precision":"range","address":"361 EAST WATERLOO ROAD","state":"OH"},"type":"Feature","geometry":{"type":"Point","coordinates":[-81.514239,41.028852]}},{"properties":{"city":"ELKHART","zip":"46514","geo_score":0.911,"id":"a6wig4b3efih","geo_precision":"range","address":"3551 CASSOPOLIS ST","state":"IN"},"type":"Feature","geometry":{"type":"Point","coordinates":[-85.973919,41.738113]}},{"properties":{"city":"WYOMING","zip":"49519","geo_score":0.911,"id":"a6wig48ktkui","geo_precision":"range","address":"5575 BYRON CENTER AVE SW","state":"MI"},"type":"Feature","geometry":{"type":"Point","coordinates":[-85.72318,42.863163]}},{"properties":{"city":"NORTH CANTON","zip":"44720","geo_score":0.925,"id":"a6wig3ytroc0","geo_precision":"range","address":"6701 FRANK AVE NW","state":"OH"},"type":"Feature","geometry":{"type":"Point","coordinates":[-81.441338,40.87754]}},{"properties":{"city":"EATON","zip":"45320","geo_score":0.935,"id":"a6wig40cs2a0","geo_precision":"range","address":"1213 N BARRON ST","state":"OH"},"type":"Feature","geometry":{"type":"Point","coordinates":[-84.636495,39.758347]}},{"properties":{"city":"CLARE","zip":"48617","geo_score":0.78,"id":"a6wig4cuq3k7","geo_precision":"range","address":"1141 N MCEWAN ST","state":"MI"},"type":"Feature","geometry":{"type":"Point","coordinates":[-84.768343,43.825709]}},{"properties":{"city":"FORT WAYNE","zip":"46818","geo_score":0.924,"id":"a6wig477mzsn","geo_precision":"range","address":"11932 LIMA RD.","state":"IN"},"type":"Feature","geometry":{"type":"Point","coordinates":[-85.167471,41.192082]}},{"properties":{"city":"OWOSSO","zip":"48867","geo_score":0.913,"id":"a6wig4bgrr1j","geo_precision":"range","address":"1001 E MAIN ST","state":"MI"},"type":"Feature","geometry":{"type":"Point","coordinates":[-84.157809,42.997654]}},{"properties":{"city":"YOUNGSTOWN","zip":"44509","geo_score":0.912,"id":"a6wig42u3alq","geo_precision":"range","address":"40 N MERIDIAN RD","state":"OH"},"type":"Feature","geometry":{"type":"Point","coordinates":[-80.711089,41.103786]}},{"properties":{"city":"MARYSVILLE","zip":"43040","geo_score":0.596,"id":"a6wig46srj9f","geo_precision":"street","address":"180 COLEMANS XING","state":"OH"},"type":"Feature","geometry":{"type":"Point","coordinates":[-83.346688,40.232807]}},{"properties":{"city":"PICKERINGTON","zip":"43147","geo_score":0.911,"id":"a6wig417lsrf","geo_precision":"range","address":"1101 HILL ROAD NORTH","state":"OH"},"type":"Feature","geometry":{"type":"Point","coordinates":[-82.779398,39.912715]}},{"properties":{"city":"STRONGSVILLE","zip":"44136","geo_score":1.0,"id":"a6wig3zcjjzm","geo_precision":"range","address":"19980 W 130TH ST","state":"OH"},"type":"Feature","geometry":{"type":"Point","coordinates":[-81.785122,41.277104]}},{"properties":{"city":"ESSEXVILLE","zip":"48732","geo_score":1.0,"id":"a6wig41jbs5y","geo_precision":"range","address":"2901 CENTER AVE","state":"MI"},"type":"Feature","geometry":{"type":"Point","coordinates":[-83.847259,43.59484]}},{"properties":{"city":"HEBRON","zip":"46341","geo_score":0.93,"id":"a6wig473ahax","geo_precision":"range","address":"308 N MAIN ST","state":"IN"},"type":"Feature","geometry":{"type":"Point","coordinates":[-87.200026,41.320865]}},{"properties":{"city":"GRANDVIEW HEIGHTS","zip":"43212","geo_score":0.837,"id":"a6wig43q17ta","geo_precision":"range","address":"1444 W 5TH AVE","state":"OH"},"type":"Feature","geometry":{"type":"Point","coordinates":[-83.044796,39.988811]}},{"properties":{"city":"HAMMOND","zip":"46324","geo_score":1.0,"id":"a6wig4622mty","geo_precision":"range","address":"7236 CALUMET AVE","state":"IN"},"type":"Feature","geometry":{"type":"Point","coordinates":[-87.509006,41.582136]}},{"properties":{"city":"INDIANAPOLIS","zip":"46214","geo_score":0.916,"id":"a6wig4683nrd","geo_precision":"range","address":"7235 W 10TH ST","state":"IN"},"type":"Feature","geometry":{"type":"Point","coordinates":[-86.287245,39.779249]}},{"properties":{"city":"FREMONT","zip":"43420","geo_score":0.911,"id":"a6wig46ztrtv","geo_precision":"range","address":"1900 W STATE ST","state":"OH"},"type":"Feature","geometry":{"type":"Point","coordinates":[-83.135442,41.356362]}},{"properties":{"city":"ELKHART","zip":"46514","geo_score":0.911,"id":"a6wig47rzl5b","geo_precision":"range","address":"202 S NAPPANEE ST","state":"IN"},"type":"Feature","geometry":{"type":"Point","coordinates":[-86.003394,41.683814]}},{"properties":{"city":"LIVONIA","zip":"48152","geo_score":0.512,"id":"a6wig3yingjk","geo_precision":"street","address":"33239 8 MILE RD","state":"MI"},"type":"Feature","geometry":{"type":"Point","coordinates":[-84.106966,42.087182]}},{"properties":{"city":"DUNDEE","zip":"48131","geo_score":0.683,"id":"a6wig4820wwa","geo_precision":"zip","address":"100 E CABELAS BLVD","state":"MI"},"type":"Feature","geometry":{"type":"Point","coordinates":[-83.668808,41.964903]}},{"properties":{"city":"BRIGHTON","zip":"48116","geo_score":0.573,"id":"a6wig45siyvh","geo_precision":"street","address":"5505 S OLD US 23","state":"MI"},"type":"Feature","geometry":{"type":"Point","coordinates":[-83.749978,42.618245]}},{"properties":{"city":"SOUTH BEND","zip":"46613","geo_score":0.81,"id":"a6wig4d70r29","geo_precision":"street","address":"1945 LINCOLN WAY E","state":"IN"},"type":"Feature","geometry":{"type":"Point","coordinates":[-86.216132,41.657703]}},{"properties":{"city":"GRAND HAVEN","zip":"49417","geo_score":1.0,"id":"a6wig3zpbnum","geo_precision":"range","address":"1045 ROBBINS RD","state":"MI"},"type":"Feature","geometry":{"type":"Point","coordinates":[-86.217311,43.044525]}},{"properties":{"city":"MOUNT PLEASANT","zip":"48858","geo_score":0.917,"id":"a6wig4b9t9ov","geo_precision":"range","address":"903 N MISSION ST","state":"MI"},"type":"Feature","geometry":{"type":"Point","coordinates":[-84.767726,43.611816]}},{"properties":{"city":"WASHINGTON COURT HOUSE","zip":"43160","geo_score":0.927,"id":"a6wig421fzgo","geo_precision":"range","address":"1240 COLUMBUS AVE","state":"OH"},"type":"Feature","geometry":{"type":"Point","coordinates":[-83.427789,39.546165]}},{"properties":{"city":"CLEVELAND","zip":"44109","geo_score":1.0,"id":"a6wig3zbv40x","geo_precision":"range","address":"3415 CLARK AVE","state":"OH"},"type":"Feature","geometry":{"type":"Point","coordinates":[-81.706539,41.469815]}},{"properties":{"city":"NORTH OLMSTED","zip":"44070","geo_score":0.902,"id":"a6wig3yday0q","geo_precision":"range","address":"24590 LORAIN RD","state":"OH"},"type":"Feature","geometry":{"type":"Point","coordinates":[-81.893799,41.426874]}},{"properties":{"city":"KANKAKEE","zip":"60901","geo_score":0.858,"id":"a6wig4cpucwr","geo_precision":"range","address":"222 W COURT ST","state":"IL"},"type":"Feature","geometry":{"type":"Point","coordinates":[-87.867847,41.120745]}},{"properties":{"city":"JACKSON","zip":"45640","geo_score":0.922,"id":"a6wig491t8aq","geo_precision":"range","address":"521 EAST MAIN STREET","state":"OH"},"type":"Feature","geometry":{"type":"Point","coordinates":[-82.630451,39.045373]}},{"properties":{"city":"FORT WAYNE","zip":"46825","geo_score":0.902,"id":"a6wig3y1r052","geo_precision":"range","address":"1610 W COOK RD","state":"IN"},"type":"Feature","geometry":{"type":"Point","coordinates":[-85.163162,41.146686]}},{"properties":{"city":"CHARLEVOIX","zip":"49720","geo_score":0.715,"id":"a6wig410nlob","geo_precision":"street","address":"1500 BRIDGE ST","state":"MI"},"type":"Feature","geometry":{"type":"Point","coordinates":[-85.260995,45.303394]}},{"properties":{"city":"FREMONT","zip":"49412","geo_score":0.902,"id":"a6wig4amys3o","geo_precision":"range","address":"819 W MAIN ST","state":"MI"},"type":"Feature","geometry":{"type":"Point","coordinates":[-85.958709,43.467172]}},{"properties":{"city":"PETOSKEY","zip":"49770","geo_score":0.878,"id":"a6wig444ol0f","geo_precision":"range","address":"1301 N US HIGHWAY 31","state":"MI"},"type":"Feature","geometry":{"type":"Point","coordinates":[-84.983527,45.369531]}},{"properties":{"city":"CUYAHOGA FALLS","zip":"44221","geo_score":1.0,"id":"a6wig40v3sm4","geo_precision":"range","address":"755 HOWE AVE","state":"OH"},"type":"Feature","geometry":{"type":"Point","coordinates":[-81.472835,41.119018]}},{"properties":{"city":"GARY","zip":"46404","geo_score":0.819,"id":"a6wig468ugcm","geo_precision":"range","address":"2801 W 5TH AVE","state":"IN"},"type":"Feature","geometry":{"type":"Point","coordinates":[-87.371939,41.601919]}},{"properties":{"city":"SOUTH BEND","zip":"46619","geo_score":0.935,"id":"a6wig45e8o23","geo_precision":"range","address":"4444 W WESTERN AVE","state":"IN"},"type":"Feature","geometry":{"type":"Point","coordinates":[-86.308615,41.671864]}},{"properties":{"city":"COLUMBUS","zip":"43228","geo_score":0.482,"id":"a6wig4a22znd","geo_precision":"street","address":"4775 W. BROAD ST.","state":"OH"},"type":"Feature","geometry":{"type":"Point","coordinates":[-83.094962,39.953953]}},{"properties":{"city":"PARMA","zip":"44131","geo_score":0.912,"id":"a6wig4bfoyax","geo_precision":"range","address":"1415 ROCKSIDE RD.","state":"OH"},"type":"Feature","geometry":{"type":"Point","coordinates":[-81.676817,41.404421]}},{"properties":{"city":"DEMOTTE","zip":"46310","geo_score":0.916,"id":"a6wig4bpbnlm","geo_precision":"range","address":"226 N HALLECK ST","state":"IN"},"type":"Feature","geometry":{"type":"Point","coordinates":[-87.198783,41.203991]}},{"properties":{"city":"PORTLAND","zip":"47371","geo_score":0.911,"id":"a6wig4d75xm0","geo_precision":"range","address":"124 W VOTAW ST","state":"IN"},"type":"Feature","geometry":{"type":"Point","coordinates":[-84.978347,40.439457]}},{"properties":{"city":"PAW PAW","zip":"49079","geo_score":0.915,"id":"a6wig3yv20uo","geo_precision":"range","address":"848 S KALAMAZOO ST","state":"MI"},"type":"Feature","geometry":{"type":"Point","coordinates":[-85.891394,42.212352]}},{"properties":{"city":"XENIA","zip":"45385","geo_score":0.526,"id":"a6wig45isrpg","geo_precision":"street","address":"537 W. MAIN ST.","state":"OH"},"type":"Feature","geometry":{"type":"Point","coordinates":[-83.930976,39.684825]}},{"properties":{"city":"GRAND RAPIDS","zip":"49534","geo_score":0.713,"id":"a6wig45ktp39","geo_precision":"street","address":"4365 LAKE MICHIGAN DR NW","state":"MI"},"type":"Feature","geometry":{"type":"Point","coordinates":[-85.776315,42.972286]}},{"properties":{"city":"GRIFFITH","zip":"46319","geo_score":0.922,"id":"a6wig3y0cxy6","geo_precision":"range","address":"407 W GLEN PARK AVE","state":"IN"},"type":"Feature","geometry":{"type":"Point","coordinates":[-87.431161,41.537317]}},{"properties":{"city":"CROWN POINT","zip":"46307","geo_score":0.634,"id":"a6wig43e2v6y","geo_precision":"street","address":"1520 S COURT ST","state":"IN"},"type":"Feature","geometry":{"type":"Point","coordinates":[-87.357025,41.404793]}},{"properties":{"city":"TECUMSEH","zip":"49286","geo_score":0.915,"id":"a6wig4auz3l2","geo_precision":"range","address":"1330 W CHICAGO BLVD","state":"MI"},"type":"Feature","geometry":{"type":"Point","coordinates":[-83.964957,42.006535]}},{"properties":{"city":"ENGLEWOOD","zip":"45322","geo_score":0.911,"id":"a6wig4bd3r8z","geo_precision":"range","address":"775 W WENGER RD","state":"OH"},"type":"Feature","geometry":{"type":"Point","coordinates":[-84.311414,39.86202]}},{"properties":{"city":"KALAMAZOO","zip":"49009","geo_score":1.0,"id":"a6wig3xox6fd","geo_precision":"range","address":"6649 W MAIN ST","state":"MI"},"type":"Feature","geometry":{"type":"Point","coordinates":[-85.679397,42.295778]}},{"properties":{"city":"FORT WRIGHT","zip":"41011","geo_score":0.922,"id":"a6wig4chwk7b","geo_precision":"range","address":"1825 DIXIE HWY","state":"KY"},"type":"Feature","geometry":{"type":"Point","coordinates":[-84.540347,39.060914]}},{"properties":{"city":"LOWELL","zip":"49331","geo_score":1.0,"id":"a6wig3zv8l01","geo_precision":"range","address":"11980 FULTON ST E","state":"MI"},"type":"Feature","geometry":{"type":"Point","coordinates":[-85.378074,42.930498]}},{"properties":{"city":"TRAVERSE CITY","zip":"49686","geo_score":0.947,"id":"a6wig4b8kiad","geo_precision":"range","address":"975 W SOUTH AIRPORT RD","state":"MI"},"type":"Feature","geometry":{"type":"Point","coordinates":[-85.594204,44.733315]}},{"properties":{"city":"LAPEER","zip":"48446","geo_score":0.919,"id":"a6wig3zt6y08","geo_precision":"range","address":"571 S MAIN ST","state":"MI"},"type":"Feature","geometry":{"type":"Point","coordinates":[-83.320133,43.043014]}},{"properties":{"city":"COLUMBUS","zip":"43240","geo_score":1.0,"id":"a6wig45zx8ql","geo_precision":"range","address":"1040 POLARIS PARKWAY","state":"OH"},"type":"Feature","geometry":{"type":"Point","coordinates":[-82.993163,40.148181]}},{"properties":{"city":"COVINGTON","zip":"41015","geo_score":0.902,"id":"a6wig40gbt9y","geo_precision":"range","address":"4299 WINSTON AVE","state":"KY"},"type":"Feature","geometry":{"type":"Point","coordinates":[-84.506505,39.041419]}},{"properties":{"city":"EASTLAKE","zip":"44095","geo_score":0.941,"id":"a6wig49g1l8g","geo_precision":"range","address":"35279 VINE STREET","state":"OH"},"type":"Feature","geometry":{"type":"Point","coordinates":[-81.437117,41.642568]}},{"properties":{"city":"LIBERTY TWP.","zip":"45044","geo_score":0.912,"id":"a6wig3zyz2fb","geo_precision":"range","address":"6330 CINCINNATI DAYTON RD.","state":"OH"},"type":"Feature","geometry":{"type":"Point","coordinates":[-84.370985,39.390665]}}],"is_temporal":false,"author":{"url":"","metadata":"","contact_name":"","contact_address":"","source":"","contact_phone":""},"source":"","pagination":{"sort":null,"start":0,"total":713,"limit":1000000},"state":"complete","tags":"","published":"2014-08-13T05:23:10-04:00","id":105430}