{"type":"FeatureCollection","data_type":"Dataset","url_type":null,"permissions":[{"permissions":{"download":true,"view":true},"group_id":"everyone"}],"classification":null,"title":"table export","count":600,"stream_id":105642,"contributor":{"url":"http://geocommons.com/users/24737","name":"GRAEMEKING"},"data_attributes":null,"calculation_params":null,"icon_link":null,"link":"http://geocommons.com/overlays/105642.json","extent":[-170.605,-14.275,-65.9746,64.6441],"geometry_types":["point"],"unique_name":null,"name":"table export","feature_count":600,"description":"","next_feature":null,"is_raster":false,"short_classification":"Y","stats":{"volunteers":{"max":1998,"mean":47.8733333333333,"variance":15026.5749137451,"stdev":122.582930760139,"min":0,"median":19},"dollars":{"max":5861929.0,"mean":407474.276316666,"variance":391004539014.512,"stdev":625303.557493888,"min":2550.0,"median":213049.51},"programs":{"max":30,"mean":2.97333333333333,"variance":13.4350139120756,"stdev":3.66538045938966,"min":1,"median":1}},"features":[{"properties":{"city":"Anchorage","volunteers":30,"geo_score":0.857,"dollars":266340.0,"programs":3,"id":"a6fl9n3afuvi","geo_precision":"city","recovery_id":"ALL","state":"AK"},"type":"Feature","geometry":{"type":"Point","coordinates":[-149.900278,61.218056]}},{"properties":{"city":"Sitka","volunteers":5,"geo_score":0.857,"dollars":56551.0,"programs":1,"id":"a6fl9n6l2fnq","geo_precision":"city","recovery_id":"ALL","state":"AK"},"type":"Feature","geometry":{"type":"Point","coordinates":[-135.318348,57.080818]}},{"properties":{"city":"Anchorage","volunteers":13,"geo_score":0.857,"dollars":228840.0,"programs":1,"id":"a6fl9nbcma5v","geo_precision":"city","recovery_id":"STATE_NATIONAL","state":"AK"},"type":"Feature","geometry":{"type":"Point","coordinates":[-149.900278,61.218056]}},{"properties":{"city":"Sitka","volunteers":5,"geo_score":0.857,"dollars":56551.0,"programs":1,"id":"a6fl9n17ezvg","geo_precision":"city","recovery_id":"STATE_NATIONAL","state":"AK"},"type":"Feature","geometry":{"type":"Point","coordinates":[-135.318348,57.080818]}},{"properties":{"city":"Anchorage","volunteers":17,"geo_score":0.857,"dollars":301718.59,"programs":2,"id":"a6fl9n0pfv9o","geo_precision":"city","recovery_id":"VISTA","state":"AK"},"type":"Feature","geometry":{"type":"Point","coordinates":[-149.900278,61.218056]}},{"properties":{"city":"Fairbanks","volunteers":4,"geo_score":0.857,"dollars":62169.08,"programs":2,"id":"a6fl9n3c7dz0","geo_precision":"city","recovery_id":"VISTA","state":"AK"},"type":"Feature","geometry":{"type":"Point","coordinates":[-147.522052,64.644047]}},{"properties":{"city":"Juneau","volunteers":1,"geo_score":0.857,"dollars":15542.27,"programs":1,"id":"a6fl9mz0se04","geo_precision":"city","recovery_id":"VISTA","state":"AK"},"type":"Feature","geometry":{"type":"Point","coordinates":[-134.523946,58.373561]}},{"properties":{"city":"Selma","volunteers":17,"geo_score":0.771,"dollars":151906.0,"programs":1,"id":"a6fl9n8aaeyu","geo_precision":"city","recovery_id":"ALL","state":"AL"},"type":"Feature","geometry":{"type":"Point","coordinates":[-87.114735,34.938974]}},{"properties":{"city":"Greenville","volunteers":10,"geo_score":0.857,"dollars":129529.0,"programs":1,"id":"a6fl9nd7clek","geo_precision":"city","recovery_id":"ALL","state":"AL"},"type":"Feature","geometry":{"type":"Point","coordinates":[-86.596233,31.796729]}},{"properties":{"city":"Opelika","volunteers":5,"geo_score":0.857,"dollars":117696.0,"programs":1,"id":"a6fl9n9czwfq","geo_precision":"city","recovery_id":"ALL","state":"AL"},"type":"Feature","geometry":{"type":"Point","coordinates":[-85.392878,32.621147]}},{"properties":{"city":"Birmingham","volunteers":15,"geo_score":0.857,"dollars":24000.0,"programs":3,"id":"a6fl9ncp263c","geo_precision":"city","recovery_id":"ALL","state":"AL"},"type":"Feature","geometry":{"type":"Point","coordinates":[-86.80249,33.520661]}},{"properties":{"city":"OTHERS","volunteers":10,"geo_score":0.0,"dollars":18000.0,"programs":2,"id":"a6fl9n8encah","geo_precision":"unmatched","recovery_id":"ALL","state":"AL"},"type":"Feature","geometry":null},{"properties":{"city":"Selma","volunteers":17,"geo_score":0.771,"dollars":151906.0,"programs":1,"id":"a6fl9n7rv01u","geo_precision":"city","recovery_id":"STATE_NATIONAL","state":"AL"},"type":"Feature","geometry":{"type":"Point","coordinates":[-87.114735,34.938974]}},{"properties":{"city":"Greenville","volunteers":10,"geo_score":0.857,"dollars":129529.0,"programs":1,"id":"a6fl9mzc571d","geo_precision":"city","recovery_id":"STATE_NATIONAL","state":"AL"},"type":"Feature","geometry":{"type":"Point","coordinates":[-86.596233,31.796729]}},{"properties":{"city":"Opelika","volunteers":5,"geo_score":0.857,"dollars":117696.0,"programs":1,"id":"a6fl9n4xcktv","geo_precision":"city","recovery_id":"STATE_NATIONAL","state":"AL"},"type":"Feature","geometry":{"type":"Point","coordinates":[-85.392878,32.621147]}},{"properties":{"city":"Birmingham","volunteers":15,"geo_score":0.857,"dollars":257134.05,"programs":3,"id":"a6fl9n828f4i","geo_precision":"city","recovery_id":"VISTA","state":"AL"},"type":"Feature","geometry":{"type":"Point","coordinates":[-86.80249,33.520661]}},{"properties":{"city":"Mobile","volunteers":7,"geo_score":0.857,"dollars":120795.89,"programs":1,"id":"a6fl9n16pwss","geo_precision":"city","recovery_id":"VISTA","state":"AL"},"type":"Feature","geometry":{"type":"Point","coordinates":[-88.043054,30.694357]}},{"properties":{"city":"Livingston","volunteers":5,"geo_score":0.857,"dollars":77711.35,"programs":1,"id":"a6fl9n8nqd0v","geo_precision":"city","recovery_id":"VISTA","state":"AL"},"type":"Feature","geometry":{"type":"Point","coordinates":[-88.133322,32.571432]}},{"properties":{"city":"Montgomery","volunteers":3,"geo_score":0.857,"dollars":52626.81,"programs":1,"id":"a6fl9n277rb0","geo_precision":"city","recovery_id":"VISTA","state":"AL"},"type":"Feature","geometry":{"type":"Point","coordinates":[-86.299969,32.366805]}},{"properties":{"city":"OTHERS","volunteers":2,"geo_score":0.0,"dollars":31084.54,"programs":1,"id":"a6fl9nc9ggku","geo_precision":"unmatched","recovery_id":"VISTA","state":"AL"},"type":"Feature","geometry":null},{"properties":{"city":"West Helena","volunteers":55,"geo_score":0.8,"dollars":622652.0,"programs":2,"id":"a6fl9mzaaevq","geo_precision":"city","recovery_id":"ALL","state":"AR"},"type":"Feature","geometry":{"type":"Point","coordinates":[-90.751249,34.45192]}},{"properties":{"city":"Little Rock","volunteers":85,"geo_score":0.857,"dollars":206563.0,"programs":9,"id":"a6fl9n40m9is","geo_precision":"city","recovery_id":"ALL","state":"AR"},"type":"Feature","geometry":{"type":"Point","coordinates":[-92.289595,34.746481]}},{"properties":{"city":"Morrilton","volunteers":5,"geo_score":0.857,"dollars":65500.0,"programs":1,"id":"a6fl9mz9b5b3","geo_precision":"city","recovery_id":"ALL","state":"AR"},"type":"Feature","geometry":{"type":"Point","coordinates":[-92.817379,35.169237]}},{"properties":{"city":"West Helena","volunteers":44,"geo_score":0.8,"dollars":622652.0,"programs":1,"id":"a6fl9ndgvtoa","geo_precision":"city","recovery_id":"STATE_NATIONAL","state":"AR"},"type":"Feature","geometry":{"type":"Point","coordinates":[-90.751249,34.45192]}},{"properties":{"city":"Little Rock","volunteers":21,"geo_score":0.857,"dollars":206563.0,"programs":3,"id":"a6fl9n24gzjn","geo_precision":"city","recovery_id":"STATE_NATIONAL","state":"AR"},"type":"Feature","geometry":{"type":"Point","coordinates":[-92.289595,34.746481]}},{"properties":{"city":"Morrilton","volunteers":5,"geo_score":0.857,"dollars":65500.0,"programs":1,"id":"a6fl9n5t71pe","geo_precision":"city","recovery_id":"STATE_NATIONAL","state":"AR"},"type":"Feature","geometry":{"type":"Point","coordinates":[-92.817379,35.169237]}},{"properties":{"city":"Little Rock","volunteers":64,"geo_score":0.857,"dollars":778004.64,"programs":6,"id":"a6fl9n8t0y1x","geo_precision":"city","recovery_id":"VISTA","state":"AR"},"type":"Feature","geometry":{"type":"Point","coordinates":[-92.289595,34.746481]}},{"properties":{"city":"OTHERS","volunteers":36,"geo_score":0.0,"dollars":356364.87,"programs":10,"id":"a6fl9n901s6w","geo_precision":"unmatched","recovery_id":"VISTA","state":"AR"},"type":"Feature","geometry":null},{"properties":{"city":"Harrison","volunteers":19,"geo_score":0.857,"dollars":295303.13,"programs":1,"id":"a6fl9nc1j77z","geo_precision":"city","recovery_id":"VISTA","state":"AR"},"type":"Feature","geometry":{"type":"Point","coordinates":[-93.092861,36.295086]}},{"properties":{"city":"Texarkana","volunteers":11,"geo_score":0.857,"dollars":170964.97,"programs":1,"id":"a6fl9ne1jswy","geo_precision":"city","recovery_id":"VISTA","state":"AR"},"type":"Feature","geometry":{"type":"Point","coordinates":[-93.876485,33.431043]}},{"properties":{"city":"West Helena","volunteers":11,"geo_score":0.8,"dollars":103246.02,"programs":1,"id":"a6fl9n8ixxh5","geo_precision":"city","recovery_id":"VISTA","state":"AR"},"type":"Feature","geometry":{"type":"Point","coordinates":[-90.751249,34.45192]}},{"properties":{"city":"Pago Pago","volunteers":37,"geo_score":0.786,"dollars":424459.0,"programs":5,"id":"a6fl9n0zdw8s","geo_precision":"city","recovery_id":"ALL","state":"AS"},"type":"Feature","geometry":{"type":"Point","coordinates":[-170.605278,-14.275]}},{"properties":{"city":"Pago Pago","volunteers":37,"geo_score":0.786,"dollars":424459.0,"programs":5,"id":"a6fl9nbqdlny","geo_precision":"city","recovery_id":"STATE_NATIONAL","state":"AS"},"type":"Feature","geometry":{"type":"Point","coordinates":[-170.605278,-14.275]}},{"properties":{"city":"Flagstaff","volunteers":91,"geo_score":0.857,"dollars":737827.0,"programs":3,"id":"a6fl9nbf6rf1","geo_precision":"city","recovery_id":"ALL","state":"AZ"},"type":"Feature","geometry":{"type":"Point","coordinates":[-111.597853,35.932116]}},{"properties":{"city":"Tucson","volunteers":47,"geo_score":0.857,"dollars":342650.0,"programs":4,"id":"a6fl9narawjx","geo_precision":"city","recovery_id":"ALL","state":"AZ"},"type":"Feature","geometry":{"type":"Point","coordinates":[-110.926479,32.221743]}},{"properties":{"city":"Prescott Valley","volunteers":17,"geo_score":0.745,"dollars":339950.0,"programs":1,"id":"a6fl9mzbl97z","geo_precision":"city","recovery_id":"ALL","state":"AZ"},"type":"Feature","geometry":{"type":"Point","coordinates":[-110.705269,32.002669]}},{"properties":{"city":"Guadalupe","volunteers":0,"geo_score":0.857,"dollars":75000.0,"programs":1,"id":"a6fl9ned04sp","geo_precision":"city","recovery_id":"ALL","state":"AZ"},"type":"Feature","geometry":{"type":"Point","coordinates":[-111.962922,33.37088]}},{"properties":{"city":"OTHERS","volunteers":60,"geo_score":0.0,"dollars":26400.0,"programs":1,"id":"a6fl9ncif1qu","geo_precision":"unmatched","recovery_id":"ALL","state":"AZ"},"type":"Feature","geometry":null},{"properties":{"city":"Flagstaff","volunteers":54,"geo_score":0.857,"dollars":400818.0,"programs":1,"id":"a6fl9mzoptet","geo_precision":"city","recovery_id":"STATE_NATIONAL","state":"AZ"},"type":"Feature","geometry":{"type":"Point","coordinates":[-111.597853,35.932116]}},{"properties":{"city":"Flagstaff","volunteers":37,"geo_score":0.857,"dollars":337009.0,"programs":2,"id":"a6fl9n6n3jj6","geo_precision":"city","recovery_id":"STATE_NATIONAL","state":"AZ"},"type":"Feature","geometry":{"type":"Point","coordinates":[-111.597853,35.932116]}},{"properties":{"city":"Tucson","volunteers":30,"geo_score":0.857,"dollars":253543.0,"programs":3,"id":"a6fl9mzv4z1e","geo_precision":"city","recovery_id":"STATE_NATIONAL","state":"AZ"},"type":"Feature","geometry":{"type":"Point","coordinates":[-110.926479,32.221743]}},{"properties":{"city":"Guadalupe","volunteers":0,"geo_score":0.857,"dollars":75000.0,"programs":1,"id":"a6fl9n2v9dyn","geo_precision":"city","recovery_id":"STATE_NATIONAL","state":"AZ"},"type":"Feature","geometry":{"type":"Point","coordinates":[-111.962922,33.37088]}},{"properties":{"city":"OTHERS","volunteers":60,"geo_score":0.0,"dollars":26400.0,"programs":1,"id":"a6fl9n68xpfe","geo_precision":"unmatched","recovery_id":"STATE_NATIONAL","state":"AZ"},"type":"Feature","geometry":null},{"properties":{"city":"Prescott Valley","volunteers":17,"geo_score":0.745,"dollars":604168.59,"programs":1,"id":"a6fl9n635831","geo_precision":"city","recovery_id":"VISTA","state":"AZ"},"type":"Feature","geometry":{"type":"Point","coordinates":[-110.705269,32.002669]}},{"properties":{"city":"Tucson","volunteers":17,"geo_score":0.857,"dollars":353325.59,"programs":1,"id":"a6fl9ncp3qgr","geo_precision":"city","recovery_id":"VISTA","state":"AZ"},"type":"Feature","geometry":{"type":"Point","coordinates":[-110.926479,32.221743]}},{"properties":{"city":"Mesa","volunteers":57,"geo_score":0.857,"dollars":344157.79,"programs":1,"id":"a6fl9nehj6ao","geo_precision":"city","recovery_id":"VISTA","state":"AZ"},"type":"Feature","geometry":{"type":"Point","coordinates":[-111.82264,33.422269]}},{"properties":{"city":"Phoenix","volunteers":15,"geo_score":0.857,"dollars":206046.47,"programs":3,"id":"a6fl9n4axlpk","geo_precision":"city","recovery_id":"VISTA","state":"AZ"},"type":"Feature","geometry":{"type":"Point","coordinates":[-112.074037,33.448377]}},{"properties":{"city":"OTHERS","volunteers":649,"geo_score":0.0,"dollars":4212396.0,"programs":25,"id":"a6fl9nd9btb6","geo_precision":"unmatched","recovery_id":"ALL","state":"CA"},"type":"Feature","geometry":null},{"properties":{"city":"Napa","volunteers":75,"geo_score":0.857,"dollars":1657168.0,"programs":1,"id":"a6fl9n4flv9f","geo_precision":"city","recovery_id":"ALL","state":"CA"},"type":"Feature","geometry":{"type":"Point","coordinates":[-122.311921,38.516158]}},{"properties":{"city":"Sacramento","volunteers":157,"geo_score":0.857,"dollars":1652000.0,"programs":7,"id":"a6fl9n66py0a","geo_precision":"city","recovery_id":"ALL","state":"CA"},"type":"Feature","geometry":{"type":"Point","coordinates":[-121.4944,38.581572]}},{"properties":{"city":"Los Angeles","volunteers":34,"geo_score":0.857,"dollars":1363061.0,"programs":3,"id":"a6fl9n2rmf41","geo_precision":"city","recovery_id":"ALL","state":"CA"},"type":"Feature","geometry":{"type":"Point","coordinates":[-118.243685,34.052234]}},{"properties":{"city":"North Highlands","volunteers":50,"geo_score":0.776,"dollars":1326183.0,"programs":5,"id":"a6fl9n5obqas","geo_precision":"city","recovery_id":"ALL","state":"CA"},"type":"Feature","geometry":{"type":"Point","coordinates":[-118.185625,33.860016]}},{"properties":{"city":"OTHERS","volunteers":540,"geo_score":0.0,"dollars":4148296.0,"programs":15,"id":"a6fl9nbyboby","geo_precision":"unmatched","recovery_id":"STATE_NATIONAL","state":"CA"},"type":"Feature","geometry":null},{"properties":{"city":"Napa","volunteers":75,"geo_score":0.857,"dollars":1657168.0,"programs":1,"id":"a6fl9na2ezpa","geo_precision":"city","recovery_id":"STATE_NATIONAL","state":"CA"},"type":"Feature","geometry":{"type":"Point","coordinates":[-122.311921,38.516158]}},{"properties":{"city":"Sacramento","volunteers":126,"geo_score":0.857,"dollars":1552000.0,"programs":1,"id":"a6fl9n539eo0","geo_precision":"city","recovery_id":"STATE_NATIONAL","state":"CA"},"type":"Feature","geometry":{"type":"Point","coordinates":[-121.4944,38.581572]}},{"properties":{"city":"Los Angeles","volunteers":32,"geo_score":0.857,"dollars":1363061.0,"programs":2,"id":"a6fl9n40xq1f","geo_precision":"city","recovery_id":"STATE_NATIONAL","state":"CA"},"type":"Feature","geometry":{"type":"Point","coordinates":[-118.243685,34.052234]}},{"properties":{"city":"North Highlands","volunteers":50,"geo_score":0.776,"dollars":1274183.0,"programs":4,"id":"a6fl9mz6k8hf","geo_precision":"city","recovery_id":"STATE_NATIONAL","state":"CA"},"type":"Feature","geometry":{"type":"Point","coordinates":[-118.185625,33.860016]}},{"properties":{"city":"OTHERS","volunteers":99,"geo_score":0.0,"dollars":1290137.56,"programs":15,"id":"a6fl9naaap95","geo_precision":"unmatched","recovery_id":"VISTA","state":"CA"},"type":"Feature","geometry":null},{"properties":{"city":"Eureka","volunteers":44,"geo_score":0.857,"dollars":708859.88,"programs":1,"id":"a6fl9n7ozwas","geo_precision":"city","recovery_id":"VISTA","state":"CA"},"type":"Feature","geometry":{"type":"Point","coordinates":[-124.025773,40.646324]}},{"properties":{"city":"Sacramento","volunteers":31,"geo_score":0.857,"dollars":554722.79,"programs":6,"id":"a6fl9n5px7xq","geo_precision":"city","recovery_id":"VISTA","state":"CA"},"type":"Feature","geometry":{"type":"Point","coordinates":[-121.4944,38.581572]}},{"properties":{"city":"San Francisco","volunteers":16,"geo_score":0.857,"dollars":248676.32,"programs":4,"id":"a6fl9n190yri","geo_precision":"city","recovery_id":"VISTA","state":"CA"},"type":"Feature","geometry":{"type":"Point","coordinates":[-122.419416,37.77493]}},{"properties":{"city":"Irvine","volunteers":13,"geo_score":0.857,"dollars":230189.51,"programs":1,"id":"a6fl9n69k0x8","geo_precision":"city","recovery_id":"VISTA","state":"CA"},"type":"Feature","geometry":{"type":"Point","coordinates":[-117.823111,33.669465]}},{"properties":{"city":"Denver","volunteers":475,"geo_score":0.857,"dollars":1113454.0,"programs":7,"id":"a6fl9n5190th","geo_precision":"city","recovery_id":"ALL","state":"CO"},"type":"Feature","geometry":{"type":"Point","coordinates":[-104.984703,39.739154]}},{"properties":{"city":"Greeley","volunteers":13,"geo_score":0.857,"dollars":100800.0,"programs":1,"id":"a6fl9n59sd9e","geo_precision":"city","recovery_id":"ALL","state":"CO"},"type":"Feature","geometry":{"type":"Point","coordinates":[-104.680631,40.384991]}},{"properties":{"city":"Steamboat Springs","volunteers":6,"geo_score":0.732,"dollars":78600.0,"programs":1,"id":"a6fl9n6wdrwk","geo_precision":"city","recovery_id":"ALL","state":"CO"},"type":"Feature","geometry":{"type":"Point","coordinates":[-102.677359,37.371522]}},{"properties":{"city":"Grand Junction","volunteers":5,"geo_score":0.857,"dollars":65500.0,"programs":1,"id":"a6fl9naxstnh","geo_precision":"city","recovery_id":"ALL","state":"CO"},"type":"Feature","geometry":{"type":"Point","coordinates":[-108.550649,39.063871]}},{"properties":{"city":"OTHERS","volunteers":18,"geo_score":0.0,"dollars":23550.0,"programs":2,"id":"a6fl9n9arcw3","geo_precision":"unmatched","recovery_id":"ALL","state":"CO"},"type":"Feature","geometry":null},{"properties":{"city":"Denver","volunteers":434,"geo_score":0.857,"dollars":1099454.0,"programs":3,"id":"a6fl9n2a20a7","geo_precision":"city","recovery_id":"STATE_NATIONAL","state":"CO"},"type":"Feature","geometry":{"type":"Point","coordinates":[-104.984703,39.739154]}},{"properties":{"city":"Greeley","volunteers":13,"geo_score":0.857,"dollars":100800.0,"programs":1,"id":"a6fl9nf711g9","geo_precision":"city","recovery_id":"STATE_NATIONAL","state":"CO"},"type":"Feature","geometry":{"type":"Point","coordinates":[-104.680631,40.384991]}},{"properties":{"city":"Steamboat Springs","volunteers":6,"geo_score":0.732,"dollars":78600.0,"programs":1,"id":"a6fl9n5w26wk","geo_precision":"city","recovery_id":"STATE_NATIONAL","state":"CO"},"type":"Feature","geometry":{"type":"Point","coordinates":[-102.677359,37.371522]}},{"properties":{"city":"Grand Junction","volunteers":5,"geo_score":0.857,"dollars":65500.0,"programs":1,"id":"a6fl9ndjftwm","geo_precision":"city","recovery_id":"STATE_NATIONAL","state":"CO"},"type":"Feature","geometry":{"type":"Point","coordinates":[-108.550649,39.063871]}},{"properties":{"city":"OTHERS","volunteers":5,"geo_score":0.0,"dollars":2550.0,"programs":1,"id":"a6fl9nffeg7f","geo_precision":"unmatched","recovery_id":"STATE_NATIONAL","state":"CO"},"type":"Feature","geometry":null},{"properties":{"city":"Denver","volunteers":41,"geo_score":0.857,"dollars":393901.06,"programs":4,"id":"a6fl9ndyasf8","geo_precision":"city","recovery_id":"VISTA","state":"CO"},"type":"Feature","geometry":{"type":"Point","coordinates":[-104.984703,39.739154]}},{"properties":{"city":"Arvada","volunteers":13,"geo_score":0.857,"dollars":223049.51,"programs":1,"id":"a6fl9nbgu21w","geo_precision":"city","recovery_id":"VISTA","state":"CO"},"type":"Feature","geometry":{"type":"Point","coordinates":[-105.223945,39.522014]}},{"properties":{"city":"Durango","volunteers":34,"geo_score":0.857,"dollars":216930.01,"programs":1,"id":"a6fl9n8tt4tr","geo_precision":"city","recovery_id":"VISTA","state":"CO"},"type":"Feature","geometry":{"type":"Point","coordinates":[-107.868991,37.275907]}},{"properties":{"city":"OTHERS","volunteers":13,"geo_score":0.0,"dollars":134330.56,"programs":3,"id":"a6fl9ncuh97j","geo_precision":"unmatched","recovery_id":"VISTA","state":"CO"},"type":"Feature","geometry":null},{"properties":{"city":"Westminster","volunteers":8,"geo_score":0.857,"dollars":124338.16,"programs":2,"id":"a6fl9ncvl7ba","geo_precision":"city","recovery_id":"VISTA","state":"CO"},"type":"Feature","geometry":{"type":"Point","coordinates":[-105.034487,39.872535]}},{"properties":{"city":"Hartford","volunteers":24,"geo_score":0.857,"dollars":325090.0,"programs":1,"id":"a6fl9n8c5wk0","geo_precision":"city","recovery_id":"ALL","state":"CT"},"type":"Feature","geometry":{"type":"Point","coordinates":[-72.685093,41.763711]}},{"properties":{"city":"Hartford","volunteers":24,"geo_score":0.857,"dollars":325090.0,"programs":1,"id":"a6fl9n2jxgfs","geo_precision":"city","recovery_id":"STATE_NATIONAL","state":"CT"},"type":"Feature","geometry":{"type":"Point","coordinates":[-72.685093,41.763711]}},{"properties":{"city":"New Haven","volunteers":12,"geo_score":0.857,"dollars":105244.5,"programs":2,"id":"a6fl9n8u0pau","geo_precision":"city","recovery_id":"VISTA","state":"CT"},"type":"Feature","geometry":{"type":"Point","coordinates":[-72.928158,41.308153]}},{"properties":{"city":"Washington","volunteers":602,"geo_score":0.857,"dollars":3656648.0,"programs":19,"id":"a6fl9nbuh56f","geo_precision":"city","recovery_id":"ALL","state":"DC"},"type":"Feature","geometry":{"type":"Point","coordinates":[-77.036366,38.895112]}},{"properties":{"city":"Washington","volunteers":561,"geo_score":0.857,"dollars":3072369.0,"programs":6,"id":"a6fl9n38q5hq","geo_precision":"city","recovery_id":"STATE_NATIONAL","state":"DC"},"type":"Feature","geometry":{"type":"Point","coordinates":[-77.036366,38.895112]}},{"properties":{"city":"Washington","volunteers":7,"geo_score":0.857,"dollars":282772.0,"programs":3,"id":"a6fl9n7whb59","geo_precision":"city","recovery_id":"STATE_NATIONAL","state":"DC"},"type":"Feature","geometry":{"type":"Point","coordinates":[-77.036366,38.895112]}},{"properties":{"city":"Washington","volunteers":34,"geo_score":0.857,"dollars":802856.6,"programs":10,"id":"a6fl9nc9zfdo","geo_precision":"city","recovery_id":"VISTA","state":"DC"},"type":"Feature","geometry":{"type":"Point","coordinates":[-77.036366,38.895112]}},{"properties":{"city":"Dover","volunteers":43,"geo_score":0.857,"dollars":153895.0,"programs":2,"id":"a6fl9n7jl7s3","geo_precision":"city","recovery_id":"ALL","state":"DE"},"type":"Feature","geometry":{"type":"Point","coordinates":[-75.49549,39.156376]}},{"properties":{"city":"Georgetown","volunteers":6,"geo_score":0.857,"dollars":84388.0,"programs":1,"id":"a6fl9nd08snh","geo_precision":"city","recovery_id":"ALL","state":"DE"},"type":"Feature","geometry":{"type":"Point","coordinates":[-75.334263,38.632891]}},{"properties":{"city":"Dover","volunteers":42,"geo_score":0.857,"dollars":153895.0,"programs":1,"id":"a6fl9n0y8hc6","geo_precision":"city","recovery_id":"STATE_NATIONAL","state":"DE"},"type":"Feature","geometry":{"type":"Point","coordinates":[-75.49549,39.156376]}},{"properties":{"city":"Georgetown","volunteers":6,"geo_score":0.857,"dollars":84388.0,"programs":1,"id":"a6fl9n3k6hql","geo_precision":"city","recovery_id":"STATE_NATIONAL","state":"DE"},"type":"Feature","geometry":{"type":"Point","coordinates":[-75.334263,38.632891]}},{"properties":{"city":"Wilmington","volunteers":5,"geo_score":0.857,"dollars":77711.35,"programs":1,"id":"a6fl9n7b5p76","geo_precision":"city","recovery_id":"VISTA","state":"DE"},"type":"Feature","geometry":{"type":"Point","coordinates":[-75.546589,39.745947]}},{"properties":{"city":"Dover","volunteers":1,"geo_score":0.857,"dollars":15542.27,"programs":1,"id":"a6fl9n7wxmip","geo_precision":"city","recovery_id":"VISTA","state":"DE"},"type":"Feature","geometry":{"type":"Point","coordinates":[-75.49549,39.156376]}},{"properties":{"city":"OTHERS","volunteers":80,"geo_score":0.0,"dollars":812368.0,"programs":10,"id":"a6fl9n32j2vr","geo_precision":"unmatched","recovery_id":"ALL","state":"FL"},"type":"Feature","geometry":null},{"properties":{"city":"Miami","volunteers":51,"geo_score":0.857,"dollars":716025.0,"programs":6,"id":"a6fl9nb74qqw","geo_precision":"city","recovery_id":"ALL","state":"FL"},"type":"Feature","geometry":{"type":"Point","coordinates":[-80.193659,25.774266]}},{"properties":{"city":"Jacksonville","volunteers":21,"geo_score":0.857,"dollars":493618.0,"programs":2,"id":"a6fl9mzvo34f","geo_precision":"city","recovery_id":"ALL","state":"FL"},"type":"Feature","geometry":{"type":"Point","coordinates":[-81.655651,30.332184]}},{"properties":{"city":"Tallahassee","volunteers":92,"geo_score":0.857,"dollars":323066.0,"programs":3,"id":"a6fl9nbp6tbv","geo_precision":"city","recovery_id":"ALL","state":"FL"},"type":"Feature","geometry":{"type":"Point","coordinates":[-84.280733,30.438256]}},{"properties":{"city":"Bonita Springs","volunteers":15,"geo_score":0.736,"dollars":213739.0,"programs":1,"id":"a6fl9n6w814s","geo_precision":"city","recovery_id":"ALL","state":"FL"},"type":"Feature","geometry":{"type":"Point","coordinates":[-85.532148,30.391863]}},{"properties":{"city":"OTHERS","volunteers":51,"geo_score":0.0,"dollars":776868.0,"programs":7,"id":"a6fl9nbjjums","geo_precision":"unmatched","recovery_id":"STATE_NATIONAL","state":"FL"},"type":"Feature","geometry":null},{"properties":{"city":"Miami","volunteers":40,"geo_score":0.857,"dollars":716025.0,"programs":4,"id":"a6fl9n3bwe39","geo_precision":"city","recovery_id":"STATE_NATIONAL","state":"FL"},"type":"Feature","geometry":{"type":"Point","coordinates":[-80.193659,25.774266]}},{"properties":{"city":"Jacksonville","volunteers":20,"geo_score":0.857,"dollars":493618.0,"programs":1,"id":"a6fl9navq350","geo_precision":"city","recovery_id":"STATE_NATIONAL","state":"FL"},"type":"Feature","geometry":{"type":"Point","coordinates":[-81.655651,30.332184]}},{"properties":{"city":"Tallahassee","volunteers":18,"geo_score":0.857,"dollars":285066.0,"programs":1,"id":"a6fl9n6h8v3s","geo_precision":"city","recovery_id":"STATE_NATIONAL","state":"FL"},"type":"Feature","geometry":{"type":"Point","coordinates":[-84.280733,30.438256]}},{"properties":{"city":"Bonita Springs","volunteers":15,"geo_score":0.736,"dollars":213739.0,"programs":1,"id":"a6fl9nf43si8","geo_precision":"city","recovery_id":"STATE_NATIONAL","state":"FL"},"type":"Feature","geometry":{"type":"Point","coordinates":[-85.532148,30.391863]}},{"properties":{"city":"Tallahassee","volunteers":74,"geo_score":0.857,"dollars":727639.12,"programs":2,"id":"a6fl9na8g9yb","geo_precision":"city","recovery_id":"VISTA","state":"FL"},"type":"Feature","geometry":{"type":"Point","coordinates":[-84.280733,30.438256]}},{"properties":{"city":"Sarasota","volunteers":18,"geo_score":0.857,"dollars":300760.86,"programs":1,"id":"a6fl9n6vzozg","geo_precision":"city","recovery_id":"VISTA","state":"FL"},"type":"Feature","geometry":{"type":"Point","coordinates":[-82.530653,27.336435]}},{"properties":{"city":"OTHERS","volunteers":21,"geo_score":0.0,"dollars":205993.56,"programs":7,"id":"a6fl9nb3jvbp","geo_precision":"unmatched","recovery_id":"VISTA","state":"FL"},"type":"Feature","geometry":null},{"properties":{"city":"Pensacola","volunteers":9,"geo_score":0.857,"dollars":152880.43,"programs":1,"id":"a6fl9n0z4aua","geo_precision":"city","recovery_id":"VISTA","state":"FL"},"type":"Feature","geometry":{"type":"Point","coordinates":[-87.216915,30.421309]}},{"properties":{"city":"Orlando","volunteers":6,"geo_score":0.857,"dollars":93253.62,"programs":2,"id":"a6fl9nf7970s","geo_precision":"city","recovery_id":"VISTA","state":"FL"},"type":"Feature","geometry":{"type":"Point","coordinates":[-81.379237,28.538336]}},{"properties":{"city":"Atlanta","volunteers":373,"geo_score":0.857,"dollars":2839005.0,"programs":16,"id":"a6fl9mz90m3f","geo_precision":"city","recovery_id":"ALL","state":"GA"},"type":"Feature","geometry":{"type":"Point","coordinates":[-84.387982,33.748995]}},{"properties":{"city":"Marietta","volunteers":28,"geo_score":0.857,"dollars":651711.0,"programs":3,"id":"a6fl9na1ayno","geo_precision":"city","recovery_id":"ALL","state":"GA"},"type":"Feature","geometry":{"type":"Point","coordinates":[-84.549933,33.952602]}},{"properties":{"city":"OTHERS","volunteers":49,"geo_score":0.0,"dollars":182930.0,"programs":5,"id":"a6fl9nevkbpy","geo_precision":"unmatched","recovery_id":"ALL","state":"GA"},"type":"Feature","geometry":null},{"properties":{"city":"Douglasville","volunteers":4,"geo_score":0.857,"dollars":101746.0,"programs":1,"id":"a6fl9n808rtp","geo_precision":"city","recovery_id":"ALL","state":"GA"},"type":"Feature","geometry":{"type":"Point","coordinates":[-84.744595,33.68966]}},{"properties":{"city":"Decatur","volunteers":9,"geo_score":0.857,"dollars":90629.0,"programs":2,"id":"a6fl9n9i0zi5","geo_precision":"city","recovery_id":"ALL","state":"GA"},"type":"Feature","geometry":{"type":"Point","coordinates":[-84.291723,33.772554]}},{"properties":{"city":"Atlanta","volunteers":151,"geo_score":0.857,"dollars":1986649.0,"programs":1,"id":"a6fl9n7brvaf","geo_precision":"city","recovery_id":"STATE_NATIONAL","state":"GA"},"type":"Feature","geometry":{"type":"Point","coordinates":[-84.387982,33.748995]}},{"properties":{"city":"Marietta","volunteers":27,"geo_score":0.857,"dollars":651711.0,"programs":2,"id":"a6fl9nffz1aq","geo_precision":"city","recovery_id":"STATE_NATIONAL","state":"GA"},"type":"Feature","geometry":{"type":"Point","coordinates":[-84.549933,33.952602]}},{"properties":{"city":"Atlanta","volunteers":16,"geo_score":0.857,"dollars":624698.0,"programs":4,"id":"a6fl9n53xd6w","geo_precision":"city","recovery_id":"STATE_NATIONAL","state":"GA"},"type":"Feature","geometry":{"type":"Point","coordinates":[-84.387982,33.748995]}},{"properties":{"city":"OTHERS","volunteers":18,"geo_score":0.0,"dollars":254561.0,"programs":3,"id":"a6fl9nbftip6","geo_precision":"unmatched","recovery_id":"STATE_NATIONAL","state":"GA"},"type":"Feature","geometry":null},{"properties":{"city":"Douglasville","volunteers":4,"geo_score":0.857,"dollars":101746.0,"programs":1,"id":"a6fl9n4fkp8s","geo_precision":"city","recovery_id":"STATE_NATIONAL","state":"GA"},"type":"Feature","geometry":{"type":"Point","coordinates":[-84.744595,33.68966]}},{"properties":{"city":"Atlanta","volunteers":206,"geo_score":0.857,"dollars":3144946.03,"programs":11,"id":"a6fl9ned0m61","geo_precision":"city","recovery_id":"VISTA","state":"GA"},"type":"Feature","geometry":{"type":"Point","coordinates":[-84.387982,33.748995]}},{"properties":{"city":"OTHERS","volunteers":23,"geo_score":0.0,"dollars":357472.21,"programs":8,"id":"a6fl9nez5c45","geo_precision":"unmatched","recovery_id":"VISTA","state":"GA"},"type":"Feature","geometry":null},{"properties":{"city":"Augusta","volunteers":21,"geo_score":0.857,"dollars":202949.77,"programs":1,"id":"a6fl9n4zjh95","geo_precision":"city","recovery_id":"VISTA","state":"GA"},"type":"Feature","geometry":{"type":"Point","coordinates":[-81.974838,33.47097]}},{"properties":{"city":"Dalton","volunteers":12,"geo_score":0.821,"dollars":139330.08,"programs":1,"id":"a6fl9n3esja5","geo_precision":"city","recovery_id":"VISTA","state":"GA"},"type":"Feature","geometry":{"type":"Point","coordinates":[-83.863238,33.647336]}},{"properties":{"city":"Savannah","volunteers":8,"geo_score":0.857,"dollars":124338.16,"programs":1,"id":"a6fl9mz0q1q6","geo_precision":"city","recovery_id":"VISTA","state":"GA"},"type":"Feature","geometry":{"type":"Point","coordinates":[-81.099834,32.083541]}},{"properties":{"city":"Manilao","volunteers":33,"geo_score":0.0,"dollars":340113.0,"programs":1,"id":"a6fl9nejli4h","geo_precision":"unmatched","recovery_id":"ALL","state":"GU"},"type":"Feature","geometry":null},{"properties":{"city":"Manilao","volunteers":33,"geo_score":0.0,"dollars":340113.0,"programs":1,"id":"a6fl9nan4h9d","geo_precision":"unmatched","recovery_id":"STATE_NATIONAL","state":"GU"},"type":"Feature","geometry":null},{"properties":{"city":"Honolulu","volunteers":63,"geo_score":0.857,"dollars":1229309.0,"programs":5,"id":"a6fl9n5lo231","geo_precision":"city","recovery_id":"ALL","state":"HI"},"type":"Feature","geometry":{"type":"Point","coordinates":[-157.858333,21.306944]}},{"properties":{"city":"Wailuku","volunteers":13,"geo_score":0.857,"dollars":79965.0,"programs":1,"id":"a6fl9ndbja1k","geo_precision":"city","recovery_id":"ALL","state":"HI"},"type":"Feature","geometry":{"type":"Point","coordinates":[-156.566493,20.901536]}},{"properties":{"city":"Honolulu","volunteers":45,"geo_score":0.857,"dollars":1208309.0,"programs":2,"id":"a6fl9myyujmi","geo_precision":"city","recovery_id":"STATE_NATIONAL","state":"HI"},"type":"Feature","geometry":{"type":"Point","coordinates":[-157.858333,21.306944]}},{"properties":{"city":"Wailuku","volunteers":13,"geo_score":0.857,"dollars":79965.0,"programs":1,"id":"a6fl9nccm079","geo_precision":"city","recovery_id":"STATE_NATIONAL","state":"HI"},"type":"Feature","geometry":{"type":"Point","coordinates":[-156.566493,20.901536]}},{"properties":{"city":"Honolulu","volunteers":18,"geo_score":0.857,"dollars":300760.86,"programs":3,"id":"a6fl9n12t436","geo_precision":"city","recovery_id":"VISTA","state":"HI"},"type":"Feature","geometry":{"type":"Point","coordinates":[-157.858333,21.306944]}},{"properties":{"city":"Hilo","volunteers":2,"geo_score":0.8,"dollars":31084.54,"programs":1,"id":"a6fl9n25bxf0","geo_precision":"city","recovery_id":"VISTA","state":"HI"},"type":"Feature","geometry":{"type":"Point","coordinates":[-156.2275,20.908333]}},{"properties":{"city":"Des Moines","volunteers":225,"geo_score":0.857,"dollars":731686.0,"programs":13,"id":"a6fl9nbrqj31","geo_precision":"city","recovery_id":"ALL","state":"IA"},"type":"Feature","geometry":{"type":"Point","coordinates":[-93.609106,41.600545]}},{"properties":{"city":"Mason City","volunteers":42,"geo_score":0.73,"dollars":328644.0,"programs":2,"id":"a6fl9n93tqkz","geo_precision":"city","recovery_id":"ALL","state":"IA"},"type":"Feature","geometry":{"type":"Point","coordinates":[-92.161281,43.198027]}},{"properties":{"city":"Cedar Rapids","volunteers":74,"geo_score":0.857,"dollars":317651.0,"programs":3,"id":"a6fl9nczjafy","geo_precision":"city","recovery_id":"ALL","state":"IA"},"type":"Feature","geometry":{"type":"Point","coordinates":[-91.644068,42.008333]}},{"properties":{"city":"Dubuque","volunteers":28,"geo_score":0.857,"dollars":186201.0,"programs":1,"id":"a6fl9n6dq57o","geo_precision":"city","recovery_id":"ALL","state":"IA"},"type":"Feature","geometry":{"type":"Point","coordinates":[-90.877135,42.458876]}},{"properties":{"city":"OTHERS","volunteers":21,"geo_score":0.0,"dollars":20000.0,"programs":1,"id":"a6fl9nd58hel","geo_precision":"unmatched","recovery_id":"ALL","state":"IA"},"type":"Feature","geometry":null},{"properties":{"city":"Des Moines","volunteers":177,"geo_score":0.857,"dollars":711686.0,"programs":2,"id":"a6fl9n7x5ley","geo_precision":"city","recovery_id":"STATE_NATIONAL","state":"IA"},"type":"Feature","geometry":{"type":"Point","coordinates":[-93.609106,41.600545]}},{"properties":{"city":"Mason City","volunteers":41,"geo_score":0.73,"dollars":328644.0,"programs":1,"id":"a6fl9n7l1323","geo_precision":"city","recovery_id":"STATE_NATIONAL","state":"IA"},"type":"Feature","geometry":{"type":"Point","coordinates":[-92.161281,43.198027]}},{"properties":{"city":"Cedar Rapids","volunteers":13,"geo_score":0.857,"dollars":188851.0,"programs":1,"id":"a6fl9ne55t9y","geo_precision":"city","recovery_id":"STATE_NATIONAL","state":"IA"},"type":"Feature","geometry":{"type":"Point","coordinates":[-91.644068,42.008333]}},{"properties":{"city":"Dubuque","volunteers":28,"geo_score":0.857,"dollars":186201.0,"programs":1,"id":"a6fl9ncjn36n","geo_precision":"city","recovery_id":"STATE_NATIONAL","state":"IA"},"type":"Feature","geometry":{"type":"Point","coordinates":[-90.877135,42.458876]}},{"properties":{"city":"Cedar Rapids","volunteers":61,"geo_score":0.857,"dollars":1063334.68,"programs":2,"id":"a6fl9n8gdl92","geo_precision":"city","recovery_id":"VISTA","state":"IA"},"type":"Feature","geometry":{"type":"Point","coordinates":[-91.644068,42.008333]}},{"properties":{"city":"Des Moines","volunteers":48,"geo_score":0.857,"dollars":630591.06,"programs":11,"id":"a6fl9n3bffhp","geo_precision":"city","recovery_id":"VISTA","state":"IA"},"type":"Feature","geometry":{"type":"Point","coordinates":[-93.609106,41.600545]}},{"properties":{"city":"Waverly","volunteers":21,"geo_score":0.857,"dollars":210949.77,"programs":1,"id":"a6fl9n0wvhb1","geo_precision":"city","recovery_id":"VISTA","state":"IA"},"type":"Feature","geometry":{"type":"Point","coordinates":[-92.403969,42.774781]}},{"properties":{"city":"OTHERS","volunteers":1,"geo_score":0.0,"dollars":15542.27,"programs":1,"id":"a6fl9n88n4tm","geo_precision":"unmatched","recovery_id":"VISTA","state":"IA"},"type":"Feature","geometry":null},{"properties":{"city":"Council Bluffs","volunteers":1,"geo_score":0.857,"dollars":15542.27,"programs":1,"id":"a6fl9n52zjs6","geo_precision":"city","recovery_id":"VISTA","state":"IA"},"type":"Feature","geometry":{"type":"Point","coordinates":[-95.875086,41.23238]}},{"properties":{"city":"Lewiston","volunteers":71,"geo_score":0.786,"dollars":786000.0,"programs":1,"id":"a6fl9mz88vb8","geo_precision":"city","recovery_id":"ALL","state":"ID"},"type":"Feature","geometry":{"type":"Point","coordinates":[-116.975432,46.38044]}},{"properties":{"city":"Lewiston","volunteers":71,"geo_score":0.786,"dollars":786000.0,"programs":1,"id":"a6fl9n55gd4j","geo_precision":"city","recovery_id":"STATE_NATIONAL","state":"ID"},"type":"Feature","geometry":{"type":"Point","coordinates":[-116.975432,46.38044]}},{"properties":{"city":"Boise","volunteers":20,"geo_score":0.857,"dollars":310845.4,"programs":4,"id":"a6fl9ncq9jgv","geo_precision":"city","recovery_id":"VISTA","state":"ID"},"type":"Feature","geometry":{"type":"Point","coordinates":[-116.203451,43.6135]}},{"properties":{"city":"Garden City","volunteers":4,"geo_score":0.8,"dollars":62169.08,"programs":1,"id":"a6fl9ndfpw7c","geo_precision":"city","recovery_id":"VISTA","state":"ID"},"type":"Feature","geometry":{"type":"Point","coordinates":[-116.190959,43.975724]}},{"properties":{"city":"Chicago","volunteers":205,"geo_score":0.857,"dollars":1864599.0,"programs":22,"id":"a6fl9n7w90za","geo_precision":"city","recovery_id":"ALL","state":"IL"},"type":"Feature","geometry":{"type":"Point","coordinates":[-87.650052,41.850033]}},{"properties":{"city":"OTHERS","volunteers":91,"geo_score":0.0,"dollars":442532.0,"programs":9,"id":"a6fl9n8iksll","geo_precision":"unmatched","recovery_id":"ALL","state":"IL"},"type":"Feature","geometry":null},{"properties":{"city":"Springfield","volunteers":55,"geo_score":0.818,"dollars":226181.0,"programs":2,"id":"a6fl9n4kz81b","geo_precision":"city","recovery_id":"ALL","state":"IL"},"type":"Feature","geometry":{"type":"Point","coordinates":[-90.045117,41.612532]}},{"properties":{"city":"East St. Louis","volunteers":35,"geo_score":0.753,"dollars":196550.0,"programs":2,"id":"a6fl9nbdh2v2","geo_precision":"city","recovery_id":"ALL","state":"IL"},"type":"Feature","geometry":{"type":"Point","coordinates":[-88.260319,39.020043]}},{"properties":{"city":"Davenport","volunteers":9,"geo_score":0.0,"dollars":146449.0,"programs":2,"id":"a6fl9n6fegdg","geo_precision":"unmatched","recovery_id":"ALL","state":"IL"},"type":"Feature","geometry":null},{"properties":{"city":"Chicago","volunteers":106,"geo_score":0.857,"dollars":1836399.0,"programs":6,"id":"a6fl9ne4onfx","geo_precision":"city","recovery_id":"STATE_NATIONAL","state":"IL"},"type":"Feature","geometry":{"type":"Point","coordinates":[-87.650052,41.850033]}},{"properties":{"city":"OTHERS","volunteers":64,"geo_score":0.0,"dollars":394532.0,"programs":5,"id":"a6fl9nc7rali","geo_precision":"unmatched","recovery_id":"STATE_NATIONAL","state":"IL"},"type":"Feature","geometry":null},{"properties":{"city":"Springfield","volunteers":36,"geo_score":0.818,"dollars":226181.0,"programs":1,"id":"a6fl9nb42nkl","geo_precision":"city","recovery_id":"STATE_NATIONAL","state":"IL"},"type":"Feature","geometry":{"type":"Point","coordinates":[-90.045117,41.612532]}},{"properties":{"city":"East St. Louis","volunteers":34,"geo_score":0.753,"dollars":196550.0,"programs":1,"id":"a6fl9nd2ywih","geo_precision":"city","recovery_id":"STATE_NATIONAL","state":"IL"},"type":"Feature","geometry":{"type":"Point","coordinates":[-88.260319,39.020043]}},{"properties":{"city":"Davenport","volunteers":9,"geo_score":0.0,"dollars":146449.0,"programs":2,"id":"a6fl9n33ei05","geo_precision":"unmatched","recovery_id":"STATE_NATIONAL","state":"IL"},"type":"Feature","geometry":null},{"properties":{"city":"Chicago","volunteers":99,"geo_score":0.857,"dollars":1363727.88,"programs":16,"id":"a6fl9ncv8qez","geo_precision":"city","recovery_id":"VISTA","state":"IL"},"type":"Feature","geometry":{"type":"Point","coordinates":[-87.650052,41.850033]}},{"properties":{"city":"OTHERS","volunteers":46,"geo_score":0.0,"dollars":726944.42,"programs":16,"id":"a6fl9n45a9sg","geo_precision":"unmatched","recovery_id":"VISTA","state":"IL"},"type":"Feature","geometry":null},{"properties":{"city":"Springfield","volunteers":19,"geo_score":0.818,"dollars":295303.13,"programs":1,"id":"a6fl9n0so42s","geo_precision":"city","recovery_id":"VISTA","state":"IL"},"type":"Feature","geometry":{"type":"Point","coordinates":[-90.045117,41.612532]}},{"properties":{"city":"Belleville","volunteers":12,"geo_score":0.8,"dollars":186507.24,"programs":1,"id":"a6fl9n9e7kmq","geo_precision":"city","recovery_id":"VISTA","state":"IL"},"type":"Feature","geometry":{"type":"Point","coordinates":[-88.355089,42.320577]}},{"properties":{"city":"Lawrenceville","volunteers":8,"geo_score":0.857,"dollars":160338.16,"programs":1,"id":"a6fl9nbgtu6t","geo_precision":"city","recovery_id":"VISTA","state":"IL"},"type":"Feature","geometry":{"type":"Point","coordinates":[-87.634235,38.685176]}},{"properties":{"city":"Richmond","volunteers":47,"geo_score":0.857,"dollars":214468.0,"programs":1,"id":"a6fl9n1xs5q1","geo_precision":"city","recovery_id":"ALL","state":"IN"},"type":"Feature","geometry":{"type":"Point","coordinates":[-85.010442,39.84081]}},{"properties":{"city":"Indianapolis","volunteers":50,"geo_score":0.857,"dollars":210070.0,"programs":7,"id":"a6fl9n8pwjkx","geo_precision":"city","recovery_id":"ALL","state":"IN"},"type":"Feature","geometry":{"type":"Point","coordinates":[-86.158042,39.768377]}},{"properties":{"city":"OTHERS","volunteers":59,"geo_score":0.0,"dollars":191007.0,"programs":4,"id":"a6fl9ne84h5z","geo_precision":"unmatched","recovery_id":"ALL","state":"IN"},"type":"Feature","geometry":null},{"properties":{"city":"Scottsburg","volunteers":19,"geo_score":0.857,"dollars":116419.0,"programs":1,"id":"a6fl9n6xo99y","geo_precision":"city","recovery_id":"ALL","state":"IN"},"type":"Feature","geometry":{"type":"Point","coordinates":[-87.219174,38.288661]}},{"properties":{"city":"Franklin","volunteers":18,"geo_score":0.857,"dollars":94627.0,"programs":1,"id":"a6fl9n58doja","geo_precision":"city","recovery_id":"ALL","state":"IN"},"type":"Feature","geometry":{"type":"Point","coordinates":[-85.191076,39.973936]}},{"properties":{"city":"Richmond","volunteers":47,"geo_score":0.857,"dollars":214468.0,"programs":1,"id":"a6fl9neugqo4","geo_precision":"city","recovery_id":"STATE_NATIONAL","state":"IN"},"type":"Feature","geometry":{"type":"Point","coordinates":[-85.010442,39.84081]}},{"properties":{"city":"Scottsburg","volunteers":19,"geo_score":0.857,"dollars":116419.0,"programs":1,"id":"a6fl9ndqdab6","geo_precision":"city","recovery_id":"STATE_NATIONAL","state":"IN"},"type":"Feature","geometry":{"type":"Point","coordinates":[-87.219174,38.288661]}},{"properties":{"city":"OTHERS","volunteers":7,"geo_score":0.0,"dollars":113954.0,"programs":3,"id":"a6fl9n8rxfbg","geo_precision":"unmatched","recovery_id":"STATE_NATIONAL","state":"IN"},"type":"Feature","geometry":null},{"properties":{"city":"Franklin","volunteers":18,"geo_score":0.857,"dollars":94627.0,"programs":1,"id":"a6fl9nc6svl8","geo_precision":"city","recovery_id":"STATE_NATIONAL","state":"IN"},"type":"Feature","geometry":{"type":"Point","coordinates":[-85.191076,39.973936]}},{"properties":{"city":"Notre Dame","volunteers":39,"geo_score":0.857,"dollars":70000.0,"programs":1,"id":"a6fl9mzcttsb","geo_precision":"city","recovery_id":"STATE_NATIONAL","state":"IN"},"type":"Feature","geometry":{"type":"Point","coordinates":[-86.292991,41.596769]}},{"properties":{"city":"Indianapolis","volunteers":50,"geo_score":0.857,"dollars":974236.5,"programs":6,"id":"a6fl9n87ic1t","geo_precision":"city","recovery_id":"VISTA","state":"IN"},"type":"Feature","geometry":{"type":"Point","coordinates":[-86.158042,39.768377]}},{"properties":{"city":"Indianapoils","volunteers":13,"geo_score":0.833,"dollars":222049.51,"programs":1,"id":"a6fl9n1wpal3","geo_precision":"city","recovery_id":"VISTA","state":"IN"},"type":"Feature","geometry":{"type":"Point","coordinates":[-86.158042,39.768377]}},{"properties":{"city":"Huntington","volunteers":3,"geo_score":0.857,"dollars":46626.81,"programs":1,"id":"a6fl9n3u16uv","geo_precision":"city","recovery_id":"VISTA","state":"IN"},"type":"Feature","geometry":{"type":"Point","coordinates":[-85.489225,40.842697]}},{"properties":{"city":"South Bend","volunteers":1,"geo_score":0.857,"dollars":15542.27,"programs":1,"id":"a6fl9n0x4w2f","geo_precision":"city","recovery_id":"VISTA","state":"IN"},"type":"Feature","geometry":{"type":"Point","coordinates":[-86.250007,41.683381]}},{"properties":{"city":"Pratt","volunteers":29,"geo_score":0.857,"dollars":277757.0,"programs":1,"id":"a6fl9n0ic29p","geo_precision":"city","recovery_id":"ALL","state":"KS"},"type":"Feature","geometry":{"type":"Point","coordinates":[-98.758512,37.63857]}},{"properties":{"city":"Wichita","volunteers":20,"geo_score":0.857,"dollars":269174.0,"programs":3,"id":"a6fl9nbvbp5s","geo_precision":"city","recovery_id":"ALL","state":"KS"},"type":"Feature","geometry":{"type":"Point","coordinates":[-97.337545,37.692236]}},{"properties":{"city":"Topeka","volunteers":14,"geo_score":0.857,"dollars":60809.0,"programs":2,"id":"a6fl9n6iun55","geo_precision":"city","recovery_id":"ALL","state":"KS"},"type":"Feature","geometry":{"type":"Point","coordinates":[-95.678037,39.048334]}},{"properties":{"city":"Manhattan","volunteers":37,"geo_score":0.857,"dollars":54000.0,"programs":2,"id":"a6fl9ne01lal","geo_precision":"city","recovery_id":"ALL","state":"KS"},"type":"Feature","geometry":{"type":"Point","coordinates":[-96.564589,39.209375]}},{"properties":{"city":"Pratt","volunteers":29,"geo_score":0.857,"dollars":277757.0,"programs":1,"id":"a6fl9ncfhdva","geo_precision":"city","recovery_id":"STATE_NATIONAL","state":"KS"},"type":"Feature","geometry":{"type":"Point","coordinates":[-98.758512,37.63857]}},{"properties":{"city":"Wichita","volunteers":19,"geo_score":0.857,"dollars":269174.0,"programs":2,"id":"a6fl9ncjyeca","geo_precision":"city","recovery_id":"STATE_NATIONAL","state":"KS"},"type":"Feature","geometry":{"type":"Point","coordinates":[-97.337545,37.692236]}},{"properties":{"city":"Manhattan","volunteers":34,"geo_score":0.857,"dollars":54000.0,"programs":1,"id":"a6fl9ne6aojt","geo_precision":"city","recovery_id":"STATE_NATIONAL","state":"KS"},"type":"Feature","geometry":{"type":"Point","coordinates":[-96.564589,39.209375]}},{"properties":{"city":"Topeka","volunteers":0,"geo_score":0.857,"dollars":30000.0,"programs":1,"id":"a6fl9n7sm98q","geo_precision":"city","recovery_id":"STATE_NATIONAL","state":"KS"},"type":"Feature","geometry":{"type":"Point","coordinates":[-95.678037,39.048334]}},{"properties":{"city":"Topeka","volunteers":14,"geo_score":0.857,"dollars":248400.78,"programs":1,"id":"a6fl9ncjypdw","geo_precision":"city","recovery_id":"VISTA","state":"KS"},"type":"Feature","geometry":{"type":"Point","coordinates":[-95.678037,39.048334]}},{"properties":{"city":"Lenexa","volunteers":10,"geo_score":0.857,"dollars":155422.7,"programs":1,"id":"a6fl9n8v54dk","geo_precision":"city","recovery_id":"VISTA","state":"KS"},"type":"Feature","geometry":{"type":"Point","coordinates":[-94.733571,38.953617]}},{"properties":{"city":"Kansas City","volunteers":7,"geo_score":0.857,"dollars":108795.89,"programs":3,"id":"a6fl9n9024m9","geo_precision":"city","recovery_id":"VISTA","state":"KS"},"type":"Feature","geometry":{"type":"Point","coordinates":[-94.627457,39.114171]}},{"properties":{"city":"Lawrence","volunteers":7,"geo_score":0.857,"dollars":108795.89,"programs":4,"id":"a6fl9n5sznht","geo_precision":"city","recovery_id":"VISTA","state":"KS"},"type":"Feature","geometry":{"type":"Point","coordinates":[-95.283982,38.907518]}},{"properties":{"city":"OTHERS","volunteers":5,"geo_score":0.0,"dollars":77711.35,"programs":3,"id":"a6fl9na7xai6","geo_precision":"unmatched","recovery_id":"VISTA","state":"KS"},"type":"Feature","geometry":null},{"properties":{"city":"Frankfort","volunteers":32,"geo_score":0.857,"dollars":288187.0,"programs":3,"id":"a6fl9n7u1cka","geo_precision":"city","recovery_id":"ALL","state":"KY"},"type":"Feature","geometry":{"type":"Point","coordinates":[-84.869708,38.228115]}},{"properties":{"city":"Glasgow","volunteers":15,"geo_score":0.857,"dollars":177292.0,"programs":1,"id":"a6fl9naidsdp","geo_precision":"city","recovery_id":"ALL","state":"KY"},"type":"Feature","geometry":{"type":"Point","coordinates":[-85.941203,36.942763]}},{"properties":{"city":"Owensboro","volunteers":14,"geo_score":0.857,"dollars":154000.0,"programs":3,"id":"a6fl9nbl42ht","geo_precision":"city","recovery_id":"ALL","state":"KY"},"type":"Feature","geometry":{"type":"Point","coordinates":[-87.257303,37.751818]}},{"properties":{"city":"Louisville","volunteers":37,"geo_score":0.857,"dollars":124576.0,"programs":5,"id":"a6fl9mzj17l6","geo_precision":"city","recovery_id":"ALL","state":"KY"},"type":"Feature","geometry":{"type":"Point","coordinates":[-85.759407,38.254238]}},{"properties":{"city":"OTHERS","volunteers":5,"geo_score":0.0,"dollars":65500.0,"programs":1,"id":"a6fl9n2nqbvc","geo_precision":"unmatched","recovery_id":"ALL","state":"KY"},"type":"Feature","geometry":null},{"properties":{"city":"Frankfort","volunteers":22,"geo_score":0.857,"dollars":288187.0,"programs":2,"id":"a6fl9n0vo4bu","geo_precision":"city","recovery_id":"STATE_NATIONAL","state":"KY"},"type":"Feature","geometry":{"type":"Point","coordinates":[-84.869708,38.228115]}},{"properties":{"city":"Glasgow","volunteers":15,"geo_score":0.857,"dollars":177292.0,"programs":1,"id":"a6fl9n7ls95c","geo_precision":"city","recovery_id":"STATE_NATIONAL","state":"KY"},"type":"Feature","geometry":{"type":"Point","coordinates":[-85.941203,36.942763]}},{"properties":{"city":"Owensboro","volunteers":12,"geo_score":0.857,"dollars":154000.0,"programs":2,"id":"a6fl9n8i7y2w","geo_precision":"city","recovery_id":"STATE_NATIONAL","state":"KY"},"type":"Feature","geometry":{"type":"Point","coordinates":[-87.257303,37.751818]}},{"properties":{"city":"Louisville","volunteers":11,"geo_score":0.857,"dollars":124576.0,"programs":1,"id":"a6fl9nce815g","geo_precision":"city","recovery_id":"STATE_NATIONAL","state":"KY"},"type":"Feature","geometry":{"type":"Point","coordinates":[-85.759407,38.254238]}},{"properties":{"city":"OTHERS","volunteers":5,"geo_score":0.0,"dollars":65500.0,"programs":1,"id":"a6fl9n526zq7","geo_precision":"unmatched","recovery_id":"STATE_NATIONAL","state":"KY"},"type":"Feature","geometry":null},{"properties":{"city":"OTHERS","volunteers":27,"geo_score":0.0,"dollars":338378.55,"programs":6,"id":"a6fl9nbot3ef","geo_precision":"unmatched","recovery_id":"VISTA","state":"KY"},"type":"Feature","geometry":null},{"properties":{"city":"Louisville","volunteers":26,"geo_score":0.857,"dollars":309292.49,"programs":4,"id":"a6fl9n90xf7g","geo_precision":"city","recovery_id":"VISTA","state":"KY"},"type":"Feature","geometry":{"type":"Point","coordinates":[-85.759407,38.254238]}},{"properties":{"city":"Frankfort","volunteers":10,"geo_score":0.857,"dollars":155422.7,"programs":1,"id":"a6fl9nfbe3ql","geo_precision":"city","recovery_id":"VISTA","state":"KY"},"type":"Feature","geometry":{"type":"Point","coordinates":[-84.869708,38.228115]}},{"properties":{"city":"Lexington","volunteers":16,"geo_score":0.857,"dollars":153869.79,"programs":1,"id":"a6fl9n1hj2h3","geo_precision":"city","recovery_id":"VISTA","state":"KY"},"type":"Feature","geometry":{"type":"Point","coordinates":[-84.477715,37.988689]}},{"properties":{"city":"Stearns","volunteers":14,"geo_score":0.857,"dollars":82153.88,"programs":1,"id":"a6fl9n7xycig","geo_precision":"city","recovery_id":"VISTA","state":"KY"},"type":"Feature","geometry":{"type":"Point","coordinates":[-84.502512,36.777331]}},{"properties":{"city":"Baton Rouge","volunteers":72,"geo_score":0.857,"dollars":1066604.0,"programs":5,"id":"a6fl9n96mtad","geo_precision":"city","recovery_id":"ALL","state":"LA"},"type":"Feature","geometry":{"type":"Point","coordinates":[-91.154551,30.450746]}},{"properties":{"city":"New Orleans","volunteers":35,"geo_score":0.857,"dollars":180547.0,"programs":5,"id":"a6fl9n7ydc3i","geo_precision":"city","recovery_id":"ALL","state":"LA"},"type":"Feature","geometry":{"type":"Point","coordinates":[-89.930956,30.068812]}},{"properties":{"city":"Shreveport","volunteers":13,"geo_score":0.857,"dollars":146941.0,"programs":1,"id":"a6fl9nereyh6","geo_precision":"city","recovery_id":"ALL","state":"LA"},"type":"Feature","geometry":{"type":"Point","coordinates":[-93.750179,32.525152]}},{"properties":{"city":"Baton Rouge","volunteers":64,"geo_score":0.857,"dollars":1066604.0,"programs":3,"id":"a6fl9n5mttps","geo_precision":"city","recovery_id":"STATE_NATIONAL","state":"LA"},"type":"Feature","geometry":{"type":"Point","coordinates":[-91.154551,30.450746]}},{"properties":{"city":"Shreveport","volunteers":13,"geo_score":0.857,"dollars":146941.0,"programs":1,"id":"a6fl9n3110xp","geo_precision":"city","recovery_id":"STATE_NATIONAL","state":"LA"},"type":"Feature","geometry":{"type":"Point","coordinates":[-93.750179,32.525152]}},{"properties":{"city":"New Orleans","volunteers":10,"geo_score":0.857,"dollars":140547.0,"programs":1,"id":"a6fl9nbapw32","geo_precision":"city","recovery_id":"STATE_NATIONAL","state":"LA"},"type":"Feature","geometry":{"type":"Point","coordinates":[-89.930956,30.068812]}},{"properties":{"city":"New Orleans","volunteers":25,"geo_score":0.857,"dollars":211856.11,"programs":4,"id":"a6fl9mznusn2","geo_precision":"city","recovery_id":"VISTA","state":"LA"},"type":"Feature","geometry":{"type":"Point","coordinates":[-89.930956,30.068812]}},{"properties":{"city":"Baton Rouge","volunteers":8,"geo_score":0.857,"dollars":124338.16,"programs":2,"id":"a6fl9ncrknk3","geo_precision":"city","recovery_id":"VISTA","state":"LA"},"type":"Feature","geometry":{"type":"Point","coordinates":[-91.154551,30.450746]}},{"properties":{"city":"Chalmette","volunteers":7,"geo_score":0.857,"dollars":108795.89,"programs":1,"id":"a6fl9n82yxk1","geo_precision":"city","recovery_id":"VISTA","state":"LA"},"type":"Feature","geometry":{"type":"Point","coordinates":[-89.954906,29.947746]}},{"properties":{"city":"BATON ROUGE","volunteers":5,"geo_score":0.857,"dollars":77711.35,"programs":1,"id":"a6fl9ndxhxqo","geo_precision":"city","recovery_id":"VISTA","state":"LA"},"type":"Feature","geometry":{"type":"Point","coordinates":[-91.154551,30.450746]}},{"properties":{"city":"Boston","volunteers":187,"geo_score":0.857,"dollars":3709684.0,"programs":18,"id":"a6fl9ndsyh0n","geo_precision":"city","recovery_id":"ALL","state":"MA"},"type":"Feature","geometry":{"type":"Point","coordinates":[-71.059773,42.358431]}},{"properties":{"city":"Somerville","volunteers":256,"geo_score":0.857,"dollars":780538.0,"programs":1,"id":"a6fl9n2a1flu","geo_precision":"city","recovery_id":"ALL","state":"MA"},"type":"Feature","geometry":{"type":"Point","coordinates":[-71.098896,42.38092]}},{"properties":{"city":"OTHERS","volunteers":58,"geo_score":0.0,"dollars":631798.0,"programs":10,"id":"a6fl9ndeufl2","geo_precision":"unmatched","recovery_id":"ALL","state":"MA"},"type":"Feature","geometry":null},{"properties":{"city":"Fall River","volunteers":34,"geo_score":0.857,"dollars":455748.0,"programs":1,"id":"a6fl9nbkju4n","geo_precision":"city","recovery_id":"ALL","state":"MA"},"type":"Feature","geometry":{"type":"Point","coordinates":[-71.165971,41.819766]}},{"properties":{"city":"Dorchester","volunteers":26,"geo_score":0.857,"dollars":262000.0,"programs":2,"id":"a6fl9ncz487z","geo_precision":"city","recovery_id":"ALL","state":"MA"},"type":"Feature","geometry":{"type":"Point","coordinates":[-71.074495,42.297321]}},{"properties":{"city":"Boston","volunteers":87,"geo_score":0.857,"dollars":1987712.0,"programs":4,"id":"a6fl9n2upyj1","geo_precision":"city","recovery_id":"STATE_NATIONAL","state":"MA"},"type":"Feature","geometry":{"type":"Point","coordinates":[-71.059773,42.358431]}},{"properties":{"city":"Boston","volunteers":76,"geo_score":0.857,"dollars":1711972.0,"programs":7,"id":"a6fl9nevwikr","geo_precision":"city","recovery_id":"STATE_NATIONAL","state":"MA"},"type":"Feature","geometry":{"type":"Point","coordinates":[-71.059773,42.358431]}},{"properties":{"city":"OTHERS","volunteers":53,"geo_score":0.0,"dollars":870798.0,"programs":7,"id":"a6fl9mz5mnv4","geo_precision":"unmatched","recovery_id":"STATE_NATIONAL","state":"MA"},"type":"Feature","geometry":null},{"properties":{"city":"Somerville","volunteers":256,"geo_score":0.857,"dollars":780538.0,"programs":1,"id":"a6fl9ne5wz6o","geo_precision":"city","recovery_id":"STATE_NATIONAL","state":"MA"},"type":"Feature","geometry":{"type":"Point","coordinates":[-71.098896,42.38092]}},{"properties":{"city":"Fall River","volunteers":34,"geo_score":0.857,"dollars":455748.0,"programs":1,"id":"a6fl9nbr34dy","geo_precision":"city","recovery_id":"STATE_NATIONAL","state":"MA"},"type":"Feature","geometry":{"type":"Point","coordinates":[-71.165971,41.819766]}},{"properties":{"city":"OTHERS","volunteers":39,"geo_score":0.0,"dollars":484254.42,"programs":16,"id":"a6fl9na0qztv","geo_precision":"unmatched","recovery_id":"VISTA","state":"MA"},"type":"Feature","geometry":null},{"properties":{"city":"Boston","volunteers":24,"geo_score":0.857,"dollars":383014.48,"programs":7,"id":"a6fl9n1xii97","geo_precision":"city","recovery_id":"VISTA","state":"MA"},"type":"Feature","geometry":{"type":"Point","coordinates":[-71.059773,42.358431]}},{"properties":{"city":"Medford","volunteers":16,"geo_score":0.781,"dollars":271676.32,"programs":1,"id":"a6fl9n5sjhur","geo_precision":"city","recovery_id":"VISTA","state":"MA"},"type":"Feature","geometry":{"type":"Point","coordinates":[-71.125331,42.412596]}},{"properties":{"city":"Worcester","volunteers":7,"geo_score":0.857,"dollars":68164.52,"programs":2,"id":"a6fl9ndlszm6","geo_precision":"city","recovery_id":"VISTA","state":"MA"},"type":"Feature","geometry":{"type":"Point","coordinates":[-71.802293,42.262593]}},{"properties":{"city":"Fitchburg","volunteers":4,"geo_score":0.743,"dollars":62169.08,"programs":3,"id":"a6fl9n40w1jb","geo_precision":"city","recovery_id":"VISTA","state":"MA"},"type":"Feature","geometry":{"type":"Point","coordinates":[-71.247831,42.065377]}},{"properties":{"city":"Baltimore","volunteers":132,"geo_score":0.857,"dollars":1164090.0,"programs":13,"id":"a6fl9newo4dn","geo_precision":"city","recovery_id":"ALL","state":"MD"},"type":"Feature","geometry":{"type":"Point","coordinates":[-76.612189,39.290385]}},{"properties":{"city":"Rockville","volunteers":67,"geo_score":0.857,"dollars":693481.0,"programs":1,"id":"a6fl9n47n2l6","geo_precision":"city","recovery_id":"ALL","state":"MD"},"type":"Feature","geometry":{"type":"Point","coordinates":[-77.152758,39.083997]}},{"properties":{"city":"OTHERS","volunteers":157,"geo_score":0.0,"dollars":343991.0,"programs":6,"id":"a6fl9nezxw76","geo_precision":"unmatched","recovery_id":"ALL","state":"MD"},"type":"Feature","geometry":null},{"properties":{"city":"Annapolis","volunteers":0,"geo_score":0.857,"dollars":299431.0,"programs":1,"id":"a6fl9n2pangi","geo_precision":"city","recovery_id":"ALL","state":"MD"},"type":"Feature","geometry":{"type":"Point","coordinates":[-76.492183,38.978445]}},{"properties":{"city":"Takoma Park","volunteers":244,"geo_score":0.857,"dollars":205216.0,"programs":2,"id":"a6fl9nb0kx7d","geo_precision":"city","recovery_id":"ALL","state":"MD"},"type":"Feature","geometry":{"type":"Point","coordinates":[-77.005798,38.98236]}},{"properties":{"city":"Rockville","volunteers":67,"geo_score":0.857,"dollars":693481.0,"programs":1,"id":"a6fl9n65v939","geo_precision":"city","recovery_id":"STATE_NATIONAL","state":"MD"},"type":"Feature","geometry":{"type":"Point","coordinates":[-77.152758,39.083997]}},{"properties":{"city":"Baltimore","volunteers":26,"geo_score":0.857,"dollars":558866.0,"programs":5,"id":"a6fl9n06jhvn","geo_precision":"city","recovery_id":"STATE_NATIONAL","state":"MD"},"type":"Feature","geometry":{"type":"Point","coordinates":[-76.612189,39.290385]}},{"properties":{"city":"Baltimore","volunteers":50,"geo_score":0.857,"dollars":550224.0,"programs":1,"id":"a6fl9n1km87i","geo_precision":"city","recovery_id":"STATE_NATIONAL","state":"MD"},"type":"Feature","geometry":{"type":"Point","coordinates":[-76.612189,39.290385]}},{"properties":{"city":"OTHERS","volunteers":375,"geo_score":0.0,"dollars":493207.0,"programs":5,"id":"a6fl9n65nfoi","geo_precision":"unmatched","recovery_id":"STATE_NATIONAL","state":"MD"},"type":"Feature","geometry":null},{"properties":{"city":"Annapolis","volunteers":0,"geo_score":0.857,"dollars":299431.0,"programs":1,"id":"a6fl9n7ripm8","geo_precision":"city","recovery_id":"STATE_NATIONAL","state":"MD"},"type":"Feature","geometry":{"type":"Point","coordinates":[-76.492183,38.978445]}},{"properties":{"city":"Baltimore","volunteers":56,"geo_score":0.857,"dollars":925367.12,"programs":7,"id":"a6fl9n8yz279","geo_precision":"city","recovery_id":"VISTA","state":"MD"},"type":"Feature","geometry":{"type":"Point","coordinates":[-76.612189,39.290385]}},{"properties":{"city":"Emmitsburg","volunteers":19,"geo_score":0.857,"dollars":333703.13,"programs":1,"id":"a6fl9naggg5h","geo_precision":"city","recovery_id":"VISTA","state":"MD"},"type":"Feature","geometry":{"type":"Point","coordinates":[-77.336732,39.675397]}},{"properties":{"city":"Frostburg","volunteers":5,"geo_score":0.857,"dollars":95311.35,"programs":1,"id":"a6fl9nd44r5n","geo_precision":"city","recovery_id":"VISTA","state":"MD"},"type":"Feature","geometry":{"type":"Point","coordinates":[-78.912502,39.64206]}},{"properties":{"city":"OTHERS","volunteers":3,"geo_score":0.0,"dollars":46626.81,"programs":2,"id":"a6fl9n71rgsz","geo_precision":"unmatched","recovery_id":"VISTA","state":"MD"},"type":"Feature","geometry":null},{"properties":{"city":"Silver Spring","volunteers":2,"geo_score":0.857,"dollars":31084.54,"programs":1,"id":"a6fl9n9uquam","geo_precision":"city","recovery_id":"VISTA","state":"MD"},"type":"Feature","geometry":{"type":"Point","coordinates":[-77.026088,38.990666]}},{"properties":{"city":"Portland","volunteers":46,"geo_score":0.857,"dollars":323045.0,"programs":2,"id":"a6fl9n4x0lpz","geo_precision":"city","recovery_id":"ALL","state":"ME"},"type":"Feature","geometry":{"type":"Point","coordinates":[-70.255326,43.661471]}},{"properties":{"city":"Augusta","volunteers":23,"geo_score":0.857,"dollars":30000.0,"programs":1,"id":"a6fl9na8xnh3","geo_precision":"city","recovery_id":"ALL","state":"ME"},"type":"Feature","geometry":{"type":"Point","coordinates":[-69.803773,44.351642]}},{"properties":{"city":"Portland","volunteers":22,"geo_score":0.857,"dollars":195804.0,"programs":1,"id":"a6fl9n1c1471","geo_precision":"city","recovery_id":"STATE_NATIONAL","state":"ME"},"type":"Feature","geometry":{"type":"Point","coordinates":[-70.255326,43.661471]}},{"properties":{"city":"Portland","volunteers":24,"geo_score":0.857,"dollars":127241.0,"programs":1,"id":"a6fl9ncxw4bx","geo_precision":"city","recovery_id":"STATE_NATIONAL","state":"ME"},"type":"Feature","geometry":{"type":"Point","coordinates":[-70.255326,43.661471]}},{"properties":{"city":"Augusta","volunteers":23,"geo_score":0.857,"dollars":387472.21,"programs":1,"id":"a6fl9n4z7535","geo_precision":"city","recovery_id":"VISTA","state":"ME"},"type":"Feature","geometry":{"type":"Point","coordinates":[-69.803773,44.351642]}},{"properties":{"city":"Bangor","volunteers":1,"geo_score":0.857,"dollars":15542.27,"programs":1,"id":"a6fl9n7wihek","geo_precision":"city","recovery_id":"VISTA","state":"ME"},"type":"Feature","geometry":{"type":"Point","coordinates":[-68.878893,45.061744]}},{"properties":{"city":"Detroit","volunteers":90,"geo_score":0.857,"dollars":874395.0,"programs":7,"id":"a6fl9n67xo08","geo_precision":"city","recovery_id":"ALL","state":"MI"},"type":"Feature","geometry":{"type":"Point","coordinates":[-83.045754,42.331427]}},{"properties":{"city":"Lansing","volunteers":213,"geo_score":0.857,"dollars":819266.0,"programs":14,"id":"a6fl9na7wo41","geo_precision":"city","recovery_id":"ALL","state":"MI"},"type":"Feature","geometry":{"type":"Point","coordinates":[-84.555535,42.732535]}},{"properties":{"city":"Dearborn","volunteers":20,"geo_score":0.857,"dollars":611333.0,"programs":1,"id":"a6fl9n876pzd","geo_precision":"city","recovery_id":"ALL","state":"MI"},"type":"Feature","geometry":{"type":"Point","coordinates":[-83.177625,42.310037]}},{"properties":{"city":"OTHERS","volunteers":121,"geo_score":0.0,"dollars":598302.0,"programs":10,"id":"a6fl9n48c5iu","geo_precision":"unmatched","recovery_id":"ALL","state":"MI"},"type":"Feature","geometry":null},{"properties":{"city":"Grand Rapids","volunteers":43,"geo_score":0.857,"dollars":355327.0,"programs":6,"id":"a6fl9n051skb","geo_precision":"city","recovery_id":"ALL","state":"MI"},"type":"Feature","geometry":{"type":"Point","coordinates":[-85.668086,42.96336]}},{"properties":{"city":"Detroit","volunteers":78,"geo_score":0.857,"dollars":874395.0,"programs":3,"id":"a6fl9n0nynjl","geo_precision":"city","recovery_id":"STATE_NATIONAL","state":"MI"},"type":"Feature","geometry":{"type":"Point","coordinates":[-83.045754,42.331427]}},{"properties":{"city":"Lansing","volunteers":163,"geo_score":0.857,"dollars":757766.0,"programs":4,"id":"a6fl9nd34x48","geo_precision":"city","recovery_id":"STATE_NATIONAL","state":"MI"},"type":"Feature","geometry":{"type":"Point","coordinates":[-84.555535,42.732535]}},{"properties":{"city":"Dearborn","volunteers":20,"geo_score":0.857,"dollars":611333.0,"programs":1,"id":"a6fl9na2ixn6","geo_precision":"city","recovery_id":"STATE_NATIONAL","state":"MI"},"type":"Feature","geometry":{"type":"Point","coordinates":[-83.177625,42.310037]}},{"properties":{"city":"OTHERS","volunteers":43,"geo_score":0.0,"dollars":572302.0,"programs":5,"id":"a6fl9nbp7diu","geo_precision":"unmatched","recovery_id":"STATE_NATIONAL","state":"MI"},"type":"Feature","geometry":null},{"properties":{"city":"Grand Rapids","volunteers":27,"geo_score":0.857,"dollars":355327.0,"programs":1,"id":"a6fl9newck4w","geo_precision":"city","recovery_id":"STATE_NATIONAL","state":"MI"},"type":"Feature","geometry":{"type":"Point","coordinates":[-85.668086,42.96336]}},{"properties":{"city":"Lansing","volunteers":50,"geo_score":0.857,"dollars":743806.97,"programs":10,"id":"a6fl9n4uxjvv","geo_precision":"city","recovery_id":"VISTA","state":"MI"},"type":"Feature","geometry":{"type":"Point","coordinates":[-84.555535,42.732535]}},{"properties":{"city":"OTHERS","volunteers":73,"geo_score":0.0,"dollars":657009.27,"programs":11,"id":"a6fl9n11yhse","geo_precision":"unmatched","recovery_id":"VISTA","state":"MI"},"type":"Feature","geometry":null},{"properties":{"city":"Ann Arbor","volunteers":30,"geo_score":0.75,"dollars":265567.46,"programs":3,"id":"a6fl9n9zvsk7","geo_precision":"city","recovery_id":"VISTA","state":"MI"},"type":"Feature","geometry":{"type":"Point","coordinates":[-86.176715,42.96502]}},{"properties":{"city":"Grand Rapids","volunteers":16,"geo_score":0.857,"dollars":248676.32,"programs":5,"id":"a6fl9n49v8eq","geo_precision":"city","recovery_id":"VISTA","state":"MI"},"type":"Feature","geometry":{"type":"Point","coordinates":[-85.668086,42.96336]}},{"properties":{"city":"Detroit","volunteers":12,"geo_score":0.857,"dollars":186507.24,"programs":4,"id":"a6fl9nbb0you","geo_precision":"city","recovery_id":"VISTA","state":"MI"},"type":"Feature","geometry":{"type":"Point","coordinates":[-83.045754,42.331427]}},{"properties":{"city":"St. Paul","volunteers":54,"geo_score":0.762,"dollars":559401.0,"programs":7,"id":"a6fl9n1z61xt","geo_precision":"city","recovery_id":"ALL","state":"MN"},"type":"Feature","geometry":{"type":"Point","coordinates":[-92.259625,47.415205]}},{"properties":{"city":"Minneapolis","volunteers":74,"geo_score":0.857,"dollars":275667.0,"programs":8,"id":"a6fl9ndnwmg1","geo_precision":"city","recovery_id":"ALL","state":"MN"},"type":"Feature","geometry":{"type":"Point","coordinates":[-93.263836,44.979965]}},{"properties":{"city":"St. Cloud","volunteers":24,"geo_score":0.755,"dollars":275102.0,"programs":1,"id":"a6fl9n84xj8f","geo_precision":"city","recovery_id":"ALL","state":"MN"},"type":"Feature","geometry":{"type":"Point","coordinates":[-91.979323,43.894685]}},{"properties":{"city":"OTHERS","volunteers":25,"geo_score":0.0,"dollars":242351.0,"programs":2,"id":"a6fl9n62sizn","geo_precision":"unmatched","recovery_id":"ALL","state":"MN"},"type":"Feature","geometry":null},{"properties":{"city":"Maplewood","volunteers":14,"geo_score":0.857,"dollars":137800.0,"programs":3,"id":"a6fl9n9k0p8f","geo_precision":"city","recovery_id":"ALL","state":"MN"},"type":"Feature","geometry":{"type":"Point","coordinates":[-92.995215,44.953022]}},{"properties":{"city":"St. Paul","volunteers":48,"geo_score":0.762,"dollars":559401.0,"programs":4,"id":"a6fl9nc3whhc","geo_precision":"city","recovery_id":"STATE_NATIONAL","state":"MN"},"type":"Feature","geometry":{"type":"Point","coordinates":[-92.259625,47.415205]}},{"properties":{"city":"St. Cloud","volunteers":24,"geo_score":0.755,"dollars":275102.0,"programs":1,"id":"a6fl9n7ksihl","geo_precision":"city","recovery_id":"STATE_NATIONAL","state":"MN"},"type":"Feature","geometry":{"type":"Point","coordinates":[-91.979323,43.894685]}},{"properties":{"city":"Minneapolis","volunteers":18,"geo_score":0.857,"dollars":222667.0,"programs":2,"id":"a6fl9n6gzm18","geo_precision":"city","recovery_id":"STATE_NATIONAL","state":"MN"},"type":"Feature","geometry":{"type":"Point","coordinates":[-93.263836,44.979965]}},{"properties":{"city":"OTHERS","volunteers":20,"geo_score":0.0,"dollars":209603.0,"programs":2,"id":"a6fl9n963ouy","geo_precision":"unmatched","recovery_id":"STATE_NATIONAL","state":"MN"},"type":"Feature","geometry":null},{"properties":{"city":"Duluth","volunteers":15,"geo_score":0.857,"dollars":137548.0,"programs":1,"id":"a6fl9mz6k16i","geo_precision":"city","recovery_id":"STATE_NATIONAL","state":"MN"},"type":"Feature","geometry":{"type":"Point","coordinates":[-92.106579,46.783273]}},{"properties":{"city":"Minneapolis","volunteers":56,"geo_score":0.857,"dollars":923367.12,"programs":6,"id":"a6fl9n7ficmp","geo_precision":"city","recovery_id":"VISTA","state":"MN"},"type":"Feature","geometry":{"type":"Point","coordinates":[-93.263836,44.979965]}},{"properties":{"city":"St Paul","volunteers":8,"geo_score":0.762,"dollars":124338.16,"programs":2,"id":"a6fl9n2aivvq","geo_precision":"city","recovery_id":"VISTA","state":"MN"},"type":"Feature","geometry":{"type":"Point","coordinates":[-92.259625,47.415205]}},{"properties":{"city":"Maplewood","volunteers":4,"geo_score":0.857,"dollars":95169.08,"programs":2,"id":"a6fl9nd4aqmp","geo_precision":"city","recovery_id":"VISTA","state":"MN"},"type":"Feature","geometry":{"type":"Point","coordinates":[-92.995215,44.953022]}},{"properties":{"city":"St. Paul","volunteers":6,"geo_score":0.762,"dollars":93253.62,"programs":3,"id":"a6fl9n8jykkz","geo_precision":"city","recovery_id":"VISTA","state":"MN"},"type":"Feature","geometry":{"type":"Point","coordinates":[-92.259625,47.415205]}},{"properties":{"city":"OTHERS","volunteers":6,"geo_score":0.0,"dollars":79709.83,"programs":2,"id":"a6fl9n817nc3","geo_precision":"unmatched","recovery_id":"VISTA","state":"MN"},"type":"Feature","geometry":null},{"properties":{"city":"St. Louis","volunteers":51,"geo_score":0.0,"dollars":793300.0,"programs":8,"id":"a6fl9n8kl34w","geo_precision":"unmatched","recovery_id":"ALL","state":"MO"},"type":"Feature","geometry":null},{"properties":{"city":"Waynesville","volunteers":64,"geo_score":0.857,"dollars":157206.0,"programs":2,"id":"a6fl9n8bft99","geo_precision":"city","recovery_id":"ALL","state":"MO"},"type":"Feature","geometry":{"type":"Point","coordinates":[-92.210471,37.767552]}},{"properties":{"city":"Kansas City","volunteers":15,"geo_score":0.857,"dollars":149672.0,"programs":4,"id":"a6fl9mz2kqn5","geo_precision":"city","recovery_id":"ALL","state":"MO"},"type":"Feature","geometry":{"type":"Point","coordinates":[-94.598583,39.102404]}},{"properties":{"city":"OTHERS","volunteers":22,"geo_score":0.0,"dollars":69071.0,"programs":3,"id":"a6fl9n4ywwao","geo_precision":"unmatched","recovery_id":"ALL","state":"MO"},"type":"Feature","geometry":null},{"properties":{"city":"Eldon","volunteers":4,"geo_score":0.857,"dollars":52397.0,"programs":1,"id":"a6fl9n0ectak","geo_precision":"city","recovery_id":"ALL","state":"MO"},"type":"Feature","geometry":{"type":"Point","coordinates":[-92.478035,38.320057]}},{"properties":{"city":"St. Louis","volunteers":35,"geo_score":0.0,"dollars":793300.0,"programs":3,"id":"a6fl9n1wh9v7","geo_precision":"unmatched","recovery_id":"STATE_NATIONAL","state":"MO"},"type":"Feature","geometry":null},{"properties":{"city":"Waynesville","volunteers":14,"geo_score":0.857,"dollars":157206.0,"programs":1,"id":"a6fl9myxsv6w","geo_precision":"city","recovery_id":"STATE_NATIONAL","state":"MO"},"type":"Feature","geometry":{"type":"Point","coordinates":[-92.210471,37.767552]}},{"properties":{"city":"Kansas City","volunteers":12,"geo_score":0.857,"dollars":149672.0,"programs":2,"id":"a6fl9n8yv2tk","geo_precision":"city","recovery_id":"STATE_NATIONAL","state":"MO"},"type":"Feature","geometry":{"type":"Point","coordinates":[-94.598583,39.102404]}},{"properties":{"city":"OTHERS","volunteers":22,"geo_score":0.0,"dollars":69071.0,"programs":3,"id":"a6fl9nadewc9","geo_precision":"unmatched","recovery_id":"STATE_NATIONAL","state":"MO"},"type":"Feature","geometry":null},{"properties":{"city":"Eldon","volunteers":4,"geo_score":0.857,"dollars":52397.0,"programs":1,"id":"a6fl9n112tno","geo_precision":"city","recovery_id":"STATE_NATIONAL","state":"MO"},"type":"Feature","geometry":{"type":"Point","coordinates":[-92.478035,38.320057]}},{"properties":{"city":"Waynesville","volunteers":50,"geo_score":0.857,"dollars":303080.85,"programs":1,"id":"a6fl9n71owlt","geo_precision":"city","recovery_id":"VISTA","state":"MO"},"type":"Feature","geometry":{"type":"Point","coordinates":[-92.210471,37.767552]}},{"properties":{"city":"Columbia","volunteers":18,"geo_score":0.857,"dollars":279760.86,"programs":4,"id":"a6fl9nb2li7a","geo_precision":"city","recovery_id":"VISTA","state":"MO"},"type":"Feature","geometry":{"type":"Point","coordinates":[-92.334072,38.951705]}},{"properties":{"city":"St. Louis","volunteers":16,"geo_score":0.0,"dollars":248676.32,"programs":5,"id":"a6fl9n3bw1b6","geo_precision":"unmatched","recovery_id":"VISTA","state":"MO"},"type":"Feature","geometry":null},{"properties":{"city":"OTHERS","volunteers":3,"geo_score":0.0,"dollars":46626.81,"programs":1,"id":"a6fl9n350rhm","geo_precision":"unmatched","recovery_id":"VISTA","state":"MO"},"type":"Feature","geometry":null},{"properties":{"city":"Grandview","volunteers":3,"geo_score":0.786,"dollars":46626.81,"programs":1,"id":"a6fl9mzvexp0","geo_precision":"city","recovery_id":"VISTA","state":"MO"},"type":"Feature","geometry":{"type":"Point","coordinates":[-90.679846,37.650327]}},{"properties":{"city":"Hattiesburg","volunteers":27,"geo_score":0.857,"dollars":248528.0,"programs":2,"id":"a6fl9n179uec","geo_precision":"city","recovery_id":"ALL","state":"MS"},"type":"Feature","geometry":{"type":"Point","coordinates":[-89.28071,31.245138]}},{"properties":{"city":"Cleveland","volunteers":13,"geo_score":0.857,"dollars":244524.0,"programs":1,"id":"a6fl9n54tcgo","geo_precision":"city","recovery_id":"ALL","state":"MS"},"type":"Feature","geometry":{"type":"Point","coordinates":[-90.84313,33.847591]}},{"properties":{"city":"OTHERS","volunteers":38,"geo_score":0.0,"dollars":193625.0,"programs":7,"id":"a6fl9ndmrm0d","geo_precision":"unmatched","recovery_id":"ALL","state":"MS"},"type":"Feature","geometry":null},{"properties":{"city":"Grenada","volunteers":0,"geo_score":0.857,"dollars":90406.0,"programs":1,"id":"a6fl9n7hxwke","geo_precision":"city","recovery_id":"ALL","state":"MS"},"type":"Feature","geometry":{"type":"Point","coordinates":[-89.845462,33.786016]}},{"properties":{"city":"Gulfport","volunteers":0,"geo_score":0.857,"dollars":78756.0,"programs":1,"id":"a6fl9n2p57po","geo_precision":"city","recovery_id":"ALL","state":"MS"},"type":"Feature","geometry":{"type":"Point","coordinates":[-89.092816,30.36742]}},{"properties":{"city":"Hattiesburg","volunteers":21,"geo_score":0.857,"dollars":248528.0,"programs":1,"id":"a6fl9n2obtct","geo_precision":"city","recovery_id":"STATE_NATIONAL","state":"MS"},"type":"Feature","geometry":{"type":"Point","coordinates":[-89.28071,31.245138]}},{"properties":{"city":"OTHERS","volunteers":0,"geo_score":0.0,"dollars":117625.0,"programs":2,"id":"a6fl9n1gvju2","geo_precision":"unmatched","recovery_id":"STATE_NATIONAL","state":"MS"},"type":"Feature","geometry":null},{"properties":{"city":"Grenada","volunteers":0,"geo_score":0.857,"dollars":90406.0,"programs":1,"id":"a6fl9n1ktvf3","geo_precision":"city","recovery_id":"STATE_NATIONAL","state":"MS"},"type":"Feature","geometry":{"type":"Point","coordinates":[-89.845462,33.786016]}},{"properties":{"city":"Gulfport","volunteers":0,"geo_score":0.857,"dollars":78756.0,"programs":1,"id":"a6fl9n51imlc","geo_precision":"city","recovery_id":"STATE_NATIONAL","state":"MS"},"type":"Feature","geometry":{"type":"Point","coordinates":[-89.092816,30.36742]}},{"properties":{"city":"Bay St. Louis","volunteers":0,"geo_score":0.771,"dollars":76000.0,"programs":1,"id":"a6fl9ndybomp","geo_precision":"city","recovery_id":"STATE_NATIONAL","state":"MS"},"type":"Feature","geometry":{"type":"Point","coordinates":[-90.592812,32.980758]}},{"properties":{"city":"Jackson","volunteers":38,"geo_score":0.857,"dollars":590606.26,"programs":4,"id":"a6fl9nb3vejs","geo_precision":"city","recovery_id":"VISTA","state":"MS"},"type":"Feature","geometry":{"type":"Point","coordinates":[-90.18481,32.298757]}},{"properties":{"city":"Cleveland","volunteers":13,"geo_score":0.857,"dollars":446573.51,"programs":1,"id":"a6fl9nctqaww","geo_precision":"city","recovery_id":"VISTA","state":"MS"},"type":"Feature","geometry":{"type":"Point","coordinates":[-90.84313,33.847591]}},{"properties":{"city":"Hattiesburg","volunteers":6,"geo_score":0.857,"dollars":93253.62,"programs":1,"id":"a6fl9n90h7p5","geo_precision":"city","recovery_id":"VISTA","state":"MS"},"type":"Feature","geometry":{"type":"Point","coordinates":[-89.28071,31.245138]}},{"properties":{"city":"Meridian","volunteers":2,"geo_score":0.857,"dollars":31084.54,"programs":1,"id":"a6fl9n8pgnwt","geo_precision":"city","recovery_id":"VISTA","state":"MS"},"type":"Feature","geometry":{"type":"Point","coordinates":[-88.703656,32.36431]}},{"properties":{"city":"Bozeman","volunteers":85,"geo_score":0.857,"dollars":501599.0,"programs":1,"id":"a6fl9n4fur7o","geo_precision":"city","recovery_id":"ALL","state":"MT"},"type":"Feature","geometry":{"type":"Point","coordinates":[-111.168212,45.809998]}},{"properties":{"city":"Missoula","volunteers":60,"geo_score":0.857,"dollars":344644.0,"programs":2,"id":"a6fl9n2xdkrj","geo_precision":"city","recovery_id":"ALL","state":"MT"},"type":"Feature","geometry":{"type":"Point","coordinates":[-113.993998,46.872146]}},{"properties":{"city":"Helena","volunteers":24,"geo_score":0.857,"dollars":325238.0,"programs":2,"id":"a6fl9ncpm90x","geo_precision":"city","recovery_id":"ALL","state":"MT"},"type":"Feature","geometry":{"type":"Point","coordinates":[-112.197616,46.70934]}},{"properties":{"city":"Billings","volunteers":7,"geo_score":0.857,"dollars":17525.0,"programs":1,"id":"a6fl9nex7967","geo_precision":"city","recovery_id":"ALL","state":"MT"},"type":"Feature","geometry":{"type":"Point","coordinates":[-108.50069,45.783286]}},{"properties":{"city":"OTHERS","volunteers":10,"geo_score":0.0,"dollars":7200.0,"programs":1,"id":"a6fl9nevlotc","geo_precision":"unmatched","recovery_id":"ALL","state":"MT"},"type":"Feature","geometry":null},{"properties":{"city":"Bozeman","volunteers":85,"geo_score":0.857,"dollars":501599.0,"programs":1,"id":"a6fl9n38icz9","geo_precision":"city","recovery_id":"STATE_NATIONAL","state":"MT"},"type":"Feature","geometry":{"type":"Point","coordinates":[-111.168212,45.809998]}},{"properties":{"city":"Missoula","volunteers":48,"geo_score":0.857,"dollars":196333.0,"programs":1,"id":"a6fl9n4g2tm2","geo_precision":"city","recovery_id":"STATE_NATIONAL","state":"MT"},"type":"Feature","geometry":{"type":"Point","coordinates":[-113.993998,46.872146]}},{"properties":{"city":"Helena","volunteers":24,"geo_score":0.857,"dollars":698252.48,"programs":2,"id":"a6fl9nbs5fw8","geo_precision":"city","recovery_id":"VISTA","state":"MT"},"type":"Feature","geometry":{"type":"Point","coordinates":[-112.197616,46.70934]}},{"properties":{"city":"Missoula","volunteers":12,"geo_score":0.857,"dollars":334818.24,"programs":1,"id":"a6fl9naolc7e","geo_precision":"city","recovery_id":"VISTA","state":"MT"},"type":"Feature","geometry":{"type":"Point","coordinates":[-113.993998,46.872146]}},{"properties":{"city":"Sidney","volunteers":10,"geo_score":0.762,"dollars":162622.7,"programs":1,"id":"a6fl9nf04z1g","geo_precision":"city","recovery_id":"VISTA","state":"MT"},"type":"Feature","geometry":{"type":"Point","coordinates":[-110.851051,45.95882]}},{"properties":{"city":"Billings","volunteers":7,"geo_score":0.857,"dollars":126320.89,"programs":1,"id":"a6fl9nafosx8","geo_precision":"city","recovery_id":"VISTA","state":"MT"},"type":"Feature","geometry":{"type":"Point","coordinates":[-108.50069,45.783286]}},{"properties":{"city":"OTHERS","volunteers":8,"geo_score":0.0,"dollars":70163.0,"programs":2,"id":"a6fl9nb21o4j","geo_precision":"unmatched","recovery_id":"VISTA","state":"MT"},"type":"Feature","geometry":null},{"properties":{"city":"Greenville","volunteers":49,"geo_score":0.831,"dollars":410816.0,"programs":1,"id":"a6fl9n983nwn","geo_precision":"city","recovery_id":"ALL","state":"NC"},"type":"Feature","geometry":{"type":"Point","coordinates":[-81.703445,36.408734]}},{"properties":{"city":"Greensboro","volunteers":53,"geo_score":0.857,"dollars":315402.0,"programs":3,"id":"a6fl9mzfh234","geo_precision":"city","recovery_id":"ALL","state":"NC"},"type":"Feature","geometry":{"type":"Point","coordinates":[-79.791975,36.072636]}},{"properties":{"city":"Hendersonville","volunteers":12,"geo_score":0.806,"dollars":183300.0,"programs":1,"id":"a6fl9n8l3ko5","geo_precision":"city","recovery_id":"ALL","state":"NC"},"type":"Feature","geometry":{"type":"Point","coordinates":[-78.415777,36.325768]}},{"properties":{"city":"OTHERS","volunteers":40,"geo_score":0.0,"dollars":52000.0,"programs":3,"id":"a6fl9n4g1248","geo_precision":"unmatched","recovery_id":"ALL","state":"NC"},"type":"Feature","geometry":null},{"properties":{"city":"Elon","volunteers":21,"geo_score":0.857,"dollars":25500.0,"programs":1,"id":"a6fl9n7716b7","geo_precision":"city","recovery_id":"ALL","state":"NC"},"type":"Feature","geometry":{"type":"Point","coordinates":[-79.50669,36.102913]}},{"properties":{"city":"Greenville","volunteers":49,"geo_score":0.831,"dollars":410816.0,"programs":1,"id":"a6fl9n9w1ilp","geo_precision":"city","recovery_id":"STATE_NATIONAL","state":"NC"},"type":"Feature","geometry":{"type":"Point","coordinates":[-81.703445,36.408734]}},{"properties":{"city":"Greensboro","volunteers":36,"geo_score":0.857,"dollars":297271.0,"programs":2,"id":"a6fl9n0qymbi","geo_precision":"city","recovery_id":"STATE_NATIONAL","state":"NC"},"type":"Feature","geometry":{"type":"Point","coordinates":[-79.791975,36.072636]}},{"properties":{"city":"Hendersonville","volunteers":12,"geo_score":0.806,"dollars":183300.0,"programs":1,"id":"a6fl9nb7t2cb","geo_precision":"city","recovery_id":"STATE_NATIONAL","state":"NC"},"type":"Feature","geometry":{"type":"Point","coordinates":[-78.415777,36.325768]}},{"properties":{"city":"Elon","volunteers":21,"geo_score":0.857,"dollars":351887.67,"programs":1,"id":"a6fl9nf06gh4","geo_precision":"city","recovery_id":"VISTA","state":"NC"},"type":"Feature","geometry":{"type":"Point","coordinates":[-79.50669,36.102913]}},{"properties":{"city":"Greensboro","volunteers":17,"geo_score":0.857,"dollars":282349.59,"programs":1,"id":"a6fl9mzmaxl5","geo_precision":"city","recovery_id":"VISTA","state":"NC"},"type":"Feature","geometry":{"type":"Point","coordinates":[-79.791975,36.072636]}},{"properties":{"city":"OTHERS","volunteers":15,"geo_score":0.0,"dollars":243134.05,"programs":3,"id":"a6fl9n656ear","geo_precision":"unmatched","recovery_id":"VISTA","state":"NC"},"type":"Feature","geometry":null},{"properties":{"city":"Winston-Salem","volunteers":13,"geo_score":0.857,"dollars":222049.51,"programs":1,"id":"a6fl9n8wcnj0","geo_precision":"city","recovery_id":"VISTA","state":"NC"},"type":"Feature","geometry":{"type":"Point","coordinates":[-80.244216,36.09986]}},{"properties":{"city":"Raleigh","volunteers":17,"geo_score":0.857,"dollars":218499.64,"programs":1,"id":"a6fl9n2a43bu","geo_precision":"city","recovery_id":"VISTA","state":"NC"},"type":"Feature","geometry":{"type":"Point","coordinates":[-78.638615,35.772096]}},{"properties":{"city":"Lincoln","volunteers":41,"geo_score":0.857,"dollars":288184.0,"programs":4,"id":"a6fl9na73g1s","geo_precision":"city","recovery_id":"ALL","state":"NE"},"type":"Feature","geometry":{"type":"Point","coordinates":[-96.66696,40.800001]}},{"properties":{"city":"Omaha","volunteers":5,"geo_score":0.857,"dollars":95346.0,"programs":3,"id":"a6fl9n4btga9","geo_precision":"city","recovery_id":"ALL","state":"NE"},"type":"Feature","geometry":{"type":"Point","coordinates":[-95.937792,41.25861]}},{"properties":{"city":"Macy","volunteers":0,"geo_score":0.857,"dollars":58829.0,"programs":1,"id":"a6fl9neslf54","geo_precision":"city","recovery_id":"ALL","state":"NE"},"type":"Feature","geometry":{"type":"Point","coordinates":[-96.545297,42.146597]}},{"properties":{"city":"Hastings","volunteers":6,"geo_score":0.857,"dollars":22400.0,"programs":1,"id":"a6fl9n30ngfq","geo_precision":"city","recovery_id":"ALL","state":"NE"},"type":"Feature","geometry":{"type":"Point","coordinates":[-98.389035,40.582425]}},{"properties":{"city":"OTHERS","volunteers":0,"geo_score":0.0,"dollars":7415.0,"programs":2,"id":"a6fl9n0fsf08","geo_precision":"unmatched","recovery_id":"ALL","state":"NE"},"type":"Feature","geometry":null},{"properties":{"city":"Lincoln","volunteers":32,"geo_score":0.857,"dollars":288184.0,"programs":2,"id":"a6fl9nd54ncv","geo_precision":"city","recovery_id":"STATE_NATIONAL","state":"NE"},"type":"Feature","geometry":{"type":"Point","coordinates":[-96.66696,40.800001]}},{"properties":{"city":"Omaha","volunteers":3,"geo_score":0.857,"dollars":95346.0,"programs":2,"id":"a6fl9n3j7r2u","geo_precision":"city","recovery_id":"STATE_NATIONAL","state":"NE"},"type":"Feature","geometry":{"type":"Point","coordinates":[-95.937792,41.25861]}},{"properties":{"city":"Macy","volunteers":0,"geo_score":0.857,"dollars":58829.0,"programs":1,"id":"a6fl9n0xzinw","geo_precision":"city","recovery_id":"STATE_NATIONAL","state":"NE"},"type":"Feature","geometry":{"type":"Point","coordinates":[-96.545297,42.146597]}},{"properties":{"city":"Hastings","volunteers":6,"geo_score":0.857,"dollars":22400.0,"programs":1,"id":"a6fl9nb0c0lh","geo_precision":"city","recovery_id":"STATE_NATIONAL","state":"NE"},"type":"Feature","geometry":{"type":"Point","coordinates":[-98.389035,40.582425]}},{"properties":{"city":"OTHERS","volunteers":0,"geo_score":0.0,"dollars":7415.0,"programs":2,"id":"a6fl9n9lu8ag","geo_precision":"unmatched","recovery_id":"STATE_NATIONAL","state":"NE"},"type":"Feature","geometry":null},{"properties":{"city":"Lincoln","volunteers":9,"geo_score":0.857,"dollars":139880.43,"programs":2,"id":"a6fl9n19rjyf","geo_precision":"city","recovery_id":"VISTA","state":"NE"},"type":"Feature","geometry":{"type":"Point","coordinates":[-96.66696,40.800001]}},{"properties":{"city":"Omaha","volunteers":2,"geo_score":0.857,"dollars":31084.54,"programs":1,"id":"a6fl9nade4zr","geo_precision":"city","recovery_id":"VISTA","state":"NE"},"type":"Feature","geometry":{"type":"Point","coordinates":[-95.937792,41.25861]}},{"properties":{"city":"Allenstown","volunteers":0,"geo_score":0.857,"dollars":442322.0,"programs":1,"id":"a6fl9nb4wqe9","geo_precision":"city","recovery_id":"ALL","state":"NH"},"type":"Feature","geometry":{"type":"Point","coordinates":[-71.405623,43.15786]}},{"properties":{"city":"Concord","volunteers":30,"geo_score":0.857,"dollars":407476.0,"programs":4,"id":"a6fl9nb8rb90","geo_precision":"city","recovery_id":"ALL","state":"NH"},"type":"Feature","geometry":{"type":"Point","coordinates":[-71.537572,43.208137]}},{"properties":{"city":"Stratham","volunteers":0,"geo_score":0.857,"dollars":129000.0,"programs":1,"id":"a6fl9ndjn16q","geo_precision":"city","recovery_id":"ALL","state":"NH"},"type":"Feature","geometry":{"type":"Point","coordinates":[-70.882134,43.01295]}},{"properties":{"city":"Manchester","volunteers":5,"geo_score":0.857,"dollars":5000.0,"programs":1,"id":"a6fl9n8d54fv","geo_precision":"city","recovery_id":"ALL","state":"NH"},"type":"Feature","geometry":{"type":"Point","coordinates":[-71.454789,42.99564]}},{"properties":{"city":"Allenstown","volunteers":0,"geo_score":0.857,"dollars":442322.0,"programs":1,"id":"a6fl9n3go6ff","geo_precision":"city","recovery_id":"STATE_NATIONAL","state":"NH"},"type":"Feature","geometry":{"type":"Point","coordinates":[-71.405623,43.15786]}},{"properties":{"city":"Concord","volunteers":19,"geo_score":0.857,"dollars":262000.0,"programs":1,"id":"a6fl9nawkpmq","geo_precision":"city","recovery_id":"STATE_NATIONAL","state":"NH"},"type":"Feature","geometry":{"type":"Point","coordinates":[-71.537572,43.208137]}},{"properties":{"city":"Concord","volunteers":6,"geo_score":0.857,"dollars":140476.0,"programs":2,"id":"a6fl9n0zq5la","geo_precision":"city","recovery_id":"STATE_NATIONAL","state":"NH"},"type":"Feature","geometry":{"type":"Point","coordinates":[-71.537572,43.208137]}},{"properties":{"city":"Stratham","volunteers":0,"geo_score":0.857,"dollars":129000.0,"programs":1,"id":"a6fl9n3uq06v","geo_precision":"city","recovery_id":"STATE_NATIONAL","state":"NH"},"type":"Feature","geometry":{"type":"Point","coordinates":[-70.882134,43.01295]}},{"properties":{"city":"Concord","volunteers":5,"geo_score":0.857,"dollars":82711.35,"programs":1,"id":"a6fl9mzcikpl","geo_precision":"city","recovery_id":"VISTA","state":"NH"},"type":"Feature","geometry":{"type":"Point","coordinates":[-71.537572,43.208137]}},{"properties":{"city":"Manchester","volunteers":5,"geo_score":0.857,"dollars":82711.35,"programs":1,"id":"a6fl9nbjcswz","geo_precision":"city","recovery_id":"VISTA","state":"NH"},"type":"Feature","geometry":{"type":"Point","coordinates":[-71.454789,42.99564]}},{"properties":{"city":"OTHERS","volunteers":43,"geo_score":0.0,"dollars":258361.0,"programs":6,"id":"a6fl9n5y5sps","geo_precision":"unmatched","recovery_id":"ALL","state":"NJ"},"type":"Feature","geometry":null},{"properties":{"city":"Ewing","volunteers":30,"geo_score":0.0,"dollars":256408.0,"programs":2,"id":"a6fl9neqfk56","geo_precision":"unmatched","recovery_id":"ALL","state":"NJ"},"type":"Feature","geometry":null},{"properties":{"city":"New Brunswick","volunteers":27,"geo_score":0.857,"dollars":227520.0,"programs":2,"id":"a6fl9n4vf1ik","geo_precision":"city","recovery_id":"ALL","state":"NJ"},"type":"Feature","geometry":{"type":"Point","coordinates":[-74.451819,40.486216]}},{"properties":{"city":"Patterson","volunteers":16,"geo_score":0.841,"dollars":183400.0,"programs":1,"id":"a6fl9n3nqnhu","geo_precision":"city","recovery_id":"ALL","state":"NJ"},"type":"Feature","geometry":{"type":"Point","coordinates":[-74.171811,40.916765]}},{"properties":{"city":"Paterson","volunteers":16,"geo_score":0.857,"dollars":131000.0,"programs":1,"id":"a6fl9n84hbgk","geo_precision":"city","recovery_id":"ALL","state":"NJ"},"type":"Feature","geometry":{"type":"Point","coordinates":[-74.171811,40.916765]}},{"properties":{"city":"OTHERS","volunteers":39,"geo_score":0.0,"dollars":258361.0,"programs":5,"id":"a6fl9ncx6j2s","geo_precision":"unmatched","recovery_id":"STATE_NATIONAL","state":"NJ"},"type":"Feature","geometry":null},{"properties":{"city":"Ewing","volunteers":30,"geo_score":0.0,"dollars":256408.0,"programs":2,"id":"a6fl9n61j7zo","geo_precision":"unmatched","recovery_id":"STATE_NATIONAL","state":"NJ"},"type":"Feature","geometry":null},{"properties":{"city":"New Brunswick","volunteers":27,"geo_score":0.857,"dollars":227520.0,"programs":2,"id":"a6fl9n1bzwti","geo_precision":"city","recovery_id":"STATE_NATIONAL","state":"NJ"},"type":"Feature","geometry":{"type":"Point","coordinates":[-74.451819,40.486216]}},{"properties":{"city":"Patterson","volunteers":16,"geo_score":0.841,"dollars":183400.0,"programs":1,"id":"a6fl9n3lxlb6","geo_precision":"city","recovery_id":"STATE_NATIONAL","state":"NJ"},"type":"Feature","geometry":{"type":"Point","coordinates":[-74.171811,40.916765]}},{"properties":{"city":"Paterson","volunteers":16,"geo_score":0.857,"dollars":131000.0,"programs":1,"id":"a6fl9n2ququz","geo_precision":"city","recovery_id":"STATE_NATIONAL","state":"NJ"},"type":"Feature","geometry":{"type":"Point","coordinates":[-74.171811,40.916765]}},{"properties":{"city":"Elizabeth","volunteers":4,"geo_score":0.857,"dollars":62169.08,"programs":1,"id":"a6fl9nd06o9q","geo_precision":"city","recovery_id":"VISTA","state":"NJ"},"type":"Feature","geometry":{"type":"Point","coordinates":[-74.210701,40.663992]}},{"properties":{"city":"Orange","volunteers":3,"geo_score":0.857,"dollars":46626.81,"programs":1,"id":"a6fl9nccmyc0","geo_precision":"city","recovery_id":"VISTA","state":"NJ"},"type":"Feature","geometry":{"type":"Point","coordinates":[-74.23674,40.7704]}},{"properties":{"city":"Lakewood","volunteers":1,"geo_score":0.857,"dollars":15542.27,"programs":1,"id":"a6fl9nen0zn7","geo_precision":"city","recovery_id":"VISTA","state":"NJ"},"type":"Feature","geometry":{"type":"Point","coordinates":[-74.149784,39.94517]}},{"properties":{"city":"Albuquerque","volunteers":48,"geo_score":0.857,"dollars":270218.0,"programs":5,"id":"a6fl9n0xa83n","geo_precision":"city","recovery_id":"ALL","state":"NM"},"type":"Feature","geometry":{"type":"Point","coordinates":[-106.651137,35.084491]}},{"properties":{"city":"Ranchos de Taos","volunteers":43,"geo_score":0.857,"dollars":197031.0,"programs":1,"id":"a6fl9ncilqvq","geo_precision":"city","recovery_id":"ALL","state":"NM"},"type":"Feature","geometry":{"type":"Point","coordinates":[-105.68471,36.345971]}},{"properties":{"city":"Albuqueque","volunteers":1,"geo_score":0.0,"dollars":166572.0,"programs":1,"id":"a6fl9nbjdee8","geo_precision":"unmatched","recovery_id":"ALL","state":"NM"},"type":"Feature","geometry":null},{"properties":{"city":"Santa Fe","volunteers":22,"geo_score":0.857,"dollars":165428.0,"programs":1,"id":"a6fl9nchbu07","geo_precision":"city","recovery_id":"ALL","state":"NM"},"type":"Feature","geometry":{"type":"Point","coordinates":[-106.073414,35.625075]}},{"properties":{"city":"OTHERS","volunteers":57,"geo_score":0.0,"dollars":85888.0,"programs":5,"id":"a6fl9n5x37cj","geo_precision":"unmatched","recovery_id":"ALL","state":"NM"},"type":"Feature","geometry":null},{"properties":{"city":"Albuquerque","volunteers":15,"geo_score":0.857,"dollars":230218.0,"programs":2,"id":"a6fl9nddgpe3","geo_precision":"city","recovery_id":"STATE_NATIONAL","state":"NM"},"type":"Feature","geometry":{"type":"Point","coordinates":[-106.651137,35.084491]}},{"properties":{"city":"Ranchos de Taos","volunteers":43,"geo_score":0.857,"dollars":197031.0,"programs":1,"id":"a6fl9n1fdqux","geo_precision":"city","recovery_id":"STATE_NATIONAL","state":"NM"},"type":"Feature","geometry":{"type":"Point","coordinates":[-105.68471,36.345971]}},{"properties":{"city":"Las Cruces","volunteers":11,"geo_score":0.857,"dollars":41000.0,"programs":2,"id":"a6fl9n92gxi7","geo_precision":"city","recovery_id":"STATE_NATIONAL","state":"NM"},"type":"Feature","geometry":{"type":"Point","coordinates":[-106.778337,32.312316]}},{"properties":{"city":"Gallup","volunteers":10,"geo_score":0.857,"dollars":29888.0,"programs":1,"id":"a6fl9n2ech43","geo_precision":"city","recovery_id":"STATE_NATIONAL","state":"NM"},"type":"Feature","geometry":{"type":"Point","coordinates":[-108.319497,35.651526]}},{"properties":{"city":"OTHERS","volunteers":17,"geo_score":0.0,"dollars":15000.0,"programs":1,"id":"a6fl9nbwkf07","geo_precision":"unmatched","recovery_id":"STATE_NATIONAL","state":"NM"},"type":"Feature","geometry":null},{"properties":{"city":"Santa Fe","volunteers":22,"geo_score":0.857,"dollars":507357.94,"programs":1,"id":"a6fl9ndgqzcn","geo_precision":"city","recovery_id":"VISTA","state":"NM"},"type":"Feature","geometry":{"type":"Point","coordinates":[-106.073414,35.625075]}},{"properties":{"city":"Albuquerque","volunteers":33,"geo_score":0.857,"dollars":458088.38,"programs":3,"id":"a6fl9n9a6gjb","geo_precision":"city","recovery_id":"VISTA","state":"NM"},"type":"Feature","geometry":{"type":"Point","coordinates":[-106.651137,35.084491]}},{"properties":{"city":"Las Cruces","volunteers":19,"geo_score":0.857,"dollars":295303.13,"programs":1,"id":"a6fl9n1cu33i","geo_precision":"city","recovery_id":"VISTA","state":"NM"},"type":"Feature","geometry":{"type":"Point","coordinates":[-106.778337,32.312316]}},{"properties":{"city":"Albuqueque","volunteers":1,"geo_score":0.0,"dollars":182114.27,"programs":1,"id":"a6fl9ndu72p0","geo_precision":"unmatched","recovery_id":"VISTA","state":"NM"},"type":"Feature","geometry":null},{"properties":{"city":"OTHERS","volunteers":2,"geo_score":0.0,"dollars":31084.54,"programs":1,"id":"a6fl9n4hymy0","geo_precision":"unmatched","recovery_id":"VISTA","state":"NM"},"type":"Feature","geometry":null},{"properties":{"city":"Reno","volunteers":56,"geo_score":0.857,"dollars":329593.0,"programs":3,"id":"a6fl9n0jyo1f","geo_precision":"city","recovery_id":"ALL","state":"NV"},"type":"Feature","geometry":{"type":"Point","coordinates":[-119.813803,39.529633]}},{"properties":{"city":"Las Vegas","volunteers":22,"geo_score":0.857,"dollars":95702.0,"programs":3,"id":"a6fl9ncvybga","geo_precision":"city","recovery_id":"ALL","state":"NV"},"type":"Feature","geometry":{"type":"Point","coordinates":[-115.137223,36.174971]}},{"properties":{"city":"Carson City","volunteers":9,"geo_score":0.857,"dollars":10000.0,"programs":1,"id":"a6fl9n4lgid6","geo_precision":"city","recovery_id":"ALL","state":"NV"},"type":"Feature","geometry":{"type":"Point","coordinates":[-119.73074,39.154485]}},{"properties":{"city":"Reno","volunteers":45,"geo_score":0.857,"dollars":251283.0,"programs":1,"id":"a6fl9ncr1vmg","geo_precision":"city","recovery_id":"STATE_NATIONAL","state":"NV"},"type":"Feature","geometry":{"type":"Point","coordinates":[-119.813803,39.529633]}},{"properties":{"city":"Las Vegas","volunteers":6,"geo_score":0.857,"dollars":76702.0,"programs":1,"id":"a6fl9n9xkhqm","geo_precision":"city","recovery_id":"STATE_NATIONAL","state":"NV"},"type":"Feature","geometry":{"type":"Point","coordinates":[-115.137223,36.174971]}},{"properties":{"city":"Las Vegas","volunteers":16,"geo_score":0.857,"dollars":267676.32,"programs":2,"id":"a6fl9ncoaess","geo_precision":"city","recovery_id":"VISTA","state":"NV"},"type":"Feature","geometry":{"type":"Point","coordinates":[-115.137223,36.174971]}},{"properties":{"city":"Reno","volunteers":11,"geo_score":0.857,"dollars":249274.97,"programs":2,"id":"a6fl9n5d0zk9","geo_precision":"city","recovery_id":"VISTA","state":"NV"},"type":"Feature","geometry":{"type":"Point","coordinates":[-119.813803,39.529633]}},{"properties":{"city":"Carson City","volunteers":9,"geo_score":0.857,"dollars":149880.43,"programs":1,"id":"a6fl9n7l6yxh","geo_precision":"city","recovery_id":"VISTA","state":"NV"},"type":"Feature","geometry":{"type":"Point","coordinates":[-119.73074,39.154485]}},{"properties":{"city":"Winnemucca","volunteers":5,"geo_score":0.857,"dollars":77711.35,"programs":1,"id":"a6fl9n3how0o","geo_precision":"city","recovery_id":"VISTA","state":"NV"},"type":"Feature","geometry":{"type":"Point","coordinates":[-117.706799,41.213481]}},{"properties":{"city":"New York","volunteers":1998,"geo_score":0.857,"dollars":5861929.0,"programs":22,"id":"a6fl9mzmlzy2","geo_precision":"city","recovery_id":"ALL","state":"NY"},"type":"Feature","geometry":{"type":"Point","coordinates":[-74.005973,40.714269]}},{"properties":{"city":"OTHERS","volunteers":385,"geo_score":0.0,"dollars":2576092.0,"programs":30,"id":"a6fl9n0i837o","geo_precision":"unmatched","recovery_id":"ALL","state":"NY"},"type":"Feature","geometry":null},{"properties":{"city":"West Seneca","volunteers":186,"geo_score":0.857,"dollars":1182158.0,"programs":2,"id":"a6fl9nd6vy33","geo_precision":"city","recovery_id":"ALL","state":"NY"},"type":"Feature","geometry":{"type":"Point","coordinates":[-78.799755,42.850059]}},{"properties":{"city":"Buffalo","volunteers":115,"geo_score":0.857,"dollars":513405.0,"programs":5,"id":"a6fl9n950odx","geo_precision":"city","recovery_id":"ALL","state":"NY"},"type":"Feature","geometry":{"type":"Point","coordinates":[-78.878369,42.886447]}},{"properties":{"city":"New Paltz","volunteers":33,"geo_score":0.857,"dollars":449353.0,"programs":1,"id":"a6fl9n61qa6g","geo_precision":"city","recovery_id":"ALL","state":"NY"},"type":"Feature","geometry":{"type":"Point","coordinates":[-74.109241,41.74638]}},{"properties":{"city":"OTHERS","volunteers":348,"geo_score":0.0,"dollars":2966497.0,"programs":21,"id":"a6fl9n7lbnkg","geo_precision":"unmatched","recovery_id":"STATE_NATIONAL","state":"NY"},"type":"Feature","geometry":null},{"properties":{"city":"New York","volunteers":1432,"geo_score":0.857,"dollars":2960245.0,"programs":3,"id":"a6fl9nche5fd","geo_precision":"city","recovery_id":"STATE_NATIONAL","state":"NY"},"type":"Feature","geometry":{"type":"Point","coordinates":[-74.005973,40.714269]}},{"properties":{"city":"New York","volunteers":270,"geo_score":0.857,"dollars":2617984.0,"programs":9,"id":"a6fl9n3e6z7z","geo_precision":"city","recovery_id":"STATE_NATIONAL","state":"NY"},"type":"Feature","geometry":{"type":"Point","coordinates":[-74.005973,40.714269]}},{"properties":{"city":"West Seneca","volunteers":186,"geo_score":0.857,"dollars":1182158.0,"programs":2,"id":"a6fl9n1uz5ni","geo_precision":"city","recovery_id":"STATE_NATIONAL","state":"NY"},"type":"Feature","geometry":{"type":"Point","coordinates":[-78.799755,42.850059]}},{"properties":{"city":"New Paltz","volunteers":33,"geo_score":0.857,"dollars":449353.0,"programs":1,"id":"a6fl9n1jwian","geo_precision":"city","recovery_id":"STATE_NATIONAL","state":"NY"},"type":"Feature","geometry":{"type":"Point","coordinates":[-74.109241,41.74638]}},{"properties":{"city":"New York","volunteers":296,"geo_score":0.857,"dollars":4708142.65,"programs":10,"id":"a6fl9n3rss9l","geo_precision":"city","recovery_id":"VISTA","state":"NY"},"type":"Feature","geometry":{"type":"Point","coordinates":[-74.005973,40.714269]}},{"properties":{"city":"Buffalo","volunteers":68,"geo_score":0.857,"dollars":724010.66,"programs":4,"id":"a6fl9n4zjrmb","geo_precision":"city","recovery_id":"VISTA","state":"NY"},"type":"Feature","geometry":{"type":"Point","coordinates":[-78.878369,42.886447]}},{"properties":{"city":"OTHERS","volunteers":45,"geo_score":0.0,"dollars":549232.88,"programs":10,"id":"a6fl9n9zy3tb","geo_precision":"unmatched","recovery_id":"VISTA","state":"NY"},"type":"Feature","geometry":null},{"properties":{"city":"Rochester","volunteers":46,"geo_score":0.857,"dollars":454174.83,"programs":4,"id":"a6fl9n8prz1c","geo_precision":"city","recovery_id":"VISTA","state":"NY"},"type":"Feature","geometry":{"type":"Point","coordinates":[-77.615557,43.154785]}},{"properties":{"city":"Loudonville","volunteers":20,"geo_score":0.857,"dollars":175407.5,"programs":1,"id":"a6fl9n9rcp27","geo_precision":"city","recovery_id":"VISTA","state":"NY"},"type":"Feature","geometry":{"type":"Point","coordinates":[-73.754842,42.704801]}},{"properties":{"city":"Toledo","volunteers":34,"geo_score":0.857,"dollars":480449.0,"programs":2,"id":"a6fl9n2vhzyi","geo_precision":"city","recovery_id":"ALL","state":"OH"},"type":"Feature","geometry":{"type":"Point","coordinates":[-83.555212,41.663938]}},{"properties":{"city":"Cincinnati","volunteers":21,"geo_score":0.857,"dollars":450513.0,"programs":3,"id":"a6fl9n4tx6k1","geo_precision":"city","recovery_id":"ALL","state":"OH"},"type":"Feature","geometry":{"type":"Point","coordinates":[-84.456886,39.162004]}},{"properties":{"city":"Ravenna","volunteers":39,"geo_score":0.857,"dollars":303980.0,"programs":2,"id":"a6fl9n5wru9o","geo_precision":"city","recovery_id":"ALL","state":"OH"},"type":"Feature","geometry":{"type":"Point","coordinates":[-81.172922,41.163755]}},{"properties":{"city":"OTHERS","volunteers":40,"geo_score":0.0,"dollars":276813.0,"programs":3,"id":"a6fl9n3lna4u","geo_precision":"unmatched","recovery_id":"ALL","state":"OH"},"type":"Feature","geometry":null},{"properties":{"city":"Columbus","volunteers":77,"geo_score":0.776,"dollars":273093.0,"programs":8,"id":"a6fl9nc49mo9","geo_precision":"city","recovery_id":"ALL","state":"OH"},"type":"Feature","geometry":{"type":"Point","coordinates":[-82.695724,39.998397]}},{"properties":{"city":"Toledo","volunteers":34,"geo_score":0.857,"dollars":480449.0,"programs":2,"id":"a6fl9n2qzqh8","geo_precision":"city","recovery_id":"STATE_NATIONAL","state":"OH"},"type":"Feature","geometry":{"type":"Point","coordinates":[-83.555212,41.663938]}},{"properties":{"city":"Cincinnati","volunteers":18,"geo_score":0.857,"dollars":450513.0,"programs":2,"id":"a6fl9ne0sd3t","geo_precision":"city","recovery_id":"STATE_NATIONAL","state":"OH"},"type":"Feature","geometry":{"type":"Point","coordinates":[-84.456886,39.162004]}},{"properties":{"city":"Ravenna","volunteers":33,"geo_score":0.857,"dollars":303980.0,"programs":1,"id":"a6fl9ncla3nl","geo_precision":"city","recovery_id":"STATE_NATIONAL","state":"OH"},"type":"Feature","geometry":{"type":"Point","coordinates":[-81.172922,41.163755]}},{"properties":{"city":"Columbus","volunteers":13,"geo_score":0.776,"dollars":236855.0,"programs":1,"id":"a6fl9n90xw6w","geo_precision":"city","recovery_id":"STATE_NATIONAL","state":"OH"},"type":"Feature","geometry":{"type":"Point","coordinates":[-82.695724,39.998397]}},{"properties":{"city":"OTHERS","volunteers":20,"geo_score":0.0,"dollars":207813.0,"programs":1,"id":"a6fl9n8evp5c","geo_precision":"unmatched","recovery_id":"STATE_NATIONAL","state":"OH"},"type":"Feature","geometry":null},{"properties":{"city":"Columbus","volunteers":64,"geo_score":0.776,"dollars":1030943.28,"programs":7,"id":"a6fl9mzp1ogq","geo_precision":"city","recovery_id":"VISTA","state":"OH"},"type":"Feature","geometry":{"type":"Point","coordinates":[-82.695724,39.998397]}},{"properties":{"city":"Cleveland","volunteers":22,"geo_score":0.857,"dollars":341929.94,"programs":7,"id":"a6fl9n32v2u7","geo_precision":"city","recovery_id":"VISTA","state":"OH"},"type":"Feature","geometry":{"type":"Point","coordinates":[-81.695409,41.499495]}},{"properties":{"city":"OTHERS","volunteers":18,"geo_score":0.0,"dollars":266217.07,"programs":5,"id":"a6fl9n9cjr3u","geo_precision":"unmatched","recovery_id":"VISTA","state":"OH"},"type":"Feature","geometry":null},{"properties":{"city":"Athens","volunteers":13,"geo_score":0.857,"dollars":237049.51,"programs":1,"id":"a6fl9n7sl688","geo_precision":"city","recovery_id":"VISTA","state":"OH"},"type":"Feature","geometry":{"type":"Point","coordinates":[-82.013803,39.339279]}},{"properties":{"city":"Wilmington","volunteers":7,"geo_score":0.857,"dollars":142795.89,"programs":1,"id":"a6fl9mzy8n79","geo_precision":"city","recovery_id":"VISTA","state":"OH"},"type":"Feature","geometry":{"type":"Point","coordinates":[-83.824424,39.444985]}},{"properties":{"city":"Tulsa","volunteers":65,"geo_score":0.857,"dollars":702359.0,"programs":1,"id":"a6fl9n6fqci1","geo_precision":"city","recovery_id":"ALL","state":"OK"},"type":"Feature","geometry":{"type":"Point","coordinates":[-95.992775,36.153982]}},{"properties":{"city":"Oklahoma City","volunteers":64,"geo_score":0.857,"dollars":352500.0,"programs":4,"id":"a6fl9n1wc425","geo_precision":"city","recovery_id":"ALL","state":"OK"},"type":"Feature","geometry":{"type":"Point","coordinates":[-97.516428,35.46756]}},{"properties":{"city":"Hugo","volunteers":0,"geo_score":0.857,"dollars":56833.0,"programs":1,"id":"a6fl9mzmyczh","geo_precision":"city","recovery_id":"ALL","state":"OK"},"type":"Feature","geometry":{"type":"Point","coordinates":[-95.514473,34.018892]}},{"properties":{"city":"Okeene","volunteers":0,"geo_score":0.857,"dollars":21800.0,"programs":1,"id":"a6fl9nexyfm3","geo_precision":"city","recovery_id":"ALL","state":"OK"},"type":"Feature","geometry":{"type":"Point","coordinates":[-98.42913,36.122914]}},{"properties":{"city":"Oklahoma City","volunteers":45,"geo_score":0.857,"dollars":352500.0,"programs":1,"id":"a6fl9nd7394q","geo_precision":"city","recovery_id":"STATE_NATIONAL","state":"OK"},"type":"Feature","geometry":{"type":"Point","coordinates":[-97.516428,35.46756]}},{"properties":{"city":"Hugo","volunteers":0,"geo_score":0.857,"dollars":56833.0,"programs":1,"id":"a6fl9n4szm7h","geo_precision":"city","recovery_id":"STATE_NATIONAL","state":"OK"},"type":"Feature","geometry":{"type":"Point","coordinates":[-95.514473,34.018892]}},{"properties":{"city":"Okeene","volunteers":0,"geo_score":0.857,"dollars":21800.0,"programs":1,"id":"a6fl9n8ynmdx","geo_precision":"city","recovery_id":"STATE_NATIONAL","state":"OK"},"type":"Feature","geometry":{"type":"Point","coordinates":[-98.42913,36.122914]}},{"properties":{"city":"Tulsa","volunteers":65,"geo_score":0.857,"dollars":1374011.8,"programs":1,"id":"a6fl9n8brii4","geo_precision":"city","recovery_id":"VISTA","state":"OK"},"type":"Feature","geometry":{"type":"Point","coordinates":[-95.992775,36.153982]}},{"properties":{"city":"Oklahoma City","volunteers":19,"geo_score":0.857,"dollars":254671.76,"programs":3,"id":"a6fl9myxog6k","geo_precision":"city","recovery_id":"VISTA","state":"OK"},"type":"Feature","geometry":{"type":"Point","coordinates":[-97.516428,35.46756]}},{"properties":{"city":"Portland","volunteers":109,"geo_score":0.857,"dollars":734141.0,"programs":6,"id":"a6fl9n3sc9xk","geo_precision":"city","recovery_id":"ALL","state":"OR"},"type":"Feature","geometry":{"type":"Point","coordinates":[-122.676207,45.523452]}},{"properties":{"city":"Eugene","volunteers":5,"geo_score":0.857,"dollars":88934.0,"programs":1,"id":"a6fl9naqm4kg","geo_precision":"city","recovery_id":"ALL","state":"OR"},"type":"Feature","geometry":{"type":"Point","coordinates":[-123.086754,44.052069]}},{"properties":{"city":"Portland","volunteers":60,"geo_score":0.857,"dollars":684141.0,"programs":2,"id":"a6fl9n7sokn0","geo_precision":"city","recovery_id":"STATE_NATIONAL","state":"OR"},"type":"Feature","geometry":{"type":"Point","coordinates":[-122.676207,45.523452]}},{"properties":{"city":"Eugene","volunteers":5,"geo_score":0.857,"dollars":88934.0,"programs":1,"id":"a6fl9n0kpnbi","geo_precision":"city","recovery_id":"STATE_NATIONAL","state":"OR"},"type":"Feature","geometry":{"type":"Point","coordinates":[-123.086754,44.052069]}},{"properties":{"city":"Portland","volunteers":49,"geo_score":0.857,"dollars":811571.23,"programs":4,"id":"a6fl9nbbr1sh","geo_precision":"city","recovery_id":"VISTA","state":"OR"},"type":"Feature","geometry":{"type":"Point","coordinates":[-122.676207,45.523452]}},{"properties":{"city":"Corvallis","volunteers":2,"geo_score":0.857,"dollars":31084.54,"programs":1,"id":"a6fl9n8y0kw2","geo_precision":"city","recovery_id":"VISTA","state":"OR"},"type":"Feature","geometry":{"type":"Point","coordinates":[-123.262044,44.564566]}},{"properties":{"city":"Knox","volunteers":110,"geo_score":0.857,"dollars":902459.0,"programs":2,"id":"a6fl9n9hvnzi","geo_precision":"city","recovery_id":"ALL","state":"PA"},"type":"Feature","geometry":{"type":"Point","coordinates":[-79.592521,41.190299]}},{"properties":{"city":"Philadelphia","volunteers":124,"geo_score":0.857,"dollars":788590.0,"programs":16,"id":"a6fl9n9twc49","geo_precision":"city","recovery_id":"ALL","state":"PA"},"type":"Feature","geometry":{"type":"Point","coordinates":[-75.163789,39.952335]}},{"properties":{"city":"Pittsburgh","volunteers":57,"geo_score":0.857,"dollars":711827.0,"programs":2,"id":"a6fl9n3hpey0","geo_precision":"city","recovery_id":"ALL","state":"PA"},"type":"Feature","geometry":{"type":"Point","coordinates":[-79.995886,40.440625]}},{"properties":{"city":"OTHERS","volunteers":124,"geo_score":0.0,"dollars":681339.0,"programs":9,"id":"a6fl9ne7pau3","geo_precision":"unmatched","recovery_id":"ALL","state":"PA"},"type":"Feature","geometry":null},{"properties":{"city":"Slippery Rock","volunteers":113,"geo_score":0.821,"dollars":549534.0,"programs":1,"id":"a6fl9n48zex8","geo_precision":"city","recovery_id":"ALL","state":"PA"},"type":"Feature","geometry":{"type":"Point","coordinates":[-80.015335,41.02423]}},{"properties":{"city":"OTHERS","volunteers":107,"geo_score":0.0,"dollars":1136886.0,"programs":7,"id":"a6fl9nb1ys7p","geo_precision":"unmatched","recovery_id":"STATE_NATIONAL","state":"PA"},"type":"Feature","geometry":null},{"properties":{"city":"Knox","volunteers":110,"geo_score":0.857,"dollars":902459.0,"programs":2,"id":"a6fl9n7lht5p","geo_precision":"city","recovery_id":"STATE_NATIONAL","state":"PA"},"type":"Feature","geometry":{"type":"Point","coordinates":[-79.592521,41.190299]}},{"properties":{"city":"Slippery Rock","volunteers":113,"geo_score":0.821,"dollars":549534.0,"programs":1,"id":"a6fl9nebh9mt","geo_precision":"city","recovery_id":"STATE_NATIONAL","state":"PA"},"type":"Feature","geometry":{"type":"Point","coordinates":[-80.015335,41.02423]}},{"properties":{"city":"Philadelphia","volunteers":41,"geo_score":0.857,"dollars":484870.0,"programs":2,"id":"a6fl9n493s3c","geo_precision":"city","recovery_id":"STATE_NATIONAL","state":"PA"},"type":"Feature","geometry":{"type":"Point","coordinates":[-75.163789,39.952335]}},{"properties":{"city":"Pittsburgh","volunteers":29,"geo_score":0.857,"dollars":435000.0,"programs":1,"id":"a6fl9mzgs43z","geo_precision":"city","recovery_id":"STATE_NATIONAL","state":"PA"},"type":"Feature","geometry":{"type":"Point","coordinates":[-79.995886,40.440625]}},{"properties":{"city":"Philadelphia","volunteers":59,"geo_score":0.857,"dollars":898612.56,"programs":12,"id":"a6fl9n5e7dlh","geo_precision":"city","recovery_id":"VISTA","state":"PA"},"type":"Feature","geometry":{"type":"Point","coordinates":[-75.163789,39.952335]}},{"properties":{"city":"Harrisburg","volunteers":40,"geo_score":0.857,"dollars":604071.85,"programs":2,"id":"a6fl9n3upwez","geo_precision":"city","recovery_id":"VISTA","state":"PA"},"type":"Feature","geometry":{"type":"Point","coordinates":[-76.884418,40.2737]}},{"properties":{"city":"Lancaster","volunteers":18,"geo_score":0.762,"dollars":305760.86,"programs":2,"id":"a6fl9n1ptdw8","geo_precision":"city","recovery_id":"VISTA","state":"PA"},"type":"Feature","geometry":{"type":"Point","coordinates":[-76.658856,39.960376]}},{"properties":{"city":"Holmes","volunteers":11,"geo_score":0.857,"dollars":197614.97,"programs":1,"id":"a6fl9n4zzoj4","geo_precision":"city","recovery_id":"VISTA","state":"PA"},"type":"Feature","geometry":{"type":"Point","coordinates":[-75.307731,39.899562]}},{"properties":{"city":"OTHERS","volunteers":12,"geo_score":0.0,"dollars":172963.45,"programs":3,"id":"a6fl9n77asnt","geo_precision":"unmatched","recovery_id":"VISTA","state":"PA"},"type":"Feature","geometry":null},{"properties":{"city":"Mercedita","volunteers":10,"geo_score":0.857,"dollars":10000.0,"programs":1,"id":"a6fl9n1u8igm","geo_precision":"city","recovery_id":"ALL","state":"PR"},"type":"Feature","geometry":{"type":"Point","coordinates":[-66.563721,18.011854]}},{"properties":{"city":"Carolina","volunteers":7,"geo_score":0.857,"dollars":10000.0,"programs":1,"id":"a6fl9n57hhpv","geo_precision":"city","recovery_id":"ALL","state":"PR"},"type":"Feature","geometry":{"type":"Point","coordinates":[-66.060533,18.410462]}},{"properties":{"city":"Florida","volunteers":8,"geo_score":0.857,"dollars":10000.0,"programs":1,"id":"a6fl9na6l4xh","geo_precision":"city","recovery_id":"ALL","state":"PR"},"type":"Feature","geometry":{"type":"Point","coordinates":[-66.562311,18.360125]}},{"properties":{"city":"Gurabo","volunteers":6,"geo_score":0.857,"dollars":8000.0,"programs":1,"id":"a6fl9n3jmg8b","geo_precision":"city","recovery_id":"ALL","state":"PR"},"type":"Feature","geometry":{"type":"Point","coordinates":[-65.974641,18.259092]}},{"properties":{"city":"Mercedita","volunteers":10,"geo_score":0.857,"dollars":165422.7,"programs":1,"id":"a6fl9n8uhjva","geo_precision":"city","recovery_id":"VISTA","state":"PR"},"type":"Feature","geometry":{"type":"Point","coordinates":[-66.563721,18.011854]}},{"properties":{"city":"Florida","volunteers":8,"geo_score":0.857,"dollars":134338.16,"programs":1,"id":"a6fl9mzwvpq8","geo_precision":"city","recovery_id":"VISTA","state":"PR"},"type":"Feature","geometry":{"type":"Point","coordinates":[-66.562311,18.360125]}},{"properties":{"city":"Carolina","volunteers":7,"geo_score":0.857,"dollars":118795.89,"programs":1,"id":"a6fl9n0my40o","geo_precision":"city","recovery_id":"VISTA","state":"PR"},"type":"Feature","geometry":{"type":"Point","coordinates":[-66.060533,18.410462]}},{"properties":{"city":"Gurabo","volunteers":6,"geo_score":0.857,"dollars":101253.62,"programs":1,"id":"a6fl9nde9kit","geo_precision":"city","recovery_id":"VISTA","state":"PR"},"type":"Feature","geometry":{"type":"Point","coordinates":[-65.974641,18.259092]}},{"properties":{"city":"Providence","volunteers":152,"geo_score":0.857,"dollars":1189018.0,"programs":12,"id":"a6fl9n9y1av3","geo_precision":"city","recovery_id":"ALL","state":"RI"},"type":"Feature","geometry":{"type":"Point","coordinates":[-71.412834,41.823989]}},{"properties":{"city":"Cranston","volunteers":9,"geo_score":0.857,"dollars":101537.0,"programs":1,"id":"a6fl9mztfehn","geo_precision":"city","recovery_id":"ALL","state":"RI"},"type":"Feature","geometry":{"type":"Point","coordinates":[-71.435251,41.7917]}},{"properties":{"city":"Providence","volunteers":117,"geo_score":0.857,"dollars":1149768.0,"programs":8,"id":"a6fl9nar42za","geo_precision":"city","recovery_id":"STATE_NATIONAL","state":"RI"},"type":"Feature","geometry":{"type":"Point","coordinates":[-71.412834,41.823989]}},{"properties":{"city":"Cranston","volunteers":9,"geo_score":0.857,"dollars":101537.0,"programs":1,"id":"a6fl9nc3ucoi","geo_precision":"city","recovery_id":"STATE_NATIONAL","state":"RI"},"type":"Feature","geometry":{"type":"Point","coordinates":[-71.435251,41.7917]}},{"properties":{"city":"Providence","volunteers":35,"geo_score":0.857,"dollars":488422.92,"programs":4,"id":"a6fl9nalbhaa","geo_precision":"city","recovery_id":"VISTA","state":"RI"},"type":"Feature","geometry":{"type":"Point","coordinates":[-71.412834,41.823989]}},{"properties":{"city":"Warwick","volunteers":8,"geo_score":0.857,"dollars":124338.16,"programs":1,"id":"a6fl9n6dynv0","geo_precision":"city","recovery_id":"VISTA","state":"RI"},"type":"Feature","geometry":{"type":"Point","coordinates":[-71.47902,41.70247]}},{"properties":{"city":"Woonsocket","volunteers":19,"geo_score":0.857,"dollars":105690.07,"programs":1,"id":"a6fl9n1094g7","geo_precision":"city","recovery_id":"VISTA","state":"RI"},"type":"Feature","geometry":{"type":"Point","coordinates":[-71.51939,41.984598]}},{"properties":{"city":"Pawtucket","volunteers":3,"geo_score":0.857,"dollars":46626.81,"programs":1,"id":"a6fl9n1rmr1t","geo_precision":"city","recovery_id":"VISTA","state":"RI"},"type":"Feature","geometry":{"type":"Point","coordinates":[-71.392732,41.875149]}},{"properties":{"city":"Campobello","volunteers":41,"geo_score":0.857,"dollars":206253.0,"programs":1,"id":"a6fl9ndmnlo9","geo_precision":"city","recovery_id":"ALL","state":"SC"},"type":"Feature","geometry":{"type":"Point","coordinates":[-82.040137,35.113668]}},{"properties":{"city":"Anderson","volunteers":7,"geo_score":0.786,"dollars":97588.0,"programs":1,"id":"a6fl9n1nbba7","geo_precision":"city","recovery_id":"ALL","state":"SC"},"type":"Feature","geometry":{"type":"Point","coordinates":[-79.409083,33.435562]}},{"properties":{"city":"North Charleston","volunteers":10,"geo_score":0.857,"dollars":13500.0,"programs":1,"id":"a6fl9ne980jb","geo_precision":"city","recovery_id":"ALL","state":"SC"},"type":"Feature","geometry":{"type":"Point","coordinates":[-79.97481,32.85462]}},{"properties":{"city":"Spartanburg","volunteers":24,"geo_score":0.857,"dollars":13000.0,"programs":1,"id":"a6fl9n6eawzr","geo_precision":"city","recovery_id":"ALL","state":"SC"},"type":"Feature","geometry":{"type":"Point","coordinates":[-81.932048,34.949567]}},{"properties":{"city":"OTHERS","volunteers":15,"geo_score":0.0,"dollars":3500.0,"programs":2,"id":"a6fl9n9hgxe5","geo_precision":"unmatched","recovery_id":"ALL","state":"SC"},"type":"Feature","geometry":null},{"properties":{"city":"Campobello","volunteers":41,"geo_score":0.857,"dollars":206253.0,"programs":1,"id":"a6fl9n8h40x3","geo_precision":"city","recovery_id":"STATE_NATIONAL","state":"SC"},"type":"Feature","geometry":{"type":"Point","coordinates":[-82.040137,35.113668]}},{"properties":{"city":"Anderson","volunteers":7,"geo_score":0.786,"dollars":97588.0,"programs":1,"id":"a6fl9n18wm7s","geo_precision":"city","recovery_id":"STATE_NATIONAL","state":"SC"},"type":"Feature","geometry":{"type":"Point","coordinates":[-79.409083,33.435562]}},{"properties":{"city":"Spartanburg","volunteers":24,"geo_score":0.857,"dollars":196401.42,"programs":1,"id":"a6fl9nd1ee65","geo_precision":"city","recovery_id":"VISTA","state":"SC"},"type":"Feature","geometry":{"type":"Point","coordinates":[-81.932048,34.949567]}},{"properties":{"city":"North Charleston","volunteers":10,"geo_score":0.857,"dollars":168922.7,"programs":1,"id":"a6fl9n0z9th5","geo_precision":"city","recovery_id":"VISTA","state":"SC"},"type":"Feature","geometry":{"type":"Point","coordinates":[-79.97481,32.85462]}},{"properties":{"city":"Aiken","volunteers":12,"geo_score":0.857,"dollars":66113.13,"programs":1,"id":"a6fl9n1fymrb","geo_precision":"city","recovery_id":"VISTA","state":"SC"},"type":"Feature","geometry":{"type":"Point","coordinates":[-81.69588,33.554433]}},{"properties":{"city":"Columbia","volunteers":3,"geo_score":0.857,"dollars":48626.81,"programs":1,"id":"a6fl9nahtv9o","geo_precision":"city","recovery_id":"VISTA","state":"SC"},"type":"Feature","geometry":{"type":"Point","coordinates":[-81.024864,33.987454]}},{"properties":{"city":"OTHERS","volunteers":4,"geo_score":0.0,"dollars":35081.5,"programs":1,"id":"a6fl9nb1lhlj","geo_precision":"unmatched","recovery_id":"VISTA","state":"SC"},"type":"Feature","geometry":null},{"properties":{"city":"Pine Ridge","volunteers":0,"geo_score":0.746,"dollars":76528.0,"programs":1,"id":"a6fl9n4he6tr","geo_precision":"city","recovery_id":"ALL","state":"SD"},"type":"Feature","geometry":{"type":"Point","coordinates":[-99.351218,44.316931]}},{"properties":{"city":"Pine Ridge","volunteers":0,"geo_score":0.746,"dollars":76528.0,"programs":1,"id":"a6fl9n8gmfbl","geo_precision":"city","recovery_id":"STATE_NATIONAL","state":"SD"},"type":"Feature","geometry":{"type":"Point","coordinates":[-99.351218,44.316931]}},{"properties":{"city":"Memphis","volunteers":27,"geo_score":0.857,"dollars":333399.0,"programs":5,"id":"a6fl9n7mc2j7","geo_precision":"city","recovery_id":"ALL","state":"TN"},"type":"Feature","geometry":{"type":"Point","coordinates":[-90.04898,35.149534]}},{"properties":{"city":"Rutledge","volunteers":29,"geo_score":0.857,"dollars":323917.0,"programs":1,"id":"a6fl9n7kbs49","geo_precision":"city","recovery_id":"ALL","state":"TN"},"type":"Feature","geometry":{"type":"Point","coordinates":[-83.554826,36.230696]}},{"properties":{"city":"Morristown","volunteers":38,"geo_score":0.857,"dollars":179582.0,"programs":2,"id":"a6fl9ndidxtg","geo_precision":"city","recovery_id":"ALL","state":"TN"},"type":"Feature","geometry":{"type":"Point","coordinates":[-83.261343,36.188826]}},{"properties":{"city":"OTHERS","volunteers":94,"geo_score":0.0,"dollars":119207.0,"programs":9,"id":"a6fl9nbcvc8r","geo_precision":"unmatched","recovery_id":"ALL","state":"TN"},"type":"Feature","geometry":null},{"properties":{"city":"Knoxville","volunteers":8,"geo_score":0.794,"dollars":77384.0,"programs":2,"id":"a6fl9nbpqj30","geo_precision":"city","recovery_id":"ALL","state":"TN"},"type":"Feature","geometry":{"type":"Point","coordinates":[-86.784443,36.16589]}},{"properties":{"city":"Memphis","volunteers":13,"geo_score":0.857,"dollars":333399.0,"programs":2,"id":"a6fl9nbewy0a","geo_precision":"city","recovery_id":"STATE_NATIONAL","state":"TN"},"type":"Feature","geometry":{"type":"Point","coordinates":[-90.04898,35.149534]}},{"properties":{"city":"Rutledge","volunteers":29,"geo_score":0.857,"dollars":323917.0,"programs":1,"id":"a6fl9n9wywgm","geo_precision":"city","recovery_id":"STATE_NATIONAL","state":"TN"},"type":"Feature","geometry":{"type":"Point","coordinates":[-83.554826,36.230696]}},{"properties":{"city":"Morristown","volunteers":15,"geo_score":0.857,"dollars":179582.0,"programs":1,"id":"a6fl9nd45fd5","geo_precision":"city","recovery_id":"STATE_NATIONAL","state":"TN"},"type":"Feature","geometry":{"type":"Point","coordinates":[-83.261343,36.188826]}},{"properties":{"city":"OTHERS","volunteers":11,"geo_score":0.0,"dollars":109207.0,"programs":3,"id":"a6fl9n8jg51k","geo_precision":"unmatched","recovery_id":"STATE_NATIONAL","state":"TN"},"type":"Feature","geometry":null},{"properties":{"city":"Knoxville","volunteers":7,"geo_score":0.794,"dollars":77384.0,"programs":1,"id":"a6fl9n69vdtl","geo_precision":"city","recovery_id":"STATE_NATIONAL","state":"TN"},"type":"Feature","geometry":{"type":"Point","coordinates":[-86.784443,36.16589]}},{"properties":{"city":"Nashville","volunteers":60,"geo_score":0.857,"dollars":449959.76,"programs":5,"id":"a6fl9n0492to","geo_precision":"city","recovery_id":"VISTA","state":"TN"},"type":"Feature","geometry":{"type":"Point","coordinates":[-86.784443,36.16589]}},{"properties":{"city":"OTHERS","volunteers":10,"geo_score":0.0,"dollars":101247.54,"programs":3,"id":"a6fl9nf9zzta","geo_precision":"unmatched","recovery_id":"VISTA","state":"TN"},"type":"Feature","geometry":null},{"properties":{"city":"Morristown","volunteers":23,"geo_score":0.857,"dollars":100140.2,"programs":1,"id":"a6fl9n0mjqio","geo_precision":"city","recovery_id":"VISTA","state":"TN"},"type":"Feature","geometry":{"type":"Point","coordinates":[-83.261343,36.188826]}},{"properties":{"city":"Memphis","volunteers":14,"geo_score":0.857,"dollars":95697.67,"programs":3,"id":"a6fl9nccqw5d","geo_precision":"city","recovery_id":"VISTA","state":"TN"},"type":"Feature","geometry":{"type":"Point","coordinates":[-90.04898,35.149534]}},{"properties":{"city":"Jackson","volunteers":23,"geo_score":0.857,"dollars":91596.41,"programs":1,"id":"a6fl9nb8996b","geo_precision":"city","recovery_id":"VISTA","state":"TN"},"type":"Feature","geometry":{"type":"Point","coordinates":[-88.813947,35.614517]}},{"properties":{"city":"Austin","volunteers":330,"geo_score":0.857,"dollars":1695647.0,"programs":19,"id":"a6fl9nat2g2k","geo_precision":"city","recovery_id":"ALL","state":"TX"},"type":"Feature","geometry":{"type":"Point","coordinates":[-97.743061,30.267153]}},{"properties":{"city":"Dallas","volunteers":220,"geo_score":0.857,"dollars":903211.0,"programs":7,"id":"a6fl9n995h7h","geo_precision":"city","recovery_id":"ALL","state":"TX"},"type":"Feature","geometry":{"type":"Point","coordinates":[-96.806667,32.783056]}},{"properties":{"city":"San Antonio","volunteers":3,"geo_score":0.857,"dollars":281790.0,"programs":3,"id":"a6fl9n89orhb","geo_precision":"city","recovery_id":"ALL","state":"TX"},"type":"Feature","geometry":{"type":"Point","coordinates":[-98.493628,29.424122]}},{"properties":{"city":"OTHERS","volunteers":17,"geo_score":0.0,"dollars":181101.0,"programs":4,"id":"a6fl9nf0uzqy","geo_precision":"unmatched","recovery_id":"ALL","state":"TX"},"type":"Feature","geometry":null},{"properties":{"city":"El Paso","volunteers":16,"geo_score":0.857,"dollars":139980.0,"programs":4,"id":"a6fl9navwqyr","geo_precision":"city","recovery_id":"ALL","state":"TX"},"type":"Feature","geometry":{"type":"Point","coordinates":[-106.486931,31.75872]}},{"properties":{"city":"Austin","volunteers":249,"geo_score":0.857,"dollars":1570647.0,"programs":6,"id":"a6fl9n4jntos","geo_precision":"city","recovery_id":"STATE_NATIONAL","state":"TX"},"type":"Feature","geometry":{"type":"Point","coordinates":[-97.743061,30.267153]}},{"properties":{"city":"Dallas","volunteers":124,"geo_score":0.857,"dollars":903211.0,"programs":2,"id":"a6fl9n5tcss4","geo_precision":"city","recovery_id":"STATE_NATIONAL","state":"TX"},"type":"Feature","geometry":{"type":"Point","coordinates":[-96.806667,32.783056]}},{"properties":{"city":"San Antonio","volunteers":0,"geo_score":0.857,"dollars":281790.0,"programs":1,"id":"a6fl9nb7s1nr","geo_precision":"city","recovery_id":"STATE_NATIONAL","state":"TX"},"type":"Feature","geometry":{"type":"Point","coordinates":[-98.493628,29.424122]}},{"properties":{"city":"El Paso","volunteers":12,"geo_score":0.857,"dollars":139980.0,"programs":2,"id":"a6fl9n56ocgt","geo_precision":"city","recovery_id":"STATE_NATIONAL","state":"TX"},"type":"Feature","geometry":{"type":"Point","coordinates":[-106.486931,31.75872]}},{"properties":{"city":"OTHERS","volunteers":0,"geo_score":0.0,"dollars":121101.0,"programs":2,"id":"a6fl9nezzcsy","geo_precision":"unmatched","recovery_id":"STATE_NATIONAL","state":"TX"},"type":"Feature","geometry":null},{"properties":{"city":"Austin","volunteers":81,"geo_score":0.857,"dollars":1383923.87,"programs":13,"id":"a6fl9nebx7r4","geo_precision":"city","recovery_id":"VISTA","state":"TX"},"type":"Feature","geometry":{"type":"Point","coordinates":[-97.743061,30.267153]}},{"properties":{"city":"OTHERS","volunteers":80,"geo_score":0.0,"dollars":1303381.6,"programs":22,"id":"a6fl9n1av57s","geo_precision":"unmatched","recovery_id":"VISTA","state":"TX"},"type":"Feature","geometry":null},{"properties":{"city":"Dallas","volunteers":96,"geo_score":0.857,"dollars":692974.31,"programs":5,"id":"a6fl9ndt8537","geo_precision":"city","recovery_id":"VISTA","state":"TX"},"type":"Feature","geometry":{"type":"Point","coordinates":[-96.806667,32.783056]}},{"properties":{"city":"Irving","volunteers":21,"geo_score":0.857,"dollars":326387.67,"programs":1,"id":"a6fl9n7zly13","geo_precision":"city","recovery_id":"VISTA","state":"TX"},"type":"Feature","geometry":{"type":"Point","coordinates":[-96.948895,32.814018]}},{"properties":{"city":"Houston","volunteers":19,"geo_score":0.816,"dollars":295303.13,"programs":2,"id":"a6fl9n5rn6rz","geo_precision":"city","recovery_id":"VISTA","state":"TX"},"type":"Feature","geometry":{"type":"Point","coordinates":[-96.919704,29.845783]}},{"properties":{"city":"Ogden","volunteers":77,"geo_score":0.857,"dollars":473820.0,"programs":3,"id":"a6fl9n6wdzdv","geo_precision":"city","recovery_id":"ALL","state":"UT"},"type":"Feature","geometry":{"type":"Point","coordinates":[-111.97383,41.223]}},{"properties":{"city":"Logan","volunteers":56,"geo_score":0.857,"dollars":308512.0,"programs":2,"id":"a6fl9myy2k22","geo_precision":"city","recovery_id":"ALL","state":"UT"},"type":"Feature","geometry":{"type":"Point","coordinates":[-111.885084,41.76695]}},{"properties":{"city":"Salt Lake City","volunteers":42,"geo_score":0.857,"dollars":189400.0,"programs":8,"id":"a6fl9n5kc97b","geo_precision":"city","recovery_id":"ALL","state":"UT"},"type":"Feature","geometry":{"type":"Point","coordinates":[-111.891047,40.760779]}},{"properties":{"city":"Provo","volunteers":13,"geo_score":0.857,"dollars":68560.0,"programs":2,"id":"a6fl9n230zdi","geo_precision":"city","recovery_id":"ALL","state":"UT"},"type":"Feature","geometry":{"type":"Point","coordinates":[-111.695558,40.235053]}},{"properties":{"city":"OTHERS","volunteers":17,"geo_score":0.0,"dollars":33916.0,"programs":3,"id":"a6fl9n84jizb","geo_precision":"unmatched","recovery_id":"ALL","state":"UT"},"type":"Feature","geometry":null},{"properties":{"city":"Ogden","volunteers":72,"geo_score":0.857,"dollars":473820.0,"programs":1,"id":"a6fl9n79x0zi","geo_precision":"city","recovery_id":"STATE_NATIONAL","state":"UT"},"type":"Feature","geometry":{"type":"Point","coordinates":[-111.97383,41.223]}},{"properties":{"city":"Logan","volunteers":51,"geo_score":0.857,"dollars":244412.0,"programs":1,"id":"a6fl9nf9gbtf","geo_precision":"city","recovery_id":"STATE_NATIONAL","state":"UT"},"type":"Feature","geometry":{"type":"Point","coordinates":[-111.885084,41.76695]}},{"properties":{"city":"Salt Lake City","volunteers":22,"geo_score":0.857,"dollars":169400.0,"programs":2,"id":"a6fl9nd9udf8","geo_precision":"city","recovery_id":"STATE_NATIONAL","state":"UT"},"type":"Feature","geometry":{"type":"Point","coordinates":[-111.891047,40.760779]}},{"properties":{"city":"Moab","volunteers":8,"geo_score":0.857,"dollars":23916.0,"programs":1,"id":"a6fl9nd72gvb","geo_precision":"city","recovery_id":"STATE_NATIONAL","state":"UT"},"type":"Feature","geometry":{"type":"Point","coordinates":[-109.54019,38.5804]}},{"properties":{"city":"Salt Lake City","volunteers":20,"geo_score":0.857,"dollars":330845.4,"programs":6,"id":"a6fl9nehc8fy","geo_precision":"city","recovery_id":"VISTA","state":"UT"},"type":"Feature","geometry":{"type":"Point","coordinates":[-111.891047,40.760779]}},{"properties":{"city":"OTHERS","volunteers":19,"geo_score":0.0,"dollars":300303.13,"programs":6,"id":"a6fl9n0tso6o","geo_precision":"unmatched","recovery_id":"VISTA","state":"UT"},"type":"Feature","geometry":null},{"properties":{"city":"Provo","volunteers":13,"geo_score":0.857,"dollars":216434.35,"programs":2,"id":"a6fl9n8y1ca0","geo_precision":"city","recovery_id":"VISTA","state":"UT"},"type":"Feature","geometry":{"type":"Point","coordinates":[-111.695558,40.235053]}},{"properties":{"city":"Logan","volunteers":5,"geo_score":0.857,"dollars":141811.35,"programs":1,"id":"a6fl9n4i8y51","geo_precision":"city","recovery_id":"VISTA","state":"UT"},"type":"Feature","geometry":{"type":"Point","coordinates":[-111.885084,41.76695]}},{"properties":{"city":"Green River","volunteers":6,"geo_score":0.743,"dollars":98253.62,"programs":1,"id":"a6fl9n1tc6ky","geo_precision":"city","recovery_id":"VISTA","state":"UT"},"type":"Feature","geometry":{"type":"Point","coordinates":[-112.390322,41.454713]}},{"properties":{"city":"Charlottesville","volunteers":12,"geo_score":0.857,"dollars":132800.0,"programs":3,"id":"a6fl9n3wqu2a","geo_precision":"city","recovery_id":"ALL","state":"VA"},"type":"Feature","geometry":{"type":"Point","coordinates":[-78.476678,38.029306]}},{"properties":{"city":"OTHERS","volunteers":43,"geo_score":0.0,"dollars":116100.0,"programs":3,"id":"a6fl9n3bkle3","geo_precision":"unmatched","recovery_id":"ALL","state":"VA"},"type":"Feature","geometry":null},{"properties":{"city":"Big Stone Gap","volunteers":2,"geo_score":0.727,"dollars":113708.0,"programs":1,"id":"a6fl9ne7c527","geo_precision":"city","recovery_id":"ALL","state":"VA"},"type":"Feature","geometry":{"type":"Point","coordinates":[-82.213472,37.068719]}},{"properties":{"city":"Petersburg","volunteers":29,"geo_score":0.857,"dollars":109000.0,"programs":1,"id":"a6fl9ncigr3p","geo_precision":"city","recovery_id":"ALL","state":"VA"},"type":"Feature","geometry":{"type":"Point","coordinates":[-77.401927,37.227928]}},{"properties":{"city":"Hillsville","volunteers":14,"geo_score":0.857,"dollars":91700.0,"programs":1,"id":"a6fl9n2qh3d3","geo_precision":"city","recovery_id":"ALL","state":"VA"},"type":"Feature","geometry":{"type":"Point","coordinates":[-80.67507,36.730347]}},{"properties":{"city":"Charlottesville","volunteers":0,"geo_score":0.857,"dollars":132800.0,"programs":1,"id":"a6fl9n1hnwzi","geo_precision":"city","recovery_id":"STATE_NATIONAL","state":"VA"},"type":"Feature","geometry":{"type":"Point","coordinates":[-78.476678,38.029306]}},{"properties":{"city":"Big Stone Gap","volunteers":2,"geo_score":0.727,"dollars":113708.0,"programs":1,"id":"a6fl9nd46vgr","geo_precision":"city","recovery_id":"STATE_NATIONAL","state":"VA"},"type":"Feature","geometry":{"type":"Point","coordinates":[-82.213472,37.068719]}},{"properties":{"city":"Petersburg","volunteers":29,"geo_score":0.857,"dollars":109000.0,"programs":1,"id":"a6fl9n3wp6sz","geo_precision":"city","recovery_id":"STATE_NATIONAL","state":"VA"},"type":"Feature","geometry":{"type":"Point","coordinates":[-77.401927,37.227928]}},{"properties":{"city":"Hillsville","volunteers":14,"geo_score":0.857,"dollars":91700.0,"programs":1,"id":"a6fl9n9rvy5m","geo_precision":"city","recovery_id":"STATE_NATIONAL","state":"VA"},"type":"Feature","geometry":{"type":"Point","coordinates":[-80.67507,36.730347]}},{"properties":{"city":"OTHERS","volunteers":13,"geo_score":0.0,"dollars":78600.0,"programs":1,"id":"a6fl9n836tyh","geo_precision":"unmatched","recovery_id":"STATE_NATIONAL","state":"VA"},"type":"Feature","geometry":null},{"properties":{"city":"Hampton","volunteers":30,"geo_score":0.857,"dollars":503768.1,"programs":2,"id":"a6fl9ndyhop1","geo_precision":"city","recovery_id":"VISTA","state":"VA"},"type":"Feature","geometry":{"type":"Point","coordinates":[-76.345222,37.029869]}},{"properties":{"city":"Charlottesville","volunteers":12,"geo_score":0.857,"dollars":186507.24,"programs":2,"id":"a6fl9n7m6e72","geo_precision":"city","recovery_id":"VISTA","state":"VA"},"type":"Feature","geometry":{"type":"Point","coordinates":[-78.476678,38.029306]}},{"properties":{"city":"OTHERS","volunteers":11,"geo_score":0.0,"dollars":170964.97,"programs":4,"id":"a6fl9n1jpsw3","geo_precision":"unmatched","recovery_id":"VISTA","state":"VA"},"type":"Feature","geometry":null},{"properties":{"city":"Christiansburg","volunteers":14,"geo_score":0.806,"dollars":95697.67,"programs":1,"id":"a6fl9n55k2w9","geo_precision":"city","recovery_id":"VISTA","state":"VA"},"type":"Feature","geometry":{"type":"Point","coordinates":[-79.227534,38.182351]}},{"properties":{"city":"Fredericksburg","volunteers":5,"geo_score":0.857,"dollars":77711.35,"programs":1,"id":"a6fl9n3jg8nq","geo_precision":"city","recovery_id":"VISTA","state":"VA"},"type":"Feature","geometry":{"type":"Point","coordinates":[-77.46054,38.303184]}},{"properties":{"city":"Montpelier","volunteers":9,"geo_score":0.794,"dollars":133694.0,"programs":1,"id":"a6fl9n6d3qz4","geo_precision":"city","recovery_id":"ALL","state":"VT"},"type":"Feature","geometry":{"type":"Point","coordinates":[-72.607888,44.257004]}},{"properties":{"city":"Barre","volunteers":0,"geo_score":0.857,"dollars":80000.0,"programs":1,"id":"a6fl9na76064","geo_precision":"city","recovery_id":"ALL","state":"VT"},"type":"Feature","geometry":{"type":"Point","coordinates":[-72.607693,44.20896]}},{"properties":{"city":"Lyndonville","volunteers":0,"geo_score":0.857,"dollars":60000.0,"programs":1,"id":"a6fl9neypibi","geo_precision":"city","recovery_id":"ALL","state":"VT"},"type":"Feature","geometry":{"type":"Point","coordinates":[-72.056557,44.5351]}},{"properties":{"city":"Burlington","volunteers":10,"geo_score":0.78,"dollars":10000.0,"programs":1,"id":"a6fl9nerlrjl","geo_precision":"city","recovery_id":"ALL","state":"VT"},"type":"Feature","geometry":{"type":"Point","coordinates":[-72.575941,44.21006]}},{"properties":{"city":"Montpelier","volunteers":9,"geo_score":0.794,"dollars":133694.0,"programs":1,"id":"a6fl9nbrk7rf","geo_precision":"city","recovery_id":"STATE_NATIONAL","state":"VT"},"type":"Feature","geometry":{"type":"Point","coordinates":[-72.607888,44.257004]}},{"properties":{"city":"Barre","volunteers":0,"geo_score":0.857,"dollars":80000.0,"programs":1,"id":"a6fl9n23xpfk","geo_precision":"city","recovery_id":"STATE_NATIONAL","state":"VT"},"type":"Feature","geometry":{"type":"Point","coordinates":[-72.607693,44.20896]}},{"properties":{"city":"Lyndonville","volunteers":0,"geo_score":0.857,"dollars":60000.0,"programs":1,"id":"a6fl9n4egb7n","geo_precision":"city","recovery_id":"STATE_NATIONAL","state":"VT"},"type":"Feature","geometry":{"type":"Point","coordinates":[-72.056557,44.5351]}},{"properties":{"city":"Burlington","volunteers":10,"geo_score":0.78,"dollars":165422.7,"programs":1,"id":"a6fl9nc6l7hz","geo_precision":"city","recovery_id":"VISTA","state":"VT"},"type":"Feature","geometry":{"type":"Point","coordinates":[-72.575941,44.21006]}},{"properties":{"city":"Lacey","volunteers":203,"geo_score":0.857,"dollars":2501544.0,"programs":3,"id":"a6fl9n43aql9","geo_precision":"city","recovery_id":"ALL","state":"WA"},"type":"Feature","geometry":{"type":"Point","coordinates":[-122.796695,47.026418]}},{"properties":{"city":"Olympia","volunteers":43,"geo_score":0.857,"dollars":600000.0,"programs":1,"id":"a6fl9n6tsx52","geo_precision":"city","recovery_id":"ALL","state":"WA"},"type":"Feature","geometry":{"type":"Point","coordinates":[-122.900695,47.037874]}},{"properties":{"city":"OTHERS","volunteers":66,"geo_score":0.0,"dollars":538978.0,"programs":12,"id":"a6fl9nbue2lv","geo_precision":"unmatched","recovery_id":"ALL","state":"WA"},"type":"Feature","geometry":null},{"properties":{"city":"Everett","volunteers":18,"geo_score":0.857,"dollars":259300.0,"programs":2,"id":"a6fl9n57vmav","geo_precision":"city","recovery_id":"ALL","state":"WA"},"type":"Feature","geometry":{"type":"Point","coordinates":[-122.202079,47.978985]}},{"properties":{"city":"Spokane","volunteers":56,"geo_score":0.857,"dollars":223757.0,"programs":5,"id":"a6fl9ne1g48q","geo_precision":"city","recovery_id":"ALL","state":"WA"},"type":"Feature","geometry":{"type":"Point","coordinates":[-117.426047,47.65878]}},{"properties":{"city":"Lacey","volunteers":203,"geo_score":0.857,"dollars":2501544.0,"programs":3,"id":"a6fl9n6oormu","geo_precision":"city","recovery_id":"STATE_NATIONAL","state":"WA"},"type":"Feature","geometry":{"type":"Point","coordinates":[-122.796695,47.026418]}},{"properties":{"city":"OTHERS","volunteers":16,"geo_score":0.0,"dollars":267042.0,"programs":3,"id":"a6fl9nbpsfga","geo_precision":"unmatched","recovery_id":"STATE_NATIONAL","state":"WA"},"type":"Feature","geometry":null},{"properties":{"city":"Everett","volunteers":17,"geo_score":0.857,"dollars":259300.0,"programs":1,"id":"a6fl9n2ba8ku","geo_precision":"city","recovery_id":"STATE_NATIONAL","state":"WA"},"type":"Feature","geometry":{"type":"Point","coordinates":[-122.202079,47.978985]}},{"properties":{"city":"Longview","volunteers":18,"geo_score":0.857,"dollars":222700.0,"programs":1,"id":"a6fl9nc8pwx8","geo_precision":"city","recovery_id":"STATE_NATIONAL","state":"WA"},"type":"Feature","geometry":{"type":"Point","coordinates":[-123.057597,46.181872]}},{"properties":{"city":"Spokane","volunteers":39,"geo_score":0.857,"dollars":211757.0,"programs":1,"id":"a6fl9n002vo2","geo_precision":"city","recovery_id":"STATE_NATIONAL","state":"WA"},"type":"Feature","geometry":{"type":"Point","coordinates":[-117.426047,47.65878]}},{"properties":{"city":"Olympia","volunteers":43,"geo_score":0.857,"dollars":1268317.61,"programs":1,"id":"a6fl9ndv3jz8","geo_precision":"city","recovery_id":"VISTA","state":"WA"},"type":"Feature","geometry":{"type":"Point","coordinates":[-122.900695,47.037874]}},{"properties":{"city":"Seattle","volunteers":18,"geo_score":0.857,"dollars":290760.86,"programs":4,"id":"a6fl9ne1a3kf","geo_precision":"city","recovery_id":"VISTA","state":"WA"},"type":"Feature","geometry":{"type":"Point","coordinates":[-122.332071,47.60621]}},{"properties":{"city":"OTHERS","volunteers":18,"geo_score":0.0,"dollars":285760.86,"programs":5,"id":"a6fl9na91sz3","geo_precision":"unmatched","recovery_id":"VISTA","state":"WA"},"type":"Feature","geometry":null},{"properties":{"city":"Spokane","volunteers":17,"geo_score":0.857,"dollars":276218.59,"programs":4,"id":"a6fl9ncogukf","geo_precision":"city","recovery_id":"VISTA","state":"WA"},"type":"Feature","geometry":{"type":"Point","coordinates":[-117.426047,47.65878]}},{"properties":{"city":"Bellingham","volunteers":8,"geo_score":0.857,"dollars":156574.16,"programs":2,"id":"a6fl9n6hcpd4","geo_precision":"city","recovery_id":"VISTA","state":"WA"},"type":"Feature","geometry":{"type":"Point","coordinates":[-122.454297,48.747687]}},{"properties":{"city":"Milwaukee","volunteers":243,"geo_score":0.857,"dollars":2868034.0,"programs":11,"id":"a6fl9n5c1z5j","geo_precision":"city","recovery_id":"ALL","state":"WI"},"type":"Feature","geometry":{"type":"Point","coordinates":[-87.906474,43.038903]}},{"properties":{"city":"Madison","volunteers":89,"geo_score":0.857,"dollars":790185.0,"programs":11,"id":"a6fl9mz5leo9","geo_precision":"city","recovery_id":"ALL","state":"WI"},"type":"Feature","geometry":{"type":"Point","coordinates":[-89.40123,43.073052]}},{"properties":{"city":"Marshfield","volunteers":21,"geo_score":0.786,"dollars":348918.0,"programs":1,"id":"a6fl9n3yle6i","geo_precision":"city","recovery_id":"ALL","state":"WI"},"type":"Feature","geometry":{"type":"Point","coordinates":[-89.659844,43.191103]}},{"properties":{"city":"OTHERS","volunteers":26,"geo_score":0.0,"dollars":179603.0,"programs":4,"id":"a6fl9n38ekrg","geo_precision":"unmatched","recovery_id":"ALL","state":"WI"},"type":"Feature","geometry":null},{"properties":{"city":"Wausau","volunteers":19,"geo_score":0.857,"dollars":122592.0,"programs":1,"id":"a6fl9n1udbsp","geo_precision":"city","recovery_id":"ALL","state":"WI"},"type":"Feature","geometry":{"type":"Point","coordinates":[-89.794002,44.961874]}},{"properties":{"city":"Milwaukee","volunteers":138,"geo_score":0.857,"dollars":2105798.0,"programs":2,"id":"a6fl9n65csfx","geo_precision":"city","recovery_id":"STATE_NATIONAL","state":"WI"},"type":"Feature","geometry":{"type":"Point","coordinates":[-87.906474,43.038903]}},{"properties":{"city":"Milwaukee","volunteers":93,"geo_score":0.857,"dollars":762236.0,"programs":5,"id":"a6fl9mz8z3j1","geo_precision":"city","recovery_id":"STATE_NATIONAL","state":"WI"},"type":"Feature","geometry":{"type":"Point","coordinates":[-87.906474,43.038903]}},{"properties":{"city":"Madison","volunteers":39,"geo_score":0.857,"dollars":508276.0,"programs":6,"id":"a6fl9n3vn2e0","geo_precision":"city","recovery_id":"STATE_NATIONAL","state":"WI"},"type":"Feature","geometry":{"type":"Point","coordinates":[-89.40123,43.073052]}},{"properties":{"city":"Marshfield","volunteers":21,"geo_score":0.786,"dollars":348918.0,"programs":1,"id":"a6fl9mzvlest","geo_precision":"city","recovery_id":"STATE_NATIONAL","state":"WI"},"type":"Feature","geometry":{"type":"Point","coordinates":[-89.659844,43.191103]}},{"properties":{"city":"OTHERS","volunteers":45,"geo_score":0.0,"dollars":302195.0,"programs":5,"id":"a6fl9na4ta3u","geo_precision":"unmatched","recovery_id":"STATE_NATIONAL","state":"WI"},"type":"Feature","geometry":null},{"properties":{"city":"Madison","volunteers":50,"geo_score":0.857,"dollars":815234.28,"programs":5,"id":"a6fl9n13a7w3","geo_precision":"city","recovery_id":"VISTA","state":"WI"},"type":"Feature","geometry":{"type":"Point","coordinates":[-89.40123,43.073052]}},{"properties":{"city":"Milwaukee","volunteers":12,"geo_score":0.857,"dollars":186507.24,"programs":4,"id":"a6fl9n0eid4a","geo_precision":"city","recovery_id":"VISTA","state":"WI"},"type":"Feature","geometry":{"type":"Point","coordinates":[-87.906474,43.038903]}},{"properties":{"city":"OTHERS","volunteers":9,"geo_score":0.0,"dollars":99249.06,"programs":5,"id":"a6fl9naw1li4","geo_precision":"unmatched","recovery_id":"VISTA","state":"WI"},"type":"Feature","geometry":null},{"properties":{"city":"Lac du Flambeau","volunteers":8,"geo_score":0.725,"dollars":70163.0,"programs":1,"id":"a6fl9n1m8rfr","geo_precision":"city","recovery_id":"VISTA","state":"WI"},"type":"Feature","geometry":{"type":"Point","coordinates":[-91.579323,44.458299]}},{"properties":{"city":"Menasha","volunteers":6,"geo_score":0.857,"dollars":66166.04,"programs":2,"id":"a6fl9ndjwoqh","geo_precision":"city","recovery_id":"VISTA","state":"WI"},"type":"Feature","geometry":{"type":"Point","coordinates":[-88.446497,44.202208]}},{"properties":{"city":"Charleston","volunteers":35,"geo_score":0.857,"dollars":318054.0,"programs":3,"id":"a6fl9n5wt5pi","geo_precision":"city","recovery_id":"ALL","state":"WV"},"type":"Feature","geometry":{"type":"Point","coordinates":[-81.632624,38.34982]}},{"properties":{"city":"Morgantown","volunteers":65,"geo_score":0.857,"dollars":177616.0,"programs":2,"id":"a6fl9n5h0h2t","geo_precision":"city","recovery_id":"ALL","state":"WV"},"type":"Feature","geometry":{"type":"Point","coordinates":[-79.983141,39.609911]}},{"properties":{"city":"Beckley","volunteers":62,"geo_score":0.857,"dollars":37500.0,"programs":2,"id":"a6fl9n7e6vp1","geo_precision":"city","recovery_id":"ALL","state":"WV"},"type":"Feature","geometry":{"type":"Point","coordinates":[-81.216446,37.767248]}},{"properties":{"city":"Dunmore","volunteers":13,"geo_score":0.857,"dollars":11000.0,"programs":1,"id":"a6fl9mz66nzq","geo_precision":"city","recovery_id":"ALL","state":"WV"},"type":"Feature","geometry":{"type":"Point","coordinates":[-79.898674,38.326214]}},{"properties":{"city":"OTHERS","volunteers":12,"geo_score":0.0,"dollars":9000.0,"programs":2,"id":"a6fl9n7sh0gd","geo_precision":"unmatched","recovery_id":"ALL","state":"WV"},"type":"Feature","geometry":null},{"properties":{"city":"Morgantown","volunteers":63,"geo_score":0.857,"dollars":174616.0,"programs":1,"id":"a6fl9ne4dz12","geo_precision":"city","recovery_id":"STATE_NATIONAL","state":"WV"},"type":"Feature","geometry":{"type":"Point","coordinates":[-79.983141,39.609911]}},{"properties":{"city":"Charleston","volunteers":10,"geo_score":0.857,"dollars":148998.0,"programs":1,"id":"a6fl9n4xrvhw","geo_precision":"city","recovery_id":"STATE_NATIONAL","state":"WV"},"type":"Feature","geometry":{"type":"Point","coordinates":[-81.632624,38.34982]}},{"properties":{"city":"Beckley","volunteers":62,"geo_score":0.857,"dollars":554175.67,"programs":2,"id":"a6fl9n530w72","geo_precision":"city","recovery_id":"VISTA","state":"WV"},"type":"Feature","geometry":{"type":"Point","coordinates":[-81.216446,37.767248]}},{"properties":{"city":"Charleston","volunteers":25,"geo_score":0.857,"dollars":354455.9,"programs":2,"id":"a6fl9n0fb1qw","geo_precision":"city","recovery_id":"VISTA","state":"WV"},"type":"Feature","geometry":{"type":"Point","coordinates":[-81.632624,38.34982]}},{"properties":{"city":"Dunmore","volunteers":13,"geo_score":0.857,"dollars":213049.51,"programs":1,"id":"a6fl9mz6hfop","geo_precision":"city","recovery_id":"VISTA","state":"WV"},"type":"Feature","geometry":{"type":"Point","coordinates":[-79.898674,38.326214]}},{"properties":{"city":"OTHERS","volunteers":8,"geo_score":0.0,"dollars":76163.0,"programs":2,"id":"a6fl9n9q7gn5","geo_precision":"unmatched","recovery_id":"VISTA","state":"WV"},"type":"Feature","geometry":null},{"properties":{"city":"Wheeling","volunteers":6,"geo_score":0.857,"dollars":72166.04,"programs":1,"id":"a6fl9ndowxyi","geo_precision":"city","recovery_id":"VISTA","state":"WV"},"type":"Feature","geometry":{"type":"Point","coordinates":[-80.647599,40.102703]}},{"properties":{"city":"Laramie","volunteers":0,"geo_score":0.857,"dollars":38613.0,"programs":3,"id":"a6fl9mz9133y","geo_precision":"city","recovery_id":"ALL","state":"WY"},"type":"Feature","geometry":{"type":"Point","coordinates":[-105.801022,41.43902]}},{"properties":{"city":"Casper","volunteers":9,"geo_score":0.857,"dollars":21000.0,"programs":3,"id":"a6fl9n2plimu","geo_precision":"city","recovery_id":"ALL","state":"WY"},"type":"Feature","geometry":{"type":"Point","coordinates":[-106.313081,42.866632]}},{"properties":{"city":"Sheridan","volunteers":0,"geo_score":0.857,"dollars":12871.0,"programs":1,"id":"a6fl9nbr2kyb","geo_precision":"city","recovery_id":"ALL","state":"WY"},"type":"Feature","geometry":{"type":"Point","coordinates":[-106.837563,44.780378]}},{"properties":{"city":"Laramie","volunteers":0,"geo_score":0.857,"dollars":38613.0,"programs":3,"id":"a6fl9mz0ccim","geo_precision":"city","recovery_id":"STATE_NATIONAL","state":"WY"},"type":"Feature","geometry":{"type":"Point","coordinates":[-105.801022,41.43902]}},{"properties":{"city":"Sheridan","volunteers":0,"geo_score":0.857,"dollars":12871.0,"programs":1,"id":"a6fl9ne0fjkd","geo_precision":"city","recovery_id":"STATE_NATIONAL","state":"WY"},"type":"Feature","geometry":{"type":"Point","coordinates":[-106.837563,44.780378]}},{"properties":{"city":"Cheyenne","volunteers":15,"geo_score":0.857,"dollars":178958.89,"programs":5,"id":"a6fl9nd5szzp","geo_precision":"city","recovery_id":"VISTA","state":"WY"},"type":"Feature","geometry":{"type":"Point","coordinates":[-104.820246,41.139981]}},{"properties":{"city":"Casper","volunteers":9,"geo_score":0.857,"dollars":160880.43,"programs":3,"id":"a6fl9nafti2w","geo_precision":"city","recovery_id":"VISTA","state":"WY"},"type":"Feature","geometry":{"type":"Point","coordinates":[-106.313081,42.866632]}},{"properties":{"city":"Rock Springs","volunteers":3,"geo_score":0.857,"dollars":46626.81,"programs":1,"id":"a6fl9nc853n8","geo_precision":"city","recovery_id":"VISTA","state":"WY"},"type":"Feature","geometry":{"type":"Point","coordinates":[-109.149045,41.634515]}},{"properties":{"city":"Worland","volunteers":9,"geo_score":0.857,"dollars":45073.9,"programs":1,"id":"a6fl9nb8f228","geo_precision":"city","recovery_id":"VISTA","state":"WY"},"type":"Feature","geometry":{"type":"Point","coordinates":[-108.141457,44.008105]}}],"is_temporal":false,"author":{"url":"","metadata":"","contact_name":"","contact_address":"","source":"","contact_phone":""},"source":"","pagination":{"sort":null,"start":0,"total":600,"limit":1000000},"state":"complete","tags":"","published":"2014-08-13T05:42:33-04:00","id":105642}