{"type":"FeatureCollection","data_type":"Dataset","url_type":null,"permissions":[{"permissions":{"download":true,"view":true},"group_id":"everyone"}],"classification":null,"title":"segment Los Angeles Apr 1 2011 zip","count":710,"stream_id":105756,"contributor":{"url":"http://geocommons.com/users/19501","name":"TroyJmorris"},"data_attributes":null,"calculation_params":null,"icon_link":null,"link":"http://geocommons.com/overlays/105756.json","extent":[-157.829,21.2828,-72.0007,47.6945],"geometry_types":["point"],"unique_name":null,"name":"segment Los Angeles Apr 1 2011 zip","feature_count":710,"description":"","next_feature":null,"is_raster":false,"short_classification":"Y","stats":{},"features":[{"properties":{"zip":"94560","geo_score":0.714,"id":"a632br3p0vzl","geo_precision":"zip","email address":"camillae@aquienta.com"},"type":"Feature","geometry":{"type":"Point","coordinates":[-122.025352,37.534102]}},{"properties":{"zip":"90004","geo_score":0.714,"id":"a632brav6w2e","geo_precision":"zip","email address":"luriya2000@hotmail.com"},"type":"Feature","geometry":{"type":"Point","coordinates":[-118.298662,33.786594]}},{"properties":{"zip":"90404","geo_score":0.714,"id":"a632brgmvvtb","geo_precision":"zip","email address":"andyk@donorschoose.org"},"type":"Feature","geometry":{"type":"Point","coordinates":[-118.298662,33.786594]}},{"properties":{"zip":"91423","geo_score":0.714,"id":"a632br3drlec","geo_precision":"zip","email address":"sweetsuzie614@aol.com"},"type":"Feature","geometry":{"type":"Point","coordinates":[-118.298662,33.786594]}},{"properties":{"zip":"91401","geo_score":0.714,"id":"a632br5p4fo0","geo_precision":"zip","email address":"sabney16@yahoo.com"},"type":"Feature","geometry":{"type":"Point","coordinates":[-118.298662,33.786594]}},{"properties":{"zip":"91602","geo_score":0.714,"id":"a632brcv0jge","geo_precision":"zip","email address":"ngerboc@sbcglobal.net"},"type":"Feature","geometry":{"type":"Point","coordinates":[-118.298662,33.786594]}},{"properties":{"zip":"90065","geo_score":0.714,"id":"a632br5ylpzg","geo_precision":"zip","email address":"steph@stephanieriggio.com"},"type":"Feature","geometry":{"type":"Point","coordinates":[-118.298662,33.786594]}},{"properties":{"zip":"90039","geo_score":0.714,"id":"a632br89grfn","geo_precision":"zip","email address":"saamzplace@sbcglobal.net"},"type":"Feature","geometry":{"type":"Point","coordinates":[-118.298662,33.786594]}},{"properties":{"zip":"91723","geo_score":0.714,"id":"a632brgnu75e","geo_precision":"zip","email address":"Team3franco@hotmail.com"},"type":"Feature","geometry":{"type":"Point","coordinates":[-118.298662,33.786594]}},{"properties":{"zip":"90290","geo_score":0.714,"id":"a632br72ixn8","geo_precision":"zip","email address":"pepitastar@mac.com"},"type":"Feature","geometry":{"type":"Point","coordinates":[-118.629252,34.107507]}},{"properties":{"zip":"91361","geo_score":0.714,"id":"a632br2v89fq","geo_precision":"zip","email address":"fridamekari@yahoo.com"},"type":"Feature","geometry":{"type":"Point","coordinates":[-118.82193,34.137015]}},{"properties":{"zip":"90019","geo_score":0.714,"id":"a632bresfq7n","geo_precision":"zip","email address":"claudia1024@att.net"},"type":"Feature","geometry":{"type":"Point","coordinates":[-118.298662,33.786594]}},{"properties":{"zip":"91722","geo_score":0.714,"id":"a632brfgpgo1","geo_precision":"zip","email address":"meipug@verizon.net"},"type":"Feature","geometry":{"type":"Point","coordinates":[-118.298662,33.786594]}},{"properties":{"zip":"90806","geo_score":0.714,"id":"a632br3uopjx","geo_precision":"zip","email address":"rubyf423@yahoo.com"},"type":"Feature","geometry":{"type":"Point","coordinates":[-118.167846,33.804461]}},{"properties":{"zip":"90016","geo_score":0.714,"id":"a632brgape2n","geo_precision":"zip","email address":"theravingartist@aol.com"},"type":"Feature","geometry":{"type":"Point","coordinates":[-118.298662,33.786594]}},{"properties":{"zip":"91755","geo_score":0.714,"id":"a632brdzswg2","geo_precision":"zip","email address":"pualany@aol.com"},"type":"Feature","geometry":{"type":"Point","coordinates":[-118.298662,33.786594]}},{"properties":{"zip":"90048","geo_score":0.714,"id":"a632br3513ro","geo_precision":"zip","email address":"jlpolanco78@gmail.com"},"type":"Feature","geometry":{"type":"Point","coordinates":[-118.298662,33.786594]}},{"properties":{"zip":"90043","geo_score":0.714,"id":"a632br167uhh","geo_precision":"zip","email address":"thepassiontestqueen@yahoo.com"},"type":"Feature","geometry":{"type":"Point","coordinates":[-118.342576,33.998902]}},{"properties":{"zip":"90068","geo_score":0.714,"id":"a632br78yggk","geo_precision":"zip","email address":"kelmcg17@hotmail.com"},"type":"Feature","geometry":{"type":"Point","coordinates":[-118.298662,33.786594]}},{"properties":{"zip":"91709","geo_score":0.714,"id":"a632br3aieox","geo_precision":"zip","email address":"cmlno2002@hotmail.com"},"type":"Feature","geometry":{"type":"Point","coordinates":[-117.708111,33.972791]}},{"properties":{"zip":"91401","geo_score":0.714,"id":"a632br6nqpoy","geo_precision":"zip","email address":"gvasile.86@gmail.com"},"type":"Feature","geometry":{"type":"Point","coordinates":[-118.298662,33.786594]}},{"properties":{"zip":"90034","geo_score":0.714,"id":"a632br7ty1o9","geo_precision":"zip","email address":"marvellouspurple@yahoo.com"},"type":"Feature","geometry":{"type":"Point","coordinates":[-118.405633,34.022789]}},{"properties":{"zip":"90042","geo_score":0.714,"id":"a632brdluk90","geo_precision":"zip","email address":"xanadu23@mail.com"},"type":"Feature","geometry":{"type":"Point","coordinates":[-118.198962,34.111953]}},{"properties":{"zip":"90248","geo_score":0.714,"id":"a632br2fx073","geo_precision":"zip","email address":"walter@integratedhealthsystems.com"},"type":"Feature","geometry":{"type":"Point","coordinates":[-118.269605,33.877165]}},{"properties":{"zip":"91601","geo_score":0.714,"id":"a632br5xtwj0","geo_precision":"zip","email address":"actlikeme2003@yahoo.com"},"type":"Feature","geometry":{"type":"Point","coordinates":[-118.298662,33.786594]}},{"properties":{"zip":"90291","geo_score":0.714,"id":"a632brcbicld","geo_precision":"zip","email address":"dallas@geniuspills.com"},"type":"Feature","geometry":{"type":"Point","coordinates":[-118.298662,33.786594]}},{"properties":{"zip":"90035","geo_score":0.714,"id":"a632br9rpe5o","geo_precision":"zip","email address":"nipepsi85@yahoo.com"},"type":"Feature","geometry":{"type":"Point","coordinates":[-118.298662,33.786594]}},{"properties":{"zip":"90046","geo_score":0.714,"id":"a632bra4d3u7","geo_precision":"zip","email address":"janettesheridan@yahoo.com"},"type":"Feature","geometry":{"type":"Point","coordinates":[-118.298662,33.786594]}},{"properties":{"zip":"90064","geo_score":0.714,"id":"a632brawjfic","geo_precision":"zip","email address":"patriciadotzler@yahoo.com"},"type":"Feature","geometry":{"type":"Point","coordinates":[-118.298662,33.786594]}},{"properties":{"zip":"91601","geo_score":0.714,"id":"a632brgyuvam","geo_precision":"zip","email address":"bodhi7700@yahoo.com"},"type":"Feature","geometry":{"type":"Point","coordinates":[-118.298662,33.786594]}},{"properties":{"zip":"90064","geo_score":0.714,"id":"a632brfoqkee","geo_precision":"zip","email address":"carol74@gmail.com"},"type":"Feature","geometry":{"type":"Point","coordinates":[-118.298662,33.786594]}},{"properties":{"zip":"90302","geo_score":0.714,"id":"a632br6i76s6","geo_precision":"zip","email address":"shee.wash@att.net"},"type":"Feature","geometry":{"type":"Point","coordinates":[-118.298662,33.786594]}},{"properties":{"zip":"91007","geo_score":0.714,"id":"a632bregjolv","geo_precision":"zip","email address":"qqmilky@sbcglobal.net"},"type":"Feature","geometry":{"type":"Point","coordinates":[-118.298662,33.786594]}},{"properties":{"zip":"92807","geo_score":0.714,"id":"a632brg3qju1","geo_precision":"zip","email address":"Lhernandez@pennysaverusa.com"},"type":"Feature","geometry":{"type":"Point","coordinates":[-117.777277,33.84446]}},{"properties":{"zip":"91206","geo_score":0.714,"id":"a632brc4bg15","geo_precision":"zip","email address":"fuck@fuck.com"},"type":"Feature","geometry":{"type":"Point","coordinates":[-118.298662,33.786594]}},{"properties":{"zip":"91740","geo_score":0.714,"id":"a632brgaou9n","geo_precision":"zip","email address":"lopez.steph7@gmial.com"},"type":"Feature","geometry":{"type":"Point","coordinates":[-117.881451,34.138896]}},{"properties":{"zip":"90810","geo_score":0.714,"id":"a632br2ejao5","geo_precision":"zip","email address":"tionna_casey@yaoo.com"},"type":"Feature","geometry":{"type":"Point","coordinates":[-118.222848,33.827795]}},{"properties":{"zip":"90025","geo_score":0.714,"id":"a632brgx9mzt","geo_precision":"zip","email address":"mahsabo@gmail.com"},"type":"Feature","geometry":{"type":"Point","coordinates":[-118.448135,34.046399]}},{"properties":{"zip":"91344","geo_score":0.714,"id":"a632brawrhzu","geo_precision":"zip","email address":"ladieroyal3r@yahoo.com"},"type":"Feature","geometry":{"type":"Point","coordinates":[-118.298662,33.786594]}},{"properties":{"zip":"90403","geo_score":0.714,"id":"a632brh8v04f","geo_precision":"zip","email address":"tim@oceanparkpix.com"},"type":"Feature","geometry":{"type":"Point","coordinates":[-118.298662,33.786594]}},{"properties":{"zip":"90020","geo_score":0.714,"id":"a632brg160i9","geo_precision":"zip","email address":"yeseul@koreaheraldbiz.com"},"type":"Feature","geometry":{"type":"Point","coordinates":[-118.298662,33.786594]}},{"properties":{"zip":"90403","geo_score":0.714,"id":"a632brcv3ilw","geo_precision":"zip","email address":"jbautog@aol.com"},"type":"Feature","geometry":{"type":"Point","coordinates":[-118.298662,33.786594]}},{"properties":{"zip":"91732","geo_score":0.714,"id":"a632brgtsdmb","geo_precision":"zip","email address":"qi.c7.128@gmail.com"},"type":"Feature","geometry":{"type":"Point","coordinates":[-118.298662,33.786594]}},{"properties":{"zip":"90010","geo_score":0.714,"id":"a632br8khlnq","geo_precision":"zip","email address":"charityclaire926@yahoo.com"},"type":"Feature","geometry":{"type":"Point","coordinates":[-118.298662,33.786594]}},{"properties":{"zip":"90270","geo_score":0.714,"id":"a632br8szhvx","geo_precision":"zip","email address":"trinmu@yahoo.com"},"type":"Feature","geometry":{"type":"Point","coordinates":[-118.187376,33.988463]}},{"properties":{"zip":"90034","geo_score":0.714,"id":"a632brb161ty","geo_precision":"zip","email address":"msrealgood@yahoo.com"},"type":"Feature","geometry":{"type":"Point","coordinates":[-118.405633,34.022789]}},{"properties":{"zip":"90061","geo_score":0.714,"id":"a632bretmkzk","geo_precision":"zip","email address":"nkayet2010@yahoo.com"},"type":"Feature","geometry":{"type":"Point","coordinates":[-118.275356,33.920965]}},{"properties":{"zip":"90016","geo_score":0.714,"id":"a632br57jba4","geo_precision":"zip","email address":"aaron.ferreira@hotmail.com"},"type":"Feature","geometry":{"type":"Point","coordinates":[-118.298662,33.786594]}},{"properties":{"zip":"91766","geo_score":0.714,"id":"a632brb40thf","geo_precision":"zip","email address":"tightt@roadrunner.com"},"type":"Feature","geometry":{"type":"Point","coordinates":[-119.382338,35.888009]}},{"properties":{"zip":"90066","geo_score":0.714,"id":"a632br6xjudb","geo_precision":"zip","email address":"chunkycurls@yahoo.com"},"type":"Feature","geometry":{"type":"Point","coordinates":[-118.430912,34.004734]}},{"properties":{"zip":"90005","geo_score":0.714,"id":"a632brcuupld","geo_precision":"zip","email address":"jpark085@gmail.com"},"type":"Feature","geometry":{"type":"Point","coordinates":[-118.298662,33.786594]}},{"properties":{"zip":"91367","geo_score":0.714,"id":"a632br8dbfio","geo_precision":"zip","email address":"ericaarrias13@gmail.com"},"type":"Feature","geometry":{"type":"Point","coordinates":[-118.298662,33.786594]}},{"properties":{"zip":"91352","geo_score":0.714,"id":"a632brbdqgol","geo_precision":"zip","email address":"grotticellib2@aol.com"},"type":"Feature","geometry":{"type":"Point","coordinates":[-118.351746,34.261947]}},{"properties":{"zip":"91356","geo_score":0.714,"id":"a632brccrvvp","geo_precision":"zip","email address":"Wgoldzband@yahoo.com"},"type":"Feature","geometry":{"type":"Point","coordinates":[-118.298662,33.786594]}},{"properties":{"zip":"91423","geo_score":0.714,"id":"a632bremd8ce","geo_precision":"zip","email address":"amalhayati777@hotmail.com"},"type":"Feature","geometry":{"type":"Point","coordinates":[-118.298662,33.786594]}},{"properties":{"zip":"90046","geo_score":0.714,"id":"a632br3o77nh","geo_precision":"zip","email address":"alexandra.s.marcus@gmail.com"},"type":"Feature","geometry":{"type":"Point","coordinates":[-118.298662,33.786594]}},{"properties":{"zip":"91203","geo_score":0.714,"id":"a632br75czk0","geo_precision":"zip","email address":"austinf31590@aol.com"},"type":"Feature","geometry":{"type":"Point","coordinates":[-118.298662,33.786594]}},{"properties":{"zip":"6355","geo_score":0.714,"id":"a632br3ltr4u","geo_precision":"zip","email address":"wmhille@comcast.net"},"type":"Feature","geometry":{"type":"Point","coordinates":[-72.000748,41.485188]}},{"properties":{"zip":"90004","geo_score":0.714,"id":"a632br4fd5bv","geo_precision":"zip","email address":"prairie.papa@yahoo.com"},"type":"Feature","geometry":{"type":"Point","coordinates":[-118.298662,33.786594]}},{"properties":{"zip":"90601","geo_score":0.714,"id":"a632brbgbs0f","geo_precision":"zip","email address":"elsbethdetwiler@hotmail.com"},"type":"Feature","geometry":{"type":"Point","coordinates":[-118.0441,34.004311]}},{"properties":{"zip":"90402","geo_score":0.714,"id":"a632bralgend","geo_precision":"zip","email address":"aprilnparis760@msn.com"},"type":"Feature","geometry":{"type":"Point","coordinates":[-118.298662,33.786594]}},{"properties":{"zip":"90025","geo_score":0.714,"id":"a632br8bvy6t","geo_precision":"zip","email address":"kastumped@aol.com"},"type":"Feature","geometry":{"type":"Point","coordinates":[-118.448135,34.046399]}},{"properties":{"zip":"90266","geo_score":0.714,"id":"a632br70jam5","geo_precision":"zip","email address":"neil@gardenofhope.net"},"type":"Feature","geometry":{"type":"Point","coordinates":[-118.298662,33.786594]}},{"properties":{"zip":"80209","geo_score":0.714,"id":"a632brcvdwjd","geo_precision":"zip","email address":"lees.megan@gmail.com"},"type":"Feature","geometry":{"type":"Point","coordinates":[-104.964236,39.707332]}},{"properties":{"zip":"90247","geo_score":0.714,"id":"a632br8r0uq7","geo_precision":"zip","email address":"alley_j_clothing@msn.com"},"type":"Feature","geometry":{"type":"Point","coordinates":[-118.303407,33.923348]}},{"properties":{"zip":"90016","geo_score":0.714,"id":"a632brbys4ct","geo_precision":"zip","email address":"chiquisbebe@yahoo.com"},"type":"Feature","geometry":{"type":"Point","coordinates":[-118.298662,33.786594]}},{"properties":{"zip":"90810","geo_score":0.714,"id":"a632br8l0vem","geo_precision":"zip","email address":"ritzi65@yahoo.com"},"type":"Feature","geometry":{"type":"Point","coordinates":[-118.222848,33.827795]}},{"properties":{"zip":"90210","geo_score":0.714,"id":"a632br5k69fo","geo_precision":"zip","email address":"julyesmith@gmail.com"},"type":"Feature","geometry":{"type":"Point","coordinates":[-118.298662,33.786594]}},{"properties":{"zip":"92602","geo_score":0.714,"id":"a632brdx2oh2","geo_precision":"zip","email address":"Jennagalasso@csu.Fullerton.edu"},"type":"Feature","geometry":{"type":"Point","coordinates":[-117.72222,33.718018]}},{"properties":{"zip":"90807","geo_score":0.714,"id":"a632br47s1fu","geo_precision":"zip","email address":"xsnooddudex@aim.com"},"type":"Feature","geometry":{"type":"Point","coordinates":[-118.181102,33.831466]}},{"properties":{"zip":"90017","geo_score":0.714,"id":"a632breaqval","geo_precision":"zip","email address":"vettesed1@student.lasalle.edu"},"type":"Feature","geometry":{"type":"Point","coordinates":[-118.298662,33.786594]}},{"properties":{"zip":"90402","geo_score":0.714,"id":"a632brgtxray","geo_precision":"zip","email address":"sydney_shaevel@yahoo.com"},"type":"Feature","geometry":{"type":"Point","coordinates":[-118.298662,33.786594]}},{"properties":{"zip":"90212","geo_score":0.714,"id":"a632breexgas","geo_precision":"zip","email address":"hamilton.kellyk@gmail.com"},"type":"Feature","geometry":{"type":"Point","coordinates":[-118.298662,33.786594]}},{"properties":{"zip":"91335","geo_score":0.714,"id":"a632brat8rqf","geo_precision":"zip","email address":"tiamar91335@aol.com"},"type":"Feature","geometry":{"type":"Point","coordinates":[-118.298662,33.786594]}},{"properties":{"zip":"90027","geo_score":0.714,"id":"a632br9y8p94","geo_precision":"zip","email address":"mgjviterbo@gmail.com"},"type":"Feature","geometry":{"type":"Point","coordinates":[-118.298662,33.786594]}},{"properties":{"zip":"90403","geo_score":0.714,"id":"a632brcg6pt7","geo_precision":"zip","email address":"katiek@katelotile.com"},"type":"Feature","geometry":{"type":"Point","coordinates":[-118.298662,33.786594]}},{"properties":{"zip":"90405","geo_score":0.714,"id":"a632brfay8ip","geo_precision":"zip","email address":"lwile@baysidedistrict.org"},"type":"Feature","geometry":{"type":"Point","coordinates":[-118.483691,34.002233]}},{"properties":{"zip":"90814","geo_score":0.714,"id":"a632br8l8lrv","geo_precision":"zip","email address":"rowshelle54@msn.com"},"type":"Feature","geometry":{"type":"Point","coordinates":[-118.142654,33.771301]}},{"properties":{"zip":"91501","geo_score":0.714,"id":"a632br7aom9l","geo_precision":"zip","email address":"marika.d@hotmail.com"},"type":"Feature","geometry":{"type":"Point","coordinates":[-118.298662,33.786594]}},{"properties":{"zip":"91007","geo_score":0.714,"id":"a632br8c4buq","geo_precision":"zip","email address":"citrus_l@lycos.com"},"type":"Feature","geometry":{"type":"Point","coordinates":[-118.298662,33.786594]}},{"properties":{"zip":"91786","geo_score":0.714,"id":"a632br1ilnad","geo_precision":"zip","email address":"shawnita966@gmail.com"},"type":"Feature","geometry":{"type":"Point","coordinates":[-117.656444,34.155564]}},{"properties":{"zip":"91711","geo_score":0.714,"id":"a632br910p1q","geo_precision":"zip","email address":"nmk0612@live.com"},"type":"Feature","geometry":{"type":"Point","coordinates":[-118.298662,33.786594]}},{"properties":{"zip":"90008","geo_score":0.714,"id":"a632bregpz1l","geo_precision":"zip","email address":"savvyldy03@aol.com"},"type":"Feature","geometry":{"type":"Point","coordinates":[-118.298662,33.786594]}},{"properties":{"zip":"93030","geo_score":0.714,"id":"a632brgzg34z","geo_precision":"zip","email address":"doramojica0@gmail.com"},"type":"Feature","geometry":{"type":"Point","coordinates":[-119.16383,34.235783]}},{"properties":{"zip":"91411","geo_score":0.714,"id":"a632brazgiy6","geo_precision":"zip","email address":"quee1707@yahoo.com"},"type":"Feature","geometry":{"type":"Point","coordinates":[-118.298662,33.786594]}},{"properties":{"zip":"91335","geo_score":0.714,"id":"a632br8wnugk","geo_precision":"zip","email address":"lauritaguzman2011@hotmail.com"},"type":"Feature","geometry":{"type":"Point","coordinates":[-118.298662,33.786594]}},{"properties":{"zip":"90036","geo_score":0.714,"id":"a632br6cvezs","geo_precision":"zip","email address":"liztaubman@yahoo.com"},"type":"Feature","geometry":{"type":"Point","coordinates":[-118.298662,33.786594]}},{"properties":{"zip":"90035","geo_score":0.714,"id":"a632br538dbj","geo_precision":"zip","email address":"erinltalbot@gmail.com"},"type":"Feature","geometry":{"type":"Point","coordinates":[-118.298662,33.786594]}},{"properties":{"zip":"90049","geo_score":0.714,"id":"a632brev7wrf","geo_precision":"zip","email address":"john@thereesegroup.com"},"type":"Feature","geometry":{"type":"Point","coordinates":[-118.473969,34.051954]}},{"properties":{"zip":"90049","geo_score":0.714,"id":"a632br6vos88","geo_precision":"zip","email address":"camilagelmini@yahoo.com"},"type":"Feature","geometry":{"type":"Point","coordinates":[-118.473969,34.051954]}},{"properties":{"zip":"91362","geo_score":0.714,"id":"a632brbploix","geo_precision":"zip","email address":"charmedchick@hotmail.com"},"type":"Feature","geometry":{"type":"Point","coordinates":[-118.823177,34.194756]}},{"properties":{"zip":"90025","geo_score":0.714,"id":"a632brcz869j","geo_precision":"zip","email address":"yumi.chapman@gmail.com"},"type":"Feature","geometry":{"type":"Point","coordinates":[-118.448135,34.046399]}},{"properties":{"zip":"90028","geo_score":0.714,"id":"a632brdljofc","geo_precision":"zip","email address":"jbeery@rocketmail.com"},"type":"Feature","geometry":{"type":"Point","coordinates":[-118.326743,34.098343]}},{"properties":{"zip":"91042","geo_score":0.714,"id":"a632brelgswh","geo_precision":"zip","email address":"orange24flame@aol.com"},"type":"Feature","geometry":{"type":"Point","coordinates":[-118.298662,33.786594]}},{"properties":{"zip":"91770","geo_score":0.714,"id":"a632brbzhdw8","geo_precision":"zip","email address":"sexy_girl0824@yahoo.com"},"type":"Feature","geometry":{"type":"Point","coordinates":[-118.090347,34.06251]}},{"properties":{"zip":"92313","geo_score":0.714,"id":"a632bre735u3","geo_precision":"zip","email address":"postgal69@gmail.com"},"type":"Feature","geometry":{"type":"Point","coordinates":[-115.967051,34.839964]}},{"properties":{"zip":"92530","geo_score":0.714,"id":"a632br1t4tie","geo_precision":"zip","email address":"dawnlyn2@msn.com"},"type":"Feature","geometry":{"type":"Point","coordinates":[-116.649216,33.658068]}},{"properties":{"zip":"92553","geo_score":0.714,"id":"a632br3gwszj","geo_precision":"zip","email address":"kelyse10@msn.com"},"type":"Feature","geometry":{"type":"Point","coordinates":[-116.505017,32.679501]}},{"properties":{"zip":"91354","geo_score":0.714,"id":"a632br817qfd","geo_precision":"zip","email address":"cjones@hughes.net"},"type":"Feature","geometry":{"type":"Point","coordinates":[-118.298662,33.786594]}},{"properties":{"zip":"90042","geo_score":0.714,"id":"a632brdgrxw4","geo_precision":"zip","email address":"gumastribe@aol.com"},"type":"Feature","geometry":{"type":"Point","coordinates":[-118.198962,34.111953]}},{"properties":{"zip":"94040","geo_score":0.714,"id":"a632brgmz8v8","geo_precision":"zip","email address":"neto_flaca7@yahoo.com"},"type":"Feature","geometry":{"type":"Point","coordinates":[-121.705327,37.189396]}},{"properties":{"zip":"90303","geo_score":0.714,"id":"a632br47p8xa","geo_precision":"zip","email address":"alma2009_9@hotmail.com"},"type":"Feature","geometry":{"type":"Point","coordinates":[-118.298662,33.786594]}},{"properties":{"zip":"96815","geo_score":0.714,"id":"a632brfyt2w9","geo_precision":"zip","email address":"honolulufoodie@yahoo.com"},"type":"Feature","geometry":{"type":"Point","coordinates":[-157.829444,21.282778]}},{"properties":{"zip":"93534","geo_score":0.714,"id":"a632br4s967h","geo_precision":"zip","email address":"foxxishfoxx@yahoo.com"},"type":"Feature","geometry":{"type":"Point","coordinates":[-117.825619,34.667766]}},{"properties":{"zip":"91741","geo_score":0.714,"id":"a632br71obc4","geo_precision":"zip","email address":"omayra33@yahoo.com"},"type":"Feature","geometry":{"type":"Point","coordinates":[-118.298662,33.786594]}},{"properties":{"zip":"90020","geo_score":0.714,"id":"a632br28tsb6","geo_precision":"zip","email address":"mutelf@gmail.com"},"type":"Feature","geometry":{"type":"Point","coordinates":[-118.298662,33.786594]}},{"properties":{"zip":"92582","geo_score":0.714,"id":"a632breawo7d","geo_precision":"zip","email address":"juliabailey2@hotmail.com"},"type":"Feature","geometry":{"type":"Point","coordinates":[-116.055617,33.752886]}},{"properties":{"zip":"90018","geo_score":0.714,"id":"a632brgg9jru","geo_precision":"zip","email address":"ewilliams@selmanbreitman.com"},"type":"Feature","geometry":{"type":"Point","coordinates":[-118.298662,33.786594]}},{"properties":{"zip":"90064","geo_score":0.714,"id":"a632bre12r0a","geo_precision":"zip","email address":"gafgarcia@aol.com"},"type":"Feature","geometry":{"type":"Point","coordinates":[-118.298662,33.786594]}},{"properties":{"zip":"90069","geo_score":0.714,"id":"a632brco2n2b","geo_precision":"zip","email address":"abell@montecitopic.com"},"type":"Feature","geometry":{"type":"Point","coordinates":[-118.298662,33.786594]}},{"properties":{"zip":"90049","geo_score":0.714,"id":"a632brdda28z","geo_precision":"zip","email address":"mmbh83@gmail.com"},"type":"Feature","geometry":{"type":"Point","coordinates":[-118.473969,34.051954]}},{"properties":{"zip":"90266","geo_score":0.714,"id":"a632brgkoetx","geo_precision":"zip","email address":"bgecky@aol.com"},"type":"Feature","geometry":{"type":"Point","coordinates":[-118.298662,33.786594]}},{"properties":{"zip":"93010","geo_score":0.714,"id":"a632br80tbd3","geo_precision":"zip","email address":"sycholonia@gmail.com"},"type":"Feature","geometry":{"type":"Point","coordinates":[-119.095938,34.22056]}},{"properties":{"zip":"91340","geo_score":0.714,"id":"a632br8vz3ue","geo_precision":"zip","email address":"aristacatviddy@yahoo.com"},"type":"Feature","geometry":{"type":"Point","coordinates":[-118.298662,33.786594]}},{"properties":{"zip":"91321","geo_score":0.714,"id":"a632br544uqe","geo_precision":"zip","email address":"irenedure@yahoo.com"},"type":"Feature","geometry":{"type":"Point","coordinates":[-118.298662,33.786594]}},{"properties":{"zip":"90048","geo_score":0.714,"id":"a632brh2zcee","geo_precision":"zip","email address":"allisonberns@gmail.com"},"type":"Feature","geometry":{"type":"Point","coordinates":[-118.298662,33.786594]}},{"properties":{"zip":"90230","geo_score":0.714,"id":"a632br3mtwtc","geo_precision":"zip","email address":"emafujimoto@hotmail.com"},"type":"Feature","geometry":{"type":"Point","coordinates":[-118.298662,33.786594]}},{"properties":{"zip":"90292","geo_score":0.714,"id":"a632brdhk5nd","geo_precision":"zip","email address":"yumi_kodono@hotmail.com"},"type":"Feature","geometry":{"type":"Point","coordinates":[-118.298662,33.786594]}},{"properties":{"zip":"90019","geo_score":0.714,"id":"a632brb9q034","geo_precision":"zip","email address":"slatten21@hotmail.com"},"type":"Feature","geometry":{"type":"Point","coordinates":[-118.298662,33.786594]}},{"properties":{"zip":"91010","geo_score":0.714,"id":"a632br16bmz6","geo_precision":"zip","email address":"arroyo321976@yahoo.com"},"type":"Feature","geometry":{"type":"Point","coordinates":[-117.970898,34.146951]}},{"properties":{"zip":"90022","geo_score":0.714,"id":"a632brbm9g2x","geo_precision":"zip","email address":"rebbaorozco@yahoo.com"},"type":"Feature","geometry":{"type":"Point","coordinates":[-118.162849,34.02779]}},{"properties":{"zip":"90605","geo_score":0.714,"id":"a632br7yp4ol","geo_precision":"zip","email address":"sailorjupiter_01@yahoo.com"},"type":"Feature","geometry":{"type":"Point","coordinates":[-118.041733,33.960846]}},{"properties":{"zip":"91801","geo_score":0.714,"id":"a632br968xjb","geo_precision":"zip","email address":"Zhou626huan@hotmail.com"},"type":"Feature","geometry":{"type":"Point","coordinates":[-118.298662,33.786594]}},{"properties":{"zip":"91764","geo_score":0.714,"id":"a632br59exn5","geo_precision":"zip","email address":"babyjr111@yahoo.com"},"type":"Feature","geometry":{"type":"Point","coordinates":[-115.967051,34.839964]}},{"properties":{"zip":"91423","geo_score":0.714,"id":"a632brbelhvs","geo_precision":"zip","email address":"elkamasha@aol.com"},"type":"Feature","geometry":{"type":"Point","coordinates":[-118.298662,33.786594]}},{"properties":{"zip":"90003","geo_score":0.714,"id":"a632br1s1vk8","geo_precision":"zip","email address":"msakens@hotmail.com"},"type":"Feature","geometry":{"type":"Point","coordinates":[-118.273156,33.949164]}},{"properties":{"zip":"91605","geo_score":0.714,"id":"a632br6a90d9","geo_precision":"zip","email address":"beautygeisha@gmail.com"},"type":"Feature","geometry":{"type":"Point","coordinates":[-118.298662,33.786594]}},{"properties":{"zip":"91301","geo_score":0.714,"id":"a632br8wt7d3","geo_precision":"zip","email address":"kimilew118@gmail.com"},"type":"Feature","geometry":{"type":"Point","coordinates":[-118.777868,34.11445]}},{"properties":{"zip":"90066","geo_score":0.714,"id":"a632br1za18d","geo_precision":"zip","email address":"kzaslow@spanimation.com"},"type":"Feature","geometry":{"type":"Point","coordinates":[-118.430912,34.004734]}},{"properties":{"zip":"95833","geo_score":0.714,"id":"a632brfxxcr1","geo_precision":"zip","email address":"lisababyface@comcast.net"},"type":"Feature","geometry":{"type":"Point","coordinates":[-121.514016,38.621802]}},{"properties":{"zip":"90212","geo_score":0.714,"id":"a632br2bvdwa","geo_precision":"zip","email address":"gushollywoodone@yahoo.com"},"type":"Feature","geometry":{"type":"Point","coordinates":[-118.298662,33.786594]}},{"properties":{"zip":"92543","geo_score":0.714,"id":"a632brbkpy6s","geo_precision":"zip","email address":"chevyscooter50@yahoo.com"},"type":"Feature","geometry":{"type":"Point","coordinates":[-116.777014,33.651652]}},{"properties":{"zip":"90250","geo_score":0.714,"id":"a632bre93utk","geo_precision":"zip","email address":"tmadha@gmail.com"},"type":"Feature","geometry":{"type":"Point","coordinates":[-118.298662,33.786594]}},{"properties":{"zip":"91423","geo_score":0.714,"id":"a632br6w5kpw","geo_precision":"zip","email address":"nora390@gmail.com"},"type":"Feature","geometry":{"type":"Point","coordinates":[-118.298662,33.786594]}},{"properties":{"zip":"92553","geo_score":0.714,"id":"a632br8sowpc","geo_precision":"zip","email address":"sermarivera@yahoo.com"},"type":"Feature","geometry":{"type":"Point","coordinates":[-116.505017,32.679501]}},{"properties":{"zip":"90094","geo_score":0.714,"id":"a632br4ljc0m","geo_precision":"zip","email address":"genesisrae@yahoo.com"},"type":"Feature","geometry":{"type":"Point","coordinates":[-118.427578,33.97279]}},{"properties":{"zip":"90003","geo_score":0.714,"id":"a632br2syn78","geo_precision":"zip","email address":"sharon90250@yahoo.com"},"type":"Feature","geometry":{"type":"Point","coordinates":[-118.273156,33.949164]}},{"properties":{"zip":"90292","geo_score":0.714,"id":"a632brafmhjt","geo_precision":"zip","email address":"elizabeth@luminara.com"},"type":"Feature","geometry":{"type":"Point","coordinates":[-118.298662,33.786594]}},{"properties":{"zip":"90807","geo_score":0.714,"id":"a632br8gc52w","geo_precision":"zip","email address":"drakeclaimservice@charter.net"},"type":"Feature","geometry":{"type":"Point","coordinates":[-118.181102,33.831466]}},{"properties":{"zip":"90405","geo_score":0.714,"id":"a632br5tz8ht","geo_precision":"zip","email address":"eshore@wattcompanies.com"},"type":"Feature","geometry":{"type":"Point","coordinates":[-118.483691,34.002233]}},{"properties":{"zip":"90020","geo_score":0.714,"id":"a632brck5oys","geo_precision":"zip","email address":"pinaymonay@yahoo.com"},"type":"Feature","geometry":{"type":"Point","coordinates":[-118.298662,33.786594]}},{"properties":{"zip":"90064","geo_score":0.714,"id":"a632brg5kjk1","geo_precision":"zip","email address":"srutenbrg@gursey.com"},"type":"Feature","geometry":{"type":"Point","coordinates":[-118.298662,33.786594]}},{"properties":{"zip":"90230","geo_score":0.714,"id":"a632br4ihxpb","geo_precision":"zip","email address":"vista_54@yahoo.com"},"type":"Feature","geometry":{"type":"Point","coordinates":[-118.298662,33.786594]}},{"properties":{"zip":"91011","geo_score":0.714,"id":"a632brb3tw6i","geo_precision":"zip","email address":"evelyn151@aol.com"},"type":"Feature","geometry":{"type":"Point","coordinates":[-118.298662,33.786594]}},{"properties":{"zip":"90040","geo_score":0.714,"id":"a632br9sp27l","geo_precision":"zip","email address":"slv_cstr@yahoo.com"},"type":"Feature","geometry":{"type":"Point","coordinates":[-118.159793,34.000569]}},{"properties":{"zip":"92570","geo_score":0.714,"id":"a632br2htum1","geo_precision":"zip","email address":"sdurgiah@gmail.com"},"type":"Feature","geometry":{"type":"Point","coordinates":[-116.055617,33.752886]}},{"properties":{"zip":"92342","geo_score":0.714,"id":"a632br1z8fcn","geo_precision":"zip","email address":"wowwee3@hotmail.com"},"type":"Feature","geometry":{"type":"Point","coordinates":[-116.378323,34.496921]}},{"properties":{"zip":"92394","geo_score":0.714,"id":"a632br7129x5","geo_precision":"zip","email address":"suzqbear@yahoo.com"},"type":"Feature","geometry":{"type":"Point","coordinates":[-115.172471,34.527103]}},{"properties":{"zip":"92677","geo_score":0.714,"id":"a632brfuglfe","geo_precision":"zip","email address":"kimmbaaa@hotmail.com"},"type":"Feature","geometry":{"type":"Point","coordinates":[-117.732276,33.490861]}},{"properties":{"zip":"90254","geo_score":0.714,"id":"a632brh04c9j","geo_precision":"zip","email address":"jillsanders28@yahoo.com"},"type":"Feature","geometry":{"type":"Point","coordinates":[-118.298662,33.786594]}},{"properties":{"zip":"7024","geo_score":0.714,"id":"a632brbfqy1g","geo_precision":"zip","email address":"contactmimi@aol.com"},"type":"Feature","geometry":{"type":"Point","coordinates":[-73.962082,40.864267]}},{"properties":{"zip":"90807","geo_score":0.714,"id":"a632br65cstm","geo_precision":"zip","email address":"rbeiler@yahoo.com"},"type":"Feature","geometry":{"type":"Point","coordinates":[-118.181102,33.831466]}},{"properties":{"zip":"90807","geo_score":0.714,"id":"a632br2sfaaz","geo_precision":"zip","email address":"lanitravels@yahoo.com"},"type":"Feature","geometry":{"type":"Point","coordinates":[-118.181102,33.831466]}},{"properties":{"zip":"92555","geo_score":0.714,"id":"a632br9ijpjb","geo_precision":"zip","email address":"tracybears@gmail.com"},"type":"Feature","geometry":{"type":"Point","coordinates":[-116.920413,33.855098]}},{"properties":{"zip":"90008","geo_score":0.714,"id":"a632br4amd1j","geo_precision":"zip","email address":"pamg912@yahoo.com"},"type":"Feature","geometry":{"type":"Point","coordinates":[-118.298662,33.786594]}},{"properties":{"zip":"92545","geo_score":0.714,"id":"a632br3iphxa","geo_precision":"zip","email address":"diana194557@hotmail.com"},"type":"Feature","geometry":{"type":"Point","coordinates":[-116.055617,33.752886]}},{"properties":{"zip":"90066","geo_score":0.714,"id":"a632br6wr456","geo_precision":"zip","email address":"denisefreed@yahoo.com"},"type":"Feature","geometry":{"type":"Point","coordinates":[-118.430912,34.004734]}},{"properties":{"zip":"93551","geo_score":0.714,"id":"a632brbheo5d","geo_precision":"zip","email address":"gotrealtor@sbcglobal.net"},"type":"Feature","geometry":{"type":"Point","coordinates":[-118.298662,33.786594]}},{"properties":{"zip":"92555","geo_score":0.714,"id":"a632br7qmvjk","geo_precision":"zip","email address":"morenozam@aol.com"},"type":"Feature","geometry":{"type":"Point","coordinates":[-116.920413,33.855098]}},{"properties":{"zip":"92404","geo_score":0.714,"id":"a632brf8okay","geo_precision":"zip","email address":"Mefab@aol.com"},"type":"Feature","geometry":{"type":"Point","coordinates":[-117.243375,34.148899]}},{"properties":{"zip":"90402","geo_score":0.714,"id":"a632br36i6n7","geo_precision":"zip","email address":"aachick@msn.com"},"type":"Feature","geometry":{"type":"Point","coordinates":[-118.298662,33.786594]}},{"properties":{"zip":"92345","geo_score":0.714,"id":"a632braw19rj","geo_precision":"zip","email address":"chubs1970@msn.com"},"type":"Feature","geometry":{"type":"Point","coordinates":[-115.967051,34.839964]}},{"properties":{"zip":"90026","geo_score":0.714,"id":"a632br4r4hqz","geo_precision":"zip","email address":"Krisort1207@yahoo.com"},"type":"Feature","geometry":{"type":"Point","coordinates":[-118.259241,34.09001]}},{"properties":{"zip":"90025","geo_score":0.714,"id":"a632br2mtj6i","geo_precision":"zip","email address":"gelfonda@aol.com"},"type":"Feature","geometry":{"type":"Point","coordinates":[-118.448135,34.046399]}},{"properties":{"zip":"91436","geo_score":0.714,"id":"a632br3p9dzo","geo_precision":"zip","email address":"nsadeghe@gmail.com"},"type":"Feature","geometry":{"type":"Point","coordinates":[-118.298662,33.786594]}},{"properties":{"zip":"48322","geo_score":0.714,"id":"a632br4cr3cb","geo_precision":"zip","email address":"lexinasesi@aol.com"},"type":"Feature","geometry":{"type":"Point","coordinates":[-83.379535,42.542715]}},{"properties":{"zip":"92530","geo_score":0.714,"id":"a632br3faf4a","geo_precision":"zip","email address":"schiefertammy@yahoo.com"},"type":"Feature","geometry":{"type":"Point","coordinates":[-116.649216,33.658068]}},{"properties":{"zip":"91208","geo_score":0.714,"id":"a632br9cr64q","geo_precision":"zip","email address":"titizmarin@yahoo.com"},"type":"Feature","geometry":{"type":"Point","coordinates":[-118.298662,33.786594]}},{"properties":{"zip":"90004","geo_score":0.714,"id":"a632br2fts27","geo_precision":"zip","email address":"h_hensler@yahoo.com"},"type":"Feature","geometry":{"type":"Point","coordinates":[-118.298662,33.786594]}},{"properties":{"zip":"90042","geo_score":0.714,"id":"a632bra6l96n","geo_precision":"zip","email address":"skippy_kandykid@yahoo.com"},"type":"Feature","geometry":{"type":"Point","coordinates":[-118.198962,34.111953]}},{"properties":{"zip":"91307","geo_score":0.714,"id":"a632br4iwzur","geo_precision":"zip","email address":"marcirusen@hotmail.com"},"type":"Feature","geometry":{"type":"Point","coordinates":[-118.298662,33.786594]}},{"properties":{"zip":"90241","geo_score":0.714,"id":"a632brequ0kt","geo_precision":"zip","email address":"gaylee1961@yahoo.com"},"type":"Feature","geometry":{"type":"Point","coordinates":[-118.125851,33.939164]}},{"properties":{"zip":"90815","geo_score":0.714,"id":"a632br3blch6","geo_precision":"zip","email address":"auntielle1@yahoo.com"},"type":"Feature","geometry":{"type":"Point","coordinates":[-118.114612,33.793516]}},{"properties":{"zip":"92880","geo_score":0.714,"id":"a632braraavb","geo_precision":"zip","email address":"js_4901@sbcglobal.net"},"type":"Feature","geometry":{"type":"Point","coordinates":[-116.055617,33.752886]}},{"properties":{"zip":"90043","geo_score":0.714,"id":"a632br91ei9b","geo_precision":"zip","email address":"Redcarpetdayspa@aol.com"},"type":"Feature","geometry":{"type":"Point","coordinates":[-118.342576,33.998902]}},{"properties":{"zip":"90706","geo_score":0.714,"id":"a632brfbbc3g","geo_precision":"zip","email address":"phuckyoutub@gmail.com"},"type":"Feature","geometry":{"type":"Point","coordinates":[-118.12965,33.888014]}},{"properties":{"zip":"92301","geo_score":0.714,"id":"a632brcjs08a","geo_precision":"zip","email address":"sweetblessing47@yahoo.com"},"type":"Feature","geometry":{"type":"Point","coordinates":[-117.631168,34.602213]}},{"properties":{"zip":"92630","geo_score":0.714,"id":"a632brhdamx4","geo_precision":"zip","email address":"juanitacol04@yahoo.com"},"type":"Feature","geometry":{"type":"Point","coordinates":[-117.683662,33.646966]}},{"properties":{"zip":"90008","geo_score":0.714,"id":"a632br33mlz0","geo_precision":"zip","email address":"sherriewilliams2@aol.com"},"type":"Feature","geometry":{"type":"Point","coordinates":[-118.298662,33.786594]}},{"properties":{"zip":"90025","geo_score":0.714,"id":"a632brc3wv4m","geo_precision":"zip","email address":"mikasakvareli@yahoo.com"},"type":"Feature","geometry":{"type":"Point","coordinates":[-118.448135,34.046399]}},{"properties":{"zip":"92692","geo_score":0.714,"id":"a632bregp6d9","geo_precision":"zip","email address":"aciezzi@yahoo.com"},"type":"Feature","geometry":{"type":"Point","coordinates":[-117.659899,33.575026]}},{"properties":{"zip":"93534","geo_score":0.714,"id":"a632br30a53g","geo_precision":"zip","email address":"georgeandkim@verizon.net"},"type":"Feature","geometry":{"type":"Point","coordinates":[-117.825619,34.667766]}},{"properties":{"zip":"91730","geo_score":0.714,"id":"a632br4hm481","geo_precision":"zip","email address":"washington.jude@yahoo.com"},"type":"Feature","geometry":{"type":"Point","coordinates":[-115.967051,34.839964]}},{"properties":{"zip":"90028","geo_score":0.714,"id":"a632brg71ohx","geo_precision":"zip","email address":"mia.mikkelsen@gmail.com"},"type":"Feature","geometry":{"type":"Point","coordinates":[-118.326743,34.098343]}},{"properties":{"zip":"90018","geo_score":0.714,"id":"a632brepc7bl","geo_precision":"zip","email address":"littlestar1025@yahoo.com"},"type":"Feature","geometry":{"type":"Point","coordinates":[-118.298662,33.786594]}},{"properties":{"zip":"48030","geo_score":0.714,"id":"a632brh2h2mn","geo_precision":"zip","email address":"tampered44@yahoo.com"},"type":"Feature","geometry":{"type":"Point","coordinates":[-83.098474,42.496485]}},{"properties":{"zip":"90038","geo_score":0.714,"id":"a632brat06p3","geo_precision":"zip","email address":"wire.god@gmail.com"},"type":"Feature","geometry":{"type":"Point","coordinates":[-118.298662,33.786594]}},{"properties":{"zip":"91406","geo_score":0.714,"id":"a632bredb937","geo_precision":"zip","email address":"Rinska@aol.com"},"type":"Feature","geometry":{"type":"Point","coordinates":[-118.298662,33.786594]}},{"properties":{"zip":"92587","geo_score":0.714,"id":"a632br7m1xjt","geo_precision":"zip","email address":"hacksal@netzero.net"},"type":"Feature","geometry":{"type":"Point","coordinates":[-117.273093,33.685022]}},{"properties":{"zip":"90220","geo_score":0.714,"id":"a632br5qos57","geo_precision":"zip","email address":"ladyscorpio90037@yahoo.com"},"type":"Feature","geometry":{"type":"Point","coordinates":[-118.240208,33.874815]}},{"properties":{"zip":"92807","geo_score":0.714,"id":"a632br3kw0uy","geo_precision":"zip","email address":"jfogefam@sbcglobal.net"},"type":"Feature","geometry":{"type":"Point","coordinates":[-117.777277,33.84446]}},{"properties":{"zip":"90745","geo_score":0.714,"id":"a632br3wbfoy","geo_precision":"zip","email address":"mzdang3@gmail.com"},"type":"Feature","geometry":{"type":"Point","coordinates":[-118.261154,33.813317]}},{"properties":{"zip":"92392","geo_score":0.714,"id":"a632br43dfc4","geo_precision":"zip","email address":"bizzylizzy36@aol.com"},"type":"Feature","geometry":{"type":"Point","coordinates":[-114.754916,34.491985]}},{"properties":{"zip":"92683","geo_score":0.714,"id":"a632br99ohur","geo_precision":"zip","email address":"vdaytaos@aol.com"},"type":"Feature","geometry":{"type":"Point","coordinates":[-118.024228,33.758905]}},{"properties":{"zip":"90049","geo_score":0.714,"id":"a632brbsrmo1","geo_precision":"zip","email address":"lenazink@yahoo.com"},"type":"Feature","geometry":{"type":"Point","coordinates":[-118.473969,34.051954]}},{"properties":{"zip":"90043","geo_score":0.714,"id":"a632brelwyo7","geo_precision":"zip","email address":"lisha@badamitv.com"},"type":"Feature","geometry":{"type":"Point","coordinates":[-118.342576,33.998902]}},{"properties":{"zip":"90805","geo_score":0.714,"id":"a632br1uhw7t","geo_precision":"zip","email address":"arrossi@uci.edu"},"type":"Feature","geometry":{"type":"Point","coordinates":[-118.185625,33.860016]}},{"properties":{"zip":"90034","geo_score":0.714,"id":"a632brfx62og","geo_precision":"zip","email address":"lepeek2004@yahoo.com"},"type":"Feature","geometry":{"type":"Point","coordinates":[-118.405633,34.022789]}},{"properties":{"zip":"91701","geo_score":0.714,"id":"a632brfk36hq","geo_precision":"zip","email address":"marseeann@aol.com"},"type":"Feature","geometry":{"type":"Point","coordinates":[-115.967051,34.839964]}},{"properties":{"zip":"90065","geo_score":0.714,"id":"a632brbpxxn0","geo_precision":"zip","email address":"robleswilma86@yahoo.com"},"type":"Feature","geometry":{"type":"Point","coordinates":[-118.298662,33.786594]}},{"properties":{"zip":"90731","geo_score":0.714,"id":"a632brg5dbvu","geo_precision":"zip","email address":"GLO_4JC@YAHOO.COM"},"type":"Feature","geometry":{"type":"Point","coordinates":[-118.253053,33.753088]}},{"properties":{"zip":"90266","geo_score":0.714,"id":"a632bred5c7h","geo_precision":"zip","email address":"kathy@kathysena.com"},"type":"Feature","geometry":{"type":"Point","coordinates":[-118.298662,33.786594]}},{"properties":{"zip":"92861","geo_score":0.714,"id":"a632brcuag38","geo_precision":"zip","email address":"jacquieunruh@att.net"},"type":"Feature","geometry":{"type":"Point","coordinates":[-117.769442,33.640302]}},{"properties":{"zip":"90023","geo_score":0.714,"id":"a632brgs8brl","geo_precision":"zip","email address":"banshee58@live.com"},"type":"Feature","geometry":{"type":"Point","coordinates":[-118.196055,34.008262]}},{"properties":{"zip":"93536","geo_score":0.714,"id":"a632brcgu0k8","geo_precision":"zip","email address":"curious2see@msn.com"},"type":"Feature","geometry":{"type":"Point","coordinates":[-118.288688,34.689707]}},{"properties":{"zip":"90803","geo_score":0.714,"id":"a632brgztiuq","geo_precision":"zip","email address":"rosiegafinocchi@aol.com"},"type":"Feature","geometry":{"type":"Point","coordinates":[-118.123676,33.754462]}},{"properties":{"zip":"91007","geo_score":0.714,"id":"a632brgbg2qx","geo_precision":"zip","email address":"mlee0199@gmail.com"},"type":"Feature","geometry":{"type":"Point","coordinates":[-118.298662,33.786594]}},{"properties":{"zip":"90046","geo_score":0.714,"id":"a632br5xwnrl","geo_precision":"zip","email address":"anacris6285@gmail.com"},"type":"Feature","geometry":{"type":"Point","coordinates":[-118.298662,33.786594]}},{"properties":{"zip":"90036","geo_score":0.714,"id":"a632brb5nta7","geo_precision":"zip","email address":"rothashley@gmail.com"},"type":"Feature","geometry":{"type":"Point","coordinates":[-118.298662,33.786594]}},{"properties":{"zip":"93551","geo_score":0.714,"id":"a632br2on4lk","geo_precision":"zip","email address":"1littleangel@att.net"},"type":"Feature","geometry":{"type":"Point","coordinates":[-118.298662,33.786594]}},{"properties":{"zip":"6405","geo_score":0.714,"id":"a632br9t0h5l","geo_precision":"zip","email address":"lordforrest1@aol.com"},"type":"Feature","geometry":{"type":"Point","coordinates":[-72.777042,41.267041]}},{"properties":{"zip":"93420","geo_score":0.714,"id":"a632br4p6e4u","geo_precision":"zip","email address":"SCHILLERO_RACHEL@YAHOO.COM"},"type":"Feature","geometry":{"type":"Point","coordinates":[-120.542668,35.078865]}},{"properties":{"zip":"92626","geo_score":0.714,"id":"a632br9qiu03","geo_precision":"zip","email address":"deanabenter@att.net"},"type":"Feature","geometry":{"type":"Point","coordinates":[-117.778398,33.6829]}},{"properties":{"zip":"91331","geo_score":0.714,"id":"a632br2z47ky","geo_precision":"zip","email address":"eecangels@yahoo.com"},"type":"Feature","geometry":{"type":"Point","coordinates":[-118.298662,33.786594]}},{"properties":{"zip":"91390","geo_score":0.714,"id":"a632br6v26k4","geo_precision":"zip","email address":"susanjackson0123@gmail.com"},"type":"Feature","geometry":{"type":"Point","coordinates":[-118.503225,34.411231]}},{"properties":{"zip":"92562","geo_score":0.714,"id":"a632br3q69kd","geo_precision":"zip","email address":"kuzinveni2@yahoo.com"},"type":"Feature","geometry":{"type":"Point","coordinates":[-116.861027,33.44204]}},{"properties":{"zip":"91303","geo_score":0.714,"id":"a632br62008y","geo_precision":"zip","email address":"angel_paws@sbcglobal.net"},"type":"Feature","geometry":{"type":"Point","coordinates":[-118.298662,33.786594]}},{"properties":{"zip":"91384","geo_score":0.714,"id":"a632brbhlt0b","geo_precision":"zip","email address":"LizOtis@gmail.com"},"type":"Feature","geometry":{"type":"Point","coordinates":[-118.298662,33.786594]}},{"properties":{"zip":"90706","geo_score":0.714,"id":"a632br6mp4p4","geo_precision":"zip","email address":"peaceful12002@hotmail.com"},"type":"Feature","geometry":{"type":"Point","coordinates":[-118.12965,33.888014]}},{"properties":{"zip":"90802","geo_score":0.714,"id":"a632br6zkm08","geo_precision":"zip","email address":"dec13@live.com"},"type":"Feature","geometry":{"type":"Point","coordinates":[-118.201101,33.756024]}},{"properties":{"zip":"90047","geo_score":0.714,"id":"a632brg9ex7x","geo_precision":"zip","email address":"popnea@aol.com"},"type":"Feature","geometry":{"type":"Point","coordinates":[-118.281184,33.920015]}},{"properties":{"zip":"91042","geo_score":0.714,"id":"a632bre7xmf5","geo_precision":"zip","email address":"angepina@yahoo.com"},"type":"Feature","geometry":{"type":"Point","coordinates":[-118.298662,33.786594]}},{"properties":{"zip":"64138","geo_score":0.714,"id":"a632bram8une","geo_precision":"zip","email address":"beth9240@aol.com"},"type":"Feature","geometry":{"type":"Point","coordinates":[-94.404673,38.904174]}},{"properties":{"zip":"90028","geo_score":0.714,"id":"a632br45xwv6","geo_precision":"zip","email address":"feesiques@yahoo.com"},"type":"Feature","geometry":{"type":"Point","coordinates":[-118.326743,34.098343]}},{"properties":{"zip":"91423","geo_score":0.714,"id":"a632brg1z32u","geo_precision":"zip","email address":"erinkost@yahoo.com"},"type":"Feature","geometry":{"type":"Point","coordinates":[-118.298662,33.786594]}},{"properties":{"zip":"90057","geo_score":0.714,"id":"a632brb98e00","geo_precision":"zip","email address":"shirleyakemp@yahoo.com"},"type":"Feature","geometry":{"type":"Point","coordinates":[-118.298662,33.786594]}},{"properties":{"zip":"90027","geo_score":0.714,"id":"a632br6fsb56","geo_precision":"zip","email address":"euniceguidry@sbcglobal.net"},"type":"Feature","geometry":{"type":"Point","coordinates":[-118.298662,33.786594]}},{"properties":{"zip":"90303","geo_score":0.714,"id":"a632br9fxmks","geo_precision":"zip","email address":"gomezkarina@mac.com"},"type":"Feature","geometry":{"type":"Point","coordinates":[-118.298662,33.786594]}},{"properties":{"zip":"91351","geo_score":0.714,"id":"a632braylf83","geo_precision":"zip","email address":"tpedroza4@aol.com"},"type":"Feature","geometry":{"type":"Point","coordinates":[-118.298662,33.786594]}},{"properties":{"zip":"93030","geo_score":0.714,"id":"a632brbuytbu","geo_precision":"zip","email address":"janellenavarro84@yahoo.com"},"type":"Feature","geometry":{"type":"Point","coordinates":[-119.16383,34.235783]}},{"properties":{"zip":"95843","geo_score":0.714,"id":"a632br3is6bz","geo_precision":"zip","email address":"moxiemoxie@comcast.net"},"type":"Feature","geometry":{"type":"Point","coordinates":[-121.366613,38.716091]}},{"properties":{"zip":"90029","geo_score":0.714,"id":"a632brevfn30","geo_precision":"zip","email address":"brenda.jones25@yahoo.com"},"type":"Feature","geometry":{"type":"Point","coordinates":[-118.298662,33.786594]}},{"properties":{"zip":"85259","geo_score":0.714,"id":"a632br3q3zax","geo_precision":"zip","email address":"toniculpepper@cox.net"},"type":"Feature","geometry":{"type":"Point","coordinates":[-112.18717,33.276539]}},{"properties":{"zip":"90631","geo_score":0.714,"id":"a632br1ibjbz","geo_precision":"zip","email address":"mlowe2000@netzero.com"},"type":"Feature","geometry":{"type":"Point","coordinates":[-117.950619,33.960846]}},{"properties":{"zip":"93035","geo_score":0.714,"id":"a632brcx2mkx","geo_precision":"zip","email address":"tanners_mom@yahoo.com"},"type":"Feature","geometry":{"type":"Point","coordinates":[-119.218442,34.152783]}},{"properties":{"zip":"90035","geo_score":0.714,"id":"a632brfp20mg","geo_precision":"zip","email address":"head2toez69@gmail.com"},"type":"Feature","geometry":{"type":"Point","coordinates":[-118.298662,33.786594]}},{"properties":{"zip":"87401","geo_score":0.714,"id":"a632br65qqjw","geo_precision":"zip","email address":"myrna_pennington@msn.com"},"type":"Feature","geometry":{"type":"Point","coordinates":[-107.326157,35.840021]}},{"properties":{"zip":"91710","geo_score":0.714,"id":"a632br7ttd2h","geo_precision":"zip","email address":"smyles815@aol.com"},"type":"Feature","geometry":{"type":"Point","coordinates":[-117.778668,33.947792]}},{"properties":{"zip":"91785","geo_score":0.714,"id":"a632br8ql9oc","geo_precision":"zip","email address":"lynn_esparcia@upland.k12.ca.us"},"type":"Feature","geometry":{"type":"Point","coordinates":[-115.967051,34.839964]}},{"properties":{"zip":"90068","geo_score":0.714,"id":"a632braptjp6","geo_precision":"zip","email address":"kierstenwarren@mac.com"},"type":"Feature","geometry":{"type":"Point","coordinates":[-118.298662,33.786594]}},{"properties":{"zip":"90220","geo_score":0.714,"id":"a632brbovngu","geo_precision":"zip","email address":"evangeliahaynes@yahoo.com"},"type":"Feature","geometry":{"type":"Point","coordinates":[-118.240208,33.874815]}},{"properties":{"zip":"95125","geo_score":0.714,"id":"a632bre042jl","geo_precision":"zip","email address":"naturegrant@yahoo.com"},"type":"Feature","geometry":{"type":"Point","coordinates":[-121.705327,37.189396]}},{"properties":{"zip":"93309","geo_score":0.714,"id":"a632brbpirfj","geo_precision":"zip","email address":"zafiro8a@yahoo.com"},"type":"Feature","geometry":{"type":"Point","coordinates":[-118.905173,35.294405]}},{"properties":{"zip":"90004","geo_score":0.714,"id":"a632brdcsxfy","geo_precision":"zip","email address":"india_ollin@hotmail.com"},"type":"Feature","geometry":{"type":"Point","coordinates":[-118.298662,33.786594]}},{"properties":{"zip":"91730","geo_score":0.714,"id":"a632brh354ux","geo_precision":"zip","email address":"SILVATERZIAN@YAHOO.COM"},"type":"Feature","geometry":{"type":"Point","coordinates":[-115.967051,34.839964]}},{"properties":{"zip":"90046","geo_score":0.714,"id":"a632brde57rj","geo_precision":"zip","email address":"carrolldesign@earthlink.net"},"type":"Feature","geometry":{"type":"Point","coordinates":[-118.298662,33.786594]}},{"properties":{"zip":"90703","geo_score":0.714,"id":"a632br851dbx","geo_precision":"zip","email address":"mona_pettus@yahoo.com"},"type":"Feature","geometry":{"type":"Point","coordinates":[-118.068648,33.866914]}},{"properties":{"zip":"90034","geo_score":0.714,"id":"a632br2kn0zk","geo_precision":"zip","email address":"laurensegal@nextaid.org"},"type":"Feature","geometry":{"type":"Point","coordinates":[-118.405633,34.022789]}},{"properties":{"zip":"90810","geo_score":0.714,"id":"a632br98vu81","geo_precision":"zip","email address":"rutaseve@yahoo.com"},"type":"Feature","geometry":{"type":"Point","coordinates":[-118.222848,33.827795]}},{"properties":{"zip":"90706","geo_score":0.714,"id":"a632br4zp3lf","geo_precision":"zip","email address":"kristine_rider@verizon.net"},"type":"Feature","geometry":{"type":"Point","coordinates":[-118.12965,33.888014]}},{"properties":{"zip":"92656","geo_score":0.714,"id":"a632brea5pdg","geo_precision":"zip","email address":"cutch906@sbcglobal.net"},"type":"Feature","geometry":{"type":"Point","coordinates":[-117.751341,33.603459]}},{"properties":{"zip":"90028","geo_score":0.714,"id":"a632brff8c6b","geo_precision":"zip","email address":"samanthaevents@aol.com"},"type":"Feature","geometry":{"type":"Point","coordinates":[-118.326743,34.098343]}},{"properties":{"zip":"75077","geo_score":0.714,"id":"a632brexez4e","geo_precision":"zip","email address":"ejvalenzuela@msn.com"},"type":"Feature","geometry":{"type":"Point","coordinates":[-96.449707,33.204838]}},{"properties":{"zip":"91423","geo_score":0.714,"id":"a632br1wzqx7","geo_precision":"zip","email address":"sherice@gmail.com"},"type":"Feature","geometry":{"type":"Point","coordinates":[-118.298662,33.786594]}},{"properties":{"zip":"90039","geo_score":0.714,"id":"a632br91o2ap","geo_precision":"zip","email address":"hanamurata@yahoo.com"},"type":"Feature","geometry":{"type":"Point","coordinates":[-118.298662,33.786594]}},{"properties":{"zip":"90250","geo_score":0.714,"id":"a632brd60t1q","geo_precision":"zip","email address":"gracekdacanay@gmail.com"},"type":"Feature","geometry":{"type":"Point","coordinates":[-118.298662,33.786594]}},{"properties":{"zip":"90042","geo_score":0.714,"id":"a632br6u3d78","geo_precision":"zip","email address":"itseda07@gmail.com"},"type":"Feature","geometry":{"type":"Point","coordinates":[-118.198962,34.111953]}},{"properties":{"zip":"90043","geo_score":0.714,"id":"a632br4z9aps","geo_precision":"zip","email address":"mrs.cadams_5@hotmail.com"},"type":"Feature","geometry":{"type":"Point","coordinates":[-118.342576,33.998902]}},{"properties":{"zip":"55337","geo_score":0.714,"id":"a632brgxjnc9","geo_precision":"zip","email address":"Bambachic@msn.com"},"type":"Feature","geometry":{"type":"Point","coordinates":[-93.226258,44.771547]}},{"properties":{"zip":"90242","geo_score":0.714,"id":"a632brebs7qq","geo_precision":"zip","email address":"karlajosue19@yahoo.com"},"type":"Feature","geometry":{"type":"Point","coordinates":[-118.139969,33.922714]}},{"properties":{"zip":"92320","geo_score":0.714,"id":"a632bray3foq","geo_precision":"zip","email address":"cnldunlap@yahoo.com"},"type":"Feature","geometry":{"type":"Point","coordinates":[-117.038262,33.976814]}},{"properties":{"zip":"90650","geo_score":0.714,"id":"a632bra5gnuc","geo_precision":"zip","email address":"tptvox@aol.com"},"type":"Feature","geometry":{"type":"Point","coordinates":[-118.096178,33.919737]}},{"properties":{"zip":"90042","geo_score":0.714,"id":"a632br24afy7","geo_precision":"zip","email address":"arnycesa@myway.com"},"type":"Feature","geometry":{"type":"Point","coordinates":[-118.198962,34.111953]}},{"properties":{"zip":"92377","geo_score":0.714,"id":"a632brf337fn","geo_precision":"zip","email address":"agriosgonzalez@gmail.com"},"type":"Feature","geometry":{"type":"Point","coordinates":[-116.982871,34.141501]}},{"properties":{"zip":"90035","geo_score":0.714,"id":"a632br2ejeke","geo_precision":"zip","email address":"grivard4@gmail.com"},"type":"Feature","geometry":{"type":"Point","coordinates":[-118.298662,33.786594]}},{"properties":{"zip":"92886","geo_score":0.714,"id":"a632brcdxd7w","geo_precision":"zip","email address":"cheek@pacbell.net"},"type":"Feature","geometry":{"type":"Point","coordinates":[-117.588233,33.674044]}},{"properties":{"zip":"91344","geo_score":0.714,"id":"a632brfn4ajy","geo_precision":"zip","email address":"colleenwittler@yahoo.com"},"type":"Feature","geometry":{"type":"Point","coordinates":[-118.298662,33.786594]}},{"properties":{"zip":"91343","geo_score":0.714,"id":"a632br1yuh1n","geo_precision":"zip","email address":"schirlee@hotmail.com"},"type":"Feature","geometry":{"type":"Point","coordinates":[-118.484722,34.236389]}},{"properties":{"zip":"90016","geo_score":0.714,"id":"a632br9llufw","geo_precision":"zip","email address":"vstyle10@sbcglobal.net"},"type":"Feature","geometry":{"type":"Point","coordinates":[-118.298662,33.786594]}},{"properties":{"zip":"90013","geo_score":0.714,"id":"a632br63v2fx","geo_precision":"zip","email address":"renaebigrj@yahoo.com"},"type":"Feature","geometry":{"type":"Point","coordinates":[-118.298662,33.786594]}},{"properties":{"zip":"90016","geo_score":0.714,"id":"a632br6wbtrb","geo_precision":"zip","email address":"afullangel@gmail.com"},"type":"Feature","geometry":{"type":"Point","coordinates":[-118.298662,33.786594]}},{"properties":{"zip":"90505","geo_score":0.714,"id":"a632brfo7p53","geo_precision":"zip","email address":"RmonaW@aol.com"},"type":"Feature","geometry":{"type":"Point","coordinates":[-118.298662,33.786594]}},{"properties":{"zip":"34219","geo_score":0.714,"id":"a632brc0p9mi","geo_precision":"zip","email address":"tbell53@msn.com"},"type":"Feature","geometry":{"type":"Point","coordinates":[-82.269458,27.566457]}},{"properties":{"zip":"90640","geo_score":0.714,"id":"a632br8qnvbk","geo_precision":"zip","email address":"azucena12@sbcglobal.net"},"type":"Feature","geometry":{"type":"Point","coordinates":[-118.298662,33.786594]}},{"properties":{"zip":"91750","geo_score":0.714,"id":"a632brdmqcdk","geo_precision":"zip","email address":"meyoupls2@aol.com"},"type":"Feature","geometry":{"type":"Point","coordinates":[-118.298662,33.786594]}},{"properties":{"zip":"90036","geo_score":0.714,"id":"a632br2doh1t","geo_precision":"zip","email address":"smoakes777@yahoo.com"},"type":"Feature","geometry":{"type":"Point","coordinates":[-118.298662,33.786594]}},{"properties":{"zip":"92374","geo_score":0.714,"id":"a632br6lsboc","geo_precision":"zip","email address":"louisefrank2@aol.com"},"type":"Feature","geometry":{"type":"Point","coordinates":[-116.898232,34.153575]}},{"properties":{"zip":"90723","geo_score":0.714,"id":"a632brcxu7vi","geo_precision":"zip","email address":"PATTY_G_VILLAGOMEZ@YAHOO.COM"},"type":"Feature","geometry":{"type":"Point","coordinates":[-118.165152,33.899015]}},{"properties":{"zip":"70460","geo_score":0.714,"id":"a632brcxwtw2","geo_precision":"zip","email address":"tastles2001@aol.com"},"type":"Feature","geometry":{"type":"Point","coordinates":[-89.89507,30.394083]}},{"properties":{"zip":"92584","geo_score":0.714,"id":"a632brcev447","geo_precision":"zip","email address":"jarica128@yahoo.com"},"type":"Feature","geometry":{"type":"Point","coordinates":[-116.055617,33.752886]}},{"properties":{"zip":"90241","geo_score":0.714,"id":"a632br3bgzk9","geo_precision":"zip","email address":"rosycamarena@ymail.com"},"type":"Feature","geometry":{"type":"Point","coordinates":[-118.125851,33.939164]}},{"properties":{"zip":"90650","geo_score":0.714,"id":"a632br7xs7qq","geo_precision":"zip","email address":"itsall.good@verizon.net"},"type":"Feature","geometry":{"type":"Point","coordinates":[-118.096178,33.919737]}},{"properties":{"zip":"9631","geo_score":0.0,"id":"a632brezdfko","geo_precision":"unmatched","email address":"kcbcann@hotmail.com"},"type":"Feature","geometry":null},{"properties":{"zip":"91701","geo_score":0.714,"id":"a632brhkcap1","geo_precision":"zip","email address":"nuttybunchof3@yahoo.com"},"type":"Feature","geometry":{"type":"Point","coordinates":[-115.967051,34.839964]}},{"properties":{"zip":"92563","geo_score":0.714,"id":"a632br25po0i","geo_precision":"zip","email address":"lucianemusa@gmail.com"},"type":"Feature","geometry":{"type":"Point","coordinates":[-117.158088,33.560581]}},{"properties":{"zip":"90046","geo_score":0.714,"id":"a632brb68uo3","geo_precision":"zip","email address":"traceface35@yahoo.com"},"type":"Feature","geometry":{"type":"Point","coordinates":[-118.298662,33.786594]}},{"properties":{"zip":"92345","geo_score":0.714,"id":"a632brcyl8f5","geo_precision":"zip","email address":"binlove4life@aol.com"},"type":"Feature","geometry":{"type":"Point","coordinates":[-115.967051,34.839964]}},{"properties":{"zip":"18902","geo_score":0.0,"id":"a632br6tz3go","geo_precision":"unmatched","email address":"cherieandre@hotmail.com"},"type":"Feature","geometry":null},{"properties":{"zip":"90032","geo_score":0.714,"id":"a632brcriqwn","geo_precision":"zip","email address":"sanabria_1@msn.com"},"type":"Feature","geometry":{"type":"Point","coordinates":[-118.17785,34.081121]}},{"properties":{"zip":"91786","geo_score":0.714,"id":"a632br9yscr5","geo_precision":"zip","email address":"roxrock102@msn.com"},"type":"Feature","geometry":{"type":"Point","coordinates":[-117.656444,34.155564]}},{"properties":{"zip":"91325","geo_score":0.714,"id":"a632br9l2zcd","geo_precision":"zip","email address":"blqmex@yahoo.com"},"type":"Feature","geometry":{"type":"Point","coordinates":[-118.298662,33.786594]}},{"properties":{"zip":"90026","geo_score":0.714,"id":"a632brbbn7mi","geo_precision":"zip","email address":"shiela_melendez36@yahoo.com"},"type":"Feature","geometry":{"type":"Point","coordinates":[-118.259241,34.09001]}},{"properties":{"zip":"92544","geo_score":0.714,"id":"a632br7f252e","geo_precision":"zip","email address":"lssimmer@yahoo.com"},"type":"Feature","geometry":{"type":"Point","coordinates":[-116.786275,33.617074]}},{"properties":{"zip":"90049","geo_score":0.714,"id":"a632brf5hsgu","geo_precision":"zip","email address":"janatrains@aol.com"},"type":"Feature","geometry":{"type":"Point","coordinates":[-118.473969,34.051954]}},{"properties":{"zip":"90019","geo_score":0.714,"id":"a632br1xtoss","geo_precision":"zip","email address":"carocut@sbcglobal.net"},"type":"Feature","geometry":{"type":"Point","coordinates":[-118.298662,33.786594]}},{"properties":{"zip":"90018","geo_score":0.714,"id":"a632bravz8hh","geo_precision":"zip","email address":"gbondo2000@yahoo.com"},"type":"Feature","geometry":{"type":"Point","coordinates":[-118.298662,33.786594]}},{"properties":{"zip":"90405","geo_score":0.714,"id":"a632br4szsjj","geo_precision":"zip","email address":"pemsantos65@yahoo.com"},"type":"Feature","geometry":{"type":"Point","coordinates":[-118.483691,34.002233]}},{"properties":{"zip":"90043","geo_score":0.714,"id":"a632br1irpsc","geo_precision":"zip","email address":"lisa_rayburn@yahoo.com"},"type":"Feature","geometry":{"type":"Point","coordinates":[-118.342576,33.998902]}},{"properties":{"zip":"90247","geo_score":0.714,"id":"a632br176ogw","geo_precision":"zip","email address":"mfinch70@hotmail.com"},"type":"Feature","geometry":{"type":"Point","coordinates":[-118.303407,33.923348]}},{"properties":{"zip":"90026","geo_score":0.714,"id":"a632br6vigbz","geo_precision":"zip","email address":"kikomaggie1@yahoo.com"},"type":"Feature","geometry":{"type":"Point","coordinates":[-118.259241,34.09001]}},{"properties":{"zip":"93401","geo_score":0.714,"id":"a632bra30bc6","geo_precision":"zip","email address":"seacrystal777@hotmail.com"},"type":"Feature","geometry":{"type":"Point","coordinates":[-120.846846,35.318308]}},{"properties":{"zip":"90064","geo_score":0.714,"id":"a632br5artb7","geo_precision":"zip","email address":"sullykara@yahoo.com"},"type":"Feature","geometry":{"type":"Point","coordinates":[-118.298662,33.786594]}},{"properties":{"zip":"90036","geo_score":0.714,"id":"a632br3465hp","geo_precision":"zip","email address":"hamilton.hayden@gmail.com"},"type":"Feature","geometry":{"type":"Point","coordinates":[-118.298662,33.786594]}},{"properties":{"zip":"92706","geo_score":0.714,"id":"a632breo9yk3","geo_precision":"zip","email address":"sonedia@yahoo.com"},"type":"Feature","geometry":{"type":"Point","coordinates":[-117.769442,33.640302]}},{"properties":{"zip":"91325","geo_score":0.714,"id":"a632br6sv0wa","geo_precision":"zip","email address":"wardgraphics@sbcglobal.net"},"type":"Feature","geometry":{"type":"Point","coordinates":[-118.298662,33.786594]}},{"properties":{"zip":"90710","geo_score":0.714,"id":"a632brh7kdnx","geo_precision":"zip","email address":"lelias5@yahoo.com"},"type":"Feature","geometry":{"type":"Point","coordinates":[-118.251554,33.791267]}},{"properties":{"zip":"91311","geo_score":0.714,"id":"a632br9edox5","geo_precision":"zip","email address":"carrotts66@aol.com"},"type":"Feature","geometry":{"type":"Point","coordinates":[-118.298662,33.786594]}},{"properties":{"zip":"91605","geo_score":0.714,"id":"a632brh0syt5","geo_precision":"zip","email address":"authenticity77@yahoo.com"},"type":"Feature","geometry":{"type":"Point","coordinates":[-118.298662,33.786594]}},{"properties":{"zip":"90272","geo_score":0.714,"id":"a632brhne4wq","geo_precision":"zip","email address":"pamnrocky@roadrunner.com"},"type":"Feature","geometry":{"type":"Point","coordinates":[-118.561194,34.042509]}},{"properties":{"zip":"90717","geo_score":0.714,"id":"a632br9gb5ns","geo_precision":"zip","email address":"kroth9@att.net"},"type":"Feature","geometry":{"type":"Point","coordinates":[-118.298662,33.786594]}},{"properties":{"zip":"92335","geo_score":0.714,"id":"a632br8kbaj4","geo_precision":"zip","email address":"ekeisha40@yahoo.com"},"type":"Feature","geometry":{"type":"Point","coordinates":[-117.488939,34.06279]}},{"properties":{"zip":"90716","geo_score":0.714,"id":"a632br965m2u","geo_precision":"zip","email address":"sonia_montano@hotmail.com"},"type":"Feature","geometry":{"type":"Point","coordinates":[-118.072796,33.830967]}},{"properties":{"zip":"90032","geo_score":0.714,"id":"a632br7yi35z","geo_precision":"zip","email address":"jackygvr7@aol.com"},"type":"Feature","geometry":{"type":"Point","coordinates":[-118.17785,34.081121]}},{"properties":{"zip":"91402","geo_score":0.714,"id":"a632br7jmkub","geo_precision":"zip","email address":"heavensent33angel@yahoo.com"},"type":"Feature","geometry":{"type":"Point","coordinates":[-118.298662,33.786594]}},{"properties":{"zip":"93591","geo_score":0.714,"id":"a632br2qie18","geo_precision":"zip","email address":"calfornia@aol.com"},"type":"Feature","geometry":{"type":"Point","coordinates":[-118.298662,33.786594]}},{"properties":{"zip":"90046","geo_score":0.714,"id":"a632brfjr35l","geo_precision":"zip","email address":"getbobbi@aol.com"},"type":"Feature","geometry":{"type":"Point","coordinates":[-118.298662,33.786594]}},{"properties":{"zip":"90019","geo_score":0.714,"id":"a632br90qyi9","geo_precision":"zip","email address":"joysquirt_69@yahoo.com"},"type":"Feature","geometry":{"type":"Point","coordinates":[-118.298662,33.786594]}},{"properties":{"zip":"91007","geo_score":0.714,"id":"a632br6gxsgw","geo_precision":"zip","email address":"everfern@yahoo.com"},"type":"Feature","geometry":{"type":"Point","coordinates":[-118.298662,33.786594]}},{"properties":{"zip":"90036","geo_score":0.714,"id":"a632br9tznjn","geo_precision":"zip","email address":"janebyun@gmail.com"},"type":"Feature","geometry":{"type":"Point","coordinates":[-118.298662,33.786594]}},{"properties":{"zip":"90305","geo_score":0.714,"id":"a632brheqrr8","geo_precision":"zip","email address":"jshannonhouse2000@yahoo.com"},"type":"Feature","geometry":{"type":"Point","coordinates":[-118.326464,33.959736]}},{"properties":{"zip":"91335","geo_score":0.714,"id":"a632br98b6sm","geo_precision":"zip","email address":"r_mostella@yahoo.com"},"type":"Feature","geometry":{"type":"Point","coordinates":[-118.298662,33.786594]}},{"properties":{"zip":"91364","geo_score":0.714,"id":"a632br2qe2jo","geo_precision":"zip","email address":"formydeals22@yahoo.com"},"type":"Feature","geometry":{"type":"Point","coordinates":[-118.645364,34.130839]}},{"properties":{"zip":"93536","geo_score":0.714,"id":"a632br8iamus","geo_precision":"zip","email address":"luvjezel03@aol.com"},"type":"Feature","geometry":{"type":"Point","coordinates":[-118.288688,34.689707]}},{"properties":{"zip":"92336","geo_score":0.714,"id":"a632br4kyyfy","geo_precision":"zip","email address":"ladyfefe64@yahoo.com"},"type":"Feature","geometry":{"type":"Point","coordinates":[-116.247005,34.122307]}},{"properties":{"zip":"91402","geo_score":0.714,"id":"a632br3jsaht","geo_precision":"zip","email address":"honey_bey2@yahoo.com"},"type":"Feature","geometry":{"type":"Point","coordinates":[-118.298662,33.786594]}},{"properties":{"zip":"90061","geo_score":0.714,"id":"a632brgsbedk","geo_precision":"zip","email address":"juliocarrera66@yahoo.com"},"type":"Feature","geometry":{"type":"Point","coordinates":[-118.275356,33.920965]}},{"properties":{"zip":"92320","geo_score":0.714,"id":"a632brhd46us","geo_precision":"zip","email address":"correaangels3@msn.com"},"type":"Feature","geometry":{"type":"Point","coordinates":[-117.038262,33.976814]}},{"properties":{"zip":"90230","geo_score":0.714,"id":"a632breakhtt","geo_precision":"zip","email address":"kimmolina@hotmail.com"},"type":"Feature","geometry":{"type":"Point","coordinates":[-118.298662,33.786594]}},{"properties":{"zip":"91607","geo_score":0.714,"id":"a632bra7bnm4","geo_precision":"zip","email address":"Elizabeth.alper@gmail.com"},"type":"Feature","geometry":{"type":"Point","coordinates":[-118.298662,33.786594]}},{"properties":{"zip":"91730","geo_score":0.714,"id":"a632br64ble2","geo_precision":"zip","email address":"lil.ladyspoolservice@hotmail.com"},"type":"Feature","geometry":{"type":"Point","coordinates":[-115.967051,34.839964]}},{"properties":{"zip":"92882","geo_score":0.714,"id":"a632br95dodl","geo_precision":"zip","email address":"pat21368@yahoo.com"},"type":"Feature","geometry":{"type":"Point","coordinates":[-116.055617,33.752886]}},{"properties":{"zip":"90041","geo_score":0.714,"id":"a632br2jnjor","geo_precision":"zip","email address":"kathleen_alonzo@sbcglobal.net"},"type":"Feature","geometry":{"type":"Point","coordinates":[-118.213962,34.138897]}},{"properties":{"zip":"90406","geo_score":0.714,"id":"a632br7e0875","geo_precision":"zip","email address":"melanieafrank@gmail.com"},"type":"Feature","geometry":{"type":"Point","coordinates":[-118.298662,33.786594]}},{"properties":{"zip":"91767","geo_score":0.714,"id":"a632brf3j8sj","geo_precision":"zip","email address":"mrsmarlene36@aol.com"},"type":"Feature","geometry":{"type":"Point","coordinates":[-118.298662,33.786594]}},{"properties":{"zip":"91104","geo_score":0.714,"id":"a632bras65rv","geo_precision":"zip","email address":"mmasonduffy@hotmail.com"},"type":"Feature","geometry":{"type":"Point","coordinates":[-118.298662,33.786594]}},{"properties":{"zip":"91423","geo_score":0.714,"id":"a632br2xycu3","geo_precision":"zip","email address":"laurenicole25@hotmail.com"},"type":"Feature","geometry":{"type":"Point","coordinates":[-118.298662,33.786594]}},{"properties":{"zip":"90024","geo_score":0.714,"id":"a632br8cc3wr","geo_precision":"zip","email address":"cristenrob@aol.com"},"type":"Feature","geometry":{"type":"Point","coordinates":[-118.298662,33.786594]}},{"properties":{"zip":"90277","geo_score":0.714,"id":"a632br7914oh","geo_precision":"zip","email address":"breathe_ahh@hotmail.com"},"type":"Feature","geometry":{"type":"Point","coordinates":[-118.379796,33.827515]}},{"properties":{"zip":"90401","geo_score":0.714,"id":"a632br704s6c","geo_precision":"zip","email address":"mollyvetter@catapulsion.net"},"type":"Feature","geometry":{"type":"Point","coordinates":[-118.298662,33.786594]}},{"properties":{"zip":"91206","geo_score":0.714,"id":"a632bre1e7ui","geo_precision":"zip","email address":"karenfattal@aol.com"},"type":"Feature","geometry":{"type":"Point","coordinates":[-118.298662,33.786594]}},{"properties":{"zip":"90280","geo_score":0.714,"id":"a632br8svd6g","geo_precision":"zip","email address":"tequilasgirl99@univision.com"},"type":"Feature","geometry":{"type":"Point","coordinates":[-118.168125,33.929737]}},{"properties":{"zip":"90303","geo_score":0.714,"id":"a632br1r9zng","geo_precision":"zip","email address":"karencollins235@msn.com"},"type":"Feature","geometry":{"type":"Point","coordinates":[-118.298662,33.786594]}},{"properties":{"zip":"90006","geo_score":0.714,"id":"a632brgemi6r","geo_precision":"zip","email address":"reggie_ah_gogo@yahoo.com"},"type":"Feature","geometry":{"type":"Point","coordinates":[-118.298662,33.786594]}},{"properties":{"zip":"90303","geo_score":0.714,"id":"a632brd8y5f8","geo_precision":"zip","email address":"tp02united@att.net"},"type":"Feature","geometry":{"type":"Point","coordinates":[-118.298662,33.786594]}},{"properties":{"zip":"90028","geo_score":0.714,"id":"a632brdqoqbq","geo_precision":"zip","email address":"deiasal@hotmail.com"},"type":"Feature","geometry":{"type":"Point","coordinates":[-118.326743,34.098343]}},{"properties":{"zip":"92584","geo_score":0.714,"id":"a632br3yqr86","geo_precision":"zip","email address":"kaseyheethuis3@verizon.net"},"type":"Feature","geometry":{"type":"Point","coordinates":[-116.055617,33.752886]}},{"properties":{"zip":"90068","geo_score":0.714,"id":"a632br8gdh2r","geo_precision":"zip","email address":"laneybrabson@yahoo.com"},"type":"Feature","geometry":{"type":"Point","coordinates":[-118.298662,33.786594]}},{"properties":{"zip":"90027","geo_score":0.714,"id":"a632brb5xluv","geo_precision":"zip","email address":"emilyberquist@yahoo.com"},"type":"Feature","geometry":{"type":"Point","coordinates":[-118.298662,33.786594]}},{"properties":{"zip":"90035","geo_score":0.714,"id":"a632br3h8pab","geo_precision":"zip","email address":"mmenna324@yahoo.com"},"type":"Feature","geometry":{"type":"Point","coordinates":[-118.298662,33.786594]}},{"properties":{"zip":"90027","geo_score":0.714,"id":"a632br671sej","geo_precision":"zip","email address":"aliciaanne@aol.com"},"type":"Feature","geometry":{"type":"Point","coordinates":[-118.298662,33.786594]}},{"properties":{"zip":"91343","geo_score":0.714,"id":"a632brf7zrax","geo_precision":"zip","email address":"Favrile71@aol.com"},"type":"Feature","geometry":{"type":"Point","coordinates":[-118.484722,34.236389]}},{"properties":{"zip":"90066","geo_score":0.714,"id":"a632br3ml6uy","geo_precision":"zip","email address":"jplanet@gmail.com"},"type":"Feature","geometry":{"type":"Point","coordinates":[-118.430912,34.004734]}},{"properties":{"zip":"91706","geo_score":0.714,"id":"a632bra9tl58","geo_precision":"zip","email address":"Reiflerflores@aol.com"},"type":"Feature","geometry":{"type":"Point","coordinates":[-117.935341,34.106953]}},{"properties":{"zip":"92627","geo_score":0.714,"id":"a632brdjmsbx","geo_precision":"zip","email address":"capribmore@gmail.com"},"type":"Feature","geometry":{"type":"Point","coordinates":[-117.763886,33.685069]}},{"properties":{"zip":"90027","geo_score":0.714,"id":"a632brhfoylf","geo_precision":"zip","email address":"antonyan57@yahoo.com"},"type":"Feature","geometry":{"type":"Point","coordinates":[-118.298662,33.786594]}},{"properties":{"zip":"91406","geo_score":0.714,"id":"a632br7pivhv","geo_precision":"zip","email address":"tsujanet@aol.com"},"type":"Feature","geometry":{"type":"Point","coordinates":[-118.298662,33.786594]}},{"properties":{"zip":"91752","geo_score":0.714,"id":"a632brbbqi69","geo_precision":"zip","email address":"sosathya@yahoo.com"},"type":"Feature","geometry":{"type":"Point","coordinates":[-116.055617,33.752886]}},{"properties":{"zip":"90744","geo_score":0.714,"id":"a632br87wee6","geo_precision":"zip","email address":"alexleiato@hotmail.com"},"type":"Feature","geometry":{"type":"Point","coordinates":[-118.234793,33.808351]}},{"properties":{"zip":"90032","geo_score":0.714,"id":"a632br3zsir0","geo_precision":"zip","email address":"onedeharo86@yahoo.com"},"type":"Feature","geometry":{"type":"Point","coordinates":[-118.17785,34.081121]}},{"properties":{"zip":"92595","geo_score":0.714,"id":"a632bram1rlh","geo_precision":"zip","email address":"cloop713@aol.com"},"type":"Feature","geometry":{"type":"Point","coordinates":[-116.055617,33.752886]}},{"properties":{"zip":"91344","geo_score":0.714,"id":"a632br6y8w6h","geo_precision":"zip","email address":"donna_angeles01@yahoo.com"},"type":"Feature","geometry":{"type":"Point","coordinates":[-118.298662,33.786594]}},{"properties":{"zip":"90631","geo_score":0.714,"id":"a632br2rblq6","geo_precision":"zip","email address":"wynniepooh402@yahoo.com"},"type":"Feature","geometry":{"type":"Point","coordinates":[-117.950619,33.960846]}},{"properties":{"zip":"91706","geo_score":0.714,"id":"a632br3gpkp3","geo_precision":"zip","email address":"jhingmedel@yahoo.com"},"type":"Feature","geometry":{"type":"Point","coordinates":[-117.935341,34.106953]}},{"properties":{"zip":"91761","geo_score":0.714,"id":"a632bree0sux","geo_precision":"zip","email address":"monikamelgar@yahoo.com"},"type":"Feature","geometry":{"type":"Point","coordinates":[-115.967051,34.839964]}},{"properties":{"zip":"90201","geo_score":0.714,"id":"a632br14n2j4","geo_precision":"zip","email address":"ninohernandez57@yahoo.com"},"type":"Feature","geometry":{"type":"Point","coordinates":[-118.172849,33.980292]}},{"properties":{"zip":"91767","geo_score":0.714,"id":"a632brhh88hs","geo_precision":"zip","email address":"sandruxlavip@gmail.com"},"type":"Feature","geometry":{"type":"Point","coordinates":[-118.298662,33.786594]}},{"properties":{"zip":"90250","geo_score":0.714,"id":"a632br454nqq","geo_precision":"zip","email address":"sunydlyte07@aol.com"},"type":"Feature","geometry":{"type":"Point","coordinates":[-118.298662,33.786594]}},{"properties":{"zip":"90723","geo_score":0.714,"id":"a632bre8iow1","geo_precision":"zip","email address":"jimcatny@hotmail.com"},"type":"Feature","geometry":{"type":"Point","coordinates":[-118.165152,33.899015]}},{"properties":{"zip":"90003","geo_score":0.714,"id":"a632br6dsuoc","geo_precision":"zip","email address":"meshadavis1@tmail.com"},"type":"Feature","geometry":{"type":"Point","coordinates":[-118.273156,33.949164]}},{"properties":{"zip":"90044","geo_score":0.714,"id":"a632brfkayz7","geo_precision":"zip","email address":"quincynathaniel@gmail.com"},"type":"Feature","geometry":{"type":"Point","coordinates":[-118.302296,33.941404]}},{"properties":{"zip":"90005","geo_score":0.714,"id":"a632br4suw5y","geo_precision":"zip","email address":"jelhgarrett@hotmail.com"},"type":"Feature","geometry":{"type":"Point","coordinates":[-118.298662,33.786594]}},{"properties":{"zip":"93535","geo_score":0.714,"id":"a632br5t7a97","geo_precision":"zip","email address":"Ingridnealey@ymail.com"},"type":"Feature","geometry":{"type":"Point","coordinates":[-117.777285,34.734986]}},{"properties":{"zip":"93535","geo_score":0.714,"id":"a632brdg8v47","geo_precision":"zip","email address":"katykrunch16@yahoo.com"},"type":"Feature","geometry":{"type":"Point","coordinates":[-117.777285,34.734986]}},{"properties":{"zip":"90650","geo_score":0.714,"id":"a632br6jj14g","geo_precision":"zip","email address":"onlymine08@gmail.com"},"type":"Feature","geometry":{"type":"Point","coordinates":[-118.096178,33.919737]}},{"properties":{"zip":"92344","geo_score":0.0,"id":"a632br3attpl","geo_precision":"unmatched","email address":"tinab23@hotmail.com"},"type":"Feature","geometry":null},{"properties":{"zip":"90022","geo_score":0.714,"id":"a632br4yt7nx","geo_precision":"zip","email address":"imsuchabosslady@yahoo.com"},"type":"Feature","geometry":{"type":"Point","coordinates":[-118.162849,34.02779]}},{"properties":{"zip":"91402","geo_score":0.714,"id":"a632br3sn53m","geo_precision":"zip","email address":"radz2425@yahoo.com"},"type":"Feature","geometry":{"type":"Point","coordinates":[-118.298662,33.786594]}},{"properties":{"zip":"92557","geo_score":0.714,"id":"a632br5r0rlr","geo_precision":"zip","email address":"jerrod@flawlessvodka.com"},"type":"Feature","geometry":{"type":"Point","coordinates":[-116.055617,33.752886]}},{"properties":{"zip":"91001","geo_score":0.714,"id":"a632brb3yg0k","geo_precision":"zip","email address":"jasfaith25@yahoo.com"},"type":"Feature","geometry":{"type":"Point","coordinates":[-118.298662,33.786594]}},{"properties":{"zip":"92395","geo_score":0.0,"id":"a632br2ophn3","geo_precision":"unmatched","email address":"millaremarkiesha@yahoo.com"},"type":"Feature","geometry":null},{"properties":{"zip":"90304","geo_score":0.714,"id":"a632brd5r9pp","geo_precision":"zip","email address":"s_palu@yahoo.com"},"type":"Feature","geometry":{"type":"Point","coordinates":[-118.352575,33.93807]}},{"properties":{"zip":"91335","geo_score":0.714,"id":"a632br4tf0zc","geo_precision":"zip","email address":"aikens.melissa@gmail.com"},"type":"Feature","geometry":{"type":"Point","coordinates":[-118.298662,33.786594]}},{"properties":{"zip":"91343","geo_score":0.714,"id":"a632brf2i75r","geo_precision":"zip","email address":"tinigigi@hotmail.com"},"type":"Feature","geometry":{"type":"Point","coordinates":[-118.484722,34.236389]}},{"properties":{"zip":"900473","geo_score":0.0,"id":"a632brbchc5a","geo_precision":"unmatched","email address":"wings2@sbcglobal.net"},"type":"Feature","geometry":null},{"properties":{"zip":"90032","geo_score":0.714,"id":"a632brdrl7l3","geo_precision":"zip","email address":"rachelgonzalez73@yahoo.com"},"type":"Feature","geometry":{"type":"Point","coordinates":[-118.17785,34.081121]}},{"properties":{"zip":"90011","geo_score":0.714,"id":"a632bra1w06i","geo_precision":"zip","email address":"skoounoo@gmail.com"},"type":"Feature","geometry":{"type":"Point","coordinates":[-118.250056,33.989264]}},{"properties":{"zip":"92392","geo_score":0.714,"id":"a632br6d5157","geo_precision":"zip","email address":"lareemom62@yahoo.com"},"type":"Feature","geometry":{"type":"Point","coordinates":[-114.754916,34.491985]}},{"properties":{"zip":"90631","geo_score":0.714,"id":"a632br8nae7t","geo_precision":"zip","email address":"dhluvs2teach@yahoo.com"},"type":"Feature","geometry":{"type":"Point","coordinates":[-117.950619,33.960846]}},{"properties":{"zip":"92571","geo_score":0.714,"id":"a632br4z4iv7","geo_precision":"zip","email address":"bibephillips@ymail.com"},"type":"Feature","geometry":{"type":"Point","coordinates":[-116.055617,33.752886]}},{"properties":{"zip":"90703","geo_score":0.714,"id":"a632br6e85ga","geo_precision":"zip","email address":"michelleylee06@gmail.com"},"type":"Feature","geometry":{"type":"Point","coordinates":[-118.068648,33.866914]}},{"properties":{"zip":"90025","geo_score":0.714,"id":"a632bra45vyv","geo_precision":"zip","email address":"tspino@yahoo.com"},"type":"Feature","geometry":{"type":"Point","coordinates":[-118.448135,34.046399]}},{"properties":{"zip":"90019","geo_score":0.714,"id":"a632brcbsfd3","geo_precision":"zip","email address":"zombgal@hotmail.com"},"type":"Feature","geometry":{"type":"Point","coordinates":[-118.298662,33.786594]}},{"properties":{"zip":"92806","geo_score":0.714,"id":"a632br44mkv7","geo_precision":"zip","email address":"rosemary.peridot@yahoo.com"},"type":"Feature","geometry":{"type":"Point","coordinates":[-117.769442,33.640302]}},{"properties":{"zip":"90723","geo_score":0.714,"id":"a632brh8w6we","geo_precision":"zip","email address":"yazzmienbeard@ymail.com"},"type":"Feature","geometry":{"type":"Point","coordinates":[-118.165152,33.899015]}},{"properties":{"zip":"90048","geo_score":0.714,"id":"a632br2c1jcc","geo_precision":"zip","email address":"tracy@venokado.com"},"type":"Feature","geometry":{"type":"Point","coordinates":[-118.298662,33.786594]}},{"properties":{"zip":"91334","geo_score":0.714,"id":"a632brc4r4mu","geo_precision":"zip","email address":"claudiahayun@hotmail.com"},"type":"Feature","geometry":{"type":"Point","coordinates":[-118.298662,33.786594]}},{"properties":{"zip":"92374","geo_score":0.714,"id":"a632br5kzgkz","geo_precision":"zip","email address":"linseyj1@verizon.net"},"type":"Feature","geometry":{"type":"Point","coordinates":[-116.898232,34.153575]}},{"properties":{"zip":"91206","geo_score":0.714,"id":"a632brbvltxs","geo_precision":"zip","email address":"boobrig@hotmail.com"},"type":"Feature","geometry":{"type":"Point","coordinates":[-118.298662,33.786594]}},{"properties":{"zip":"91344","geo_score":0.714,"id":"a632br3v7c5r","geo_precision":"zip","email address":"butlerbrood@aol.com"},"type":"Feature","geometry":{"type":"Point","coordinates":[-118.298662,33.786594]}},{"properties":{"zip":"92301","geo_score":0.714,"id":"a632brgxwfl7","geo_precision":"zip","email address":"stacygleason5@gmail.com"},"type":"Feature","geometry":{"type":"Point","coordinates":[-117.631168,34.602213]}},{"properties":{"zip":"90066","geo_score":0.714,"id":"a632br1dlgd0","geo_precision":"zip","email address":"allegra72@hotmail.com"},"type":"Feature","geometry":{"type":"Point","coordinates":[-118.430912,34.004734]}},{"properties":{"zip":"90035","geo_score":0.714,"id":"a632br5v27x9","geo_precision":"zip","email address":"maureenkeet@gmail.com"},"type":"Feature","geometry":{"type":"Point","coordinates":[-118.298662,33.786594]}},{"properties":{"zip":"90504","geo_score":0.714,"id":"a632br1zw84a","geo_precision":"zip","email address":"barbieggt@aol.com"},"type":"Feature","geometry":{"type":"Point","coordinates":[-118.298662,33.786594]}},{"properties":{"zip":"37064","geo_score":0.714,"id":"a632br1booik","geo_precision":"zip","email address":"ellisonson@fssd.org"},"type":"Feature","geometry":{"type":"Point","coordinates":[-86.926391,35.892565]}},{"properties":{"zip":"91773","geo_score":0.714,"id":"a632br5g67ia","geo_precision":"zip","email address":"angievaldez1212@yahoo.com"},"type":"Feature","geometry":{"type":"Point","coordinates":[-118.298662,33.786594]}},{"properties":{"zip":"90403","geo_score":0.714,"id":"a632brctcw8e","geo_precision":"zip","email address":"cree1326@me.com"},"type":"Feature","geometry":{"type":"Point","coordinates":[-118.298662,33.786594]}},{"properties":{"zip":"92807","geo_score":0.714,"id":"a632br1xmqcw","geo_precision":"zip","email address":"nicole387360@att.net"},"type":"Feature","geometry":{"type":"Point","coordinates":[-117.777277,33.84446]}},{"properties":{"zip":"91101","geo_score":0.714,"id":"a632br1li02k","geo_precision":"zip","email address":"berenicecastro@hotmail.com"},"type":"Feature","geometry":{"type":"Point","coordinates":[-118.298662,33.786594]}},{"properties":{"zip":"90211","geo_score":0.714,"id":"a632brdy2zsb","geo_precision":"zip","email address":"sierramvi@aol.com"},"type":"Feature","geometry":{"type":"Point","coordinates":[-118.298662,33.786594]}},{"properties":{"zip":"92835","geo_score":0.714,"id":"a632brbmz163","geo_precision":"zip","email address":"my3sonsbbb@aol.com"},"type":"Feature","geometry":{"type":"Point","coordinates":[-117.769442,33.640302]}},{"properties":{"zip":"91342","geo_score":0.714,"id":"a632brhhfmkk","geo_precision":"zip","email address":"ktj_love01@hotmail.com"},"type":"Feature","geometry":{"type":"Point","coordinates":[-118.298662,33.786594]}},{"properties":{"zip":"92883","geo_score":0.714,"id":"a632braqdrog","geo_precision":"zip","email address":"Debra24@mail.com"},"type":"Feature","geometry":{"type":"Point","coordinates":[-116.055617,33.752886]}},{"properties":{"zip":"90232","geo_score":0.714,"id":"a632breuknu0","geo_precision":"zip","email address":"meechlivestodance@yahoo.com"},"type":"Feature","geometry":{"type":"Point","coordinates":[-118.298662,33.786594]}},{"properties":{"zip":"91406","geo_score":0.714,"id":"a632brad5toq","geo_precision":"zip","email address":"cheryl@ccskincare.com"},"type":"Feature","geometry":{"type":"Point","coordinates":[-118.298662,33.786594]}},{"properties":{"zip":"92307","geo_score":0.714,"id":"a632brbkgc9k","geo_precision":"zip","email address":"cherylwatkins.1@juno.com"},"type":"Feature","geometry":{"type":"Point","coordinates":[-117.171709,34.471388]}},{"properties":{"zip":"90732","geo_score":0.714,"id":"a632br2m2imj","geo_precision":"zip","email address":"alxwilkerson@hotmail.com"},"type":"Feature","geometry":{"type":"Point","coordinates":[-118.298662,33.786594]}},{"properties":{"zip":"92345","geo_score":0.714,"id":"a632br5ciyn4","geo_precision":"zip","email address":"laraujo@cityofhesperia.us"},"type":"Feature","geometry":{"type":"Point","coordinates":[-115.967051,34.839964]}},{"properties":{"zip":"91405","geo_score":0.714,"id":"a632br4q8pu4","geo_precision":"zip","email address":"aliciaraju@gmail.com"},"type":"Feature","geometry":{"type":"Point","coordinates":[-118.424248,34.174172]}},{"properties":{"zip":"90037","geo_score":0.714,"id":"a632bresw3rt","geo_precision":"zip","email address":"ew.blease@yahoo.com"},"type":"Feature","geometry":{"type":"Point","coordinates":[-118.298662,33.786594]}},{"properties":{"zip":"91504","geo_score":0.714,"id":"a632br9nuj7p","geo_precision":"zip","email address":"Mayesfam3@msn.com"},"type":"Feature","geometry":{"type":"Point","coordinates":[-118.298662,33.786594]}},{"properties":{"zip":"93536","geo_score":0.714,"id":"a632br7iej74","geo_precision":"zip","email address":"aguilarrugrats@msn.com"},"type":"Feature","geometry":{"type":"Point","coordinates":[-118.288688,34.689707]}},{"properties":{"zip":"90280","geo_score":0.714,"id":"a632br92r7kz","geo_precision":"zip","email address":"gmalvarez@hotmail.cm"},"type":"Feature","geometry":{"type":"Point","coordinates":[-118.168125,33.929737]}},{"properties":{"zip":"89144","geo_score":0.714,"id":"a632br58lltd","geo_precision":"zip","email address":"kevinsdevin@yahoo.com"},"type":"Feature","geometry":{"type":"Point","coordinates":[-115.31835,36.178088]}},{"properties":{"zip":"91754","geo_score":0.714,"id":"a632br3u996n","geo_precision":"zip","email address":"tsimsam@msn.com"},"type":"Feature","geometry":{"type":"Point","coordinates":[-118.298662,33.786594]}},{"properties":{"zip":"81739","geo_score":0.0,"id":"a632br6gtmc2","geo_precision":"unmatched","email address":"knightshaffven@yahoo.com"},"type":"Feature","geometry":null},{"properties":{"zip":"90024","geo_score":0.714,"id":"a632br8kdsif","geo_precision":"zip","email address":"tranj_11@hotmail.com"},"type":"Feature","geometry":{"type":"Point","coordinates":[-118.298662,33.786594]}},{"properties":{"zip":"91744","geo_score":0.714,"id":"a632brdu3g8c","geo_precision":"zip","email address":"cherimin@gmail.com"},"type":"Feature","geometry":{"type":"Point","coordinates":[-117.968398,34.051677]}},{"properties":{"zip":"91304","geo_score":0.714,"id":"a632br6mzz50","geo_precision":"zip","email address":"etgwelder@yahoo.com"},"type":"Feature","geometry":{"type":"Point","coordinates":[-118.298662,33.786594]}},{"properties":{"zip":"91765","geo_score":0.714,"id":"a632brhfofp3","geo_precision":"zip","email address":"carelizsal@yahoo.com"},"type":"Feature","geometry":{"type":"Point","coordinates":[-118.298662,33.786594]}},{"properties":{"zip":"90302","geo_score":0.714,"id":"a632bragrcls","geo_precision":"zip","email address":"jmoneysdb@aol.com"},"type":"Feature","geometry":{"type":"Point","coordinates":[-118.298662,33.786594]}},{"properties":{"zip":"92404","geo_score":0.714,"id":"a632brcli23r","geo_precision":"zip","email address":"joshua.rashaad.miller@hotmail.com"},"type":"Feature","geometry":{"type":"Point","coordinates":[-117.243375,34.148899]}},{"properties":{"zip":"90042","geo_score":0.714,"id":"a632br4p69qi","geo_precision":"zip","email address":"manton@usc.edu"},"type":"Feature","geometry":{"type":"Point","coordinates":[-118.198962,34.111953]}},{"properties":{"zip":"92352","geo_score":0.714,"id":"a632br7cc70p","geo_precision":"zip","email address":"jenilunsford@gmail.com"},"type":"Feature","geometry":{"type":"Point","coordinates":[-117.129213,34.209221]}},{"properties":{"zip":"93053","geo_score":0.0,"id":"a632bravje0b","geo_precision":"unmatched","email address":"masud0013@yahoo.com"},"type":"Feature","geometry":null},{"properties":{"zip":"90007","geo_score":0.714,"id":"a632brhba3xb","geo_precision":"zip","email address":"xyouthedgex@yahoo.com"},"type":"Feature","geometry":{"type":"Point","coordinates":[-118.298662,33.786594]}},{"properties":{"zip":"92058","geo_score":0.714,"id":"a632br51hbyq","geo_precision":"zip","email address":"orio@gmx.com"},"type":"Feature","geometry":{"type":"Point","coordinates":[-116.846046,33.016928]}},{"properties":{"zip":"91601","geo_score":0.714,"id":"a632br6st4wg","geo_precision":"zip","email address":"mannyvilla84@yahoo.com"},"type":"Feature","geometry":{"type":"Point","coordinates":[-118.298662,33.786594]}},{"properties":{"zip":"90043","geo_score":0.714,"id":"a632br9gunck","geo_precision":"zip","email address":"smngordon55@sbcglobal.net"},"type":"Feature","geometry":{"type":"Point","coordinates":[-118.342576,33.998902]}},{"properties":{"zip":"91387","geo_score":0.714,"id":"a632brcneo6z","geo_precision":"zip","email address":"kaiserrn07@yahoo.com"},"type":"Feature","geometry":{"type":"Point","coordinates":[-118.39882,34.401969]}},{"properties":{"zip":"90043","geo_score":0.714,"id":"a632branjau9","geo_precision":"zip","email address":"slbentrepreneur@yahoo.com"},"type":"Feature","geometry":{"type":"Point","coordinates":[-118.342576,33.998902]}},{"properties":{"zip":"91504","geo_score":0.714,"id":"a632br5kcmcr","geo_precision":"zip","email address":"greatly1@hotmail.com"},"type":"Feature","geometry":{"type":"Point","coordinates":[-118.298662,33.786594]}},{"properties":{"zip":"90045","geo_score":0.714,"id":"a632brd0a25o","geo_precision":"zip","email address":"mbrown78@lion.lmu.edu"},"type":"Feature","geometry":{"type":"Point","coordinates":[-118.375354,33.994179]}},{"properties":{"zip":"92780","geo_score":0.714,"id":"a632br4kwce8","geo_precision":"zip","email address":"goofybowlr@aol.com"},"type":"Feature","geometry":{"type":"Point","coordinates":[-117.731534,33.579122]}},{"properties":{"zip":"91801","geo_score":0.714,"id":"a632br1f90qf","geo_precision":"zip","email address":"rxgirl1@hotmail.com"},"type":"Feature","geometry":{"type":"Point","coordinates":[-118.298662,33.786594]}},{"properties":{"zip":"90241","geo_score":0.714,"id":"a632bret84rc","geo_precision":"zip","email address":"myrnagyuriar@yahoo.com"},"type":"Feature","geometry":{"type":"Point","coordinates":[-118.125851,33.939164]}},{"properties":{"zip":"90650","geo_score":0.714,"id":"a632br9st3z2","geo_precision":"zip","email address":"nakamotojeremy12@yahoo.com"},"type":"Feature","geometry":{"type":"Point","coordinates":[-118.096178,33.919737]}},{"properties":{"zip":"91505","geo_score":0.714,"id":"a632brbcqfg5","geo_precision":"zip","email address":"jovi_s@hotmail.com"},"type":"Feature","geometry":{"type":"Point","coordinates":[-118.347301,34.167784]}},{"properties":{"zip":"90056","geo_score":0.714,"id":"a632br1el0lj","geo_precision":"zip","email address":"harriswil@yahoo.com"},"type":"Feature","geometry":{"type":"Point","coordinates":[-118.353965,33.988902]}},{"properties":{"zip":"90044","geo_score":0.714,"id":"a632br9jrcue","geo_precision":"zip","email address":"paulinew292@aol.com"},"type":"Feature","geometry":{"type":"Point","coordinates":[-118.302296,33.941404]}},{"properties":{"zip":"90035","geo_score":0.714,"id":"a632brcw90rt","geo_precision":"zip","email address":"beni.hara@yahoo.com"},"type":"Feature","geometry":{"type":"Point","coordinates":[-118.298662,33.786594]}},{"properties":{"zip":"90044","geo_score":0.714,"id":"a632brhkahlq","geo_precision":"zip","email address":"attikg@yahoo.com"},"type":"Feature","geometry":{"type":"Point","coordinates":[-118.302296,33.941404]}},{"properties":{"zip":"90020","geo_score":0.714,"id":"a632br9miikf","geo_precision":"zip","email address":"alainroches@yahoo.com"},"type":"Feature","geometry":{"type":"Point","coordinates":[-118.298662,33.786594]}},{"properties":{"zip":"90024","geo_score":0.714,"id":"a632brdw4urw","geo_precision":"zip","email address":"phoenix_noway@hotmail.com"},"type":"Feature","geometry":{"type":"Point","coordinates":[-118.298662,33.786594]}},{"properties":{"zip":"91387","geo_score":0.714,"id":"a632bratuib9","geo_precision":"zip","email address":"sgriffin2522@yahoo.com"},"type":"Feature","geometry":{"type":"Point","coordinates":[-118.39882,34.401969]}},{"properties":{"zip":"91402","geo_score":0.714,"id":"a632brgkgjyi","geo_precision":"zip","email address":"janelgavin@yahoo.com"},"type":"Feature","geometry":{"type":"Point","coordinates":[-118.298662,33.786594]}},{"properties":{"zip":"90250","geo_score":0.714,"id":"a632brh5uj6h","geo_precision":"zip","email address":"entertainmenttalk@gmail.com"},"type":"Feature","geometry":{"type":"Point","coordinates":[-118.298662,33.786594]}},{"properties":{"zip":"92337","geo_score":0.714,"id":"a632br79vp42","geo_precision":"zip","email address":"carmelgoldent@aol.com"},"type":"Feature","geometry":{"type":"Point","coordinates":[-115.967051,34.839964]}},{"properties":{"zip":"92833","geo_score":0.714,"id":"a632brc1dujs","geo_precision":"zip","email address":"hyej@hotmail.com"},"type":"Feature","geometry":{"type":"Point","coordinates":[-117.769442,33.640302]}},{"properties":{"zip":"90022","geo_score":0.714,"id":"a632brdpqe9l","geo_precision":"zip","email address":"gris@mail2mom.com"},"type":"Feature","geometry":{"type":"Point","coordinates":[-118.162849,34.02779]}},{"properties":{"zip":"91607","geo_score":0.714,"id":"a632brggstki","geo_precision":"zip","email address":"courtneyono13@yahoo.com"},"type":"Feature","geometry":{"type":"Point","coordinates":[-118.298662,33.786594]}},{"properties":{"zip":"91205","geo_score":0.714,"id":"a632br7a74zi","geo_precision":"zip","email address":"anabana33@aol.com"},"type":"Feature","geometry":{"type":"Point","coordinates":[-118.298662,33.786594]}},{"properties":{"zip":"90212","geo_score":0.714,"id":"a632br87e8fr","geo_precision":"zip","email address":"hildrums@aol.com"},"type":"Feature","geometry":{"type":"Point","coordinates":[-118.298662,33.786594]}},{"properties":{"zip":"90813","geo_score":0.714,"id":"a632br3iqrfu","geo_precision":"zip","email address":"gonzaleztricia79@yahoo.com"},"type":"Feature","geometry":{"type":"Point","coordinates":[-118.183701,33.780017]}},{"properties":{"zip":"90405","geo_score":0.714,"id":"a632br3gcfj9","geo_precision":"zip","email address":"alexisminnen@gmail.com"},"type":"Feature","geometry":{"type":"Point","coordinates":[-118.483691,34.002233]}},{"properties":{"zip":"92832","geo_score":0.714,"id":"a632br9lohnq","geo_precision":"zip","email address":"miyakoizabel@hotmail.com"},"type":"Feature","geometry":{"type":"Point","coordinates":[-117.769442,33.640302]}},{"properties":{"zip":"90260","geo_score":0.714,"id":"a632brdf3791","geo_precision":"zip","email address":"ckizine2@verizon.net"},"type":"Feature","geometry":{"type":"Point","coordinates":[-118.298662,33.786594]}},{"properties":{"zip":"91770","geo_score":0.714,"id":"a632br9hkae4","geo_precision":"zip","email address":"rlbaker101@verizon.net"},"type":"Feature","geometry":{"type":"Point","coordinates":[-118.090347,34.06251]}},{"properties":{"zip":"91040","geo_score":0.714,"id":"a632br893c5u","geo_precision":"zip","email address":"scorpaqua@yahoo.com"},"type":"Feature","geometry":{"type":"Point","coordinates":[-118.298662,33.786594]}},{"properties":{"zip":"90022","geo_score":0.714,"id":"a632brckw6ze","geo_precision":"zip","email address":"ashley_awesomeness94@yahoo.com"},"type":"Feature","geometry":{"type":"Point","coordinates":[-118.162849,34.02779]}},{"properties":{"zip":"92395","geo_score":0.0,"id":"a632br961c9h","geo_precision":"unmatched","email address":"d_criss@verizon.net"},"type":"Feature","geometry":null},{"properties":{"zip":"90248","geo_score":0.714,"id":"a632brbpk5zi","geo_precision":"zip","email address":"dcmatsumoto@gmail.com"},"type":"Feature","geometry":{"type":"Point","coordinates":[-118.269605,33.877165]}},{"properties":{"zip":"91766","geo_score":0.714,"id":"a632br1cvsqj","geo_precision":"zip","email address":"menendezana94@yahoo.com"},"type":"Feature","geometry":{"type":"Point","coordinates":[-119.382338,35.888009]}},{"properties":{"zip":"91324","geo_score":0.714,"id":"a632br4ikg6u","geo_precision":"zip","email address":"mariagarces@rodeore.com"},"type":"Feature","geometry":{"type":"Point","coordinates":[-118.298662,33.786594]}},{"properties":{"zip":"91501","geo_score":0.714,"id":"a632br6uqayq","geo_precision":"zip","email address":"ajhamach@yahoo.com"},"type":"Feature","geometry":{"type":"Point","coordinates":[-118.298662,33.786594]}},{"properties":{"zip":"91106","geo_score":0.714,"id":"a632brb9hnyd","geo_precision":"zip","email address":"litlehands@gmail.com"},"type":"Feature","geometry":{"type":"Point","coordinates":[-118.298662,33.786594]}},{"properties":{"zip":"76082","geo_score":0.714,"id":"a632br187467","geo_precision":"zip","email address":"sunshineann@skybeammail.com"},"type":"Feature","geometry":{"type":"Point","coordinates":[-97.788642,32.979289]}},{"properties":{"zip":"32835","geo_score":0.714,"id":"a632br49179p","geo_precision":"zip","email address":"manameeks@yahoo.com"},"type":"Feature","geometry":{"type":"Point","coordinates":[-81.483543,28.52038]}},{"properties":{"zip":"90267","geo_score":0.714,"id":"a632br9vknbu","geo_precision":"zip","email address":"wandastine_crawford@yahoo.com"},"type":"Feature","geometry":{"type":"Point","coordinates":[-118.298662,33.786594]}},{"properties":{"zip":"90004","geo_score":0.714,"id":"a632br28tftm","geo_precision":"zip","email address":"carolyn_92@hotmail.com"},"type":"Feature","geometry":{"type":"Point","coordinates":[-118.298662,33.786594]}},{"properties":{"zip":"92570","geo_score":0.714,"id":"a632br2lwayt","geo_precision":"zip","email address":"aku_yosei@yahoo.com"},"type":"Feature","geometry":{"type":"Point","coordinates":[-116.055617,33.752886]}},{"properties":{"zip":"91732","geo_score":0.714,"id":"a632brhkat7r","geo_precision":"zip","email address":"ma-gabriela-84@hotmail.com"},"type":"Feature","geometry":{"type":"Point","coordinates":[-118.298662,33.786594]}},{"properties":{"zip":"90250","geo_score":0.714,"id":"a632brczjly8","geo_precision":"zip","email address":"tsukiko30@gmail.com"},"type":"Feature","geometry":{"type":"Point","coordinates":[-118.298662,33.786594]}},{"properties":{"zip":"92563","geo_score":0.714,"id":"a632brbp4lv8","geo_precision":"zip","email address":"lollipopmama2@msn.com"},"type":"Feature","geometry":{"type":"Point","coordinates":[-117.158088,33.560581]}},{"properties":{"zip":"92557","geo_score":0.714,"id":"a632br1s6f04","geo_precision":"zip","email address":"domestic_goddest@yahoo.com"},"type":"Feature","geometry":{"type":"Point","coordinates":[-116.055617,33.752886]}},{"properties":{"zip":"22044","geo_score":0.714,"id":"a632brdt8iva","geo_precision":"zip","email address":"fk2156@hotmail.com"},"type":"Feature","geometry":{"type":"Point","coordinates":[-77.171091,38.882334]}},{"properties":{"zip":"85208","geo_score":0.714,"id":"a632br20f9cy","geo_precision":"zip","email address":"cocolulu1962@yahoo.com"},"type":"Feature","geometry":{"type":"Point","coordinates":[-111.663655,33.395932]}},{"properties":{"zip":"86442","geo_score":0.714,"id":"a632bre21ylz","geo_precision":"zip","email address":"lindsayjolynn@yahoo.com"},"type":"Feature","geometry":{"type":"Point","coordinates":[-114.621355,35.100833]}},{"properties":{"zip":"90650","geo_score":0.714,"id":"a632br924hep","geo_precision":"zip","email address":"sjleoning@hotmail.com"},"type":"Feature","geometry":{"type":"Point","coordinates":[-118.096178,33.919737]}},{"properties":{"zip":"90745","geo_score":0.714,"id":"a632br15dlvo","geo_precision":"zip","email address":"vanessa_galera2000@yahoo.com"},"type":"Feature","geometry":{"type":"Point","coordinates":[-118.261154,33.813317]}},{"properties":{"zip":"95632","geo_score":0.714,"id":"a632br5f33ej","geo_precision":"zip","email address":"pinks_wadsworth2006@yahoo.com.ph"},"type":"Feature","geometry":{"type":"Point","coordinates":[-121.31106,38.291025]}},{"properties":{"zip":"91766","geo_score":0.714,"id":"a632brgrmj0p","geo_precision":"zip","email address":"psa167@yahoo.com"},"type":"Feature","geometry":{"type":"Point","coordinates":[-119.382338,35.888009]}},{"properties":{"zip":"91356","geo_score":0.714,"id":"a632br3meje7","geo_precision":"zip","email address":"californiadarla@hotmail.com"},"type":"Feature","geometry":{"type":"Point","coordinates":[-118.298662,33.786594]}},{"properties":{"zip":"90034","geo_score":0.714,"id":"a632brf9hefp","geo_precision":"zip","email address":"melandyh6@gmail.com"},"type":"Feature","geometry":{"type":"Point","coordinates":[-118.405633,34.022789]}},{"properties":{"zip":"90650","geo_score":0.714,"id":"a632brbo5vqx","geo_precision":"zip","email address":"grace_curd@charter.net"},"type":"Feature","geometry":{"type":"Point","coordinates":[-118.096178,33.919737]}},{"properties":{"zip":"90006","geo_score":0.714,"id":"a632br2qvmrz","geo_precision":"zip","email address":"hgraf21@aol.com"},"type":"Feature","geometry":{"type":"Point","coordinates":[-118.298662,33.786594]}},{"properties":{"zip":"90277","geo_score":0.714,"id":"a632brfql79r","geo_precision":"zip","email address":"janeberting@cox.net"},"type":"Feature","geometry":{"type":"Point","coordinates":[-118.379796,33.827515]}},{"properties":{"zip":"90016","geo_score":0.714,"id":"a632br5qce60","geo_precision":"zip","email address":"sealjahara@aol.com"},"type":"Feature","geometry":{"type":"Point","coordinates":[-118.298662,33.786594]}},{"properties":{"zip":"90278","geo_score":0.714,"id":"a632brdq392o","geo_precision":"zip","email address":"julie138@verizon.net"},"type":"Feature","geometry":{"type":"Point","coordinates":[-118.179754,33.987613]}},{"properties":{"zip":"91364","geo_score":0.714,"id":"a632brcoqj3d","geo_precision":"zip","email address":"qweqway@aol.com"},"type":"Feature","geometry":{"type":"Point","coordinates":[-118.645364,34.130839]}},{"properties":{"zip":"90808","geo_score":0.714,"id":"a632brd09s0p","geo_precision":"zip","email address":"onequeen4nutz@yahoo.com"},"type":"Feature","geometry":{"type":"Point","coordinates":[-118.106132,33.800266]}},{"properties":{"zip":"91364","geo_score":0.714,"id":"a632brg1zi8b","geo_precision":"zip","email address":"fields.erica@gmail.com"},"type":"Feature","geometry":{"type":"Point","coordinates":[-118.645364,34.130839]}},{"properties":{"zip":"91003","geo_score":0.714,"id":"a632br6hu017","geo_precision":"zip","email address":"inezdavenport@ymail.com"},"type":"Feature","geometry":{"type":"Point","coordinates":[-118.298662,33.786594]}},{"properties":{"zip":"91303","geo_score":0.714,"id":"a632br59bhzv","geo_precision":"zip","email address":"majid.yazdekhasti@gmail.com"},"type":"Feature","geometry":{"type":"Point","coordinates":[-118.298662,33.786594]}},{"properties":{"zip":"92345","geo_score":0.714,"id":"a632br6vv6xs","geo_precision":"zip","email address":"tempievelehradsky@yahoo.com"},"type":"Feature","geometry":{"type":"Point","coordinates":[-115.967051,34.839964]}},{"properties":{"zip":"91335","geo_score":0.714,"id":"a632bre3g7q5","geo_precision":"zip","email address":"purplevp@aol.com"},"type":"Feature","geometry":{"type":"Point","coordinates":[-118.298662,33.786594]}},{"properties":{"zip":"91304","geo_score":0.714,"id":"a632br30ywse","geo_precision":"zip","email address":"trudyjeannine@aol.com"},"type":"Feature","geometry":{"type":"Point","coordinates":[-118.298662,33.786594]}},{"properties":{"zip":"91762","geo_score":0.714,"id":"a632br1b2e99","geo_precision":"zip","email address":"kimo@calvaryccv.org"},"type":"Feature","geometry":{"type":"Point","coordinates":[-115.967051,34.839964]}},{"properties":{"zip":"90402","geo_score":0.714,"id":"a632brb5ciaf","geo_precision":"zip","email address":"andreabartalsky@hotmail.com"},"type":"Feature","geometry":{"type":"Point","coordinates":[-118.298662,33.786594]}},{"properties":{"zip":"97018","geo_score":0.714,"id":"a632br7qpzwa","geo_precision":"zip","email address":"LHALE64_UOP@HOTMAIL.COM"},"type":"Feature","geometry":{"type":"Point","coordinates":[-122.814191,45.892304]}},{"properties":{"zip":"91006","geo_score":0.714,"id":"a632brdo1ybv","geo_precision":"zip","email address":"tinaturrell@hotmail.com"},"type":"Feature","geometry":{"type":"Point","coordinates":[-118.017567,34.105564]}},{"properties":{"zip":"90017","geo_score":0.714,"id":"a632brdxab20","geo_precision":"zip","email address":"benjamin12br@yahoo.com"},"type":"Feature","geometry":{"type":"Point","coordinates":[-118.298662,33.786594]}},{"properties":{"zip":"91737","geo_score":0.714,"id":"a632br3renhn","geo_precision":"zip","email address":"mrfysla1@aol.com"},"type":"Feature","geometry":{"type":"Point","coordinates":[-115.967051,34.839964]}},{"properties":{"zip":"92807","geo_score":0.714,"id":"a632br214lw8","geo_precision":"zip","email address":"Cheftang@yahoo.com"},"type":"Feature","geometry":{"type":"Point","coordinates":[-117.777277,33.84446]}},{"properties":{"zip":"91331","geo_score":0.714,"id":"a632brha6saq","geo_precision":"zip","email address":"joela143@gmail.com"},"type":"Feature","geometry":{"type":"Point","coordinates":[-118.298662,33.786594]}},{"properties":{"zip":"90813","geo_score":0.714,"id":"a632br5rlisf","geo_precision":"zip","email address":"doompr@aim.com"},"type":"Feature","geometry":{"type":"Point","coordinates":[-118.183701,33.780017]}},{"properties":{"zip":"90066","geo_score":0.714,"id":"a632br3h3ohj","geo_precision":"zip","email address":"mlsiewert@yahoo.com"},"type":"Feature","geometry":{"type":"Point","coordinates":[-118.430912,34.004734]}},{"properties":{"zip":"92630","geo_score":0.714,"id":"a632brcepvwd","geo_precision":"zip","email address":"catbell@cox.net"},"type":"Feature","geometry":{"type":"Point","coordinates":[-117.683662,33.646966]}},{"properties":{"zip":"90066","geo_score":0.714,"id":"a632brfitpkl","geo_precision":"zip","email address":"emmalager@verizon.net"},"type":"Feature","geometry":{"type":"Point","coordinates":[-118.430912,34.004734]}},{"properties":{"zip":"90018","geo_score":0.714,"id":"a632br2r7l4i","geo_precision":"zip","email address":"dponce83@yahoo.com"},"type":"Feature","geometry":{"type":"Point","coordinates":[-118.298662,33.786594]}},{"properties":{"zip":"92530","geo_score":0.714,"id":"a632brcdg2m8","geo_precision":"zip","email address":"louzonline@hotmail.com"},"type":"Feature","geometry":{"type":"Point","coordinates":[-116.649216,33.658068]}},{"properties":{"zip":"90048","geo_score":0.714,"id":"a632brekfkfx","geo_precision":"zip","email address":"luckytigerlily@hotmail.com"},"type":"Feature","geometry":{"type":"Point","coordinates":[-118.298662,33.786594]}},{"properties":{"zip":"90046","geo_score":0.714,"id":"a632br66c64w","geo_precision":"zip","email address":"ruth.arellano@gmail.com"},"type":"Feature","geometry":{"type":"Point","coordinates":[-118.298662,33.786594]}},{"properties":{"zip":"90808","geo_score":0.714,"id":"a632brde1m9s","geo_precision":"zip","email address":"mzponciano@yahoo.com"},"type":"Feature","geometry":{"type":"Point","coordinates":[-118.106132,33.800266]}},{"properties":{"zip":"91306","geo_score":0.714,"id":"a632br5glyjq","geo_precision":"zip","email address":"sandra@plazatravel.com"},"type":"Feature","geometry":{"type":"Point","coordinates":[-118.298662,33.786594]}},{"properties":{"zip":"91303","geo_score":0.714,"id":"a632br7lgvv5","geo_precision":"zip","email address":"debjanidas79@yahoo.com"},"type":"Feature","geometry":{"type":"Point","coordinates":[-118.298662,33.786594]}},{"properties":{"zip":"91722","geo_score":0.714,"id":"a632br6ahb95","geo_precision":"zip","email address":"joanneenriquez@yahoo.com"},"type":"Feature","geometry":{"type":"Point","coordinates":[-118.298662,33.786594]}},{"properties":{"zip":"91702","geo_score":0.714,"id":"a632br7kzahw","geo_precision":"zip","email address":"crhmch1025@aol.com"},"type":"Feature","geometry":{"type":"Point","coordinates":[-118.298662,33.786594]}},{"properties":{"zip":"92325","geo_score":0.714,"id":"a632brcof84c","geo_precision":"zip","email address":"jaide0509@hotmail.com"},"type":"Feature","geometry":{"type":"Point","coordinates":[-117.304767,34.246673]}},{"properties":{"zip":"90027","geo_score":0.714,"id":"a632br8wt875","geo_precision":"zip","email address":"nikkid1225@netzero.net"},"type":"Feature","geometry":{"type":"Point","coordinates":[-118.298662,33.786594]}},{"properties":{"zip":"90015","geo_score":0.714,"id":"a632brctk524","geo_precision":"zip","email address":"melnowak@sbcglobal.net"},"type":"Feature","geometry":{"type":"Point","coordinates":[-118.656478,34.419441]}},{"properties":{"zip":"90019","geo_score":0.714,"id":"a632br63micx","geo_precision":"zip","email address":"famous027@hotmail.com"},"type":"Feature","geometry":{"type":"Point","coordinates":[-118.298662,33.786594]}},{"properties":{"zip":"90248","geo_score":0.714,"id":"a632brapyy5d","geo_precision":"zip","email address":"mlaupepa@Hotmail.com"},"type":"Feature","geometry":{"type":"Point","coordinates":[-118.269605,33.877165]}},{"properties":{"zip":"92663","geo_score":0.714,"id":"a632br5ia8er","geo_precision":"zip","email address":"frogrobyn@gmail.com"},"type":"Feature","geometry":{"type":"Point","coordinates":[-117.91709,33.61837]}},{"properties":{"zip":"92391","geo_score":0.714,"id":"a632brh1poga","geo_precision":"zip","email address":"mekwak@verizon.net"},"type":"Feature","geometry":{"type":"Point","coordinates":[-115.967051,34.839964]}},{"properties":{"zip":"91306","geo_score":0.714,"id":"a632br41cufu","geo_precision":"zip","email address":"sous10@hotmail.com"},"type":"Feature","geometry":{"type":"Point","coordinates":[-118.298662,33.786594]}},{"properties":{"zip":"91335","geo_score":0.714,"id":"a632br917gp4","geo_precision":"zip","email address":"exercisechicke@sbcglobal.net"},"type":"Feature","geometry":{"type":"Point","coordinates":[-118.298662,33.786594]}},{"properties":{"zip":"92352","geo_score":0.714,"id":"a632brgajiem","geo_precision":"zip","email address":"antoinetteturner@yahoo.com"},"type":"Feature","geometry":{"type":"Point","coordinates":[-117.129213,34.209221]}},{"properties":{"zip":"91201","geo_score":0.714,"id":"a632br9aw2vn","geo_precision":"zip","email address":"setikian@sbcglobal.net"},"type":"Feature","geometry":{"type":"Point","coordinates":[-118.298662,33.786594]}},{"properties":{"zip":"90034","geo_score":0.714,"id":"a632brfcdfu2","geo_precision":"zip","email address":"sweetlindseypie@yahoo.com"},"type":"Feature","geometry":{"type":"Point","coordinates":[-118.405633,34.022789]}},{"properties":{"zip":"91324","geo_score":0.714,"id":"a632brfkohsj","geo_precision":"zip","email address":"kirabaca@gmail.com"},"type":"Feature","geometry":{"type":"Point","coordinates":[-118.298662,33.786594]}},{"properties":{"zip":"91605","geo_score":0.714,"id":"a632brdmwv7u","geo_precision":"zip","email address":"gelizabethas@yahoo.com"},"type":"Feature","geometry":{"type":"Point","coordinates":[-118.298662,33.786594]}},{"properties":{"zip":"90028","geo_score":0.714,"id":"a632brci2lgc","geo_precision":"zip","email address":"mirgomez20@gmail.com"},"type":"Feature","geometry":{"type":"Point","coordinates":[-118.326743,34.098343]}},{"properties":{"zip":"91381","geo_score":0.714,"id":"a632br4mv736","geo_precision":"zip","email address":"darryl@papercuts.info"},"type":"Feature","geometry":{"type":"Point","coordinates":[-118.298662,33.786594]}},{"properties":{"zip":"91765","geo_score":0.714,"id":"a632br77v9gt","geo_precision":"zip","email address":"ada1210@hotmail.com"},"type":"Feature","geometry":{"type":"Point","coordinates":[-118.298662,33.786594]}},{"properties":{"zip":"91356","geo_score":0.714,"id":"a632bra57em2","geo_precision":"zip","email address":"fairiesandbutterflies@rocketmail.com"},"type":"Feature","geometry":{"type":"Point","coordinates":[-118.298662,33.786594]}},{"properties":{"zip":"93551","geo_score":0.714,"id":"a632br4lw6nk","geo_precision":"zip","email address":"ibrahimcranley@hotmail.com"},"type":"Feature","geometry":{"type":"Point","coordinates":[-118.298662,33.786594]}},{"properties":{"zip":"91325","geo_score":0.714,"id":"a632br9o6h2f","geo_precision":"zip","email address":"barretofam4@yahoo.com"},"type":"Feature","geometry":{"type":"Point","coordinates":[-118.298662,33.786594]}},{"properties":{"zip":"70130","geo_score":0.714,"id":"a632br74nnhw","geo_precision":"zip","email address":"jackieroberts2@gmail.com"},"type":"Feature","geometry":{"type":"Point","coordinates":[-90.074122,29.939504]}},{"properties":{"zip":"90505","geo_score":0.714,"id":"a632br5n1odp","geo_precision":"zip","email address":"pnishi5@hotmail.com"},"type":"Feature","geometry":{"type":"Point","coordinates":[-118.298662,33.786594]}},{"properties":{"zip":"90026","geo_score":0.714,"id":"a632br55f5xu","geo_precision":"zip","email address":"williamsaisha@gmail.com"},"type":"Feature","geometry":{"type":"Point","coordinates":[-118.259241,34.09001]}},{"properties":{"zip":"91744","geo_score":0.714,"id":"a632brcwwxsm","geo_precision":"zip","email address":"misshelly1@yahoo.com"},"type":"Feature","geometry":{"type":"Point","coordinates":[-117.968398,34.051677]}},{"properties":{"zip":"90032","geo_score":0.714,"id":"a632bra1tzc3","geo_precision":"zip","email address":"elviralarry@yahoo.com"},"type":"Feature","geometry":{"type":"Point","coordinates":[-118.17785,34.081121]}},{"properties":{"zip":"92563","geo_score":0.714,"id":"a632brfr7ba0","geo_precision":"zip","email address":"angelenaciros@ymail.com"},"type":"Feature","geometry":{"type":"Point","coordinates":[-117.158088,33.560581]}},{"properties":{"zip":"90303","geo_score":0.714,"id":"a632br8ef46q","geo_precision":"zip","email address":"dominguezyvette38@yahoo.com"},"type":"Feature","geometry":{"type":"Point","coordinates":[-118.298662,33.786594]}},{"properties":{"zip":"90405","geo_score":0.714,"id":"a632brd4se6v","geo_precision":"zip","email address":"pnelsoncsj@roadrunner.com"},"type":"Feature","geometry":{"type":"Point","coordinates":[-118.483691,34.002233]}},{"properties":{"zip":"90210","geo_score":0.714,"id":"a632br1ird55","geo_precision":"zip","email address":"matt.gilroy@gmail.com"},"type":"Feature","geometry":{"type":"Point","coordinates":[-118.298662,33.786594]}},{"properties":{"zip":"91786","geo_score":0.714,"id":"a632bre24sl6","geo_precision":"zip","email address":"michellepalas1@yahoo.com"},"type":"Feature","geometry":{"type":"Point","coordinates":[-117.656444,34.155564]}},{"properties":{"zip":"98117","geo_score":0.714,"id":"a632br5qdxsw","geo_precision":"zip","email address":"travis.pearl+98117-317@gmail.com"},"type":"Feature","geometry":{"type":"Point","coordinates":[-122.375407,47.694542]}},{"properties":{"zip":"90069","geo_score":0.714,"id":"a632brams4c2","geo_precision":"zip","email address":"booneryan@hotmail.com"},"type":"Feature","geometry":{"type":"Point","coordinates":[-118.298662,33.786594]}},{"properties":{"zip":"91505","geo_score":0.714,"id":"a632brh6i48j","geo_precision":"zip","email address":"wecare1@pacbell.net"},"type":"Feature","geometry":{"type":"Point","coordinates":[-118.347301,34.167784]}},{"properties":{"zip":"91723","geo_score":0.714,"id":"a632br8x7rjq","geo_precision":"zip","email address":"sandym.22@hotmail.com"},"type":"Feature","geometry":{"type":"Point","coordinates":[-118.298662,33.786594]}},{"properties":{"zip":"91364","geo_score":0.714,"id":"a632br62wwth","geo_precision":"zip","email address":"jennic1@gmail.com"},"type":"Feature","geometry":{"type":"Point","coordinates":[-118.645364,34.130839]}},{"properties":{"zip":"90010","geo_score":0.714,"id":"a632br9idq00","geo_precision":"zip","email address":"ahkim@snklaw.com"},"type":"Feature","geometry":{"type":"Point","coordinates":[-118.298662,33.786594]}},{"properties":{"zip":"90066","geo_score":0.714,"id":"a632br7p2wp2","geo_precision":"zip","email address":"summer.attia@gmail.com"},"type":"Feature","geometry":{"type":"Point","coordinates":[-118.430912,34.004734]}},{"properties":{"zip":"91775","geo_score":0.714,"id":"a632br1h88l9","geo_precision":"zip","email address":"caldera@usc.edu"},"type":"Feature","geometry":{"type":"Point","coordinates":[-118.298662,33.786594]}},{"properties":{"zip":"91423","geo_score":0.714,"id":"a632brf1le32","geo_precision":"zip","email address":"nakima_cage@yahoo.com"},"type":"Feature","geometry":{"type":"Point","coordinates":[-118.298662,33.786594]}},{"properties":{"zip":"91016","geo_score":0.714,"id":"a632brapf8ta","geo_precision":"zip","email address":"kirtonconstruction@yahoo.com"},"type":"Feature","geometry":{"type":"Point","coordinates":[-118.009788,34.115008]}},{"properties":{"zip":"93591","geo_score":0.714,"id":"a632brdgt5t1","geo_precision":"zip","email address":"gaylehill63@yahoo.com"},"type":"Feature","geometry":{"type":"Point","coordinates":[-118.298662,33.786594]}},{"properties":{"zip":"91302","geo_score":0.714,"id":"a632br5o58av","geo_precision":"zip","email address":"BERKEFELDSA@AOL.COM"},"type":"Feature","geometry":{"type":"Point","coordinates":[-118.687031,34.08084]}},{"properties":{"zip":"90061","geo_score":0.714,"id":"a632br7mg6q4","geo_precision":"zip","email address":"hattie.jackson@ey.com"},"type":"Feature","geometry":{"type":"Point","coordinates":[-118.275356,33.920965]}},{"properties":{"zip":"90254","geo_score":0.714,"id":"a632brevkfkm","geo_precision":"zip","email address":"teresa.salk@gmail.com"},"type":"Feature","geometry":{"type":"Point","coordinates":[-118.298662,33.786594]}},{"properties":{"zip":"93552","geo_score":0.714,"id":"a632br55uhq1","geo_precision":"zip","email address":"f3don@aol.com"},"type":"Feature","geometry":{"type":"Point","coordinates":[-118.298662,33.786594]}},{"properties":{"zip":"90036","geo_score":0.714,"id":"a632br72f1ux","geo_precision":"zip","email address":"khoff71372@aol.com"},"type":"Feature","geometry":{"type":"Point","coordinates":[-118.298662,33.786594]}},{"properties":{"zip":"90303","geo_score":0.714,"id":"a632br4tcjhc","geo_precision":"zip","email address":"edmcnasty304@yahoo.com"},"type":"Feature","geometry":{"type":"Point","coordinates":[-118.298662,33.786594]}},{"properties":{"zip":"90044","geo_score":0.714,"id":"a632brcctqfl","geo_precision":"zip","email address":"marighg@yahoo.com"},"type":"Feature","geometry":{"type":"Point","coordinates":[-118.302296,33.941404]}},{"properties":{"zip":"90815","geo_score":0.714,"id":"a632br74dgnc","geo_precision":"zip","email address":"wright45@email.com"},"type":"Feature","geometry":{"type":"Point","coordinates":[-118.114612,33.793516]}},{"properties":{"zip":"91722","geo_score":0.714,"id":"a632brafey6h","geo_precision":"zip","email address":"mztahoe2003@yahoo.com"},"type":"Feature","geometry":{"type":"Point","coordinates":[-118.298662,33.786594]}},{"properties":{"zip":"90026","geo_score":0.714,"id":"a632brg349fd","geo_precision":"zip","email address":"nesky33@gmail.com"},"type":"Feature","geometry":{"type":"Point","coordinates":[-118.259241,34.09001]}},{"properties":{"zip":"90712","geo_score":0.714,"id":"a632br2ufvpj","geo_precision":"zip","email address":"trikev5@aol.com"},"type":"Feature","geometry":{"type":"Point","coordinates":[-118.14645,33.845624]}},{"properties":{"zip":"90250","geo_score":0.714,"id":"a632br7frpa6","geo_precision":"zip","email address":"ahsesay@hotmail.com"},"type":"Feature","geometry":{"type":"Point","coordinates":[-118.298662,33.786594]}},{"properties":{"zip":"90220","geo_score":0.714,"id":"a632brdjm7e9","geo_precision":"zip","email address":"sandra9231@sbcglobal.net"},"type":"Feature","geometry":{"type":"Point","coordinates":[-118.240208,33.874815]}},{"properties":{"zip":"92805","geo_score":0.714,"id":"a632brgd5ylc","geo_precision":"zip","email address":"taxnerds@yahoo.com"},"type":"Feature","geometry":{"type":"Point","coordinates":[-117.769442,33.640302]}},{"properties":{"zip":"90808","geo_score":0.714,"id":"a632br40wig2","geo_precision":"zip","email address":"wreymobo@aol.com"},"type":"Feature","geometry":{"type":"Point","coordinates":[-118.106132,33.800266]}},{"properties":{"zip":"91316","geo_score":0.714,"id":"a632br5ocqnu","geo_precision":"zip","email address":"ebonydreadlocks@yahoo.com"},"type":"Feature","geometry":{"type":"Point","coordinates":[-118.298662,33.786594]}},{"properties":{"zip":"91791","geo_score":0.714,"id":"a632br2e42sl","geo_precision":"zip","email address":"Hiswilbedone7@aol.com"},"type":"Feature","geometry":{"type":"Point","coordinates":[-118.298662,33.786594]}},{"properties":{"zip":"91042","geo_score":0.714,"id":"a632bra1bf24","geo_precision":"zip","email address":"chippychowdog@yahoo.com"},"type":"Feature","geometry":{"type":"Point","coordinates":[-118.298662,33.786594]}},{"properties":{"zip":"90008","geo_score":0.714,"id":"a632brabszw1","geo_precision":"zip","email address":"tmk828@live.com"},"type":"Feature","geometry":{"type":"Point","coordinates":[-118.298662,33.786594]}},{"properties":{"zip":"90745","geo_score":0.714,"id":"a632br1ko57f","geo_precision":"zip","email address":"brigettegibson@hotmail.com"},"type":"Feature","geometry":{"type":"Point","coordinates":[-118.261154,33.813317]}},{"properties":{"zip":"90019","geo_score":0.714,"id":"a632brb7o77x","geo_precision":"zip","email address":"dcbanks75@yahoo.com"},"type":"Feature","geometry":{"type":"Point","coordinates":[-118.298662,33.786594]}},{"properties":{"zip":"90745","geo_score":0.714,"id":"a632br7nrsip","geo_precision":"zip","email address":"chivi90745@yahoo.com"},"type":"Feature","geometry":{"type":"Point","coordinates":[-118.261154,33.813317]}},{"properties":{"zip":"92508","geo_score":0.714,"id":"a632br4k1gmz","geo_precision":"zip","email address":"samialberre94@att.net"},"type":"Feature","geometry":{"type":"Point","coordinates":[-117.2631,33.892091]}},{"properties":{"zip":"90036","geo_score":0.714,"id":"a632brc6cb02","geo_precision":"zip","email address":"davwy@aol.com"},"type":"Feature","geometry":{"type":"Point","coordinates":[-118.298662,33.786594]}},{"properties":{"zip":"90049","geo_score":0.714,"id":"a632br3bvgv3","geo_precision":"zip","email address":"ezerehi@yahoo.com"},"type":"Feature","geometry":{"type":"Point","coordinates":[-118.473969,34.051954]}},{"properties":{"zip":"90814","geo_score":0.714,"id":"a632brgesz1g","geo_precision":"zip","email address":"mrgroovie@netzero.net"},"type":"Feature","geometry":{"type":"Point","coordinates":[-118.142654,33.771301]}},{"properties":{"zip":"90620","geo_score":0.714,"id":"a632br3veyvz","geo_precision":"zip","email address":"brendadory@hotmail.com"},"type":"Feature","geometry":{"type":"Point","coordinates":[-117.769442,33.640302]}},{"properties":{"zip":"90806","geo_score":0.714,"id":"a632br1zsp00","geo_precision":"zip","email address":"unfambam@charter.net"},"type":"Feature","geometry":{"type":"Point","coordinates":[-118.167846,33.804461]}},{"properties":{"zip":"90731","geo_score":0.714,"id":"a632br8mske4","geo_precision":"zip","email address":"rda317@aol.com"},"type":"Feature","geometry":{"type":"Point","coordinates":[-118.253053,33.753088]}},{"properties":{"zip":"90404","geo_score":0.714,"id":"a632brgtyrl2","geo_precision":"zip","email address":"MSPYT1020@GMAIL.COM"},"type":"Feature","geometry":{"type":"Point","coordinates":[-118.298662,33.786594]}},{"properties":{"zip":"91737","geo_score":0.714,"id":"a632brfprho9","geo_precision":"zip","email address":"marysmith641@hotmail.com"},"type":"Feature","geometry":{"type":"Point","coordinates":[-115.967051,34.839964]}},{"properties":{"zip":"90012","geo_score":0.714,"id":"a632br778iaq","geo_precision":"zip","email address":"ben@zeendesigns.com"},"type":"Feature","geometry":{"type":"Point","coordinates":[-118.298662,33.786594]}},{"properties":{"zip":"90065","geo_score":0.714,"id":"a632br5c9spf","geo_precision":"zip","email address":"pipmcniven@gmail.com"},"type":"Feature","geometry":{"type":"Point","coordinates":[-118.298662,33.786594]}},{"properties":{"zip":"91763","geo_score":0.714,"id":"a632brajtf5i","geo_precision":"zip","email address":"covashot22@yahoo.com"},"type":"Feature","geometry":{"type":"Point","coordinates":[-115.967051,34.839964]}},{"properties":{"zip":"91762","geo_score":0.714,"id":"a632brevzxt9","geo_precision":"zip","email address":"brinettap@yahoo.com"},"type":"Feature","geometry":{"type":"Point","coordinates":[-115.967051,34.839964]}},{"properties":{"zip":"91701","geo_score":0.714,"id":"a632br67epf6","geo_precision":"zip","email address":"kteachdeb@msn.com"},"type":"Feature","geometry":{"type":"Point","coordinates":[-115.967051,34.839964]}},{"properties":{"zip":"90220","geo_score":0.714,"id":"a632brf63exs","geo_precision":"zip","email address":"chocolatelatte42@yahoo.com"},"type":"Feature","geometry":{"type":"Point","coordinates":[-118.240208,33.874815]}},{"properties":{"zip":"91367","geo_score":0.714,"id":"a632brh71opq","geo_precision":"zip","email address":"glapiner@sbcglobal.net"},"type":"Feature","geometry":{"type":"Point","coordinates":[-118.298662,33.786594]}},{"properties":{"zip":"90221","geo_score":0.714,"id":"a632brf49cko","geo_precision":"zip","email address":"jackiecox500@yahoo.com"},"type":"Feature","geometry":{"type":"Point","coordinates":[-118.195348,33.898071]}},{"properties":{"zip":"90012","geo_score":0.714,"id":"a632brff8zik","geo_precision":"zip","email address":"bsgillam@hotmail.com"},"type":"Feature","geometry":{"type":"Point","coordinates":[-118.298662,33.786594]}},{"properties":{"zip":"90045","geo_score":0.714,"id":"a632br763oi1","geo_precision":"zip","email address":"jaredalthaus@hotmail.com"},"type":"Feature","geometry":{"type":"Point","coordinates":[-118.375354,33.994179]}},{"properties":{"zip":"90066","geo_score":0.714,"id":"a632br7od8it","geo_precision":"zip","email address":"EVGROD@aol.com"},"type":"Feature","geometry":{"type":"Point","coordinates":[-118.430912,34.004734]}},{"properties":{"zip":"900","geo_score":0.0,"id":"a632br6ossxf","geo_precision":"unmatched","email address":"rosab23@gmail.com"},"type":"Feature","geometry":null},{"properties":{"zip":"90047","geo_score":0.714,"id":"a632br8osdsv","geo_precision":"zip","email address":"sexynana06@yahoo.com"},"type":"Feature","geometry":{"type":"Point","coordinates":[-118.281184,33.920015]}},{"properties":{"zip":"90047","geo_score":0.714,"id":"a632brfb2j5c","geo_precision":"zip","email address":"melbabeltran@yahoo.com"},"type":"Feature","geometry":{"type":"Point","coordinates":[-118.281184,33.920015]}},{"properties":{"zip":"90007","geo_score":0.714,"id":"a632br3f4tby","geo_precision":"zip","email address":"arizonuana@yahoo.com"},"type":"Feature","geometry":{"type":"Point","coordinates":[-118.298662,33.786594]}},{"properties":{"zip":"90016","geo_score":0.714,"id":"a632br6qedg4","geo_precision":"zip","email address":"tgcasaus@yahoo.com"},"type":"Feature","geometry":{"type":"Point","coordinates":[-118.298662,33.786594]}},{"properties":{"zip":"90056","geo_score":0.714,"id":"a632brfdyift","geo_precision":"zip","email address":"BEVERLYNATASHA@YAHOO.COM"},"type":"Feature","geometry":{"type":"Point","coordinates":[-118.353965,33.988902]}},{"properties":{"zip":"93536","geo_score":0.714,"id":"a632brdxdw6r","geo_precision":"zip","email address":"lindanorris.ln@gmail.com"},"type":"Feature","geometry":{"type":"Point","coordinates":[-118.288688,34.689707]}},{"properties":{"zip":"92647","geo_score":0.714,"id":"a632brcmf7av","geo_precision":"zip","email address":"neesso@gmail.com"},"type":"Feature","geometry":{"type":"Point","coordinates":[-117.769442,33.640302]}},{"properties":{"zip":"92336","geo_score":0.714,"id":"a632br1k5058","geo_precision":"zip","email address":"bcalderon68@aol.com"},"type":"Feature","geometry":{"type":"Point","coordinates":[-116.247005,34.122307]}},{"properties":{"zip":"91601","geo_score":0.714,"id":"a632brh33a0s","geo_precision":"zip","email address":"dberger@princesscruises.com"},"type":"Feature","geometry":{"type":"Point","coordinates":[-118.298662,33.786594]}},{"properties":{"zip":"92683","geo_score":0.714,"id":"a632brbwf68d","geo_precision":"zip","email address":"ofeliageorge15@yahoo.com"},"type":"Feature","geometry":{"type":"Point","coordinates":[-118.024228,33.758905]}},{"properties":{"zip":"91356","geo_score":0.714,"id":"a632brd6r1m6","geo_precision":"zip","email address":"masooda1979@yahoo.com"},"type":"Feature","geometry":{"type":"Point","coordinates":[-118.298662,33.786594]}},{"properties":{"zip":"91030","geo_score":0.714,"id":"a632brh4fxgw","geo_precision":"zip","email address":"sara.montoya@ymail.com"},"type":"Feature","geometry":{"type":"Point","coordinates":[-118.298662,33.786594]}},{"properties":{"zip":"91792","geo_score":0.714,"id":"a632brbstafn","geo_precision":"zip","email address":"marqueztrina@yahoo.com"},"type":"Feature","geometry":{"type":"Point","coordinates":[-118.298662,33.786594]}},{"properties":{"zip":"90044","geo_score":0.714,"id":"a632br20n185","geo_precision":"zip","email address":"elenaargueta99@yahoo.com"},"type":"Feature","geometry":{"type":"Point","coordinates":[-118.302296,33.941404]}},{"properties":{"zip":"90019","geo_score":0.714,"id":"a632br8hero9","geo_precision":"zip","email address":"pretty_girlv_68@yahoo.com"},"type":"Feature","geometry":{"type":"Point","coordinates":[-118.298662,33.786594]}},{"properties":{"zip":"91602","geo_score":0.714,"id":"a632br9bavez","geo_precision":"zip","email address":"edr0e@yahoo.com"},"type":"Feature","geometry":{"type":"Point","coordinates":[-118.298662,33.786594]}},{"properties":{"zip":"91342","geo_score":0.714,"id":"a632brgschfr","geo_precision":"zip","email address":"ljl1115@aol.com"},"type":"Feature","geometry":{"type":"Point","coordinates":[-118.298662,33.786594]}},{"properties":{"zip":"91790","geo_score":0.714,"id":"a632braqfjhp","geo_precision":"zip","email address":"mcook@sgvmosquito.org"},"type":"Feature","geometry":{"type":"Point","coordinates":[-118.298662,33.786594]}},{"properties":{"zip":"90401","geo_score":0.714,"id":"a632br7ixgmc","geo_precision":"zip","email address":"prince0385@yahoo.com"},"type":"Feature","geometry":{"type":"Point","coordinates":[-118.298662,33.786594]}},{"properties":{"zip":"91201","geo_score":0.714,"id":"a632br1kpdql","geo_precision":"zip","email address":"y_alexy@hotmail.com"},"type":"Feature","geometry":{"type":"Point","coordinates":[-118.298662,33.786594]}},{"properties":{"zip":"90046","geo_score":0.714,"id":"a632br2ylq1z","geo_precision":"zip","email address":"jpyurgel@gmail.com"},"type":"Feature","geometry":{"type":"Point","coordinates":[-118.298662,33.786594]}},{"properties":{"zip":"91401","geo_score":0.714,"id":"a632br46augh","geo_precision":"zip","email address":"dmagit@gmail.com"},"type":"Feature","geometry":{"type":"Point","coordinates":[-118.298662,33.786594]}},{"properties":{"zip":"92844","geo_score":0.714,"id":"a632br46mlsd","geo_precision":"zip","email address":"nocbui@hotmail.com"},"type":"Feature","geometry":{"type":"Point","coordinates":[-117.769442,33.640302]}},{"properties":{"zip":"92057","geo_score":0.714,"id":"a632br9y9qfu","geo_precision":"zip","email address":"ceodawanb@vzw.blackberry.net"},"type":"Feature","geometry":{"type":"Point","coordinates":[-116.846046,33.016928]}},{"properties":{"zip":"90745","geo_score":0.714,"id":"a632brgz8mmh","geo_precision":"zip","email address":"WILLIAMBRAVO60@YAHOO.COM"},"type":"Feature","geometry":{"type":"Point","coordinates":[-118.261154,33.813317]}},{"properties":{"zip":"91761","geo_score":0.714,"id":"a632br82gyu2","geo_precision":"zip","email address":"minchin@verizon.net"},"type":"Feature","geometry":{"type":"Point","coordinates":[-115.967051,34.839964]}},{"properties":{"zip":"92831","geo_score":0.714,"id":"a632br5uuch8","geo_precision":"zip","email address":"driverdan23@gmail.com"},"type":"Feature","geometry":{"type":"Point","coordinates":[-117.769442,33.640302]}},{"properties":{"zip":"90025","geo_score":0.714,"id":"a632br7hndcs","geo_precision":"zip","email address":"noabolozky@hotmail.com"},"type":"Feature","geometry":{"type":"Point","coordinates":[-118.448135,34.046399]}},{"properties":{"zip":"90027","geo_score":0.714,"id":"a632brbb6q2t","geo_precision":"zip","email address":"cricketistheparty@mac.com"},"type":"Feature","geometry":{"type":"Point","coordinates":[-118.298662,33.786594]}},{"properties":{"zip":"90046","geo_score":0.714,"id":"a632br44h01e","geo_precision":"zip","email address":"dros2731@yahoo.com"},"type":"Feature","geometry":{"type":"Point","coordinates":[-118.298662,33.786594]}},{"properties":{"zip":"91754","geo_score":0.714,"id":"a632br1phvq1","geo_precision":"zip","email address":"beester888@gmail.com"},"type":"Feature","geometry":{"type":"Point","coordinates":[-118.298662,33.786594]}},{"properties":{"zip":"91740","geo_score":0.714,"id":"a632brc7r9zz","geo_precision":"zip","email address":"larubiadiabla@aol.com"},"type":"Feature","geometry":{"type":"Point","coordinates":[-117.881451,34.138896]}},{"properties":{"zip":"90277","geo_score":0.714,"id":"a632brd9avlb","geo_precision":"zip","email address":"kandra@kandra.com"},"type":"Feature","geometry":{"type":"Point","coordinates":[-118.379796,33.827515]}},{"properties":{"zip":"92805","geo_score":0.714,"id":"a632brbnrnpp","geo_precision":"zip","email address":"afrank2@student.rcc.edu"},"type":"Feature","geometry":{"type":"Point","coordinates":[-117.769442,33.640302]}},{"properties":{"zip":"90401","geo_score":0.714,"id":"a632brggd0rr","geo_precision":"zip","email address":"irene@hertzgroup.com"},"type":"Feature","geometry":{"type":"Point","coordinates":[-118.298662,33.786594]}},{"properties":{"zip":"90230-5515","geo_score":0.714,"id":"a632br20lkrz","geo_precision":"zip","email address":"dianeherb21@msn.com"},"type":"Feature","geometry":{"type":"Point","coordinates":[-118.298662,33.786594]}},{"properties":{"zip":"91325","geo_score":0.714,"id":"a632brbq9lwu","geo_precision":"zip","email address":"gmanke143@aol.com"},"type":"Feature","geometry":{"type":"Point","coordinates":[-118.298662,33.786594]}},{"properties":{"zip":"90059","geo_score":0.714,"id":"a632br5mihyx","geo_precision":"zip","email address":"shorterchristine@yahoo.com"},"type":"Feature","geometry":{"type":"Point","coordinates":[-118.244955,33.921065]}},{"properties":{"zip":"90034","geo_score":0.714,"id":"a632brbm74tv","geo_precision":"zip","email address":"minimesanti@yahoo.com"},"type":"Feature","geometry":{"type":"Point","coordinates":[-118.405633,34.022789]}},{"properties":{"zip":"90057","geo_score":0.714,"id":"a632br5q9ela","geo_precision":"zip","email address":"sue422han@gmail.com"},"type":"Feature","geometry":{"type":"Point","coordinates":[-118.298662,33.786594]}},{"properties":{"zip":"91040","geo_score":0.714,"id":"a632br1kfr71","geo_precision":"zip","email address":"plansang@yahoo.com"},"type":"Feature","geometry":{"type":"Point","coordinates":[-118.298662,33.786594]}},{"properties":{"zip":"90272","geo_score":0.714,"id":"a632brbecc7p","geo_precision":"zip","email address":"sue.sgb@gmail.com"},"type":"Feature","geometry":{"type":"Point","coordinates":[-118.561194,34.042509]}},{"properties":{"zip":"90503","geo_score":0.714,"id":"a632br1colnu","geo_precision":"zip","email address":"kimmy4style@yahoo.com"},"type":"Feature","geometry":{"type":"Point","coordinates":[-118.210348,33.846406]}},{"properties":{"zip":"91303","geo_score":0.714,"id":"a632br9brd0o","geo_precision":"zip","email address":"alherrera1@gmail.com"},"type":"Feature","geometry":{"type":"Point","coordinates":[-118.298662,33.786594]}},{"properties":{"zip":"92704","geo_score":0.714,"id":"a632br2mu97n","geo_precision":"zip","email address":"genecar6@yahoo.com"},"type":"Feature","geometry":{"type":"Point","coordinates":[-117.769442,33.640302]}},{"properties":{"zip":"91206","geo_score":0.714,"id":"a632br9n97l3","geo_precision":"zip","email address":"ohio_blues@yahoo.com"},"type":"Feature","geometry":{"type":"Point","coordinates":[-118.298662,33.786594]}},{"properties":{"zip":"91352","geo_score":0.714,"id":"a632brafsnjb","geo_precision":"zip","email address":"jgfteacher@gmail.com"},"type":"Feature","geometry":{"type":"Point","coordinates":[-118.351746,34.261947]}},{"properties":{"zip":"91767","geo_score":0.714,"id":"a632brb5rj6t","geo_precision":"zip","email address":"aconnie@verizon.net"},"type":"Feature","geometry":{"type":"Point","coordinates":[-118.298662,33.786594]}},{"properties":{"zip":"90027","geo_score":0.714,"id":"a632brembw5z","geo_precision":"zip","email address":"tcathlinw@yahoo.com"},"type":"Feature","geometry":{"type":"Point","coordinates":[-118.298662,33.786594]}},{"properties":{"zip":"92410","geo_score":0.714,"id":"a632bra5s33k","geo_precision":"zip","email address":"Phour20ty@yahoo.com"},"type":"Feature","geometry":{"type":"Point","coordinates":[-116.479963,34.095956]}},{"properties":{"zip":"91387","geo_score":0.714,"id":"a632br4cecoo","geo_precision":"zip","email address":"marcellus_holt@yahoo.com"},"type":"Feature","geometry":{"type":"Point","coordinates":[-118.39882,34.401969]}},{"properties":{"zip":"90028","geo_score":0.714,"id":"a632bra2fnmr","geo_precision":"zip","email address":"nano.jd@hotmail.com"},"type":"Feature","geometry":{"type":"Point","coordinates":[-118.326743,34.098343]}},{"properties":{"zip":"90036","geo_score":0.714,"id":"a632bra5xs1g","geo_precision":"zip","email address":"pulenhanel@yahoo.co.kr"},"type":"Feature","geometry":{"type":"Point","coordinates":[-118.298662,33.786594]}},{"properties":{"zip":"90036","geo_score":0.714,"id":"a632brem1ekr","geo_precision":"zip","email address":"charliemorrison12@yahoo.co.uk"},"type":"Feature","geometry":{"type":"Point","coordinates":[-118.298662,33.786594]}},{"properties":{"zip":"90601","geo_score":0.714,"id":"a632br1ymi16","geo_precision":"zip","email address":"jcturcios65@hotmail.com"},"type":"Feature","geometry":{"type":"Point","coordinates":[-118.0441,34.004311]}},{"properties":{"zip":"90232","geo_score":0.714,"id":"a632brbifugx","geo_precision":"zip","email address":"debbiegreenbaum@hotmail.com"},"type":"Feature","geometry":{"type":"Point","coordinates":[-118.298662,33.786594]}},{"properties":{"zip":"90017","geo_score":0.714,"id":"a632br6xzyke","geo_precision":"zip","email address":"frisly6@hotmail.com"},"type":"Feature","geometry":{"type":"Point","coordinates":[-118.298662,33.786594]}},{"properties":{"zip":"90039","geo_score":0.714,"id":"a632br845uxa","geo_precision":"zip","email address":"durden94@yahoo.com"},"type":"Feature","geometry":{"type":"Point","coordinates":[-118.298662,33.786594]}},{"properties":{"zip":"90262","geo_score":0.714,"id":"a632bre8dkrh","geo_precision":"zip","email address":"rjvd69@gmail.com"},"type":"Feature","geometry":{"type":"Point","coordinates":[-118.192015,33.910293]}},{"properties":{"zip":"90241","geo_score":0.714,"id":"a632br1rm6kd","geo_precision":"zip","email address":"rojasg20@yahoo.com"},"type":"Feature","geometry":{"type":"Point","coordinates":[-118.125851,33.939164]}},{"properties":{"zip":"92313","geo_score":0.714,"id":"a632br5j8dvg","geo_precision":"zip","email address":"thecure4967@yahoo.com"},"type":"Feature","geometry":{"type":"Point","coordinates":[-115.967051,34.839964]}},{"properties":{"zip":"90063","geo_score":0.714,"id":"a632br4sl0v5","geo_precision":"zip","email address":"jenifferdesaree@aol.com"},"type":"Feature","geometry":{"type":"Point","coordinates":[-118.18285,34.050012]}},{"properties":{"zip":"90057","geo_score":0.714,"id":"a632brahfh99","geo_precision":"zip","email address":"mina9290@yahoo.co.kr"},"type":"Feature","geometry":{"type":"Point","coordinates":[-118.298662,33.786594]}},{"properties":{"zip":"95901","geo_score":0.714,"id":"a632bra7awjj","geo_precision":"zip","email address":"leshly110@yahoo.com"},"type":"Feature","geometry":{"type":"Point","coordinates":[-121.417742,39.311835]}},{"properties":{"zip":"90025","geo_score":0.714,"id":"a632br21hwkz","geo_precision":"zip","email address":"eg1702@gmail.com"},"type":"Feature","geometry":{"type":"Point","coordinates":[-118.448135,34.046399]}},{"properties":{"zip":"91423","geo_score":0.714,"id":"a632brhjo3v5","geo_precision":"zip","email address":"putoonia@hotmail.com"},"type":"Feature","geometry":{"type":"Point","coordinates":[-118.298662,33.786594]}},{"properties":{"zip":"90043","geo_score":0.714,"id":"a632brfoshw1","geo_precision":"zip","email address":"jrpooh66@yahoo.com"},"type":"Feature","geometry":{"type":"Point","coordinates":[-118.342576,33.998902]}},{"properties":{"zip":"90020","geo_score":0.714,"id":"a632br9tw9z3","geo_precision":"zip","email address":"iicharm@lycos.co.kr"},"type":"Feature","geometry":{"type":"Point","coordinates":[-118.298662,33.786594]}},{"properties":{"zip":"91766","geo_score":0.714,"id":"a632br2rfeqq","geo_precision":"zip","email address":"clarosjulio@yahoo.com"},"type":"Feature","geometry":{"type":"Point","coordinates":[-119.382338,35.888009]}},{"properties":{"zip":"91214","geo_score":0.714,"id":"a632bra5r8s0","geo_precision":"zip","email address":"jpplan@naver.com"},"type":"Feature","geometry":{"type":"Point","coordinates":[-118.298662,33.786594]}},{"properties":{"zip":"90029","geo_score":0.714,"id":"a632br26j6wi","geo_precision":"zip","email address":"Seryan62@yahoo.com"},"type":"Feature","geometry":{"type":"Point","coordinates":[-118.298662,33.786594]}},{"properties":{"zip":"32570","geo_score":0.714,"id":"a632brhnuxt1","geo_precision":"zip","email address":"ethridgejeffery@bellsouth.net"},"type":"Feature","geometry":{"type":"Point","coordinates":[-87.179971,30.677414]}},{"properties":{"zip":"90020","geo_score":0.714,"id":"a632brfodo2b","geo_precision":"zip","email address":"nansrv2001@yahoo.com"},"type":"Feature","geometry":{"type":"Point","coordinates":[-118.298662,33.786594]}},{"properties":{"zip":"91362","geo_score":0.714,"id":"a632brbffsdr","geo_precision":"zip","email address":"wwz100@yahoo.com"},"type":"Feature","geometry":{"type":"Point","coordinates":[-118.823177,34.194756]}},{"properties":{"zip":"90706","geo_score":0.714,"id":"a632br7cmfew","geo_precision":"zip","email address":"juanrosales_19@msn.com"},"type":"Feature","geometry":{"type":"Point","coordinates":[-118.12965,33.888014]}},{"properties":{"zip":"90020","geo_score":0.714,"id":"a632br3hcjww","geo_precision":"zip","email address":"chatmgutierrez@yahoo.com"},"type":"Feature","geometry":{"type":"Point","coordinates":[-118.298662,33.786594]}},{"properties":{"zip":"91730","geo_score":0.714,"id":"a632brez7ml1","geo_precision":"zip","email address":"thadbuckman@yahoo.com"},"type":"Feature","geometry":{"type":"Point","coordinates":[-115.967051,34.839964]}},{"properties":{"zip":"92649","geo_score":0.714,"id":"a632br3x0hvx","geo_precision":"zip","email address":"johnr@mglitho.com"},"type":"Feature","geometry":{"type":"Point","coordinates":[-117.769442,33.640302]}},{"properties":{"zip":"91335","geo_score":0.714,"id":"a632br7lxxo4","geo_precision":"zip","email address":"baydzarig@yahoo.com"},"type":"Feature","geometry":{"type":"Point","coordinates":[-118.298662,33.786594]}},{"properties":{"zip":"90048","geo_score":0.714,"id":"a632brcspoki","geo_precision":"zip","email address":"fatfeve@gmail.com"},"type":"Feature","geometry":{"type":"Point","coordinates":[-118.298662,33.786594]}},{"properties":{"zip":"90403","geo_score":0.714,"id":"a632brgv9vtn","geo_precision":"zip","email address":"lopezfreer@hotmail.com"},"type":"Feature","geometry":{"type":"Point","coordinates":[-118.298662,33.786594]}},{"properties":{"zip":"91801","geo_score":0.714,"id":"a632br1hsl6m","geo_precision":"zip","email address":"parisa_lolia@yahoo.com"},"type":"Feature","geometry":{"type":"Point","coordinates":[-118.298662,33.786594]}},{"properties":{"zip":"90250","geo_score":0.714,"id":"a632brb2uya1","geo_precision":"zip","email address":"tyroneswife02@gmail.com"},"type":"Feature","geometry":{"type":"Point","coordinates":[-118.298662,33.786594]}},{"properties":{"zip":"91706","geo_score":0.714,"id":"a632br97wwn5","geo_precision":"zip","email address":"dasmcastillo@sbcglobal.net"},"type":"Feature","geometry":{"type":"Point","coordinates":[-117.935341,34.106953]}},{"properties":{"zip":"247341","geo_score":0.0,"id":"a632bra790cw","geo_precision":"unmatched","email address":"rkshmittal296@gmail.com"},"type":"Feature","geometry":null},{"properties":{"zip":"90291","geo_score":0.714,"id":"a632br4aa5iq","geo_precision":"zip","email address":"jamesburrows@earthlink.net"},"type":"Feature","geometry":{"type":"Point","coordinates":[-118.298662,33.786594]}},{"properties":{"zip":"91024","geo_score":0.714,"id":"a632br1x0tze","geo_precision":"zip","email address":"LYNNEART775@VERIZON.NET"},"type":"Feature","geometry":{"type":"Point","coordinates":[-118.298662,33.786594]}},{"properties":{"zip":"91784","geo_score":0.714,"id":"a632brawoti5","geo_precision":"zip","email address":"alsunit@hotmail.com"},"type":"Feature","geometry":{"type":"Point","coordinates":[-116.246997,34.128118]}},{"properties":{"zip":"90019","geo_score":0.714,"id":"a632brd60jtm","geo_precision":"zip","email address":"steff1001@hotmail.com"},"type":"Feature","geometry":{"type":"Point","coordinates":[-118.298662,33.786594]}},{"properties":{"zip":"90815","geo_score":0.714,"id":"a632br52trq6","geo_precision":"zip","email address":"daduff003@hotmail.com"},"type":"Feature","geometry":{"type":"Point","coordinates":[-118.114612,33.793516]}},{"properties":{"zip":"90047","geo_score":0.714,"id":"a632br2zgr4w","geo_precision":"zip","email address":"BRANDIERECHEA@GMAIL.COM"},"type":"Feature","geometry":{"type":"Point","coordinates":[-118.281184,33.920015]}},{"properties":{"zip":"90027","geo_score":0.714,"id":"a632br6wyz30","geo_precision":"zip","email address":"reecethomson@ymail.com"},"type":"Feature","geometry":{"type":"Point","coordinates":[-118.298662,33.786594]}},{"properties":{"zip":"90272","geo_score":0.714,"id":"a632brbcz1he","geo_precision":"zip","email address":"Bostick.family@verizon.net"},"type":"Feature","geometry":{"type":"Point","coordinates":[-118.561194,34.042509]}},{"properties":{"zip":"90025","geo_score":0.714,"id":"a632bramt8yo","geo_precision":"zip","email address":"bwchan169@verizon.net"},"type":"Feature","geometry":{"type":"Point","coordinates":[-118.448135,34.046399]}},{"properties":{"zip":"90008","geo_score":0.714,"id":"a632braf6ltg","geo_precision":"zip","email address":"fcoleman1@gmx.com"},"type":"Feature","geometry":{"type":"Point","coordinates":[-118.298662,33.786594]}},{"properties":{"zip":"90027","geo_score":0.714,"id":"a632brb7l31b","geo_precision":"zip","email address":"13moonprod@gmail.com"},"type":"Feature","geometry":{"type":"Point","coordinates":[-118.298662,33.786594]}},{"properties":{"zip":"91401","geo_score":0.714,"id":"a632bre3g87f","geo_precision":"zip","email address":"yanina.flores@csun.edu"},"type":"Feature","geometry":{"type":"Point","coordinates":[-118.298662,33.786594]}},{"properties":{"zip":"91364","geo_score":0.714,"id":"a632bran9p22","geo_precision":"zip","email address":"cycrosesss@yahoo.com"},"type":"Feature","geometry":{"type":"Point","coordinates":[-118.645364,34.130839]}},{"properties":{"zip":"91702","geo_score":0.714,"id":"a632brgv1jy4","geo_precision":"zip","email address":"exploitedsole@ao.com"},"type":"Feature","geometry":{"type":"Point","coordinates":[-118.298662,33.786594]}}],"is_temporal":false,"author":{"url":"","metadata":"","contact_name":"","contact_address":"","source":"","contact_phone":""},"source":"","pagination":{"sort":null,"start":0,"total":710,"limit":1000000},"state":"complete","tags":"","published":"2014-08-13T05:54:28-04:00","id":105756}