{"type":"FeatureCollection","data_type":"Dataset","url_type":null,"permissions":[{"permissions":{"download":true,"view":true},"group_id":"everyone"}],"classification":null,"title":"UK Visits","count":101,"stream_id":106207,"contributor":{"url":"http://geocommons.com/users/24820","name":"vee_ess"},"data_attributes":null,"calculation_params":null,"icon_link":null,"link":"http://geocommons.com/overlays/106207.json","extent":[-5.93333,50.2617,1.29834,57.1333],"geometry_types":["point"],"unique_name":null,"name":"UK Visits","feature_count":101,"description":"Traffic to the website YTD from the UK.","next_feature":null,"is_raster":false,"short_classification":"Y","stats":{"new visits":{"max":4284,"mean":105.59,"variance":183256.345353535,"stdev":428.084507257078,"min":20,"median":38}},"features":[{"properties":{"city":"London","geo_score":1.0,"country":"United Kingdom","new visits":4284,"id":"a625exia18lc","geo_precision":"zip"},"type":"Feature","geometry":{"type":"Point","coordinates":[-0.125532746315002,51.5084152563931]}},{"properties":{"city":"Manchester","geo_score":1.0,"country":"United Kingdom","new visits":484,"id":"a625exa0ctrk","geo_precision":"zip"},"type":"Feature","geometry":{"type":"Point","coordinates":[-2.23743438720703,53.4809464283615]}},{"properties":{"city":"Birmingham","geo_score":1.0,"country":"United Kingdom","new visits":387,"id":"a625exkduni1","geo_precision":"zip"},"type":"Feature","geometry":{"type":"Point","coordinates":[-1.9166667,52.4666667]}},{"properties":{"city":"Edinburgh","geo_score":1.0,"country":"United Kingdom","new visits":231,"id":"a625exn429a9","geo_precision":"zip"},"type":"Feature","geometry":{"type":"Point","coordinates":[-3.2,55.95]}},{"properties":{"city":"Kensington","geo_score":1.0,"country":"United Kingdom","new visits":218,"id":"a625exoda3mp","geo_precision":"zip"},"type":"Feature","geometry":{"type":"Point","coordinates":[-0.191745758056641,51.5009423821754]}},{"properties":{"city":"Glasgow","geo_score":1.0,"country":"United Kingdom","new visits":207,"id":"a625exdlrig8","geo_precision":"zip"},"type":"Feature","geometry":{"type":"Point","coordinates":[-4.25763130187988,55.8651497187961]}},{"properties":{"city":"Sheffield","geo_score":1.0,"country":"United Kingdom","new visits":189,"id":"a625exevhrda","geo_precision":"zip"},"type":"Feature","geometry":{"type":"Point","coordinates":[-1.46590232849121,53.3829700049879]}},{"properties":{"city":"Bristol","geo_score":1.0,"country":"United Kingdom","new visits":177,"id":"a625exnyypxb","geo_precision":"zip"},"type":"Feature","geometry":{"type":"Point","coordinates":[-2.5833333,51.45]}},{"properties":{"city":"Leeds","geo_score":1.0,"country":"United Kingdom","new visits":177,"id":"a625exkbcog7","geo_precision":"zip"},"type":"Feature","geometry":{"type":"Point","coordinates":[-1.54784917831421,53.7964812592701]}},{"properties":{"city":"Lambeth","geo_score":1.0,"country":"United Kingdom","new visits":173,"id":"a625exnv18vt","geo_precision":"zip"},"type":"Feature","geometry":{"type":"Point","coordinates":[-0.1166667,51.5]}},{"properties":{"city":"Poplar","geo_score":1.0,"country":"United Kingdom","new visits":159,"id":"a625exp7bvy9","geo_precision":"zip"},"type":"Feature","geometry":{"type":"Point","coordinates":[-0.0166667,51.5]}},{"properties":{"city":"Liverpool","geo_score":1.0,"country":"United Kingdom","new visits":113,"id":"a625exgvlalz","geo_precision":"zip"},"type":"Feature","geometry":{"type":"Point","coordinates":[-2.97793865203857,53.410580680167]}},{"properties":{"city":"Preston","geo_score":1.0,"country":"United Kingdom","new visits":109,"id":"a625exindp3s","geo_precision":"zip"},"type":"Feature","geometry":{"type":"Point","coordinates":[-2.7166667,53.7666667]}},{"properties":{"city":"Reading","geo_score":1.0,"country":"United Kingdom","new visits":101,"id":"a625ex9as9ur","geo_precision":"zip"},"type":"Feature","geometry":{"type":"Point","coordinates":[-1.0,51.4333333]}},{"properties":{"city":"Nottingham","geo_score":1.0,"country":"United Kingdom","new visits":100,"id":"a625exokwphz","geo_precision":"zip"},"type":"Feature","geometry":{"type":"Point","coordinates":[-1.15047454833984,52.9536023000285]}},{"properties":{"city":"Southampton","geo_score":1.0,"country":"United Kingdom","new visits":98,"id":"a625exegn2qw","geo_precision":"zip"},"type":"Feature","geometry":{"type":"Point","coordinates":[-1.4,50.9]}},{"properties":{"city":"Wembley","geo_score":1.0,"country":"United Kingdom","new visits":98,"id":"a625exeuvq2k","geo_precision":"zip"},"type":"Feature","geometry":{"type":"Point","coordinates":[-0.2833333,51.55]}},{"properties":{"city":"Belfast","geo_score":1.0,"country":"United Kingdom","new visits":96,"id":"a625ex9cyyau","geo_precision":"zip"},"type":"Feature","geometry":{"type":"Point","coordinates":[-5.9333333,54.5833333]}},{"properties":{"city":"Newcastle upon Tyne","geo_score":1.0,"country":"United Kingdom","new visits":95,"id":"a625exmwcxli","geo_precision":"zip"},"type":"Feature","geometry":{"type":"Point","coordinates":[-1.61396026611328,54.9732787391176]}},{"properties":{"city":"Leicester","geo_score":1.0,"country":"United Kingdom","new visits":93,"id":"a625exlygqm2","geo_precision":"zip"},"type":"Feature","geometry":{"type":"Point","coordinates":[-1.1333333,52.6333333]}},{"properties":{"city":"Cambridge","geo_score":1.0,"country":"United Kingdom","new visits":90,"id":"a625expepzl0","geo_precision":"zip"},"type":"Feature","geometry":{"type":"Point","coordinates":[0.1166667,52.2]}},{"properties":{"city":"Cardiff","geo_score":1.0,"country":"United Kingdom","new visits":85,"id":"a625exony11m","geo_precision":"zip"},"type":"Feature","geometry":{"type":"Point","coordinates":[-3.18,51.48]}},{"properties":{"city":"Bracknell","geo_score":1.0,"country":"United Kingdom","new visits":83,"id":"a625ex9fm54x","geo_precision":"zip"},"type":"Feature","geometry":{"type":"Point","coordinates":[-0.75,51.4166667]}},{"properties":{"city":"Teddington","geo_score":0.957,"country":"United Kingdom","new visits":81,"id":"a625exgokg48","geo_precision":"zip"},"type":"Feature","geometry":{"type":"Point","coordinates":[-2.3333333,53.6]}},{"properties":{"city":"Slough","geo_score":1.0,"country":"United Kingdom","new visits":77,"id":"a625exk1xyw8","geo_precision":"zip"},"type":"Feature","geometry":{"type":"Point","coordinates":[-0.5833333,51.5]}},{"properties":{"city":"Croydon","geo_score":0.898,"country":"United Kingdom","new visits":66,"id":"a625exb4tcbi","geo_precision":"zip"},"type":"Feature","geometry":{"type":"Point","coordinates":[-0.0600814819335938,52.9277397260237]}},{"properties":{"city":"Coventry","geo_score":1.0,"country":"United Kingdom","new visits":65,"id":"a625exfxqecy","geo_precision":"zip"},"type":"Feature","geometry":{"type":"Point","coordinates":[-1.51216506958008,52.4065556183991]}},{"properties":{"city":"Bradford","geo_score":1.0,"country":"United Kingdom","new visits":57,"id":"a625exdzdsbf","geo_precision":"zip"},"type":"Feature","geometry":{"type":"Point","coordinates":[-1.75206184387207,53.7939083408637]}},{"properties":{"city":"Gateshead","geo_score":1.0,"country":"United Kingdom","new visits":57,"id":"a625exgfhr5q","geo_precision":"zip"},"type":"Feature","geometry":{"type":"Point","coordinates":[-1.6175,54.945]}},{"properties":{"city":"Milton Keynes","geo_score":1.0,"country":"United Kingdom","new visits":57,"id":"a625exhel2yx","geo_precision":"zip"},"type":"Feature","geometry":{"type":"Point","coordinates":[-0.755825042724609,52.0417219233052]}},{"properties":{"city":"Salford","geo_score":1.0,"country":"United Kingdom","new visits":57,"id":"a625exkfvqvh","geo_precision":"zip"},"type":"Feature","geometry":{"type":"Point","coordinates":[-2.2666667,53.4833333]}},{"properties":{"city":"Oxford","geo_score":1.0,"country":"United Kingdom","new visits":56,"id":"a625exhnn8ga","geo_precision":"zip"},"type":"Feature","geometry":{"type":"Point","coordinates":[-1.25596046447754,51.7522210025796]}},{"properties":{"city":"Gloucester","geo_score":1.0,"country":"United Kingdom","new visits":55,"id":"a625exbxeunx","geo_precision":"zip"},"type":"Feature","geometry":{"type":"Point","coordinates":[-2.24309921264648,51.8656800532905]}},{"properties":{"city":"Aberdeen","geo_score":1.0,"country":"United Kingdom","new visits":52,"id":"a625exb0gss9","geo_precision":"zip"},"type":"Feature","geometry":{"type":"Point","coordinates":[-2.1,57.1333333]}},{"properties":{"city":"Thames Ditton","geo_score":0.917,"country":"United Kingdom","new visits":51,"id":"a625exe9h63q","geo_precision":"zip"},"type":"Feature","geometry":{"type":"Point","coordinates":[-1.4833333,50.9166667]}},{"properties":{"city":"Northampton","geo_score":1.0,"country":"United Kingdom","new visits":50,"id":"a625exc3gflm","geo_precision":"zip"},"type":"Feature","geometry":{"type":"Point","coordinates":[-0.8833333,52.25]}},{"properties":{"city":"Woking","geo_score":1.0,"country":"United Kingdom","new visits":48,"id":"a625exmltl2z","geo_precision":"zip"},"type":"Feature","geometry":{"type":"Point","coordinates":[-0.558929443359375,51.3190262646694]}},{"properties":{"city":"Brighton","geo_score":1.0,"country":"United Kingdom","new visits":46,"id":"a625exonh198","geo_precision":"zip"},"type":"Feature","geometry":{"type":"Point","coordinates":[-0.139474868774414,50.8283849472495]}},{"properties":{"city":"York","geo_score":1.0,"country":"United Kingdom","new visits":46,"id":"a625exfd8uat","geo_precision":"zip"},"type":"Feature","geometry":{"type":"Point","coordinates":[-1.0833333,53.9666667]}},{"properties":{"city":"Bedford","geo_score":1.0,"country":"United Kingdom","new visits":45,"id":"a625exirczjx","geo_precision":"zip"},"type":"Feature","geometry":{"type":"Point","coordinates":[-0.466318130493164,52.1345944105091]}},{"properties":{"city":"Hull","geo_score":0.929,"country":"United Kingdom","new visits":45,"id":"a625exe3bq1y","geo_precision":"zip"},"type":"Feature","geometry":{"type":"Point","coordinates":[-0.7833333,51.2166667]}},{"properties":{"city":"Brentford","geo_score":0.921,"country":"United Kingdom","new visits":42,"id":"a625exikoqkr","geo_precision":"zip"},"type":"Feature","geometry":{"type":"Point","coordinates":[0.45,52.45]}},{"properties":{"city":"Peterborough","geo_score":1.0,"country":"United Kingdom","new visits":42,"id":"a625exk3d6nn","geo_precision":"zip"},"type":"Feature","geometry":{"type":"Point","coordinates":[-0.25,52.5833333]}},{"properties":{"city":"Wolverhampton","geo_score":1.0,"country":"United Kingdom","new visits":42,"id":"a625exgiv3dk","geo_precision":"zip"},"type":"Feature","geometry":{"type":"Point","coordinates":[-2.1333333,52.5833333]}},{"properties":{"city":"Derby","geo_score":1.0,"country":"United Kingdom","new visits":41,"id":"a625exmlp6ux","geo_precision":"zip"},"type":"Feature","geometry":{"type":"Point","coordinates":[-1.47663116455078,52.9227723427478]}},{"properties":{"city":"Stoke on Trent","geo_score":1.0,"country":"United Kingdom","new visits":40,"id":"a625exjvv8z7","geo_precision":"zip"},"type":"Feature","geometry":{"type":"Point","coordinates":[-2.1833333,53.0]}},{"properties":{"city":"Bletchley","geo_score":1.0,"country":"United Kingdom","new visits":39,"id":"a625exmx034x","geo_precision":"zip"},"type":"Feature","geometry":{"type":"Point","coordinates":[-0.7333333,51.9833333]}},{"properties":{"city":"Andover","geo_score":1.0,"country":"United Kingdom","new visits":38,"id":"a625excw839i","geo_precision":"zip"},"type":"Feature","geometry":{"type":"Point","coordinates":[-1.4833333,51.2]}},{"properties":{"city":"Plymouth","geo_score":1.0,"country":"United Kingdom","new visits":38,"id":"a625exd1h5we","geo_precision":"zip"},"type":"Feature","geometry":{"type":"Point","coordinates":[-4.14304733276367,50.3715254228346]}},{"properties":{"city":"Sutton","geo_score":0.952,"country":"United Kingdom","new visits":38,"id":"a625exfhr9ct","geo_precision":"zip"},"type":"Feature","geometry":{"type":"Point","coordinates":[-0.667591094970703,52.5748894436198]}},{"properties":{"city":"Warrington","geo_score":1.0,"country":"United Kingdom","new visits":37,"id":"a625exffs0w8","geo_precision":"zip"},"type":"Feature","geometry":{"type":"Point","coordinates":[-2.6,53.3833333]}},{"properties":{"city":"Brentwood","geo_score":1.0,"country":"United Kingdom","new visits":36,"id":"a625exg5a6mv","geo_precision":"zip"},"type":"Feature","geometry":{"type":"Point","coordinates":[0.3166667,51.6166667]}},{"properties":{"city":"Hemel Hempstead","geo_score":1.0,"country":"United Kingdom","new visits":36,"id":"a625exgpzhug","geo_precision":"zip"},"type":"Feature","geometry":{"type":"Point","coordinates":[-0.4666667,51.75]}},{"properties":{"city":"Edgbaston","geo_score":1.0,"country":"United Kingdom","new visits":35,"id":"a625excjrknc","geo_precision":"zip"},"type":"Feature","geometry":{"type":"Point","coordinates":[-1.9166667,52.45]}},{"properties":{"city":"Swindon","geo_score":1.0,"country":"United Kingdom","new visits":34,"id":"a625exdkg3d9","geo_precision":"zip"},"type":"Feature","geometry":{"type":"Point","coordinates":[-1.7833333,51.5166667]}},{"properties":{"city":"Norwich","geo_score":1.0,"country":"United Kingdom","new visits":33,"id":"a625exdufl3i","geo_precision":"zip"},"type":"Feature","geometry":{"type":"Point","coordinates":[1.29833936691284,52.6278273182018]}},{"properties":{"city":"Portsmouth","geo_score":1.0,"country":"United Kingdom","new visits":33,"id":"a625exohy0co","geo_precision":"zip"},"type":"Feature","geometry":{"type":"Point","coordinates":[-1.07142448425293,50.8090805768295]}},{"properties":{"city":"Rotherham","geo_score":1.0,"country":"United Kingdom","new visits":33,"id":"a625exjlldo5","geo_precision":"zip"},"type":"Feature","geometry":{"type":"Point","coordinates":[-1.35,53.4333333]}},{"properties":{"city":"Solihull","geo_score":1.0,"country":"United Kingdom","new visits":32,"id":"a625exo0asrg","geo_precision":"zip"},"type":"Feature","geometry":{"type":"Point","coordinates":[-1.7833333,52.4166667]}},{"properties":{"city":"Farnborough","geo_score":1.0,"country":"United Kingdom","new visits":31,"id":"a625exbfmmcp","geo_precision":"zip"},"type":"Feature","geometry":{"type":"Point","coordinates":[-0.7333333,51.2666667]}},{"properties":{"city":"Sale","geo_score":1.0,"country":"United Kingdom","new visits":31,"id":"a625ex9woj9h","geo_precision":"zip"},"type":"Feature","geometry":{"type":"Point","coordinates":[-2.3,53.4166667]}},{"properties":{"city":"Stevenage","geo_score":1.0,"country":"United Kingdom","new visits":31,"id":"a625exchcfl3","geo_precision":"zip"},"type":"Feature","geometry":{"type":"Point","coordinates":[-0.2166667,51.9166667]}},{"properties":{"city":"Walsall","geo_score":1.0,"country":"United Kingdom","new visits":31,"id":"a625exix71cb","geo_precision":"zip"},"type":"Feature","geometry":{"type":"Point","coordinates":[-2.0,52.6]}},{"properties":{"city":"Colchester","geo_score":1.0,"country":"United Kingdom","new visits":30,"id":"a625exilwqoi","geo_precision":"zip"},"type":"Feature","geometry":{"type":"Point","coordinates":[0.9,51.8833333]}},{"properties":{"city":"Luton","geo_score":1.0,"country":"United Kingdom","new visits":30,"id":"a625exfwyy49","geo_precision":"zip"},"type":"Feature","geometry":{"type":"Point","coordinates":[-0.4166667,51.8833333]}},{"properties":{"city":"Telford","geo_score":1.0,"country":"United Kingdom","new visits":30,"id":"a625exeihums","geo_precision":"zip"},"type":"Feature","geometry":{"type":"Point","coordinates":[-2.44926452636719,52.6765902425084]}},{"properties":{"city":"Bolton","geo_score":1.0,"country":"United Kingdom","new visits":29,"id":"a625expcxd3c","geo_precision":"zip"},"type":"Feature","geometry":{"type":"Point","coordinates":[-2.4333333,53.5833333]}},{"properties":{"city":"Truro","geo_score":1.0,"country":"United Kingdom","new visits":29,"id":"a625exieeyc8","geo_precision":"zip"},"type":"Feature","geometry":{"type":"Point","coordinates":[-5.0433333,50.2616667]}},{"properties":{"city":"Blackpool","geo_score":1.0,"country":"United Kingdom","new visits":28,"id":"a625exm54nks","geo_precision":"zip"},"type":"Feature","geometry":{"type":"Point","coordinates":[-3.05,53.8166667]}},{"properties":{"city":"Doncaster","geo_score":1.0,"country":"United Kingdom","new visits":28,"id":"a625exl4881n","geo_precision":"zip"},"type":"Feature","geometry":{"type":"Point","coordinates":[-1.1166667,53.5333333]}},{"properties":{"city":"Wigan","geo_score":1.0,"country":"United Kingdom","new visits":28,"id":"a625exf4spvn","geo_precision":"zip"},"type":"Feature","geometry":{"type":"Point","coordinates":[-2.6166667,53.5333333]}},{"properties":{"city":"Staines","geo_score":1.0,"country":"United Kingdom","new visits":27,"id":"a625exknp2vu","geo_precision":"zip"},"type":"Feature","geometry":{"type":"Point","coordinates":[-0.5166667,51.4333333]}},{"properties":{"city":"Bury","geo_score":1.0,"country":"United Kingdom","new visits":26,"id":"a625exdp2btr","geo_precision":"zip"},"type":"Feature","geometry":{"type":"Point","coordinates":[-2.3,53.6]}},{"properties":{"city":"Crawley","geo_score":1.0,"country":"United Kingdom","new visits":26,"id":"a625exdgyvwu","geo_precision":"zip"},"type":"Feature","geometry":{"type":"Point","coordinates":[-0.1833333,51.1166667]}},{"properties":{"city":"Guildford","geo_score":1.0,"country":"United Kingdom","new visits":26,"id":"a625exbiktg8","geo_precision":"zip"},"type":"Feature","geometry":{"type":"Point","coordinates":[-0.574271678924561,51.2353612561628]}},{"properties":{"city":"Oldham","geo_score":1.0,"country":"United Kingdom","new visits":26,"id":"a625exndj41k","geo_precision":"zip"},"type":"Feature","geometry":{"type":"Point","coordinates":[-2.11830139160156,53.5405114130026]}},{"properties":{"city":"Watford","geo_score":1.0,"country":"United Kingdom","new visits":26,"id":"a625exaq6hw7","geo_precision":"zip"},"type":"Feature","geometry":{"type":"Point","coordinates":[-0.396022796630859,51.6553058894589]}},{"properties":{"city":"Cheltenham","geo_score":1.0,"country":"United Kingdom","new visits":25,"id":"a625exc8w6ni","geo_precision":"zip"},"type":"Feature","geometry":{"type":"Point","coordinates":[-2.0833333,51.9]}},{"properties":{"city":"Livingston","geo_score":1.0,"country":"United Kingdom","new visits":25,"id":"a625exhtybgp","geo_precision":"zip"},"type":"Feature","geometry":{"type":"Point","coordinates":[-3.5333333,55.8833333]}},{"properties":{"city":"Newport","geo_score":1.0,"country":"United Kingdom","new visits":25,"id":"a625exj4225c","geo_precision":"zip"},"type":"Feature","geometry":{"type":"Point","coordinates":[-2.99835026264191,51.5877363767512]}},{"properties":{"city":"Swansea","geo_score":1.0,"country":"United Kingdom","new visits":25,"id":"a625ex9lor3p","geo_precision":"zip"},"type":"Feature","geometry":{"type":"Point","coordinates":[-3.94323348999023,51.6207876683235]}},{"properties":{"city":"Woodley","geo_score":0.929,"country":"United Kingdom","new visits":25,"id":"a625exfir9e0","geo_precision":"zip"},"type":"Feature","geometry":{"type":"Point","coordinates":[-1.1333333,51.7333333]}},{"properties":{"city":"St Albans","geo_score":0.917,"country":"United Kingdom","new visits":24,"id":"a625exo5ugyy","geo_precision":"zip"},"type":"Feature","geometry":{"type":"Point","coordinates":[-0.327122211456299,51.7507232448832]}},{"properties":{"city":"(not set)","geo_score":0.881,"country":"United Kingdom","new visits":23,"id":"a625exp4im6o","geo_precision":"zip"},"type":"Feature","geometry":{"type":"Point","coordinates":[-2.85,55.7]}},{"properties":{"city":"Barnsley","geo_score":1.0,"country":"United Kingdom","new visits":23,"id":"a625exmq4is4","geo_precision":"zip"},"type":"Feature","geometry":{"type":"Point","coordinates":[-1.4833333,53.55]}},{"properties":{"city":"Chatham","geo_score":1.0,"country":"United Kingdom","new visits":23,"id":"a625exf1epy7","geo_precision":"zip"},"type":"Feature","geometry":{"type":"Point","coordinates":[0.527858734130859,51.3789061005396]}},{"properties":{"city":"Huddersfield","geo_score":1.0,"country":"United Kingdom","new visits":23,"id":"a625exj0pngk","geo_precision":"zip"},"type":"Feature","geometry":{"type":"Point","coordinates":[-1.7833333,53.65]}},{"properties":{"city":"Waltham Cross","geo_score":0.881,"country":"United Kingdom","new visits":23,"id":"a625exdp4e2s","geo_precision":"zip"},"type":"Feature","geometry":{"type":"Point","coordinates":[0.3333333,51.4833333]}},{"properties":{"city":"Bournemouth","geo_score":1.0,"country":"United Kingdom","new visits":22,"id":"a625exauzsr2","geo_precision":"zip"},"type":"Feature","geometry":{"type":"Point","coordinates":[-1.8833333,50.7166667]}},{"properties":{"city":"Burnley","geo_score":1.0,"country":"United Kingdom","new visits":22,"id":"a625exmbmnnv","geo_precision":"zip"},"type":"Feature","geometry":{"type":"Point","coordinates":[-2.24533081054688,53.7866576922372]}},{"properties":{"city":"Chelmsford","geo_score":1.0,"country":"United Kingdom","new visits":22,"id":"a625exk5iyp5","geo_precision":"zip"},"type":"Feature","geometry":{"type":"Point","coordinates":[0.4833333,51.7333333]}},{"properties":{"city":"Eastleigh","geo_score":1.0,"country":"United Kingdom","new visits":22,"id":"a625exff4447","geo_precision":"zip"},"type":"Feature","geometry":{"type":"Point","coordinates":[-1.35,50.9666667]}},{"properties":{"city":"Middlesbrough","geo_score":1.0,"country":"United Kingdom","new visits":22,"id":"a625exm8s6sr","geo_precision":"zip"},"type":"Feature","geometry":{"type":"Point","coordinates":[-1.1627778,54.5727778]}},{"properties":{"city":"Basingstoke","geo_score":1.0,"country":"United Kingdom","new visits":21,"id":"a625exgnzff6","geo_precision":"zip"},"type":"Feature","geometry":{"type":"Point","coordinates":[-1.0833333,51.2666667]}},{"properties":{"city":"Dundee","geo_score":1.0,"country":"United Kingdom","new visits":21,"id":"a625exda5145","geo_precision":"zip"},"type":"Feature","geometry":{"type":"Point","coordinates":[-2.9666667,56.5]}},{"properties":{"city":"Iver","geo_score":1.0,"country":"United Kingdom","new visits":21,"id":"a625exdyjoku","geo_precision":"zip"},"type":"Feature","geometry":{"type":"Point","coordinates":[-0.5,51.5]}},{"properties":{"city":"Maidstone","geo_score":1.0,"country":"United Kingdom","new visits":21,"id":"a625exnb6qmj","geo_precision":"zip"},"type":"Feature","geometry":{"type":"Point","coordinates":[0.5166667,51.2666667]}},{"properties":{"city":"Stockport","geo_score":1.0,"country":"United Kingdom","new visits":21,"id":"a625exidakza","geo_precision":"zip"},"type":"Feature","geometry":{"type":"Point","coordinates":[-2.15761184692383,53.4097876669541]}},{"properties":{"city":"Camberley","geo_score":0.968,"country":"United Kingdom","new visits":20,"id":"a625exerzhjh","geo_precision":"zip"},"type":"Feature","geometry":{"type":"Point","coordinates":[-1.2666667,52.9833333]}},{"properties":{"city":"Exeter","geo_score":1.0,"country":"United Kingdom","new visits":20,"id":"a625exlx3xgp","geo_precision":"zip"},"type":"Feature","geometry":{"type":"Point","coordinates":[-3.52750718593597,50.7235979104432]}},{"properties":{"city":"# --------------------------------------------------------------------------------","geo_score":1.0,"country":"United Kingdom","new visits":null,"id":"a625exocliqe","geo_precision":"zip"},"type":"Feature","geometry":{"type":"Point","coordinates":[-2.69581,54.96594]}}],"is_temporal":false,"author":{"url":"","metadata":"","contact_name":"","contact_address":"","source":"","contact_phone":""},"source":"","pagination":{"sort":null,"start":0,"total":101,"limit":1000000},"state":"complete","tags":"","published":"2014-08-13T06:34:07-04:00","id":106207}