{"type":"FeatureCollection","data_type":"Dataset","url_type":null,"permissions":[{"permissions":{"download":true,"view":true},"group_id":"everyone"}],"classification":null,"title":"wed list","count":107,"stream_id":106460,"contributor":{"url":"http://geocommons.com/users/24866","name":"citywide"},"data_attributes":null,"calculation_params":null,"icon_link":null,"link":"http://geocommons.com/overlays/106460.json","extent":[0.0,0.0,0.0,0.0],"geometry_types":null,"unique_name":null,"name":"wed list","feature_count":107,"description":"","next_feature":null,"is_raster":false,"short_classification":"Y","stats":{"zip/postal":{"max":606062,"mean":65455.62,"variance":2989055751.87434,"stdev":54672.2576072577,"min":33607,"median":60173}},"features":[{"properties":{"name":"Jim Broline","city":null,"category":"Realtor","details":null,"zip/postal":null,"last name":"Broline","organization":"Re/Max","id":"a696hlgm2830","address":null,"phone 1":"(630) 887-1960 Direct connect"},"type":"Feature","geometry":null},{"properties":{"name":"Kendra Lemar","city":null,"category":"Realtor","details":null,"zip/postal":null,"last name":"Lemar","organization":"Lemar Realty","id":"a696hln13xb9","address":null,"phone 1":"(630) 553-2121 Work"},"type":"Feature","geometry":null},{"properties":{"name":"Tony","city":null,"category":"LO","details":null,"zip/postal":null,"last name":null,"organization":"Chase-Downers Grove","id":"a696hlq7txne","address":null,"phone 1":null},"type":"Feature","geometry":null},{"properties":{"name":"Adam","city":null,"category":"LO","details":null,"zip/postal":null,"last name":null,"organization":"Chase-Downers Grove","id":"a696hlf3so8t","address":null,"phone 1":null},"type":"Feature","geometry":null},{"properties":{"name":"Lou Arranda","city":"Addison","category":"Attorney","details":null,"zip/postal":null,"last name":"Arranda","organization":null,"id":"a696hljea4xd","address":null,"phone 1":"(630) 860-7800 Work"},"type":"Feature","geometry":null},{"properties":{"name":"Jennifer M Baratta","city":"Arlington Heights","category":"Attorney","details":null,"zip/postal":60004,"last name":"Baratta","organization":null,"id":"a696hlsxwh6p","address":"310 W Fremont St","phone 1":"(847) 217-0539 Work"},"type":"Feature","geometry":null},{"properties":{"name":"Ira A Moltz","city":"Arlington Heights","category":"Attorney","details":null,"zip/postal":60004,"last name":"Moltz","organization":null,"id":"a696hlnkbx2j","address":"1500 W Shure Dr #245","phone 1":"(847) 577-4242 Work"},"type":"Feature","geometry":null},{"properties":{"name":"Steven D Titiner","city":"Aurora","category":"Attorney","details":null,"zip/postal":60505,"last name":"Titiner","organization":null,"id":"a696hli9miot","address":"1700 N Farnsworth Ave","phone 1":"(630) 701-1200 Work"},"type":"Feature","geometry":null},{"properties":{"name":"Thomas U Hipp","city":"Aurora","category":"Attorney","details":null,"zip/postal":60506,"last name":"Hipp","organization":null,"id":"a696hli3qeoa","address":"1026 Prairie","phone 1":"(630) 844-1234 Work"},"type":"Feature","geometry":null},{"properties":{"name":"Mark E Heimsoth","city":"Aurora","category":"Attorney","details":null,"zip/postal":60506,"last name":"Heimsoth","organization":null,"id":"a696hlej9x1p","address":"563 W Galena Blvd","phone 1":"(630) 892-4349 Work"},"type":"Feature","geometry":null},{"properties":{"name":"Julie Bristow","city":"Barrington","category":"Realtor","details":null,"zip/postal":60010,"last name":"Bristow","organization":"Prudential-American Heritage","id":"a696hlqmghe9","address":"303 E Main St #205","phone 1":"(847) 364-6030 Work"},"type":"Feature","geometry":null},{"properties":{"name":"Kathy Loos","city":"Barrington","category":"Realtor","details":null,"zip/postal":60010,"last name":"Loos","organization":"Prudential-American Heritage","id":"a696hle4mmxa","address":"303 E Main St #205","phone 1":"(847) 364-6030 Work"},"type":"Feature","geometry":null},{"properties":{"name":"Elizabeth Splitt","city":"Barrington","category":"Realtor","details":null,"zip/postal":60010,"last name":"Splitt","organization":"Keller Williams Success Realty","id":"a696hljbief6","address":"600 Hart Rd","phone 1":"(847) 620-5880 Work"},"type":"Feature","geometry":null},{"properties":{"name":"Katy Mele","city":"Barrington","category":"Realtor","details":null,"zip/postal":null,"last name":"Mele","organization":"Prudential-American Heritage","id":"a696hln3g0zr","address":"303 E Main St","phone 1":"(847) 806-8440 Work"},"type":"Feature","geometry":null},{"properties":{"name":"Cassie Hillinger","city":"Barrington","category":"Broker/Owner","details":null,"zip/postal":60010,"last name":"Hillinger","organization":"Keller Williams Success Realty","id":"a696hlhyxtyw","address":"600 Hart Rd","phone 1":"(847) 381-9500 Work"},"type":"Feature","geometry":null},{"properties":{"name":"Natalie E Bravo","city":"Barrington","category":"Realtor","details":null,"zip/postal":60010,"last name":"Bravo","organization":"Keller Williams Success Realty","id":"a696hlfpo74s","address":"600 Hart Rd","phone 1":"(847) 502-6767 Mobile"},"type":"Feature","geometry":null},{"properties":{"name":"Patty Ancona","city":"Barrington","category":"Realtor","details":null,"zip/postal":60010,"last name":"Ancona","organization":"Keller Williams Success Realty","id":"a696hlh94uhq","address":"600 Hart Rd","phone 1":"(847) 620-5880 Work"},"type":"Feature","geometry":null},{"properties":{"name":"Pam Hillebrand","city":"Barrington","category":"Realtor","details":null,"zip/postal":60010,"last name":"Hillebrand","organization":"Keller Williams Success Realty","id":"a696hlgwo4zr","address":"600 Hart Rd","phone 1":"(847) 620-5880 Work"},"type":"Feature","geometry":null},{"properties":{"name":"Stephanie Seiwerth","city":"Barrington","category":"Realtor","details":null,"zip/postal":60010,"last name":"Seiwerth","organization":"Prudential-American Heritage","id":"a696hllkaebh","address":"303 E Main St #205","phone 1":"(847) 364-6030 Work"},"type":"Feature","geometry":null},{"properties":{"name":"Juul H Thompson","city":"Batavia","category":"Attorney","details":null,"zip/postal":60510,"last name":"Thompson","organization":null,"id":"a696hlipr2jx","address":"105 Hamlet Street","phone 1":"(630) 879-9255 Work"},"type":"Feature","geometry":null},{"properties":{"name":"Frank J Giampoli","city":"Batavia","category":"Attorney","details":null,"zip/postal":60510,"last name":"Giampoli","organization":null,"id":"a696hldqxysu","address":"428 S Batavia Ave","phone 1":"(630) 406-8640 Work"},"type":"Feature","geometry":null},{"properties":{"name":"Zeferino Martinez","city":"Berwyn","category":"Realtor","details":null,"zip/postal":60402,"last name":"Martinez","organization":"PAV Realtors","id":"a696hlgs35yy","address":"6308 W Cermak","phone 1":"(708) 795-7100 Work"},"type":"Feature","geometry":null},{"properties":{"name":"Juan L Chavez","city":"Bolingbrook","category":"LO","details":null,"zip/postal":60490,"last name":"Chavez","organization":"Chase-Downers Grove","id":"a696hlg4m5cb","address":"262 S Weber Rd","phone 1":"(630) 226-1713 Work"},"type":"Feature","geometry":null},{"properties":{"name":"Larry A Siegel","city":"Buffalo Grove","category":"Attorney","details":null,"zip/postal":60089,"last name":"Siegel","organization":null,"id":"a696hll9jsib","address":"750 W Lake Cook Rd #350","phone 1":"(847) 777-7281 Work"},"type":"Feature","geometry":null},{"properties":{"name":"Dominic J Condotti","city":"Chiacgo","category":"LO","details":null,"zip/postal":60646,"last name":"Condotti","organization":"Chase-Downers Grove","id":"a696hlkcfu62","address":"4145 W Peterson","phone 1":"(773) 283-4380 Work"},"type":"Feature","geometry":null},{"properties":{"name":"Jeff Kaplan","city":"Chicago","category":"Vendor","details":null,"zip/postal":60614,"last name":"Kaplan","organization":"Household Inspection TeamÂ®\n\nAdvanced Real Estate Learning Center, LLC","id":"a696hlfrqp5k","address":"2252 N. Elston","phone 1":"(773) 388-9000 Work"},"type":"Feature","geometry":null},{"properties":{"name":"Daniel C Kreuger","city":"Chicago","category":"LO","details":null,"zip/postal":60614,"last name":"Kreuger","organization":"Chase-Downers Grove","id":"a696hlhsmcox","address":"1700 N Wells","phone 1":"(312) 397-1831 Work"},"type":"Feature","geometry":null},{"properties":{"name":"Kathleen Graf","city":"Chicago","category":"Vendor","details":"3rd party negotiator","zip/postal":null,"last name":"Graf","organization":"Midwest Short Sales, Inc","id":"a696hlk8tt04","address":null,"phone 1":"(800) 675-9361 Work"},"type":"Feature","geometry":null},{"properties":{"name":"Scott Yu","city":"Chicago","category":"Attorney","details":null,"zip/postal":606062,"last name":"Yu","organization":null,"id":"a696hlgr40ob","address":"70 W Madison #400","phone 1":"(312) 558-7778 Work"},"type":"Feature","geometry":null},{"properties":{"name":"Mary Beth Durkin","city":"Chicago","category":"Vendor","details":"took over for Andrew Fiszer","zip/postal":60604,"last name":"Durkin","organization":"C.A.R.","id":"a696hlpgm96h","address":"200 S Michigan Ave #400","phone 1":"(312) 214-5530 Work"},"type":"Feature","geometry":null},{"properties":{"name":"Dennis W Thorn","city":"Chicago","category":"Attorney","details":null,"zip/postal":60601,"last name":"Thorn","organization":null,"id":"a696hlhkrpgh","address":"180 N Michigan Ave #2105","phone 1":"(312) 726-7000 Work"},"type":"Feature","geometry":null},{"properties":{"name":"James P Burke","city":"Chicago","category":"LO","details":"used to be at BofA","zip/postal":60657,"last name":"Burke","organization":"Chase-Downers Grove","id":"a696hlhap2h3","address":"3335 N Ashland","phone 1":"(773) 404-3755 Work"},"type":"Feature","geometry":null},{"properties":{"name":"Mayra Perez Rodriguez","city":"Chicago","category":"LO","details":null,"zip/postal":60659,"last name":"Rodriguez","organization":"Chase-Downers Grove","id":"a696hlkiccng","address":"6210 N Western","phone 1":null},"type":"Feature","geometry":null},{"properties":{"name":"Jwon Martin","city":"Chicago","category":"Realtor","details":null,"zip/postal":60653,"last name":"Martin","organization":"Keller Wiliams Chicago Consulting Group","id":"a696hlcxcbuk","address":"716 East 47th St","phone 1":"(312) 912-9910 Work"},"type":"Feature","geometry":null},{"properties":{"name":"Daniel A Bellino","city":"Crystal Lake","category":"Attorney","details":null,"zip/postal":60014,"last name":"Bellino","organization":null,"id":"a696hlrjjitn","address":"1456 Trailwood Dr","phone 1":"(847) 659-0221 Work"},"type":"Feature","geometry":null},{"properties":{"name":"Kathleen Hochstedt","city":"Downers Grove","category":"Realtor","details":null,"zip/postal":60516,"last name":"Hochstedt","organization":"Exit Real Estate Partners","id":"a696hldm5n5a","address":"6900 S Main St #206","phone 1":"(630) 967-0400 Work"},"type":"Feature","geometry":null},{"properties":{"name":"Sharon E Davis","city":"Downers Grove","category":"Processor","details":null,"zip/postal":60515,"last name":"Davis","organization":"Chase-Downers Grove","id":"a696hldmd5aw","address":"3050 Highland Pkwy","phone 1":"(630) 437-7586 Work"},"type":"Feature","geometry":null},{"properties":{"name":"Robert J Wood","city":"Downers Grove","category":"Processor","details":null,"zip/postal":60515,"last name":"Wood","organization":"Chase-Downers Grove","id":"a696hlrvcyvs","address":"3050 Highland Pkwy","phone 1":"(877) 392-3852 x3720684 Work"},"type":"Feature","geometry":null},{"properties":{"name":"Patrick A Tallon","city":"Downers Grove","category":"Attorney","details":null,"zip/postal":60515,"last name":"Tallon","organization":null,"id":"a696hlm7xnwk","address":"5338 Main St","phone 1":"(630) 910-5533 Work"},"type":"Feature","geometry":null},{"properties":{"name":"Heidi L Dowdell","city":"Downers Grove","category":"Processor","details":null,"zip/postal":60515,"last name":"Dowdell","organization":"Chase-Downers Grove","id":"a696hlefxgrp","address":"3050 Highland Pkwy","phone 1":null},"type":"Feature","geometry":null},{"properties":{"name":"Donna Glazer","city":"Downers Grove","category":"Realtor","details":"Shannon is her asst","zip/postal":60515,"last name":"Glazer","organization":"Re/Max Enterprises","id":"a696hljkj41q","address":"1219 Ogden Ave","phone 1":"(630) 971-7675 Work"},"type":"Feature","geometry":null},{"properties":{"name":"Tina M Fox","city":"Downers Grove","category":"Attorney","details":null,"zip/postal":60515,"last name":"Fox","organization":null,"id":"a696hlia7jl4","address":"5107A Washington St","phone 1":"(630) 963-5172 Work"},"type":"Feature","geometry":null},{"properties":{"name":"Susan L Burge","city":"Elgin","category":"LO","details":null,"zip/postal":60123,"last name":"Burge","organization":"Chase-Downers Grove","id":"a696hlfb7wtx","address":"1130 N McLean Blvd","phone 1":"(847) 888-6886 Work"},"type":"Feature","geometry":null},{"properties":{"name":"Ken McGaha","city":"Elgin","category":"LO","details":null,"zip/postal":60123,"last name":"McGaha","organization":"Associated Bank","id":"a696hlq2k42n","address":"2001 Larkin Ave","phone 1":"(847) 429-0133 Work"},"type":"Feature","geometry":null},{"properties":{"name":"Marguerite DeSio","city":"Elk Grove Village","category":"Realtor","details":null,"zip/postal":60007,"last name":"DeSio","organization":"Re/Max Destiny","id":"a696hlmxdiqu","address":"1080 Nerge Rd #101","phone 1":"(847) 352-5200 Work"},"type":"Feature","geometry":null},{"properties":{"name":"Vasanti Bhatt","city":"Elk Grove Village","category":"Realtor","details":null,"zip/postal":60007,"last name":"Bhatt","organization":"Re/Max Destiny","id":"a696hlgqha7k","address":"1080 Nerge Rd #101","phone 1":"(847) 598-0727 Work"},"type":"Feature","geometry":null},{"properties":{"name":"Patrcia McNally","city":"Elk Grove Village","category":"Realtor","details":null,"zip/postal":60007,"last name":"McNally","organization":"Re/Max Destiny","id":"a696hlfou25b","address":"1080 Nerge Rd #101","phone 1":"(847) 352-5200 Work"},"type":"Feature","geometry":null},{"properties":{"name":"Angie Palazzolo","city":"Elk Grove Village","category":"Realtor","details":null,"zip/postal":60007,"last name":"Palazzolo","organization":"Re/Max Destiny","id":"a696hlij4j5o","address":"1080 Nerge Rd #101","phone 1":"(847) 352-5200 Work"},"type":"Feature","geometry":null},{"properties":{"name":"Vibha Dani","city":"Elk Grove Village","category":"Realtor","details":null,"zip/postal":60007,"last name":"Dani","organization":"Re/Max Destiny","id":"a696hlkkvzhc","address":"1080 Nerge Rd #101","phone 1":"(847) 352-5200 Work"},"type":"Feature","geometry":null},{"properties":{"name":"Johnny Christensen","city":"Elk Grove Village","category":"Realtor","details":null,"zip/postal":60007,"last name":"Christensen","organization":"Village Realty","id":"a696hlq15q4c","address":"1325 S Arlington Hts Rd","phone 1":"(847) 956-0660 x23 Work"},"type":"Feature","geometry":null},{"properties":{"name":"Anna Giacone","city":"Elk Grove Village","category":"Realtor","details":null,"zip/postal":60007,"last name":"Giacone","organization":"Re/Max Destiny","id":"a696hlsauc04","address":"1080 Nerge Rd #101","phone 1":"(847) 352-5200 Work"},"type":"Feature","geometry":null},{"properties":{"name":"Kris Jarczyk","city":"Elk Grove Village","category":"Realtor","details":null,"zip/postal":60007,"last name":"Jarczyk","organization":"Re/Max Destiny","id":"a696hlnpxcvb","address":"1080 Nerge Rd #101","phone 1":"(847) 352-5200 Work"},"type":"Feature","geometry":null},{"properties":{"name":"David Lobraco","city":"Elk Grove Village","category":"Realtor","details":null,"zip/postal":60007,"last name":"Lobraco","organization":"Re/Max Destiny","id":"a696hlfqhkiz","address":"1080 Nerge Rd #101","phone 1":"(847) 352-5200 Work"},"type":"Feature","geometry":null},{"properties":{"name":"Basith Khan","city":"Elk Grove Village","category":"Realtor","details":null,"zip/postal":60007,"last name":"Khan","organization":"Re/Max Destiny","id":"a696hlg0s7ti","address":"1080 Nerge Rd #101","phone 1":"(847) 352-5200 Work"},"type":"Feature","geometry":null},{"properties":{"name":"Dina Florina","city":"Elk Grove Village","category":"Realtor","details":null,"zip/postal":60007,"last name":"Florina","organization":"Re/Max Destiny","id":"a696hlcu8zvy","address":"1080 Nerge Rd #101","phone 1":"(847) 352-5200 Work"},"type":"Feature","geometry":null},{"properties":{"name":"Janet Baier","city":"Elk Grove Village","category":"Realtor","details":null,"zip/postal":60007,"last name":"Baier","organization":"Re/Max Destiny","id":"a696hlmie73u","address":"1080 Nerge Rd #101","phone 1":"(847) 352-5200 Work"},"type":"Feature","geometry":null},{"properties":{"name":"Stella C Catalano","city":"Elk Grove Village","category":"Realtor","details":null,"zip/postal":60007,"last name":"Catalano","organization":"Re/Max Destiny","id":"a696hlfln694","address":"1080 Nerge Rd #101","phone 1":"(847) 352-5200 Work"},"type":"Feature","geometry":null},{"properties":{"name":"Charlotte McConnell","city":"Elk Grove Village","category":"Realtor","details":null,"zip/postal":60007,"last name":"McConnell","organization":"Re/Max Destiny","id":"a696hlnc8t1x","address":null,"phone 1":"(847) 352-5200 Work"},"type":"Feature","geometry":null},{"properties":{"name":"Kenny Edelson","city":"Elk Grove Village","category":"Realtor","details":null,"zip/postal":60007,"last name":"Edelson","organization":"Re/Max Destiny","id":"a696hlrmnf3k","address":"1080 Nerge Rd #101","phone 1":"(847) 352-5200 Work"},"type":"Feature","geometry":null},{"properties":{"name":"Danny Buske","city":"Elk Grove Village","category":"Realtor","details":null,"zip/postal":60007,"last name":"Buske","organization":"Re/Max Destiny","id":"a696hlrgm26n","address":"1080 Nerge Rd #101","phone 1":"(847) 352-5200 Work"},"type":"Feature","geometry":null},{"properties":{"name":"Maggie Borowick","city":"Elk Grove Village","category":"Realtor","details":null,"zip/postal":60007,"last name":"Borowick","organization":"Re/Max Destiny","id":"a696hllti0sk","address":"1080 Nerge Rd #101","phone 1":"(847) 352-5200 Work"},"type":"Feature","geometry":null},{"properties":{"name":"Elizabeth Bos","city":"Elk Grove Village","category":"Realtor","details":null,"zip/postal":60007,"last name":"Bos","organization":"Re/Max Destiny","id":"a696hlrzmcql","address":"1080 Nerge Rd #101","phone 1":"(847) 352-5200 Work"},"type":"Feature","geometry":null},{"properties":{"name":"William J Wylie","city":"Geneva","category":"Attorney","details":null,"zip/postal":60134,"last name":"Wylie","organization":null,"id":"a696hliyfxch","address":"2117 Fargo Blvd","phone 1":"(630) 708-6159 Work"},"type":"Feature","geometry":null},{"properties":{"name":"Diana Wood","city":"Huntley","category":"Realtor","details":null,"zip/postal":60142,"last name":"Wood","organization":"Re/Max Superior Properties","id":"a696hlnolqa6","address":"10880 Route 47","phone 1":"(847) 669-4600 Work"},"type":"Feature","geometry":null},{"properties":{"name":"Kathy Przybyla","city":"Huntley","category":"Realtor","details":null,"zip/postal":60142,"last name":"Przybyla","organization":"Re/Max Superior Properties","id":"a696hljui1pv","address":"10880 Route 47","phone 1":"(847) 669-4600 Work"},"type":"Feature","geometry":null},{"properties":{"name":"Tony Bellino","city":"Huntley","category":"Realtor","details":null,"zip/postal":60142,"last name":"Bellino","organization":"Re/Max Superior Properties","id":"a696hlqs0y2o","address":"10880 Route 47","phone 1":"(847) 343-2342 Mobile"},"type":"Feature","geometry":null},{"properties":{"name":"Robert DeFrank","city":"Huntley","category":"Realtor","details":null,"zip/postal":60142,"last name":"DeFrank","organization":"Re/Max Superior Properties","id":"a696hlj9a64b","address":"10880 Route 47","phone 1":"(847) 669-4600 Work"},"type":"Feature","geometry":null},{"properties":{"name":"Michael Racana","city":"Huntley","category":"Realtor","details":"Commercial ONLY!","zip/postal":60142,"last name":"Racana","organization":"Re/Max Superior Properties","id":"a696hlsxsncp","address":"10880 Route 47","phone 1":"(847) 669-4600 Work"},"type":"Feature","geometry":null},{"properties":{"name":"Mimi Geiger","city":"Huntley","category":"Realtor","details":null,"zip/postal":60142,"last name":"Geiger","organization":"Re/Max Superior Properties","id":"a696hlhzhv3p","address":"10880 Route 47","phone 1":"(847) 659-0209 Work"},"type":"Feature","geometry":null},{"properties":{"name":"Janet Lee","city":"Huntley","category":"Realtor","details":null,"zip/postal":60142,"last name":"Lee","organization":"Re/Max Superior Properties","id":"a696hlq45dwv","address":"10880 Route 47","phone 1":"(815) 455-5533 Work"},"type":"Feature","geometry":null},{"properties":{"name":"Carol Weingartner","city":"Huntley","category":"Realtor","details":null,"zip/postal":60142,"last name":"Weingartner","organization":"Re/Max Superior Properties","id":"a696hli9s7rh","address":"10880 Route 47","phone 1":"(847) 669-4600 Work"},"type":"Feature","geometry":null},{"properties":{"name":"Katie Spadaro","city":"Inverness","category":"Paralegal","details":null,"zip/postal":60067,"last name":"Spadaro","organization":"Angelina &amp; Herrick, P.C.","id":"a696hld0dlcw","address":"1626 W Colonial Pkwy","phone 1":"(847) 359-0010 Work"},"type":"Feature","geometry":null},{"properties":{"name":"Shari L Oosting","city":"Lake Zurich","category":"LO","details":null,"zip/postal":60047,"last name":"Oosting","organization":"Chase-Downers Grove","id":"a696hlhjsttl","address":"1 First Bank Plaza","phone 1":"(847) 726-4418 Work"},"type":"Feature","geometry":null},{"properties":{"name":"Dennis Toomey","city":"Lisle","category":"Realtor","details":null,"zip/postal":60532,"last name":"Toomey","organization":"Re/Max Action","id":"a696hlmno4t9","address":"1550 Maple Ave","phone 1":null},"type":"Feature","geometry":null},{"properties":{"name":"Charles E Lab","city":"Minooka","category":"Attorney","details":null,"zip/postal":60447,"last name":"Lab","organization":null,"id":"a696hlee3ai0","address":"26001 Canal Rd North","phone 1":"(815) 467-1015 Work"},"type":"Feature","geometry":null},{"properties":{"name":"Evelyn Santiago","city":"Montgomery","category":"Realtor","details":null,"zip/postal":60538,"last name":"Santiago","organization":null,"id":"a696hlm0ng3r","address":"1720 Douglas Rd","phone 1":"(630) 896-9999 Work"},"type":"Feature","geometry":null},{"properties":{"name":"Michelle T Chase","city":"Naperville","category":"Attorney","details":null,"zip/postal":60540,"last name":"Chase","organization":null,"id":"a696hlk1ro4g","address":"552 S Washinton St #117","phone 1":"(630) 995-3812 Work"},"type":"Feature","geometry":null},{"properties":{"name":"Joe P Falcone","city":"Naperville","category":"LO","details":null,"zip/postal":60563,"last name":"Falcone","organization":"Wells Fargo-Naperville","id":"a696hlnw5gy3","address":"115 E Ogden #121","phone 1":null},"type":"Feature","geometry":null},{"properties":{"name":"Patrick M Boyce","city":"Naperville","category":"LO","details":null,"zip/postal":60563,"last name":"Boyce","organization":"Wells Fargo-Naperville","id":"a696hllc48ds","address":"115 E Ogden #121","phone 1":"(630) 717-4871 Work"},"type":"Feature","geometry":null},{"properties":{"name":"Amir Mohabbat","city":"Oak Park","category":"Attorney","details":null,"zip/postal":60302,"last name":"Mohabbat","organization":null,"id":"a696hlcxt6zt","address":"248 S Marion St #104","phone 1":"(815) 501-1345 Work"},"type":"Feature","geometry":null},{"properties":{"name":"Peter Finch","city":"Oakbrook Terrace","category":"LO","details":null,"zip/postal":60181,"last name":"Finch","organization":"MetLife Home Loans","id":"a696hls6q287","address":"1 Mid America Plaza #130","phone 1":"(630) 965-0734 Work"},"type":"Feature","geometry":null},{"properties":{"name":"Ravi Malli","city":"Oakbrook Terrace","category":"LO","details":null,"zip/postal":60181,"last name":"Malli","organization":"MetLife Home Loans","id":"a696hlcyg7hs","address":"1 Mid America Plaza #130","phone 1":null},"type":"Feature","geometry":null},{"properties":{"name":"Joan P Vasquez","city":"Palatine","category":"Attorney","details":"she is atty that Chris Kravetz uses from Equity Realty used to use Christine Garner","zip/postal":60074,"last name":"Vasquez","organization":null,"id":"a696hlfvalmj","address":"20063 N Rand Rd","phone 1":"(847) 991-5800 Work"},"type":"Feature","geometry":null},{"properties":{"name":"Chris Kravetz","city":"Palatine","category":"Realtor","details":null,"zip/postal":60074,"last name":"Kravetz","organization":"EQUITY VENTRUES REALTY, LLC","id":"a696hllc9k23","address":"434 E Palatine Rd","phone 1":"(847) 991-2220 Work"},"type":"Feature","geometry":null},{"properties":{"name":"Rosalie Redmond","city":"Palatine","category":"Broker/Owner","details":null,"zip/postal":60074,"last name":"Redmond","organization":"EQUITY VENTRUES REALTY, LLC","id":"a696hlme9a12","address":"434 E Palatine Rd","phone 1":"(847) 991-2220 Work"},"type":"Feature","geometry":null},{"properties":{"name":"Beth A Kaminski","city":"Plainfield","category":"Attorney","details":null,"zip/postal":60544,"last name":"Kaminski","organization":null,"id":"a696hlglhb9i","address":"PO Box 1152","phone 1":"(815) 981-0095 Work"},"type":"Feature","geometry":null},{"properties":{"name":"Vicki Lendman","city":"Rolling Meadows","category":"Paralegal","details":null,"zip/postal":60008,"last name":"Lendman","organization":"Angelina &amp; Herrick, P.C.","id":"a696hlh6mzh5","address":"1895 C Rohlwing Rd","phone 1":"(847) 873-0590 Work"},"type":"Feature","geometry":null},{"properties":{"name":"Mark A Herrick","city":"Rolling Meadows","category":"Attorney","details":null,"zip/postal":60008,"last name":"Herrick","organization":"Angelina &amp; Herrick, P.C.","id":"a696hlde56fw","address":"1895 C Rohlwing Rd","phone 1":"(847) 873-0590 Work"},"type":"Feature","geometry":null},{"properties":{"name":"Mazyar M Hedayat","city":"Romeoville","category":"Attorney","details":null,"zip/postal":60446,"last name":"Hedayat","organization":null,"id":"a696hlq580gn","address":"1211 Lakeview Ct","phone 1":"(630) 378-2200 Work"},"type":"Feature","geometry":null},{"properties":{"name":"William L Hotopp","city":"Sandwich","category":"Attorney","details":null,"zip/postal":60548,"last name":"Hotopp","organization":null,"id":"a696hlem0app","address":"222 E Church St","phone 1":"(815) 786-7770 Work"},"type":"Feature","geometry":null},{"properties":{"name":"Carolyn Desantis","city":"Schaumburg","category":"Negotiator","details":null,"zip/postal":60173,"last name":"Desantis","organization":"Gardi &amp; Haught, Ltd.","id":"a696hlq3h65i","address":"939 N Plum Grove Rd #C","phone 1":"(847) 944-9400 Work"},"type":"Feature","geometry":null},{"properties":{"name":"Roberto Cortes","city":"Schaumburg","category":"LO","details":null,"zip/postal":60173,"last name":"Cortes","organization":"MetLife Home Loans","id":"a696hlrxv8zl","address":"1900 E Golf Rd #640","phone 1":null},"type":"Feature","geometry":null},{"properties":{"name":"Maureen Brand","city":"Schaumburg","category":"Realtor","details":null,"zip/postal":60195,"last name":"Brand","organization":"Re/Max Suburban","id":"a696hlp58o6k","address":"1310 N Roselle Rd","phone 1":"(800) 338-9332 Work"},"type":"Feature","geometry":null},{"properties":{"name":"Marvin Vestuto","city":"St Charles","category":"Realtor","details":null,"zip/postal":60175,"last name":"Vestuto","organization":"Vestuto Real Estate Corp","id":"a696hlsg4hbf","address":"2422 W Main St","phone 1":"(630) 377-2336 Work"},"type":"Feature","geometry":null},{"properties":{"name":"Bill Wylie","city":"Tampa","category":"Vendor","details":null,"zip/postal":33607,"last name":"Wylie","organization":null,"id":"a696hls4qlr5","address":"3001 N. Rocky Pt. Dr. E #200","phone 1":"(800) 914-5571 Work"},"type":"Feature","geometry":null},{"properties":{"name":"Michael J Long","city":"Westmont","category":"Realtor","details":null,"zip/postal":60559,"last name":"Long","organization":"Long Realty","id":"a696hlp8o962","address":"416 E Ogden","phone 1":"(630) 887-0222 Work"},"type":"Feature","geometry":null},{"properties":{"name":"Bob Long","city":"Westmont","category":"Realtor","details":null,"zip/postal":60559,"last name":"Long","organization":"Long Realty","id":"a696hlr3uuc6","address":"416 E Ogden","phone 1":"(630) 887-0222 Work"},"type":"Feature","geometry":null},{"properties":{"name":"Joe M Del Preto","city":"Westmont","category":"Attorney","details":"Lela is asst","zip/postal":60559,"last name":"Del Preto","organization":null,"id":"a696hljv08uq","address":"801 North Cass Avenue, Suite 201","phone 1":"(630) 654-3400 Work"},"type":"Feature","geometry":null},{"properties":{"name":"Michael A O'Brien","city":"Wheaton","category":"Attorney","details":null,"zip/postal":60187,"last name":"O'Brien","organization":null,"id":"a696hllo9v9v","address":"124A S County Farm Rd","phone 1":"(630) 871-9400 Work"},"type":"Feature","geometry":null},{"properties":{"name":"Ilyse Murman","city":"Wheaton","category":"Attorney","details":null,"zip/postal":60189,"last name":"Murman","organization":null,"id":"a696hlshgxn3","address":"25w772 Sunny Ridge Ct","phone 1":"(630) 752-0445 Work"},"type":"Feature","geometry":null},{"properties":{"name":"Martin Ptasinski","city":"Willow Springs","category":"Attorney","details":null,"zip/postal":60480,"last name":"Ptasinski","organization":null,"id":"a696hlt4b3qw","address":"8517 S Archer Ave","phone 1":"(708) 467-0000 Work"},"type":"Feature","geometry":null},{"properties":{"name":"Terry H Zimmer","city":"Wood Dale","category":"Attorney","details":null,"zip/postal":60191,"last name":"Zimmer","organization":null,"id":"a696hlcu111n","address":"386 W Irving Park Rd","phone 1":"(630) 595-8820 Work"},"type":"Feature","geometry":null},{"properties":{"name":"Dwayne Lopez","city":"Yorkville","category":"LO","details":null,"zip/postal":60560,"last name":"Lopez","organization":"Chase-Downers Grove","id":"a696hlp2vmbi","address":"110 E Veterans Parkway","phone 1":"(630) 553-2972 Work"},"type":"Feature","geometry":null},{"properties":{"name":"Richard C Claahsen","city":"Yorkville","category":"Attorney","details":null,"zip/postal":60560,"last name":"Claahsen","organization":null,"id":"a696hll50yhi","address":"215 Hillcrest Ave #C","phone 1":"(630) 553-1234 Work"},"type":"Feature","geometry":null},{"properties":{"name":"DJ Kramer","city":"Yorkville","category":"Attorney","details":null,"zip/postal":60560,"last name":"Kramer","organization":null,"id":"a696hlgl2sog","address":"1107A South Bridge St","phone 1":"(630) 553-9500 Work"},"type":"Feature","geometry":null},{"properties":{"name":"Kelly Kramer","city":"Yorkville","category":"Attorney","details":null,"zip/postal":60560,"last name":"Kramer","organization":null,"id":"a696hlnziqao","address":"1107A South Bridge St","phone 1":"(630) 553-9500 Work"},"type":"Feature","geometry":null},{"properties":{"name":"Jim Lemar","city":"Yorkville","category":"Realtor","details":null,"zip/postal":60560,"last name":"Lemar","organization":"Lemar Realty","id":"a696hlf15xce","address":"605 S Bridge St","phone 1":"(630) 553-2121 Work"},"type":"Feature","geometry":null}],"is_temporal":false,"author":{"url":"","metadata":"","contact_name":"","contact_address":"","source":"","contact_phone":""},"source":"","pagination":{"sort":null,"start":0,"total":107,"limit":1000000},"state":"complete","tags":"","published":"2014-08-13T06:54:46-04:00","id":106460}