{"type":"FeatureCollection","data_type":"Dataset","url_type":null,"permissions":[{"permissions":{"download":true,"view":true},"group_id":"everyone"}],"classification":null,"title":"test2","count":166,"stream_id":106787,"contributor":{"url":"http://geocommons.com/users/17832","name":"a.f.crossland@gmail.com"},"data_attributes":null,"calculation_params":null,"icon_link":null,"link":"http://geocommons.com/overlays/106787.json","extent":[-8.81206,36.2532,44.002,59.9132],"geometry_types":["point"],"unique_name":null,"name":"test2","feature_count":166,"description":"","next_feature":null,"is_raster":false,"short_classification":"Y","stats":{"frequency":{"max":88,"mean":7.4,"variance":75.5951219512194,"stdev":8.69454552873349,"min":1,"median":5}},"features":[{"properties":{"city":"Wein","from":"Antwerp","geo_score":0.929,"country":"Austria","id":"a69vdm4372um","geo_precision":"zip","frequency":8},"type":"Feature","geometry":{"type":"Point","coordinates":[16.4166667,48.25]}},{"properties":{"city":"Wels","from":"Antwerp","geo_score":1.0,"country":"Austria","id":"a69vdlswlhu0","geo_precision":"zip","frequency":5},"type":"Feature","geometry":{"type":"Point","coordinates":[14.0333333,48.1666667]}},{"properties":{"city":"Graz","from":"Antwerp","geo_score":1.0,"country":"Austria","id":"a69vdlq1oino","geo_precision":"zip","frequency":3},"type":"Feature","geometry":{"type":"Point","coordinates":[15.45,47.0666667]}},{"properties":{"city":"Athus","from":"Antwerp","geo_score":1.0,"country":"Belgium","id":"a69vdm41w2pd","geo_precision":"zip","frequency":26},"type":"Feature","geometry":{"type":"Point","coordinates":[5.8333333,49.5666667]}},{"properties":{"city":"Charleroi","from":"Antwerp","geo_score":1.0,"country":"Belgium","id":"a69vdltva20h","geo_precision":"zip","frequency":8},"type":"Feature","geometry":{"type":"Point","coordinates":[4.4333333,50.4166667]}},{"properties":{"city":"Kortrijk","from":"Antwerp","geo_score":1.0,"country":"Belgium","id":"a69vdltgd862","geo_precision":"zip","frequency":10},"type":"Feature","geometry":{"type":"Point","coordinates":[3.26487064361572,50.8280325513329]}},{"properties":{"city":"Moucron Lille","from":"Antwerp","geo_score":0.917,"country":"Belgium","id":"a69vdm2p8w5x","geo_precision":"zip","frequency":6},"type":"Feature","geometry":{"type":"Point","coordinates":[4.8333333,51.2333333]}},{"properties":{"city":"Zeebrugge","from":"Antwerp","geo_score":0.905,"country":"Belgium","id":"a69vdm4clf5z","geo_precision":"zip","frequency":88},"type":"Feature","geometry":{"type":"Point","coordinates":[4.25,50.8]}},{"properties":{"city":"Sofia","from":"Antwerp","geo_score":1.0,"country":"Bulgaria","id":"a69vdlvwnj76","geo_precision":"zip","frequency":3},"type":"Feature","geometry":{"type":"Point","coordinates":[23.324146270752,42.6975135281805]}},{"properties":{"city":"Ruse","from":"Antwerp","geo_score":1.0,"country":"Bulgaria","id":"a69vdm1bd0r0","geo_precision":"zip","frequency":3},"type":"Feature","geometry":{"type":"Point","coordinates":[25.9708333,43.8563889]}},{"properties":{"city":"Stara Zagora","from":"Antwerp","geo_score":1.0,"country":"Bulgaria","id":"a69vdm1yuwxe","geo_precision":"zip","frequency":3},"type":"Feature","geometry":{"type":"Point","coordinates":[25.6419444,42.4327778]}},{"properties":{"city":"Lovosice","from":"Antwerp","geo_score":1.0,"country":"Czech Republic","id":"a69vdlspnnlf","geo_precision":"zip","frequency":5},"type":"Feature","geometry":{"type":"Point","coordinates":[14.0510300896998,50.5150382427267]}},{"properties":{"city":"Strasbourg","from":"Antwerp","geo_score":1.0,"country":"France","id":"a69vdm2zviva","geo_precision":"zip","frequency":8},"type":"Feature","geometry":{"type":"Point","coordinates":[7.75,48.5833333]}},{"properties":{"city":"Paris","from":"Antwerp","geo_score":1.0,"country":"France","id":"a69vdm3eyxh5","geo_precision":"zip","frequency":5},"type":"Feature","geometry":{"type":"Point","coordinates":[2.3488,48.85341]}},{"properties":{"city":"Le Boulou","from":"Antwerp","geo_score":0.893,"country":"France","id":"a69vdlslaeft","geo_precision":"zip","frequency":5},"type":"Feature","geometry":{"type":"Point","coordinates":[5.6833333,45.7666667]}},{"properties":{"city":"Ottmarsheim","from":"Antwerp","geo_score":1.0,"country":"France","id":"a69vdlxlaq5n","geo_precision":"zip","frequency":4},"type":"Feature","geometry":{"type":"Point","coordinates":[7.5,47.7833333]}},{"properties":{"city":"Dourges","from":"Antwerp","geo_score":1.0,"country":"France","id":"a69vdlpdpb8i","geo_precision":"zip","frequency":6},"type":"Feature","geometry":{"type":"Point","coordinates":[2.9833333,50.4333333]}},{"properties":{"city":"Miramas","from":"Antwerp","geo_score":1.0,"country":"France","id":"a69vdlwfmoe1","geo_precision":"zip","frequency":5},"type":"Feature","geometry":{"type":"Point","coordinates":[5.0,43.5833333]}},{"properties":{"city":"Lyon","from":"Antwerp","geo_score":1.0,"country":"France","id":"a69vdls578w7","geo_precision":"zip","frequency":5},"type":"Feature","geometry":{"type":"Point","coordinates":[4.85,45.75]}},{"properties":{"city":"Marseille","from":"Antwerp","geo_score":1.0,"country":"France","id":"a69vdloeinna","geo_precision":"zip","frequency":5},"type":"Feature","geometry":{"type":"Point","coordinates":[5.4,43.3]}},{"properties":{"city":"Perpignan-Roussilon","from":"Antwerp","geo_score":0.929,"country":"France","id":"a69vdlomyzy5","geo_precision":"zip","frequency":6},"type":"Feature","geometry":{"type":"Point","coordinates":[2.89541244506836,42.6976396895556]}},{"properties":{"city":"Duisburg","from":"Antwerp","geo_score":0.945,"country":"Germany","id":"a69vdm1js092","geo_precision":"zip","frequency":8},"type":"Feature","geometry":{"type":"Point","coordinates":[6.77435,51.4293833333333]}},{"properties":{"city":"Neuss","from":"Antwerp","geo_score":1.0,"country":"Germany","id":"a69vdm1w8480","geo_precision":"zip","frequency":null},"type":"Feature","geometry":{"type":"Point","coordinates":[6.6833333,51.2]}},{"properties":{"city":"Frankfurt","from":"Antwerp","geo_score":0.943,"country":"Germany","id":"a69vdludnvmn","geo_precision":"zip","frequency":2},"type":"Feature","geometry":{"type":"Point","coordinates":[8.6833333,50.1166667]}},{"properties":{"city":"Germersheim","from":"Antwerp","geo_score":1.0,"country":"Germany","id":"a69vdlsb7jr3","geo_precision":"zip","frequency":3},"type":"Feature","geometry":{"type":"Point","coordinates":[8.3638889,49.2230556]}},{"properties":{"city":"Regensburg","from":"Antwerp","geo_score":1.0,"country":"Germany","id":"a69vdm36wmaa","geo_precision":"zip","frequency":2},"type":"Feature","geometry":{"type":"Point","coordinates":[12.0955556,49.015]}},{"properties":{"city":"Ludwigshafen","from":"Antwerp","geo_score":0.929,"country":"Germany","id":"a69vdm1m1z5a","geo_precision":"zip","frequency":5},"type":"Feature","geometry":{"type":"Point","coordinates":[8.437625,49.4827875]}},{"properties":{"city":"Schwarzheide","from":"Antwerp","geo_score":0.921,"country":"Germany","id":"a69vdlxutxnc","geo_precision":"zip","frequency":5},"type":"Feature","geometry":{"type":"Point","coordinates":[8.4327778,48.0169444]}},{"properties":{"city":"Hamburg","from":"Antwerp","geo_score":1.0,"country":"Germany","id":"a69vdlvtcjl7","geo_precision":"zip","frequency":5},"type":"Feature","geometry":{"type":"Point","coordinates":[10.0,53.55]}},{"properties":{"city":"Marl","from":"Antwerp","geo_score":1.0,"country":"Germany","id":"a69vdlyk3l5q","geo_precision":"zip","frequency":4},"type":"Feature","geometry":{"type":"Point","coordinates":[7.0833333,51.65]}},{"properties":{"city":"Munchen","from":"Antwerp","geo_score":0.982,"country":"Germany","id":"a69vdm3asffg","geo_precision":"zip","frequency":5},"type":"Feature","geometry":{"type":"Point","coordinates":[11.5754914283752,48.1374325498109]}},{"properties":{"city":"Lubeck","from":"Antwerp","geo_score":1.0,"country":"Germany","id":"a69vdlq8comf","geo_precision":"zip","frequency":5},"type":"Feature","geometry":{"type":"Point","coordinates":[10.6872940063477,53.8689270437681]}},{"properties":{"city":"Leipzig","from":"Antwerp","geo_score":1.0,"country":"Germany","id":"a69vdlw70ayx","geo_precision":"zip","frequency":5},"type":"Feature","geometry":{"type":"Point","coordinates":[12.371292,51.33962]}},{"properties":{"city":"Thessaloniki","from":"Antwerp","geo_score":1.0,"country":"Greece","id":"a69vdls9uuas","geo_precision":"zip","frequency":3},"type":"Feature","geometry":{"type":"Point","coordinates":[22.9438889,40.6402778]}},{"properties":{"city":"Inoi","from":"Antwerp","geo_score":0.914,"country":"Greece","id":"a69vdm157byt","geo_precision":"zip","frequency":3},"type":"Feature","geometry":{"type":"Point","coordinates":[22.0,38.0]}},{"properties":{"city":"Athens","from":"Antwerp","geo_score":1.0,"country":"Greece","id":"a69vdls6k74o","geo_precision":"zip","frequency":3},"type":"Feature","geometry":{"type":"Point","coordinates":[23.7333333,37.9833333]}},{"properties":{"city":"Sopron","from":"Antwerp","geo_score":1.0,"country":"Hungary","id":"a69vdlsb6y2g","geo_precision":"zip","frequency":3},"type":"Feature","geometry":{"type":"Point","coordinates":[16.6,47.6833333]}},{"properties":{"city":"Budaors","from":"Antwerp","geo_score":1.0,"country":"Hungary","id":"a69vdlwz72pl","geo_precision":"zip","frequency":3},"type":"Feature","geometry":{"type":"Point","coordinates":[18.9584541320801,47.4618126522258]}},{"properties":{"city":"Budapest","from":"Antwerp","geo_score":0.933,"country":"Hungary","id":"a69vdlzkpzm3","geo_precision":"zip","frequency":8},"type":"Feature","geometry":{"type":"Point","coordinates":[19.0833333,47.5]}},{"properties":{"city":"Busto Arsizio","from":"Antwerp","geo_score":1.0,"country":"Italy","id":"a69vdly1rbwt","geo_precision":"zip","frequency":22},"type":"Feature","geometry":{"type":"Point","coordinates":[8.84914398193359,45.6112756155815]}},{"properties":{"city":"Verona","from":"Antwerp","geo_score":1.0,"country":"Italy","id":"a69vdlvmkmkk","geo_precision":"zip","frequency":3},"type":"Feature","geometry":{"type":"Point","coordinates":[10.997788,45.434186]}},{"properties":{"city":"Bari","from":"Antwerp","geo_score":1.0,"country":"Italy","id":"a69vdlznsr8x","geo_precision":"zip","frequency":10},"type":"Feature","geometry":{"type":"Point","coordinates":[16.851185,41.117734]}},{"properties":{"city":"Bologna","from":"Antwerp","geo_score":1.0,"country":"Italy","id":"a69vdlxarfjl","geo_precision":"zip","frequency":4},"type":"Feature","geometry":{"type":"Point","coordinates":[11.3387489318848,44.4938114812334]}},{"properties":{"city":"Napoli","from":"Antwerp","geo_score":1.0,"country":"Italy","id":"a69vdlt270m8","geo_precision":"zip","frequency":8},"type":"Feature","geometry":{"type":"Point","coordinates":[14.25,40.8333333]}},{"properties":{"city":"Roma","from":"Antwerp","geo_score":1.0,"country":"Italy","id":"a69vdm03iuzw","geo_precision":"zip","frequency":12},"type":"Feature","geometry":{"type":"Point","coordinates":[12.4833333,41.9]}},{"properties":{"city":"Milano","from":"Antwerp","geo_score":1.0,"country":"Italy","id":"a69vdlsv0d1o","geo_precision":"zip","frequency":4},"type":"Feature","geometry":{"type":"Point","coordinates":[9.1895055770874,45.4642693810258]}},{"properties":{"city":"Novara","from":"Antwerp","geo_score":1.0,"country":"Italy","id":"a69vdm060joh","geo_precision":"zip","frequency":9},"type":"Feature","geometry":{"type":"Point","coordinates":[8.616835,45.440565]}},{"properties":{"city":"Torino","from":"Antwerp","geo_score":1.0,"country":"Italy","id":"a69vdm1f0tfs","geo_precision":"zip","frequency":4},"type":"Feature","geometry":{"type":"Point","coordinates":[7.68682479858398,45.0704898496472]}},{"properties":{"city":"Bettembourg","from":"Antwerp","geo_score":1.0,"country":"Luxembourg","id":"a69vdlojec18","geo_precision":"zip","frequency":5},"type":"Feature","geometry":{"type":"Point","coordinates":[6.1027778,49.5186111]}},{"properties":{"city":"Skopje","from":"Antwerp","geo_score":1.0,"country":"Macedonia","id":"a69vdlu9t57e","geo_precision":"zip","frequency":8},"type":"Feature","geometry":{"type":"Point","coordinates":[21.4333333,42.0]}},{"properties":{"city":"Rotterdam","from":"Antwerp","geo_score":0.857,"country":"Nethrlands","id":"a69vdm3brr4o","geo_precision":"zip","frequency":6},"type":"Feature","geometry":{"type":"Point","coordinates":[4.479167,51.9225]}},{"properties":{"city":"Kobylnica","from":"Antwerp","geo_score":0.968,"country":"Poland","id":"a69vdlx8l9yw","geo_precision":"zip","frequency":5},"type":"Feature","geometry":{"type":"Point","coordinates":[20.2333333,52.4666667]}},{"properties":{"city":"Slawkow","from":"Antwerp","geo_score":0.878,"country":"Poland","id":"a69vdm2rzgr1","geo_precision":"zip","frequency":5},"type":"Feature","geometry":{"type":"Point","coordinates":[22.5,51.85]}},{"properties":{"city":"Warszawa","from":"Antwerp","geo_score":0.952,"country":"Poland","id":"a69vdlwz8itu","geo_precision":"zip","frequency":9},"type":"Feature","geometry":{"type":"Point","coordinates":[21.1,50.9666667]}},{"properties":{"city":"Gadki","from":"Antwerp","geo_score":0.929,"country":"Poland","id":"a69vdm3ozvys","geo_precision":"zip","frequency":4},"type":"Feature","geometry":{"type":"Point","coordinates":[22.1666667,50.25]}},{"properties":{"city":"Gliwice","from":"Antwerp","geo_score":1.0,"country":"Poland","id":"a69vdlsina9z","geo_precision":"zip","frequency":4},"type":"Feature","geometry":{"type":"Point","coordinates":[18.6666667,50.2833333]}},{"properties":{"city":"Bucuresti","from":"Antwerp","geo_score":1.0,"country":"Romania","id":"a69vdlt2n0i2","geo_precision":"zip","frequency":3},"type":"Feature","geometry":{"type":"Point","coordinates":[26.1,44.4333333]}},{"properties":{"city":"Bradu de Sus","from":"Antwerp","geo_score":0.914,"country":"Romania","id":"a69vdlr57wk9","geo_precision":"zip","frequency":3},"type":"Feature","geometry":{"type":"Point","coordinates":[22.7833333,46.1333333]}},{"properties":{"city":"Curtici","from":"Antwerp","geo_score":1.0,"country":"Romania","id":"a69vdlx4f882","geo_precision":"zip","frequency":3},"type":"Feature","geometry":{"type":"Point","coordinates":[21.3,46.35]}},{"properties":{"city":"Oradea","from":"Antwerp","geo_score":1.0,"country":"Romania","id":"a69vdm04fnks","geo_precision":"zip","frequency":3},"type":"Feature","geometry":{"type":"Point","coordinates":[21.9333333,47.0666667]}},{"properties":{"city":"Ljubljana","from":"Antwerp","geo_score":1.0,"country":"Slovenia","id":"a69vdm0h2i3o","geo_precision":"zip","frequency":5},"type":"Feature","geometry":{"type":"Point","coordinates":[14.5144444,46.0552778]}},{"properties":{"city":"Barcelona","from":"Antwerp","geo_score":1.0,"country":"Spain","id":"a69vdlozrorn","geo_precision":"zip","frequency":2},"type":"Feature","geometry":{"type":"Point","coordinates":[2.12803760957452,41.3994235991885]}},{"properties":{"city":"Madrid","from":"Antwerp","geo_score":1.0,"country":"Spain","id":"a69vdm32znu7","geo_precision":"zip","frequency":3},"type":"Feature","geometry":{"type":"Point","coordinates":[-3.68274615575072,40.4893538421231]}},{"properties":{"city":"Silla","from":"Antwerp","geo_score":0.914,"country":"Spain","id":"a69vdm2f6zq0","geo_precision":"zip","frequency":5},"type":"Feature","geometry":{"type":"Point","coordinates":[1.1520019667851,41.0787016290615]}},{"properties":{"city":"Zaragoza","from":"Antwerp","geo_score":1.0,"country":"Spain","id":"a69vdlqtme54","geo_precision":"zip","frequency":5},"type":"Feature","geometry":{"type":"Point","coordinates":[-0.877339839935303,41.6560643302881]}},{"properties":{"city":"Cordoba","from":"Antwerp","geo_score":1.0,"country":"Spain","id":"a69vdlygxcuk","geo_precision":"zip","frequency":5},"type":"Feature","geometry":{"type":"Point","coordinates":[-4.70867385475098,37.8550964348286]}},{"properties":{"city":"Sevilla","from":"Antwerp","geo_score":1.0,"country":"Spain","id":"a69vdlvw4zj6","geo_precision":"zip","frequency":5},"type":"Feature","geometry":{"type":"Point","coordinates":[-5.95917769065896,37.3914105564361]}},{"properties":{"city":"Murcia","from":"Antwerp","geo_score":1.0,"country":"Spain","id":"a69vdlqbymjk","geo_precision":"zip","frequency":5},"type":"Feature","geometry":{"type":"Point","coordinates":[-1.16363536604525,37.9439891615427]}},{"properties":{"city":"San Roque","from":"Antwerp","geo_score":1.0,"country":"Spain","id":"a69vdlwz0ubl","geo_precision":"zip","frequency":5},"type":"Feature","geometry":{"type":"Point","coordinates":[-5.32915524643734,36.2531945725746]}},{"properties":{"city":"Vigo","from":"Antwerp","geo_score":1.0,"country":"Spain","id":"a69vdlzcpbge","geo_precision":"zip","frequency":5},"type":"Feature","geometry":{"type":"Point","coordinates":[-8.81205840046395,42.2154941475053]}},{"properties":{"city":"Vittoria","from":"Antwerp","geo_score":0.911,"country":"Spain","id":"a69vdlt2j88r","geo_precision":"zip","frequency":3},"type":"Feature","geometry":{"type":"Point","coordinates":[-8.4666667,42.7833333]}},{"properties":{"city":"Tarragona","from":"Antwerp","geo_score":1.0,"country":"Spain","id":"a69vdlqkz9hj","geo_precision":"zip","frequency":5},"type":"Feature","geometry":{"type":"Point","coordinates":[1.26639124811565,41.1238556361651]}},{"properties":{"city":"Gradollers","from":"Antwerp","geo_score":0.896,"country":"Spain","id":"a69vdlwtbbfe","geo_precision":"zip","frequency":5},"type":"Feature","geometry":{"type":"Point","coordinates":[-6.0420254771363,37.2444111631078]}},{"properties":{"city":"Basel","from":"Antwerp","geo_score":1.0,"country":"Switzerland","id":"a69vdloo0az8","geo_precision":"zip","frequency":13},"type":"Feature","geometry":{"type":"Point","coordinates":[7.6,47.5666667]}},{"properties":{"city":"Aarau","from":"Antwerp","geo_score":1.0,"country":"Switzerland","id":"a69vdlp5qbdy","geo_precision":"zip","frequency":8},"type":"Feature","geometry":{"type":"Point","coordinates":[8.04422378540039,47.3925390249618]}},{"properties":{"city":"Istanbul","from":"Antwerp","geo_score":1.0,"country":"Turkey","id":"a69vdlv7ztz9","geo_precision":"zip","frequency":8},"type":"Feature","geometry":{"type":"Point","coordinates":[28.9833068847656,41.0350820029997]}},{"properties":{"city":"Krems","from":"Rotterdam","geo_score":0.918,"country":"Austria","id":"a69vdluz9air","geo_precision":"zip","frequency":1},"type":"Feature","geometry":{"type":"Point","coordinates":[13.6333333,47.5833333]}},{"properties":{"city":"Wels","from":"Rotterdam","geo_score":1.0,"country":"Austria","id":"a69vdm33qysj","geo_precision":"zip","frequency":29},"type":"Feature","geometry":{"type":"Point","coordinates":[14.0333333,48.1666667]}},{"properties":{"city":"Wien","from":"Rotterdam","geo_score":1.0,"country":"Austria","id":"a69vdlusr87y","geo_precision":"zip","frequency":19},"type":"Feature","geometry":{"type":"Point","coordinates":[16.4166667,48.25]}},{"properties":{"city":"Antwerp","from":"Rotterdam","geo_score":1.0,"country":"Belgium","id":"a69vdlz39n2e","geo_precision":"zip","frequency":6},"type":"Feature","geometry":{"type":"Point","coordinates":[4.4166667,51.2166667]}},{"properties":{"city":"Athus","from":"Rotterdam","geo_score":1.0,"country":"Belgium","id":"a69vdm2axs4y","geo_precision":"zip","frequency":6},"type":"Feature","geometry":{"type":"Point","coordinates":[5.8333333,49.5666667]}},{"properties":{"city":"Kortrijk","from":"Rotterdam","geo_score":1.0,"country":"Belgium","id":"a69vdm4a9pgl","geo_precision":"zip","frequency":6},"type":"Feature","geometry":{"type":"Point","coordinates":[3.26487064361572,50.8280325513329]}},{"properties":{"city":"Lovosice","from":"Rotterdam","geo_score":1.0,"country":"Czech Republic","id":"a69vdlqelos1","geo_precision":"zip","frequency":12},"type":"Feature","geometry":{"type":"Point","coordinates":[14.0510300896998,50.5150382427267]}},{"properties":{"city":"Melnik","from":"Rotterdam","geo_score":1.0,"country":"Czech Republic","id":"a69vdm2yjx6e","geo_precision":"zip","frequency":4},"type":"Feature","geometry":{"type":"Point","coordinates":[14.4741074259756,50.3504968399971]}},{"properties":{"city":"Praha","from":"Rotterdam","geo_score":1.0,"country":"Czech Republic","id":"a69vdltokbli","geo_precision":"zip","frequency":12},"type":"Feature","geometry":{"type":"Point","coordinates":[14.4241322001241,50.0878367932108]}},{"properties":{"city":"Prerov","from":"Rotterdam","geo_score":1.0,"country":"Czech Republic","id":"a69vdlpn1o0r","geo_precision":"zip","frequency":12},"type":"Feature","geometry":{"type":"Point","coordinates":[17.4509019922212,49.4551090356932]}},{"properties":{"city":"Zlin","from":"Rotterdam","geo_score":1.0,"country":"Czech Republic","id":"a69vdm28pgka","geo_precision":"zip","frequency":3},"type":"Feature","geometry":{"type":"Point","coordinates":[17.6663338474031,49.2266542140525]}},{"properties":{"city":"Bayonna","from":"Rotterdam","geo_score":0.98,"country":"France","id":"a69vdlpr73pn","geo_precision":"zip","frequency":4},"type":"Feature","geometry":{"type":"Point","coordinates":[-1.4833333,43.4833333]}},{"properties":{"city":"Dourges","from":"Rotterdam","geo_score":1.0,"country":"France","id":"a69vdlu42njl","geo_precision":"zip","frequency":6},"type":"Feature","geometry":{"type":"Point","coordinates":[2.9833333,50.4333333]}},{"properties":{"city":"Le Havre","from":"Rotterdam","geo_score":1.0,"country":"France","id":"a69vdlovtryk","geo_precision":"zip","frequency":2},"type":"Feature","geometry":{"type":"Point","coordinates":[0.107674598693848,49.4938035056669]}},{"properties":{"city":"Lyon","from":"Rotterdam","geo_score":1.0,"country":"France","id":"a69vdlxeu0xv","geo_precision":"zip","frequency":11},"type":"Feature","geometry":{"type":"Point","coordinates":[4.85,45.75]}},{"properties":{"city":"Marseille","from":"Rotterdam","geo_score":1.0,"country":"France","id":"a69vdm29lqeh","geo_precision":"zip","frequency":3},"type":"Feature","geometry":{"type":"Point","coordinates":[5.4,43.3]}},{"properties":{"city":"Miramas","from":"Rotterdam","geo_score":1.0,"country":"France","id":"a69vdm0ejyjc","geo_precision":"zip","frequency":4},"type":"Feature","geometry":{"type":"Point","coordinates":[5.0,43.5833333]}},{"properties":{"city":"Ottmarsheim","from":"Rotterdam","geo_score":1.0,"country":"France","id":"a69vdlv55gei","geo_precision":"zip","frequency":4},"type":"Feature","geometry":{"type":"Point","coordinates":[7.5,47.7833333]}},{"properties":{"city":"Paris","from":"Rotterdam","geo_score":1.0,"country":"France","id":"a69vdlswn8lc","geo_precision":"zip","frequency":6},"type":"Feature","geometry":{"type":"Point","coordinates":[2.3488,48.85341]}},{"properties":{"city":"Strasbourg","from":"Rotterdam","geo_score":1.0,"country":"France","id":"a69vdm41r1im","geo_precision":"zip","frequency":6},"type":"Feature","geometry":{"type":"Point","coordinates":[7.75,48.5833333]}},{"properties":{"city":"Andernach","from":"Rotterdam","geo_score":1.0,"country":"Germany","id":"a69vdlpcp59l","geo_precision":"zip","frequency":2},"type":"Feature","geometry":{"type":"Point","coordinates":[7.4,50.4333333]}},{"properties":{"city":"Basel","from":"Rotterdam","geo_score":0.971,"country":"Germany","id":"a69vdm0y47ww","geo_precision":"zip","frequency":12},"type":"Feature","geometry":{"type":"Point","coordinates":[7.95,53.0]}},{"properties":{"city":"Buna","from":"Rotterdam","geo_score":0.929,"country":"Germany","id":"a69vdlxpt9gq","geo_precision":"zip","frequency":4},"type":"Feature","geometry":{"type":"Point","coordinates":[7.1,50.7333333]}},{"properties":{"city":"Dortmund","from":"Rotterdam","geo_score":0.945,"country":"Germany","id":"a69vdlsx6pcw","geo_precision":"zip","frequency":5},"type":"Feature","geometry":{"type":"Point","coordinates":[7.47695,51.5125]}},{"properties":{"city":"Duisburg","from":"Rotterdam","geo_score":0.945,"country":"Germany","id":"a69vdlxzmmks","geo_precision":"zip","frequency":38},"type":"Feature","geometry":{"type":"Point","coordinates":[6.77435,51.4293833333333]}},{"properties":{"city":"Gablingen","from":"Rotterdam","geo_score":1.0,"country":"Germany","id":"a69vdlqh6sg7","geo_precision":"zip","frequency":1},"type":"Feature","geometry":{"type":"Point","coordinates":[10.8167,48.45]}},{"properties":{"city":"Germersheim","from":"Rotterdam","geo_score":1.0,"country":"Germany","id":"a69vdlux81xa","geo_precision":"zip","frequency":6},"type":"Feature","geometry":{"type":"Point","coordinates":[8.3638889,49.2230556]}},{"properties":{"city":"Hamburg","from":"Rotterdam","geo_score":1.0,"country":"Germany","id":"a69vdm3biitf","geo_precision":"zip","frequency":13},"type":"Feature","geometry":{"type":"Point","coordinates":[10.0,53.55]}},{"properties":{"city":"Keulen","from":"Rotterdam","geo_score":0.929,"country":"Germany","id":"a69vdltc3yxx","geo_precision":"zip","frequency":5},"type":"Feature","geometry":{"type":"Point","coordinates":[6.95,50.9333333]}},{"properties":{"city":"Leipzig","from":"Rotterdam","geo_score":1.0,"country":"Germany","id":"a69vdlvazhwk","geo_precision":"zip","frequency":12},"type":"Feature","geometry":{"type":"Point","coordinates":[12.371292,51.33962]}},{"properties":{"city":"Ludwigshafen","from":"Rotterdam","geo_score":0.929,"country":"Germany","id":"a69vdlqnrfdj","geo_precision":"zip","frequency":27},"type":"Feature","geometry":{"type":"Point","coordinates":[8.437625,49.4827875]}},{"properties":{"city":"Mannheim","from":"Rotterdam","geo_score":1.0,"country":"Germany","id":"a69vdlwkfrg0","geo_precision":"zip","frequency":6},"type":"Feature","geometry":{"type":"Point","coordinates":[8.4647222,49.4883333]}},{"properties":{"city":"Mainz","from":"Rotterdam","geo_score":1.0,"country":"Germany","id":"a69vdlxl8tbl","geo_precision":"zip","frequency":1},"type":"Feature","geometry":{"type":"Point","coordinates":[8.2711111,50.0]}},{"properties":{"city":"Munchen","from":"Rotterdam","geo_score":0.982,"country":"Germany","id":"a69vdlwo1cgs","geo_precision":"zip","frequency":12},"type":"Feature","geometry":{"type":"Point","coordinates":[11.5754914283752,48.1374325498109]}},{"properties":{"city":"Neuss","from":"Rotterdam","geo_score":1.0,"country":"Germany","id":"a69vdlzwsgia","geo_precision":"zip","frequency":11},"type":"Feature","geometry":{"type":"Point","coordinates":[6.6833333,51.2]}},{"properties":{"city":"Schkopau","from":"Rotterdam","geo_score":1.0,"country":"Germany","id":"a69vdludlyxb","geo_precision":"zip","frequency":2},"type":"Feature","geometry":{"type":"Point","coordinates":[12.046292592625,51.4]}},{"properties":{"city":"Schwarzheide","from":"Rotterdam","geo_score":0.921,"country":"Germany","id":"a69vdlq3gtbi","geo_precision":"zip","frequency":4},"type":"Feature","geometry":{"type":"Point","coordinates":[8.4327778,48.0169444]}},{"properties":{"city":"Singen","from":"Rotterdam","geo_score":1.0,"country":"Germany","id":"a69vdlw1cilx","geo_precision":"zip","frequency":5},"type":"Feature","geometry":{"type":"Point","coordinates":[8.84030342102051,47.7593488844417]}},{"properties":{"city":"Stuttgart","from":"Rotterdam","geo_score":0.949,"country":"Germany","id":"a69vdlop7c4e","geo_precision":"zip","frequency":2},"type":"Feature","geometry":{"type":"Point","coordinates":[9.1775,48.776667]}},{"properties":{"city":"Budapest","from":"Rotterdam","geo_score":0.933,"country":"Hungary","id":"a69vdlzwxau3","geo_precision":"zip","frequency":21},"type":"Feature","geometry":{"type":"Point","coordinates":[19.0833333,47.5]}},{"properties":{"city":"Gyor","from":"Rotterdam","geo_score":1.0,"country":"Hungary","id":"a69vdlonv3ks","geo_precision":"zip","frequency":2},"type":"Feature","geometry":{"type":"Point","coordinates":[17.6351165771484,47.6833322473398]}},{"properties":{"city":"Sopron","from":"Rotterdam","geo_score":1.0,"country":"Hungary","id":"a69vdlzey97i","geo_precision":"zip","frequency":4},"type":"Feature","geometry":{"type":"Point","coordinates":[16.6,47.6833333]}},{"properties":{"city":"Bari","from":"Rotterdam","geo_score":1.0,"country":"Italy","id":"a69vdlte7aug","geo_precision":"zip","frequency":8},"type":"Feature","geometry":{"type":"Point","coordinates":[16.851185,41.117734]}},{"properties":{"city":"Bologna","from":"Rotterdam","geo_score":1.0,"country":"Italy","id":"a69vdlvbrt81","geo_precision":"zip","frequency":7},"type":"Feature","geometry":{"type":"Point","coordinates":[11.3387489318848,44.4938114812334]}},{"properties":{"city":"Busto Arsizio","from":"Rotterdam","geo_score":1.0,"country":"Italy","id":"a69vdm2j9ng3","geo_precision":"zip","frequency":23},"type":"Feature","geometry":{"type":"Point","coordinates":[8.84914398193359,45.6112756155815]}},{"properties":{"city":"Catania Bicocca","from":"Rotterdam","geo_score":0.929,"country":"Italy","id":"a69vdlw3k706","geo_precision":"zip","frequency":6},"type":"Feature","geometry":{"type":"Point","coordinates":[15.0871896743774,37.5021339578821]}},{"properties":{"city":"Fiorenzula","from":"Rotterdam","geo_score":0.946,"country":"Italy","id":"a69vdm29mj65","geo_precision":"zip","frequency":4},"type":"Feature","geometry":{"type":"Point","coordinates":[9.908973,44.922064]}},{"properties":{"city":"Fronsinone","from":"Rotterdam","geo_score":0.914,"country":"Italy","id":"a69vdm28jxzq","geo_precision":"zip","frequency":6},"type":"Feature","geometry":{"type":"Point","coordinates":[12.5047222,45.9091667]}},{"properties":{"city":"Marcianise Maddaloni","from":"Rotterdam","geo_score":0.932,"country":"Italy","id":"a69vdloyidij","geo_precision":"zip","frequency":5},"type":"Feature","geometry":{"type":"Point","coordinates":[14.300929,41.032214]}},{"properties":{"city":"Melzo","from":"Rotterdam","geo_score":0.939,"country":"Italy","id":"a69vdlqtc9ps","geo_precision":"zip","frequency":18},"type":"Feature","geometry":{"type":"Point","coordinates":[15.238283,38.221166]}},{"properties":{"city":"Milano","from":"Rotterdam","geo_score":1.0,"country":"Italy","id":"a69vdm486i2c","geo_precision":"zip","frequency":6},"type":"Feature","geometry":{"type":"Point","coordinates":[9.1895055770874,45.4642693810258]}},{"properties":{"city":"Mortara","from":"Rotterdam","geo_score":1.0,"country":"Italy","id":"a69vdlysgogf","geo_precision":"zip","frequency":10},"type":"Feature","geometry":{"type":"Point","coordinates":[8.735541,45.247261]}},{"properties":{"city":"Nola","from":"Rotterdam","geo_score":1.0,"country":"Italy","id":"a69vdltdj83k","geo_precision":"zip","frequency":8},"type":"Feature","geometry":{"type":"Point","coordinates":[14.532936,40.922013]}},{"properties":{"city":"Novara","from":"Rotterdam","geo_score":1.0,"country":"Italy","id":"a69vdm0bwe6h","geo_precision":"zip","frequency":31},"type":"Feature","geometry":{"type":"Point","coordinates":[8.616835,45.440565]}},{"properties":{"city":"Padova","from":"Rotterdam","geo_score":1.0,"country":"Italy","id":"a69vdltns6kd","geo_precision":"zip","frequency":4},"type":"Feature","geometry":{"type":"Point","coordinates":[11.881808,45.415194]}},{"properties":{"city":"Pomezia","from":"Rotterdam","geo_score":1.0,"country":"Italy","id":"a69vdly5i9ll","geo_precision":"zip","frequency":13},"type":"Feature","geometry":{"type":"Point","coordinates":[12.505181,41.667013]}},{"properties":{"city":"Verona","from":"Rotterdam","geo_score":1.0,"country":"Italy","id":"a69vdlvem1uz","geo_precision":"zip","frequency":23},"type":"Feature","geometry":{"type":"Point","coordinates":[10.997788,45.434186]}},{"properties":{"city":"Coevorden","from":"Rotterdam","geo_score":1.0,"country":"Netherlands","id":"a69vdlokqfxu","geo_precision":"zip","frequency":4},"type":"Feature","geometry":{"type":"Point","coordinates":[6.741667,52.6625]}},{"properties":{"city":"eindhoven","from":"Rotterdam","geo_score":1.0,"country":"Netherlands","id":"a69vdm0f926g","geo_precision":"zip","frequency":5},"type":"Feature","geometry":{"type":"Point","coordinates":[5.477778,51.440833]}},{"properties":{"city":"Groningen","from":"Rotterdam","geo_score":1.0,"country":"Netherlands","id":"a69vdlqspcp2","geo_precision":"zip","frequency":8},"type":"Feature","geometry":{"type":"Point","coordinates":[6.566667,53.219167]}},{"properties":{"city":"Leeuwarden","from":"Rotterdam","geo_score":1.0,"country":"Netherlands","id":"a69vdludxg9k","geo_precision":"zip","frequency":5},"type":"Feature","geometry":{"type":"Point","coordinates":[5.7833333,53.2]}},{"properties":{"city":"Stein","from":"Rotterdam","geo_score":1.0,"country":"Netherlands","id":"a69vdm0svtau","geo_precision":"zip","frequency":4},"type":"Feature","geometry":{"type":"Point","coordinates":[5.766667,50.969167]}},{"properties":{"city":"Tilburg","from":"Rotterdam","geo_score":1.0,"country":"Netherlands","id":"a69vdlxggsve","geo_precision":"zip","frequency":6},"type":"Feature","geometry":{"type":"Point","coordinates":[5.09130477905273,51.555514883268]}},{"properties":{"city":"Venlo","from":"Rotterdam","geo_score":1.0,"country":"Netherlands","id":"a69vdlt5l0bt","geo_precision":"zip","frequency":22},"type":"Feature","geometry":{"type":"Point","coordinates":[6.168056,51.37]}},{"properties":{"city":"Oslo","from":"Rotterdam","geo_score":1.0,"country":"Norway","id":"a69vdlxm1ppc","geo_precision":"zip","frequency":2},"type":"Feature","geometry":{"type":"Point","coordinates":[10.7389211654663,59.9132457671591]}},{"properties":{"city":"Brzeg Dolny","from":"Rotterdam","geo_score":0.929,"country":"Poland","id":"a69vdlqn6ubu","geo_precision":"zip","frequency":3},"type":"Feature","geometry":{"type":"Point","coordinates":[17.4666667,50.85]}},{"properties":{"city":"Gadki","from":"Rotterdam","geo_score":0.929,"country":"Poland","id":"a69vdlzyncp1","geo_precision":"zip","frequency":8},"type":"Feature","geometry":{"type":"Point","coordinates":[22.1666667,50.25]}},{"properties":{"city":"Gliwice Kontenerowa","from":"Rotterdam","geo_score":0.913,"country":"Poland","id":"a69vdlvp4y47","geo_precision":"zip","frequency":8},"type":"Feature","geometry":{"type":"Point","coordinates":[18.6666667,50.2833333]}},{"properties":{"city":"Katy Wroclawskie","from":"Rotterdam","geo_score":0.886,"country":"Poland","id":"a69vdlx2kf0o","geo_precision":"zip","frequency":5},"type":"Feature","geometry":{"type":"Point","coordinates":[19.2333333,49.8833333]}},{"properties":{"city":"Kobylnica","from":"Rotterdam","geo_score":0.968,"country":"Poland","id":"a69vdm0lzf5c","geo_precision":"zip","frequency":5},"type":"Feature","geometry":{"type":"Point","coordinates":[20.2333333,52.4666667]}},{"properties":{"city":"Kutno","from":"Rotterdam","geo_score":0.881,"country":"Poland","id":"a69vdlu7kcx0","geo_precision":"zip","frequency":3},"type":"Feature","geometry":{"type":"Point","coordinates":[18.55,54.5]}},{"properties":{"city":"Slawkow","from":"Rotterdam","geo_score":0.878,"country":"Poland","id":"a69vdlt0pd85","geo_precision":"zip","frequency":8},"type":"Feature","geometry":{"type":"Point","coordinates":[22.5,51.85]}},{"properties":{"city":"Warsazawa","from":"Rotterdam","geo_score":0.937,"country":"Poland","id":"a69vdlowl82f","geo_precision":"zip","frequency":15},"type":"Feature","geometry":{"type":"Point","coordinates":[21.1,50.9666667]}},{"properties":{"city":"Bradu De Sus","from":"Rotterdam","geo_score":0.914,"country":"Romania","id":"a69vdlw8sx7t","geo_precision":"zip","frequency":5},"type":"Feature","geometry":{"type":"Point","coordinates":[22.7833333,46.1333333]}},{"properties":{"city":"Bucuresti Noi","from":"Rotterdam","geo_score":0.964,"country":"Romania","id":"a69vdm4ky1li","geo_precision":"zip","frequency":4},"type":"Feature","geometry":{"type":"Point","coordinates":[26.1,44.4333333]}},{"properties":{"city":"Curtici","from":"Rotterdam","geo_score":1.0,"country":"Romania","id":"a69vdltvmfxc","geo_precision":"zip","frequency":5},"type":"Feature","geometry":{"type":"Point","coordinates":[21.3,46.35]}},{"properties":{"city":"Oradea","from":"Rotterdam","geo_score":1.0,"country":"Romania","id":"a69vdlv7ssca","geo_precision":"zip","frequency":4},"type":"Feature","geometry":{"type":"Point","coordinates":[21.9333333,47.0666667]}},{"properties":{"city":"Nizhny Novgorod","from":"Rotterdam","geo_score":0.99,"country":"Russia","id":"a69vdlu8gi7g","geo_precision":"zip","frequency":1},"type":"Feature","geometry":{"type":"Point","coordinates":[44.002046585083,56.3286733202717]}},{"properties":{"city":"Moscow","from":"Rotterdam","geo_score":1.0,"country":"Russia","id":"a69vdlv5uxq1","geo_precision":"zip","frequency":1},"type":"Feature","geometry":{"type":"Point","coordinates":[37.6155556,55.7522222]}},{"properties":{"city":"Dunajska Streda","from":"Rotterdam","geo_score":1.0,"country":"Slovak Republic","id":"a69vdlu2uotf","geo_precision":"zip","frequency":3},"type":"Feature","geometry":{"type":"Point","coordinates":[17.6121139526367,47.9926788654112]}},{"properties":{"city":"Kosice","from":"Rotterdam","geo_score":1.0,"country":"Slovak Republic","id":"a69vdm49g6v8","geo_precision":"zip","frequency":3},"type":"Feature","geometry":{"type":"Point","coordinates":[21.25,48.7166667]}},{"properties":{"city":"Sladkovicovo","from":"Rotterdam","geo_score":1.0,"country":"Slovak Republic","id":"a69vdm3bwfit","geo_precision":"zip","frequency":1},"type":"Feature","geometry":{"type":"Point","coordinates":[17.65,48.2]}},{"properties":{"city":"Koper","from":"Rotterdam","geo_score":1.0,"country":"Slovenia","id":"a69vdlp23q2r","geo_precision":"zip","frequency":3},"type":"Feature","geometry":{"type":"Point","coordinates":[13.7294444,45.5469444]}},{"properties":{"city":"Ljubljana","from":"Rotterdam","geo_score":1.0,"country":"Slovenia","id":"a69vdlzwd3v2","geo_precision":"zip","frequency":12},"type":"Feature","geometry":{"type":"Point","coordinates":[14.5144444,46.0552778]}},{"properties":{"city":"Granollers","from":"Rotterdam","geo_score":1.0,"country":"Spain","id":"a69vdloqf4yh","geo_precision":"zip","frequency":8},"type":"Feature","geometry":{"type":"Point","coordinates":[2.28481292724609,41.6074849195481]}},{"properties":{"city":"Irun","from":"Rotterdam","geo_score":1.0,"country":"Spain","id":"a69vdlwxhkgp","geo_precision":"zip","frequency":4},"type":"Feature","geometry":{"type":"Point","coordinates":[-1.77372589148235,43.318640571622]}},{"properties":{"city":"Madrid","from":"Rotterdam","geo_score":1.0,"country":"Spain","id":"a69vdloptnm5","geo_precision":"zip","frequency":7},"type":"Feature","geometry":{"type":"Point","coordinates":[-3.68274615575072,40.4893538421231]}},{"properties":{"city":"Basel Wolf","from":"Rotterdam","geo_score":0.937,"country":"Switzerland","id":"a69vdm26y93n","geo_precision":"zip","frequency":9},"type":"Feature","geometry":{"type":"Point","coordinates":[7.6,47.5666667]}},{"properties":{"city":"Niederglatt","from":"Rotterdam","geo_score":1.0,"country":"Switzerland","id":"a69vdls0a5yj","geo_precision":"zip","frequency":4},"type":"Feature","geometry":{"type":"Point","coordinates":[8.49986664206128,47.4906607057557]}},{"properties":{"city":"Istanbul","from":"Rotterdam","geo_score":1.0,"country":"Turkey","id":"a69vdlvsubr0","geo_precision":"zip","frequency":3},"type":"Feature","geometry":{"type":"Point","coordinates":[28.9833068847656,41.0350820029997]}}],"is_temporal":false,"author":{"url":"","metadata":"","contact_name":"","contact_address":"","source":"","contact_phone":""},"source":"","pagination":{"sort":null,"start":0,"total":166,"limit":1000000},"state":"complete","tags":"","published":"2014-08-13T07:32:58-04:00","id":106787}