{"type":"FeatureCollection","data_type":"Dataset","url_type":null,"permissions":[{"permissions":{"download":true,"view":true},"group_id":"everyone"}],"classification":null,"title":"Antwerp Connections by City","count":76,"stream_id":106788,"contributor":{"url":"http://geocommons.com/users/17832","name":"a.f.crossland@gmail.com"},"data_attributes":null,"calculation_params":null,"icon_link":null,"link":"http://geocommons.com/overlays/106788.json","extent":[-8.81206,36.2532,28.9833,53.8689],"geometry_types":["point"],"unique_name":null,"name":"Antwerp Connections by City","feature_count":76,"description":"","next_feature":null,"is_raster":false,"short_classification":"Y","stats":{"frequency":{"max":88,"mean":6.8,"variance":104.837837837838,"stdev":10.2390350052062,"min":2,"median":5}},"features":[{"properties":{"city":"Wein","from":"Antwerp","geo_score":0.929,"country":"Austria","id":"a65u8o5yc1c8","geo_precision":"zip","frequency":8},"type":"Feature","geometry":{"type":"Point","coordinates":[16.4166667,48.25]}},{"properties":{"city":"Wels","from":"Antwerp","geo_score":1.0,"country":"Austria","id":"a65u8o8pqqy9","geo_precision":"zip","frequency":5},"type":"Feature","geometry":{"type":"Point","coordinates":[14.0333333,48.1666667]}},{"properties":{"city":"Graz","from":"Antwerp","geo_score":1.0,"country":"Austria","id":"a65u8nvdnrin","geo_precision":"zip","frequency":3},"type":"Feature","geometry":{"type":"Point","coordinates":[15.45,47.0666667]}},{"properties":{"city":"Athus","from":"Antwerp","geo_score":1.0,"country":"Belgium","id":"a65u8obaxmwy","geo_precision":"zip","frequency":26},"type":"Feature","geometry":{"type":"Point","coordinates":[5.8333333,49.5666667]}},{"properties":{"city":"Charleroi","from":"Antwerp","geo_score":1.0,"country":"Belgium","id":"a65u8o2yl176","geo_precision":"zip","frequency":8},"type":"Feature","geometry":{"type":"Point","coordinates":[4.4333333,50.4166667]}},{"properties":{"city":"Kortrijk","from":"Antwerp","geo_score":1.0,"country":"Belgium","id":"a65u8o3la2m9","geo_precision":"zip","frequency":10},"type":"Feature","geometry":{"type":"Point","coordinates":[3.26487064361572,50.8280325513329]}},{"properties":{"city":"Moucron Lille","from":"Antwerp","geo_score":0.917,"country":"Belgium","id":"a65u8o7gc0ks","geo_precision":"zip","frequency":6},"type":"Feature","geometry":{"type":"Point","coordinates":[4.8333333,51.2333333]}},{"properties":{"city":"Zeebrugge","from":"Antwerp","geo_score":0.905,"country":"Belgium","id":"a65u8o7twxqj","geo_precision":"zip","frequency":88},"type":"Feature","geometry":{"type":"Point","coordinates":[4.25,50.8]}},{"properties":{"city":"Sofia","from":"Antwerp","geo_score":1.0,"country":"Bulgaria","id":"a65u8oalwb3p","geo_precision":"zip","frequency":3},"type":"Feature","geometry":{"type":"Point","coordinates":[23.324146270752,42.6975135281805]}},{"properties":{"city":"Ruse","from":"Antwerp","geo_score":1.0,"country":"Bulgaria","id":"a65u8o5nmzii","geo_precision":"zip","frequency":3},"type":"Feature","geometry":{"type":"Point","coordinates":[25.9708333,43.8563889]}},{"properties":{"city":"Stara Zagora","from":"Antwerp","geo_score":1.0,"country":"Bulgaria","id":"a65u8o6llyhd","geo_precision":"zip","frequency":3},"type":"Feature","geometry":{"type":"Point","coordinates":[25.6419444,42.4327778]}},{"properties":{"city":"Lovosice","from":"Antwerp","geo_score":1.0,"country":"Czech Republic","id":"a65u8oaioejj","geo_precision":"zip","frequency":5},"type":"Feature","geometry":{"type":"Point","coordinates":[14.0510300896998,50.5150382427267]}},{"properties":{"city":"Strasbourg","from":"Antwerp","geo_score":1.0,"country":"France","id":"a65u8o0lkznx","geo_precision":"zip","frequency":8},"type":"Feature","geometry":{"type":"Point","coordinates":[7.75,48.5833333]}},{"properties":{"city":"Paris","from":"Antwerp","geo_score":1.0,"country":"France","id":"a65u8nz6c48o","geo_precision":"zip","frequency":5},"type":"Feature","geometry":{"type":"Point","coordinates":[2.3488,48.85341]}},{"properties":{"city":"Le Boulou","from":"Antwerp","geo_score":0.893,"country":"France","id":"a65u8nw66cq1","geo_precision":"zip","frequency":5},"type":"Feature","geometry":{"type":"Point","coordinates":[5.6833333,45.7666667]}},{"properties":{"city":"Ottmarsheim","from":"Antwerp","geo_score":1.0,"country":"France","id":"a65u8o1e9h23","geo_precision":"zip","frequency":4},"type":"Feature","geometry":{"type":"Point","coordinates":[7.5,47.7833333]}},{"properties":{"city":"Dourges","from":"Antwerp","geo_score":1.0,"country":"France","id":"a65u8nxxw5ua","geo_precision":"zip","frequency":6},"type":"Feature","geometry":{"type":"Point","coordinates":[2.9833333,50.4333333]}},{"properties":{"city":"Miramas","from":"Antwerp","geo_score":1.0,"country":"France","id":"a65u8obai78g","geo_precision":"zip","frequency":5},"type":"Feature","geometry":{"type":"Point","coordinates":[5.0,43.5833333]}},{"properties":{"city":"Lyon","from":"Antwerp","geo_score":1.0,"country":"France","id":"a65u8o6ho71r","geo_precision":"zip","frequency":5},"type":"Feature","geometry":{"type":"Point","coordinates":[4.85,45.75]}},{"properties":{"city":"Marseille","from":"Antwerp","geo_score":1.0,"country":"France","id":"a65u8ob472xv","geo_precision":"zip","frequency":5},"type":"Feature","geometry":{"type":"Point","coordinates":[5.4,43.3]}},{"properties":{"city":"Perpignan-Roussilon","from":"Antwerp","geo_score":0.929,"country":"France","id":"a65u8o3g9k0z","geo_precision":"zip","frequency":6},"type":"Feature","geometry":{"type":"Point","coordinates":[2.89541244506836,42.6976396895556]}},{"properties":{"city":"Duisburg","from":"Antwerp","geo_score":0.945,"country":"Germany","id":"a65u8ob3zwgi","geo_precision":"zip","frequency":8},"type":"Feature","geometry":{"type":"Point","coordinates":[6.77435,51.4293833333333]}},{"properties":{"city":"Neuss","from":"Antwerp","geo_score":1.0,"country":"Germany","id":"a65u8o1vo3yy","geo_precision":"zip","frequency":null},"type":"Feature","geometry":{"type":"Point","coordinates":[6.6833333,51.2]}},{"properties":{"city":"Frankfurt","from":"Antwerp","geo_score":0.943,"country":"Germany","id":"a65u8nybozvh","geo_precision":"zip","frequency":2},"type":"Feature","geometry":{"type":"Point","coordinates":[8.6833333,50.1166667]}},{"properties":{"city":"Germersheim","from":"Antwerp","geo_score":1.0,"country":"Germany","id":"a65u8nxb1f7q","geo_precision":"zip","frequency":3},"type":"Feature","geometry":{"type":"Point","coordinates":[8.3638889,49.2230556]}},{"properties":{"city":"Regensburg","from":"Antwerp","geo_score":1.0,"country":"Germany","id":"a65u8o357pr1","geo_precision":"zip","frequency":2},"type":"Feature","geometry":{"type":"Point","coordinates":[12.0955556,49.015]}},{"properties":{"city":"Ludwigshafen","from":"Antwerp","geo_score":0.929,"country":"Germany","id":"a65u8nxfklgw","geo_precision":"zip","frequency":5},"type":"Feature","geometry":{"type":"Point","coordinates":[8.437625,49.4827875]}},{"properties":{"city":"Schwarzheide","from":"Antwerp","geo_score":0.921,"country":"Germany","id":"a65u8nyicyqj","geo_precision":"zip","frequency":5},"type":"Feature","geometry":{"type":"Point","coordinates":[8.4327778,48.0169444]}},{"properties":{"city":"Hamburg","from":"Antwerp","geo_score":1.0,"country":"Germany","id":"a65u8nyanz0m","geo_precision":"zip","frequency":5},"type":"Feature","geometry":{"type":"Point","coordinates":[10.0,53.55]}},{"properties":{"city":"Marl","from":"Antwerp","geo_score":1.0,"country":"Germany","id":"a65u8o1gepa3","geo_precision":"zip","frequency":4},"type":"Feature","geometry":{"type":"Point","coordinates":[7.0833333,51.65]}},{"properties":{"city":"Munchen","from":"Antwerp","geo_score":0.982,"country":"Germany","id":"a65u8o4yvunj","geo_precision":"zip","frequency":5},"type":"Feature","geometry":{"type":"Point","coordinates":[11.5754914283752,48.1374325498109]}},{"properties":{"city":"Lubeck","from":"Antwerp","geo_score":1.0,"country":"Germany","id":"a65u8o44d9qc","geo_precision":"zip","frequency":5},"type":"Feature","geometry":{"type":"Point","coordinates":[10.6872940063477,53.8689270437681]}},{"properties":{"city":"Leipzig","from":"Antwerp","geo_score":1.0,"country":"Germany","id":"a65u8nxlib0a","geo_precision":"zip","frequency":5},"type":"Feature","geometry":{"type":"Point","coordinates":[12.371292,51.33962]}},{"properties":{"city":"Thessaloniki","from":"Antwerp","geo_score":1.0,"country":"Greece","id":"a65u8o8vj5sd","geo_precision":"zip","frequency":3},"type":"Feature","geometry":{"type":"Point","coordinates":[22.9438889,40.6402778]}},{"properties":{"city":"Inoi","from":"Antwerp","geo_score":0.914,"country":"Greece","id":"a65u8o119ryp","geo_precision":"zip","frequency":3},"type":"Feature","geometry":{"type":"Point","coordinates":[22.0,38.0]}},{"properties":{"city":"Athens","from":"Antwerp","geo_score":1.0,"country":"Greece","id":"a65u8nvv3ryx","geo_precision":"zip","frequency":3},"type":"Feature","geometry":{"type":"Point","coordinates":[23.7333333,37.9833333]}},{"properties":{"city":"Sopron","from":"Antwerp","geo_score":1.0,"country":"Hungary","id":"a65u8o9685u5","geo_precision":"zip","frequency":3},"type":"Feature","geometry":{"type":"Point","coordinates":[16.6,47.6833333]}},{"properties":{"city":"Budaors","from":"Antwerp","geo_score":1.0,"country":"Hungary","id":"a65u8o6fbh7q","geo_precision":"zip","frequency":3},"type":"Feature","geometry":{"type":"Point","coordinates":[18.9584541320801,47.4618126522258]}},{"properties":{"city":"Budapest","from":"Antwerp","geo_score":0.933,"country":"Hungary","id":"a65u8o6hksha","geo_precision":"zip","frequency":8},"type":"Feature","geometry":{"type":"Point","coordinates":[19.0833333,47.5]}},{"properties":{"city":"Busto Arsizio","from":"Antwerp","geo_score":1.0,"country":"Italy","id":"a65u8nyqh5a7","geo_precision":"zip","frequency":22},"type":"Feature","geometry":{"type":"Point","coordinates":[8.84914398193359,45.6112756155815]}},{"properties":{"city":"Verona","from":"Antwerp","geo_score":1.0,"country":"Italy","id":"a65u8o32wksw","geo_precision":"zip","frequency":3},"type":"Feature","geometry":{"type":"Point","coordinates":[10.997788,45.434186]}},{"properties":{"city":"Bari","from":"Antwerp","geo_score":1.0,"country":"Italy","id":"a65u8o94nakn","geo_precision":"zip","frequency":10},"type":"Feature","geometry":{"type":"Point","coordinates":[16.851185,41.117734]}},{"properties":{"city":"Bologna","from":"Antwerp","geo_score":1.0,"country":"Italy","id":"a65u8o8yn0jf","geo_precision":"zip","frequency":4},"type":"Feature","geometry":{"type":"Point","coordinates":[11.3387489318848,44.4938114812334]}},{"properties":{"city":"Napoli","from":"Antwerp","geo_score":1.0,"country":"Italy","id":"a65u8o57n5p5","geo_precision":"zip","frequency":8},"type":"Feature","geometry":{"type":"Point","coordinates":[14.25,40.8333333]}},{"properties":{"city":"Roma","from":"Antwerp","geo_score":1.0,"country":"Italy","id":"a65u8o9p5kh4","geo_precision":"zip","frequency":12},"type":"Feature","geometry":{"type":"Point","coordinates":[12.4833333,41.9]}},{"properties":{"city":"Milano","from":"Antwerp","geo_score":1.0,"country":"Italy","id":"a65u8o4eo19g","geo_precision":"zip","frequency":4},"type":"Feature","geometry":{"type":"Point","coordinates":[9.1895055770874,45.4642693810258]}},{"properties":{"city":"Novara","from":"Antwerp","geo_score":1.0,"country":"Italy","id":"a65u8nyxk4t5","geo_precision":"zip","frequency":9},"type":"Feature","geometry":{"type":"Point","coordinates":[8.616835,45.440565]}},{"properties":{"city":"Torino","from":"Antwerp","geo_score":1.0,"country":"Italy","id":"a65u8o4l7v9c","geo_precision":"zip","frequency":4},"type":"Feature","geometry":{"type":"Point","coordinates":[7.68682479858398,45.0704898496472]}},{"properties":{"city":"Bettembourg","from":"Antwerp","geo_score":1.0,"country":"Luxembourg","id":"a65u8o44ejme","geo_precision":"zip","frequency":5},"type":"Feature","geometry":{"type":"Point","coordinates":[6.1027778,49.5186111]}},{"properties":{"city":"Skopje","from":"Antwerp","geo_score":1.0,"country":"Macedonia","id":"a65u8o5i6ikj","geo_precision":"zip","frequency":8},"type":"Feature","geometry":{"type":"Point","coordinates":[21.4333333,42.0]}},{"properties":{"city":"Rotterdam","from":"Antwerp","geo_score":0.857,"country":"Nethrlands","id":"a65u8o0xbzce","geo_precision":"zip","frequency":6},"type":"Feature","geometry":{"type":"Point","coordinates":[4.479167,51.9225]}},{"properties":{"city":"Kobylnica","from":"Antwerp","geo_score":0.968,"country":"Poland","id":"a65u8nysvgzq","geo_precision":"zip","frequency":5},"type":"Feature","geometry":{"type":"Point","coordinates":[20.2333333,52.4666667]}},{"properties":{"city":"Slawkow","from":"Antwerp","geo_score":0.878,"country":"Poland","id":"a65u8nwel8jw","geo_precision":"zip","frequency":5},"type":"Feature","geometry":{"type":"Point","coordinates":[22.5,51.85]}},{"properties":{"city":"Warszawa","from":"Antwerp","geo_score":0.952,"country":"Poland","id":"a65u8o4r7psu","geo_precision":"zip","frequency":9},"type":"Feature","geometry":{"type":"Point","coordinates":[21.1,50.9666667]}},{"properties":{"city":"Gadki","from":"Antwerp","geo_score":0.929,"country":"Poland","id":"a65u8ny615gx","geo_precision":"zip","frequency":4},"type":"Feature","geometry":{"type":"Point","coordinates":[22.1666667,50.25]}},{"properties":{"city":"Gliwice","from":"Antwerp","geo_score":1.0,"country":"Poland","id":"a65u8nzdcm5j","geo_precision":"zip","frequency":4},"type":"Feature","geometry":{"type":"Point","coordinates":[18.6666667,50.2833333]}},{"properties":{"city":"Bucuresti","from":"Antwerp","geo_score":1.0,"country":"Romania","id":"a65u8o8bhktk","geo_precision":"zip","frequency":3},"type":"Feature","geometry":{"type":"Point","coordinates":[26.1,44.4333333]}},{"properties":{"city":"Bradu de Sus","from":"Antwerp","geo_score":0.914,"country":"Romania","id":"a65u8o2x9raa","geo_precision":"zip","frequency":3},"type":"Feature","geometry":{"type":"Point","coordinates":[22.7833333,46.1333333]}},{"properties":{"city":"Curtici","from":"Antwerp","geo_score":1.0,"country":"Romania","id":"a65u8o3x7m0w","geo_precision":"zip","frequency":3},"type":"Feature","geometry":{"type":"Point","coordinates":[21.3,46.35]}},{"properties":{"city":"Oradea","from":"Antwerp","geo_score":1.0,"country":"Romania","id":"a65u8o7crlqf","geo_precision":"zip","frequency":3},"type":"Feature","geometry":{"type":"Point","coordinates":[21.9333333,47.0666667]}},{"properties":{"city":"Ljubljana","from":"Antwerp","geo_score":1.0,"country":"Slovenia","id":"a65u8o99v1sm","geo_precision":"zip","frequency":5},"type":"Feature","geometry":{"type":"Point","coordinates":[14.5144444,46.0552778]}},{"properties":{"city":"Barcelona","from":"Antwerp","geo_score":1.0,"country":"Spain","id":"a65u8o64a2ct","geo_precision":"zip","frequency":2},"type":"Feature","geometry":{"type":"Point","coordinates":[2.12803760957452,41.3994235991885]}},{"properties":{"city":"Madrid","from":"Antwerp","geo_score":1.0,"country":"Spain","id":"a65u8o19ykkz","geo_precision":"zip","frequency":3},"type":"Feature","geometry":{"type":"Point","coordinates":[-3.68274615575072,40.4893538421231]}},{"properties":{"city":"Silla","from":"Antwerp","geo_score":0.914,"country":"Spain","id":"a65u8ob89k5i","geo_precision":"zip","frequency":5},"type":"Feature","geometry":{"type":"Point","coordinates":[1.1520019667851,41.0787016290615]}},{"properties":{"city":"Zaragoza","from":"Antwerp","geo_score":1.0,"country":"Spain","id":"a65u8o13kcdc","geo_precision":"zip","frequency":5},"type":"Feature","geometry":{"type":"Point","coordinates":[-0.877339839935303,41.6560643302881]}},{"properties":{"city":"Cordoba","from":"Antwerp","geo_score":1.0,"country":"Spain","id":"a65u8nvyb7af","geo_precision":"zip","frequency":5},"type":"Feature","geometry":{"type":"Point","coordinates":[-4.70867385475098,37.8550964348286]}},{"properties":{"city":"Sevilla","from":"Antwerp","geo_score":1.0,"country":"Spain","id":"a65u8nxib3yw","geo_precision":"zip","frequency":5},"type":"Feature","geometry":{"type":"Point","coordinates":[-5.95917769065896,37.3914105564361]}},{"properties":{"city":"Murcia","from":"Antwerp","geo_score":1.0,"country":"Spain","id":"a65u8o4ya9dq","geo_precision":"zip","frequency":5},"type":"Feature","geometry":{"type":"Point","coordinates":[-1.16363536604525,37.9439891615427]}},{"properties":{"city":"San Roque","from":"Antwerp","geo_score":1.0,"country":"Spain","id":"a65u8o1ki99y","geo_precision":"zip","frequency":5},"type":"Feature","geometry":{"type":"Point","coordinates":[-5.32915524643734,36.2531945725746]}},{"properties":{"city":"Vigo","from":"Antwerp","geo_score":1.0,"country":"Spain","id":"a65u8o2w9cc9","geo_precision":"zip","frequency":5},"type":"Feature","geometry":{"type":"Point","coordinates":[-8.81205840046395,42.2154941475053]}},{"properties":{"city":"Vittoria","from":"Antwerp","geo_score":0.911,"country":"Spain","id":"a65u8o04rqx1","geo_precision":"zip","frequency":3},"type":"Feature","geometry":{"type":"Point","coordinates":[-8.4666667,42.7833333]}},{"properties":{"city":"Tarragona","from":"Antwerp","geo_score":1.0,"country":"Spain","id":"a65u8o6q3c51","geo_precision":"zip","frequency":5},"type":"Feature","geometry":{"type":"Point","coordinates":[1.26639124811565,41.1238556361651]}},{"properties":{"city":"Gradollers","from":"Antwerp","geo_score":0.896,"country":"Spain","id":"a65u8nwzxjjk","geo_precision":"zip","frequency":5},"type":"Feature","geometry":{"type":"Point","coordinates":[-6.0420254771363,37.2444111631078]}},{"properties":{"city":"Basel","from":"Antwerp","geo_score":1.0,"country":"Switzerland","id":"a65u8nxfr6wa","geo_precision":"zip","frequency":13},"type":"Feature","geometry":{"type":"Point","coordinates":[7.6,47.5666667]}},{"properties":{"city":"Aarau","from":"Antwerp","geo_score":1.0,"country":"Switzerland","id":"a65u8oa5v1ji","geo_precision":"zip","frequency":8},"type":"Feature","geometry":{"type":"Point","coordinates":[8.04422378540039,47.3925390249618]}},{"properties":{"city":"Istanbul","from":"Antwerp","geo_score":1.0,"country":"Turkey","id":"a65u8nwy9tsc","geo_precision":"zip","frequency":8},"type":"Feature","geometry":{"type":"Point","coordinates":[28.9833068847656,41.0350820029997]}}],"is_temporal":false,"author":{"url":"","metadata":"","contact_name":"","contact_address":"","source":"","contact_phone":""},"source":"","pagination":{"sort":null,"start":0,"total":76,"limit":1000000},"state":"complete","tags":"","published":"2014-08-13T07:33:00-04:00","id":106788}