{"type":"FeatureCollection","data_type":"Dataset","url_type":null,"permissions":[{"permissions":{"download":true,"view":true},"group_id":"everyone"}],"classification":null,"title":"contributions_clean","count":210,"stream_id":106763,"contributor":{"url":"http://geocommons.com/users/24946","name":"theaok"},"data_attributes":null,"calculation_params":null,"icon_link":null,"link":"http://geocommons.com/overlays/106763.json","extent":[-122.356,30.1835,-87.6294,41.8813],"geometry_types":["point"],"unique_name":null,"name":"contributions_clean","feature_count":210,"description":"","next_feature":null,"is_raster":false,"short_classification":"Y","stats":{"amount":{"max":11000.0,"mean":539.575571428571,"variance":1246614.30898843,"stdev":1116.51883503523,"min":0.0,"median":250.0}},"features":[{"properties":{"city":"Dallas","zip":"75214","st_add":"6222  Vanderbilt Avenue","geo_score":1.0,"amount":250.0,"id":"a665ycg5xbuu","geo_precision":"range","state":"TX"},"type":"Feature","geometry":{"type":"Point","coordinates":[-96.757668,32.82442]}},{"properties":{"city":"Dallas","zip":"75214","st_add":"6222  Vanderbilt Avenue","geo_score":1.0,"amount":250.0,"id":"a665yc4y511t","geo_precision":"range","state":"TX"},"type":"Feature","geometry":{"type":"Point","coordinates":[-96.757668,32.82442]}},{"properties":{"city":"Dallas","zip":"75224","st_add":"627  Monssen Drive","geo_score":1.0,"amount":500.0,"id":"a665yc9tf32d","geo_precision":"range","state":"TX"},"type":"Feature","geometry":{"type":"Point","coordinates":[-96.833651,32.731454]}},{"properties":{"city":"Frisco","zip":"75034","st_add":"4500  Preston Road","geo_score":0.797,"amount":250.0,"id":"a665yc8lwxjv","geo_precision":"range","state":"TX"},"type":"Feature","geometry":{"type":"Point","coordinates":[-96.805674,33.116161]}},{"properties":{"city":"Frisco","zip":"75034","st_add":"4500  Preston Road","geo_score":0.797,"amount":250.0,"id":"a665yc5f9774","geo_precision":"range","state":"TX"},"type":"Feature","geometry":{"type":"Point","coordinates":[-96.805674,33.116161]}},{"properties":{"city":"Dallas","zip":"75207","st_add":"2730  Irving Boulevard","geo_score":1.0,"amount":500.0,"id":"a665yc7ants7","geo_precision":"range","state":"TX"},"type":"Feature","geometry":{"type":"Point","coordinates":[-96.844494,32.804466]}},{"properties":{"city":"Dallas","zip":"75208","st_add":"1414  W Colorado Boulevard","geo_score":1.0,"amount":250.0,"id":"a665yc61h04l","geo_precision":"range","state":"TX"},"type":"Feature","geometry":{"type":"Point","coordinates":[-96.844708,32.759425]}},{"properties":{"city":"Dallas","zip":"75244","st_add":"4230  LBJ Freeway Suite 140","geo_score":0.409,"amount":1000.0,"id":"a665ycg2fz62","geo_precision":"street","state":"TX"},"type":"Feature","geometry":{"type":"Point","coordinates":[-96.689481,32.878681]}},{"properties":{"city":"Dallas","zip":"75244","st_add":"4230  LBJ Freeway","geo_score":0.683,"amount":1000.0,"id":"a665ycfh363a","geo_precision":"zip","state":"TX"},"type":"Feature","geometry":{"type":"Point","coordinates":[-96.777626,32.767268]}},{"properties":{"city":"Austin","zip":"78701","st_add":"400  West 15th Street","geo_score":0.916,"amount":125.0,"id":"a665ych5i0e6","geo_precision":"range","state":"TX"},"type":"Feature","geometry":{"type":"Point","coordinates":[-97.742978,30.277936]}},{"properties":{"city":"South San Francisco","zip":"94803","st_add":"PO Box 9041","geo_score":0.333,"amount":41.24,"id":"a665yc5ipzwa","geo_precision":"street","state":"CA"},"type":"Feature","geometry":{"type":"Point","coordinates":[-122.35586,37.955871]}},{"properties":{"city":"South San Francisco","zip":"94803","st_add":"PO Box 9041","geo_score":0.333,"amount":238.98,"id":"a665yc5r5ume","geo_precision":"street","state":"CA"},"type":"Feature","geometry":{"type":"Point","coordinates":[-122.35586,37.955871]}},{"properties":{"city":"South San Francisco","zip":"94803","st_add":"PO Box 9041","geo_score":0.333,"amount":243.25,"id":"a665yc40ehac","geo_precision":"street","state":"CA"},"type":"Feature","geometry":{"type":"Point","coordinates":[-122.35586,37.955871]}},{"properties":{"city":"South San Francisco","zip":"94803","st_add":"PO Box 9041","geo_score":0.333,"amount":41.24,"id":"a665ycgwhf68","geo_precision":"street","state":"CA"},"type":"Feature","geometry":{"type":"Point","coordinates":[-122.35586,37.955871]}},{"properties":{"city":"South San Francisco","zip":"94803","st_add":"PO Box 9041","geo_score":0.333,"amount":41.24,"id":"a665yc8n9zb6","geo_precision":"street","state":"CA"},"type":"Feature","geometry":{"type":"Point","coordinates":[-122.35586,37.955871]}},{"properties":{"city":"South San Francisco","zip":"94803","st_add":"PO Box 9041","geo_score":0.333,"amount":190.39,"id":"a665ycgi3e29","geo_precision":"street","state":"CA"},"type":"Feature","geometry":{"type":"Point","coordinates":[-122.35586,37.955871]}},{"properties":{"city":"Dallas","zip":"75356","st_add":"PO Box 560166","geo_score":1.0,"amount":157.0,"id":"a665yc6bns0s","geo_precision":"zip","state":"TX"},"type":"Feature","geometry":{"type":"Point","coordinates":[-96.777626,32.767268]}},{"properties":{"city":"Dallas","zip":"75222","st_add":"PO Box 223667","geo_score":0.364,"amount":200.0,"id":"a665yc2kn6h5","geo_precision":"street","state":"TX"},"type":"Feature","geometry":{"type":"Point","coordinates":[-96.791654,32.80632]}},{"properties":{"city":"Dallas","zip":"75206","st_add":"2020  N Garrett Avenue","geo_score":1.0,"amount":250.0,"id":"a665ycigjpse","geo_precision":"range","state":"TX"},"type":"Feature","geometry":{"type":"Point","coordinates":[-96.777343,32.810579]}},{"properties":{"city":"Dallas","zip":"75204","st_add":"3334  Blackburn Street","geo_score":1.0,"amount":250.0,"id":"a665ychhloti","geo_precision":"range","state":"TX"},"type":"Feature","geometry":{"type":"Point","coordinates":[-96.798239,32.810831]}},{"properties":{"city":"Dallas","zip":"75207","st_add":"2515  Irving Boulevard","geo_score":0.902,"amount":1000.0,"id":"a665yc8hf1gg","geo_precision":"range","state":"TX"},"type":"Feature","geometry":{"type":"Point","coordinates":[-96.840983,32.799194]}},{"properties":{"city":"Dallas","zip":"75235","st_add":"PO Box 36288","geo_score":0.371,"amount":1000.0,"id":"a665yc64oroy","geo_precision":"street","state":"TX"},"type":"Feature","geometry":{"type":"Point","coordinates":[-96.791654,32.80632]}},{"properties":{"city":"Dallas","zip":"75208","st_add":"1011  N Edgefield Avenue","geo_score":1.0,"amount":25.0,"id":"a665ycdnw93k","geo_precision":"range","state":"TX"},"type":"Feature","geometry":{"type":"Point","coordinates":[-96.84272,32.75558]}},{"properties":{"city":"Oklahoma City","zip":"73124","st_add":"PO Box 24128","geo_score":0.329,"amount":250.0,"id":"a665yc7kyjod","geo_precision":"street","state":"OK"},"type":"Feature","geometry":{"type":"Point","coordinates":[-97.584122,35.512288]}},{"properties":{"city":"Lubbock","zip":"79413","st_add":"5010  University Avenue","geo_score":1.0,"amount":1000.0,"id":"a665yc3ybubw","geo_precision":"range","state":"TX"},"type":"Feature","geometry":{"type":"Point","coordinates":[-101.870456,33.548637]}},{"properties":{"city":"Garland","zip":"75041","st_add":"4109  Keystone Street","geo_score":0.916,"amount":1000.0,"id":"a665yceo9oz1","geo_precision":"range","state":"TX"},"type":"Feature","geometry":{"type":"Point","coordinates":[-96.641938,32.868058]}},{"properties":{"city":"Dallas","zip":"75209","st_add":"8303  Midway Road","geo_score":0.902,"amount":1000.0,"id":"a665ycbkwmyd","geo_precision":"range","state":"TX"},"type":"Feature","geometry":{"type":"Point","coordinates":[-96.839882,32.852724]}},{"properties":{"city":"Dallas","zip":"75251","st_add":"12377  Merit Drive","geo_score":1.0,"amount":500.0,"id":"a665ycibpmt5","geo_precision":"range","state":"TX"},"type":"Feature","geometry":{"type":"Point","coordinates":[-96.772395,32.920367]}},{"properties":{"city":"Dallas","zip":"75251","st_add":"12377  Merit Drive","geo_score":1.0,"amount":500.0,"id":"a665ycfiu9tc","geo_precision":"range","state":"TX"},"type":"Feature","geometry":{"type":"Point","coordinates":[-96.772395,32.920367]}},{"properties":{"city":"Dallas","zip":"75231","st_add":"8750  N. Central Expressway","geo_score":0.607,"amount":125.0,"id":"a665ychjavhy","geo_precision":"street","state":"TX"},"type":"Feature","geometry":{"type":"Point","coordinates":[-96.769776,32.868553]}},{"properties":{"city":"Ramona","zip":"92065","st_add":"842  HWY 78","geo_score":0.924,"amount":1000.0,"id":"a665yc4dkqqd","geo_precision":"range","state":"CA"},"type":"Feature","geometry":{"type":"Point","coordinates":[-116.866031,33.043385]}},{"properties":{"city":"Dallas","zip":"75224","st_add":"732  Mayrant Drive","geo_score":1.0,"amount":200.0,"id":"a665ychj9rgt","geo_precision":"range","state":"TX"},"type":"Feature","geometry":{"type":"Point","coordinates":[-96.835004,32.729979]}},{"properties":{"city":"Dallas","zip":"75211","st_add":"2547  Alden Avenue","geo_score":0.923,"amount":100.0,"id":"a665yc8wd1s4","geo_precision":"range","state":"TX"},"type":"Feature","geometry":{"type":"Point","coordinates":[-96.860016,32.742173]}},{"properties":{"city":"Dallas","zip":"75224","st_add":"1717  Mair Street","geo_score":0.707,"amount":250.0,"id":"a665ychqfnjy","geo_precision":"range","state":"TX"},"type":"Feature","geometry":{"type":"Point","coordinates":[-96.767713,32.811295]}},{"properties":{"city":"Dallas","zip":"75229","st_add":"10840  Strait Lane","geo_score":1.0,"amount":250.0,"id":"a665ycdkzxt1","geo_precision":"range","state":"TX"},"type":"Feature","geometry":{"type":"Point","coordinates":[-96.824669,32.895861]}},{"properties":{"city":"Dallas","zip":"75235","st_add":"1820  Regal Row","geo_score":1.0,"amount":1000.0,"id":"a665yci20urs","geo_precision":"range","state":"TX"},"type":"Feature","geometry":{"type":"Point","coordinates":[-96.870987,32.836976]}},{"properties":{"city":"Dallas","zip":"75356","st_add":"PO Box 560166","geo_score":1.0,"amount":100.0,"id":"a665yc5mylk8","geo_precision":"zip","state":"TX"},"type":"Feature","geometry":{"type":"Point","coordinates":[-96.777626,32.767268]}},{"properties":{"city":"Dallas","zip":"75201","st_add":"3310  Fairmount #P2D","geo_score":0.571,"amount":500.0,"id":"a665yc9igs5r","geo_precision":"street","state":"TX"},"type":"Feature","geometry":{"type":"Point","coordinates":[-96.795774,32.789851]}},{"properties":{"city":"Dallas","zip":"75201","st_add":"3310  Fairmount","geo_score":0.947,"amount":500.0,"id":"a665yce082lg","geo_precision":"range","state":"TX"},"type":"Feature","geometry":{"type":"Point","coordinates":[-96.808769,32.80073]}},{"properties":{"city":"Dallas","zip":"75211","st_add":"3000  Mountain Creek Parkway","geo_score":0.923,"amount":1200.0,"id":"a665ycfy4a1n","geo_precision":"range","state":"TX"},"type":"Feature","geometry":{"type":"Point","coordinates":[-96.951121,32.714728]}},{"properties":{"city":"Dallas","zip":"75211","st_add":"3000  Mountain Creek Parkway","geo_score":0.923,"amount":500.0,"id":"a665ycckamot","geo_precision":"range","state":"TX"},"type":"Feature","geometry":{"type":"Point","coordinates":[-96.951121,32.714728]}},{"properties":{"city":"Balch Springs","zip":"75180","st_add":"4912  Chickadee Drive","geo_score":1.0,"amount":125.0,"id":"a665yccw5u0e","geo_precision":"range","state":"TX"},"type":"Feature","geometry":{"type":"Point","coordinates":[-96.612249,32.703307]}},{"properties":{"city":"Dallas","zip":"75208","st_add":"931  W. Colorado Boulevard","geo_score":0.604,"amount":50.0,"id":"a665yc75pvjl","geo_precision":"street","state":"TX"},"type":"Feature","geometry":{"type":"Point","coordinates":[-96.822924,32.758893]}},{"properties":{"city":"Dallas","zip":"75225","st_add":"5956  Sherry Lane","geo_score":1.0,"amount":500.0,"id":"a665yc9u4f42","geo_precision":"range","state":"TX"},"type":"Feature","geometry":{"type":"Point","coordinates":[-96.810173,32.862284]}},{"properties":{"city":"Dallas","zip":"75225","st_add":"5956  Sherry Lane","geo_score":1.0,"amount":500.0,"id":"a665yca0g44n","geo_precision":"range","state":"TX"},"type":"Feature","geometry":{"type":"Point","coordinates":[-96.810173,32.862284]}},{"properties":{"city":"Dallas","zip":"75236","st_add":"4501  Mountain Creek Parkway","geo_score":1.0,"amount":250.0,"id":"a665yce0gomb","geo_precision":"range","state":"TX"},"type":"Feature","geometry":{"type":"Point","coordinates":[-96.963097,32.69243]}},{"properties":{"city":"Dallas","zip":"75236","st_add":"4501  Mountain Creek Parkway","geo_score":1.0,"amount":250.0,"id":"a665ycg5ex1i","geo_precision":"range","state":"TX"},"type":"Feature","geometry":{"type":"Point","coordinates":[-96.963097,32.69243]}},{"properties":{"city":"Desoto","zip":"75115","st_add":"904  Ironwood Drive","geo_score":0.915,"amount":100.0,"id":"a665yc5orvws","geo_precision":"range","state":"TX"},"type":"Feature","geometry":{"type":"Point","coordinates":[-96.881593,32.620627]}},{"properties":{"city":"Dallas","zip":"75115","st_add":"1217  Hanna Circle","geo_score":0.915,"amount":250.0,"id":"a665yccvnqh2","geo_precision":"range","state":"TX"},"type":"Feature","geometry":{"type":"Point","coordinates":[-96.854773,32.610366]}},{"properties":{"city":"Dallas","zip":"75208","st_add":"1339  Cedar Hill Avenue","geo_score":1.0,"amount":100.0,"id":"a665ycbi2o9o","geo_precision":"range","state":"TX"},"type":"Feature","geometry":{"type":"Point","coordinates":[-96.83082,32.759315]}},{"properties":{"city":"Dallas","zip":"75208","st_add":"1217  N Clinton Avenue","geo_score":1.0,"amount":500.0,"id":"a665yc6a36iu","geo_precision":"range","state":"TX"},"type":"Feature","geometry":{"type":"Point","coordinates":[-96.841733,32.759589]}},{"properties":{"city":"Dallas","zip":"75207","st_add":"2515  Irving Boulevard","geo_score":0.902,"amount":1000.0,"id":"a665ycaloxcd","geo_precision":"range","state":"TX"},"type":"Feature","geometry":{"type":"Point","coordinates":[-96.840983,32.799194]}},{"properties":{"city":"Dallas","zip":"75223","st_add":"622  Blair Boulevard","geo_score":1.0,"amount":125.0,"id":"a665yc987ev1","geo_precision":"range","state":"TX"},"type":"Feature","geometry":{"type":"Point","coordinates":[-96.740961,32.808026]}},{"properties":{"city":"Dallas","zip":"76109","st_add":"4055  International Plaza","geo_score":0.902,"amount":250.0,"id":"a665yc6ms7ag","geo_precision":"range","state":"TX"},"type":"Feature","geometry":{"type":"Point","coordinates":[-97.399628,32.688911]}},{"properties":{"city":"Dallas","zip":"75205","st_add":"3524  rankin","geo_score":0.836,"amount":250.0,"id":"a665ycc3rhk1","geo_precision":"range","state":"TX"},"type":"Feature","geometry":{"type":"Point","coordinates":[-96.791481,32.849244]}},{"properties":{"city":"Dallas","zip":"75201","st_add":"1500  Jackson Street #817","geo_score":0.805,"amount":137.5,"id":"a665ycg0obp9","geo_precision":"street","state":"TX"},"type":"Feature","geometry":{"type":"Point","coordinates":[-96.799302,32.779075]}},{"properties":{"city":"Dallas","zip":"75201","st_add":"1500  Jackson Street","geo_score":1.0,"amount":2000.0,"id":"a665yccngcyn","geo_precision":"range","state":"TX"},"type":"Feature","geometry":{"type":"Point","coordinates":[-96.798318,32.779297]}},{"properties":{"city":"Dallas","zip":"75201","st_add":"1500  Jackson Street","geo_score":1.0,"amount":2000.0,"id":"a665ycbxlhxh","geo_precision":"range","state":"TX"},"type":"Feature","geometry":{"type":"Point","coordinates":[-96.798318,32.779297]}},{"properties":{"city":"Dallas","zip":"75208","st_add":"1314  Kings Highway","geo_score":1.0,"amount":1000.0,"id":"a665yci1jpn2","geo_precision":"range","state":"TX"},"type":"Feature","geometry":{"type":"Point","coordinates":[-96.842514,32.752231]}},{"properties":{"city":"Dallas","zip":"75208","st_add":"1314  Kings Highway","geo_score":1.0,"amount":1000.0,"id":"a665yce0mand","geo_precision":"range","state":"TX"},"type":"Feature","geometry":{"type":"Point","coordinates":[-96.842514,32.752231]}},{"properties":{"city":"Dallas","zip":"75248","st_add":"16208  Ranchita","geo_score":0.941,"amount":500.0,"id":"a665ycd3m5ws","geo_precision":"range","state":"TX"},"type":"Feature","geometry":{"type":"Point","coordinates":[-96.800114,32.969191]}},{"properties":{"city":"Dallas","zip":"75205","st_add":"3601  Overbrook","geo_score":0.856,"amount":250.0,"id":"a665ycghbphg","geo_precision":"range","state":"TX"},"type":"Feature","geometry":{"type":"Point","coordinates":[-96.795091,32.82094]}},{"properties":{"city":"Dallas","zip":"75219","st_add":"3838  Oak Lawn Avenue","geo_score":1.0,"amount":1000.0,"id":"a665yca3gqpv","geo_precision":"range","state":"TX"},"type":"Feature","geometry":{"type":"Point","coordinates":[-96.802303,32.815263]}},{"properties":{"city":"Richardson","zip":"75081","st_add":"1201  North Bowser Road","geo_score":1.0,"amount":250.0,"id":"a665ycgbjv6b","geo_precision":"range","state":"TX"},"type":"Feature","geometry":{"type":"Point","coordinates":[-96.713758,32.962438]}},{"properties":{"city":"Dallas","zip":"75220","st_add":"5330  S. Dentwood DRive","geo_score":0.61,"amount":250.0,"id":"a665yc53hatg","geo_precision":"street","state":"TX"},"type":"Feature","geometry":{"type":"Point","coordinates":[-96.816132,32.868421]}},{"properties":{"city":"Dallas","zip":"75220","st_add":"5330  S. Dentwood Drive","geo_score":0.61,"amount":250.0,"id":"a665ycemh8rk","geo_precision":"street","state":"TX"},"type":"Feature","geometry":{"type":"Point","coordinates":[-96.816132,32.868421]}},{"properties":{"city":"DALLAS","zip":"75356","st_add":"PO Box 566077","geo_score":1.0,"amount":250.0,"id":"a665yce0zcf6","geo_precision":"zip","state":"TX"},"type":"Feature","geometry":{"type":"Point","coordinates":[-96.777626,32.767268]}},{"properties":{"city":"Villa Park","zip":"60181","st_add":"19  E Monroe","geo_score":0.846,"amount":50.0,"id":"a665ycfvg47f","geo_precision":"range","state":"IL"},"type":"Feature","geometry":{"type":"Point","coordinates":[-87.977544,41.873819]}},{"properties":{"city":"Villa Park","zip":"60181","st_add":"19  E Monroe","geo_score":0.846,"amount":50.0,"id":"a665yc5jm6lm","geo_precision":"range","state":"IL"},"type":"Feature","geometry":{"type":"Point","coordinates":[-87.977544,41.873819]}},{"properties":{"city":"Dallas","zip":"68144","st_add":"8404  Indian Hills Drive","geo_score":0.76,"amount":300.0,"id":"a665ycg9i3xp","geo_precision":"range","state":"TX"},"type":"Feature","geometry":{"type":"Point","coordinates":[-96.042995,41.26007]}},{"properties":{"city":"DeSoto","zip":"75115","st_add":"1409  Heritage Hill Drive","geo_score":0.915,"amount":125.0,"id":"a665ycbzlrte","geo_precision":"range","state":"TX"},"type":"Feature","geometry":{"type":"Point","coordinates":[-96.892396,32.615829]}},{"properties":{"city":"Dallas","zip":"75208","st_add":"1410  Yakimo","geo_score":0.927,"amount":250.0,"id":"a665yca8ghks","geo_precision":"range","state":"TX"},"type":"Feature","geometry":{"type":"Point","coordinates":[-96.832418,32.760209]}},{"properties":{"city":"Dallas","zip":"75208","st_add":"1410  Yakimo","geo_score":0.927,"amount":500.0,"id":"a665yc6ukrba","geo_precision":"range","state":"TX"},"type":"Feature","geometry":{"type":"Point","coordinates":[-96.832418,32.760209]}},{"properties":{"city":"Dallas","zip":"75233","st_add":"3932  Kiest Meadow","geo_score":0.955,"amount":125.0,"id":"a665yc3gog4n","geo_precision":"range","state":"TX"},"type":"Feature","geometry":{"type":"Point","coordinates":[-96.884375,32.709671]}},{"properties":{"city":"Dallas","zip":"75201","st_add":"1601  Elm Street","geo_score":1.0,"amount":1000.0,"id":"a665yc4jbezj","geo_precision":"range","state":"TX"},"type":"Feature","geometry":{"type":"Point","coordinates":[-96.798673,32.781557]}},{"properties":{"city":"Kansas City","zip":"64105","st_add":"715  Kirk Drive","geo_score":0.683,"amount":500.0,"id":"a665yc8ww2d5","geo_precision":"zip","state":"MO"},"type":"Feature","geometry":{"type":"Point","coordinates":[-94.595033,39.102704]}},{"properties":{"city":"Dallas","zip":"75214","st_add":"7189  Greentree Lane","geo_score":1.0,"amount":125.0,"id":"a665ycdm936s","geo_precision":"range","state":"TX"},"type":"Feature","geometry":{"type":"Point","coordinates":[-96.733593,32.842952]}},{"properties":{"city":"Plano","zip":"75093","st_add":"5816  W. Plano Parkway","geo_score":0.614,"amount":125.0,"id":"a665ycaod7a1","geo_precision":"street","state":"TX"},"type":"Feature","geometry":{"type":"Point","coordinates":[-96.747949,33.008696]}},{"properties":{"city":"Dallas","zip":"75240","st_add":"6815  Bert Lane","geo_score":1.0,"amount":250.0,"id":"a665ycgzj4nj","geo_precision":"range","state":"TX"},"type":"Feature","geometry":{"type":"Point","coordinates":[-96.787209,32.938793]}},{"properties":{"city":"Dallas","zip":"75240","st_add":"6815  Bert Lane","geo_score":1.0,"amount":250.0,"id":"a665ycfdwdla","geo_precision":"range","state":"TX"},"type":"Feature","geometry":{"type":"Point","coordinates":[-96.787209,32.938793]}},{"properties":{"city":"Dallas","zip":"75080","st_add":"422  Ridgewood","geo_score":0.859,"amount":20.0,"id":"a665ychweqs6","geo_precision":"range","state":"TX"},"type":"Feature","geometry":{"type":"Point","coordinates":[-96.722232,32.989306]}},{"properties":{"city":"Dallas","zip":"75254","st_add":"6204  Sandpebble Court","geo_score":1.0,"amount":100.0,"id":"a665yc6uvib1","geo_precision":"range","state":"TX"},"type":"Feature","geometry":{"type":"Point","coordinates":[-96.799072,32.943525]}},{"properties":{"city":"Dallas","zip":"75204","st_add":"4666  Christopher Palace","geo_score":0.931,"amount":250.0,"id":"a665yc8wf05t","geo_precision":"range","state":"TX"},"type":"Feature","geometry":{"type":"Point","coordinates":[-96.79805,32.818468]}},{"properties":{"city":"Dallas","zip":"75204","st_add":"4666  Christopher","geo_score":0.955,"amount":100.0,"id":"a665yccndwmt","geo_precision":"range","state":"TX"},"type":"Feature","geometry":{"type":"Point","coordinates":[-96.79805,32.818468]}},{"properties":{"city":"Dallas","zip":"75233","st_add":"3408  Silverwood Lane","geo_score":1.0,"amount":200.0,"id":"a665yc61rs02","geo_precision":"range","state":"TX"},"type":"Feature","geometry":{"type":"Point","coordinates":[-96.875766,32.702616]}},{"properties":{"city":"Chicago","zip":"60603","st_add":"10  S. Dearborn Street","geo_score":0.61,"amount":500.0,"id":"a665yc7qu5y1","geo_precision":"street","state":"IL"},"type":"Feature","geometry":{"type":"Point","coordinates":[-87.629382,41.881349]}},{"properties":{"city":"Dallas","zip":"75208","st_add":"1103  N Windomere","geo_score":0.932,"amount":250.0,"id":"a665yc8x75jc","geo_precision":"range","state":"TX"},"type":"Feature","geometry":{"type":"Point","coordinates":[-96.843928,32.757356]}},{"properties":{"city":"Shenandoah","zip":"77385","st_add":"19245  David Memorial Drive","geo_score":0.917,"amount":500.0,"id":"a665yc8eep1e","geo_precision":"range","state":"TX"},"type":"Feature","geometry":{"type":"Point","coordinates":[-95.44909,30.183457]}},{"properties":{"city":"Dallas","zip":"75230","st_add":"6474  Orchid Lane","geo_score":1.0,"amount":250.0,"id":"a665yc8n25nz","geo_precision":"range","state":"TX"},"type":"Feature","geometry":{"type":"Point","coordinates":[-96.793933,32.892592]}},{"properties":{"city":"Dallas","zip":"75220","st_add":"9746  Rockbrook Drive","geo_score":1.0,"amount":100.0,"id":"a665yc5ft2ki","geo_precision":"range","state":"TX"},"type":"Feature","geometry":{"type":"Point","coordinates":[-96.83174,32.874619]}},{"properties":{"city":"Dallas","zip":"75229","st_add":"3750  Duchess Trail","geo_score":1.0,"amount":250.0,"id":"a665ycix241b","geo_precision":"range","state":"TX"},"type":"Feature","geometry":{"type":"Point","coordinates":[-96.854462,32.893187]}},{"properties":{"city":"Austin","zip":"78760","st_add":"PO Box 17428","geo_score":0.329,"amount":1000.0,"id":"a665ycdkmx24","geo_precision":"street","state":"TX"},"type":"Feature","geometry":{"type":"Point","coordinates":[-97.714795,30.358445]}},{"properties":{"city":"Dallas","zip":"75209","st_add":"4931  Stanford","geo_score":0.823,"amount":500.0,"id":"a665yc70bflc","geo_precision":"range","state":"TX"},"type":"Feature","geometry":{"type":"Point","coordinates":[-96.826301,32.853215]}},{"properties":{"city":"Dallas","zip":"75230","st_add":"11219  ST. JUDES DRIVE","geo_score":1.0,"amount":125.0,"id":"a665ychn7ejx","geo_precision":"zip","state":"TX"},"type":"Feature","geometry":{"type":"Point","coordinates":[-96.769578,32.886576]}},{"properties":{"city":"Dallas","zip":"75206","st_add":"6688  N. Central Expwy","geo_score":0.607,"amount":250.0,"id":"a665ycdpkvp9","geo_precision":"street","state":"TX"},"type":"Feature","geometry":{"type":"Point","coordinates":[-96.788283,32.81698]}},{"properties":{"city":"Dallas","zip":"75240","st_add":"13330  Noel Road","geo_score":1.0,"amount":100.0,"id":"a665ychdenmv","geo_precision":"range","state":"TX"},"type":"Feature","geometry":{"type":"Point","coordinates":[-96.818045,32.929885]}},{"properties":{"city":"Plano","zip":"75093","st_add":"4629  Shell Court","geo_score":1.0,"amount":125.0,"id":"a665ycaduwil","geo_precision":"range","state":"TX"},"type":"Feature","geometry":{"type":"Point","coordinates":[-96.788247,33.043659]}},{"properties":{"city":"Dallas","zip":"75201","st_add":"1700  Pacific Avenue","geo_score":1.0,"amount":250.0,"id":"a665yccnirzh","geo_precision":"range","state":"TX"},"type":"Feature","geometry":{"type":"Point","coordinates":[-96.797558,32.782576]}},{"properties":{"city":"Dallas","zip":"75205","st_add":"3109  Knox Street","geo_score":0.909,"amount":1000.0,"id":"a665yc6o5yrk","geo_precision":"range","state":"TX"},"type":"Feature","geometry":{"type":"Point","coordinates":[-96.78765,32.822713]}},{"properties":{"city":"Dallas","zip":"75220","st_add":"5523  Park Lane","geo_score":1.0,"amount":1000.0,"id":"a665yc2gwyus","geo_precision":"range","state":"TX"},"type":"Feature","geometry":{"type":"Point","coordinates":[-96.813401,32.873949]}},{"properties":{"city":"Dallas","zip":"75230","st_add":"11844  Preston Brook Place","geo_score":0.7,"amount":50.0,"id":"a665ycg0gylr","geo_precision":"street","state":"TX"},"type":"Feature","geometry":{"type":"Point","coordinates":[-96.782888,32.913331]}},{"properties":{"city":"Dallas","zip":"75230","st_add":"11844  Preston Brook Place","geo_score":0.7,"amount":250.0,"id":"a665yc5yehog","geo_precision":"street","state":"TX"},"type":"Feature","geometry":{"type":"Point","coordinates":[-96.782888,32.913331]}},{"properties":{"city":"Dallas","zip":"75247","st_add":"8201  N. Stemmons Freeway","geo_score":0.61,"amount":1000.0,"id":"a665yc45c202","geo_precision":"street","state":"TX"},"type":"Feature","geometry":{"type":"Point","coordinates":[-96.875711,32.838065]}},{"properties":{"city":"Dallas","zip":"75249","st_add":"6015  Fox Point Trail","geo_score":0.92,"amount":150.0,"id":"a665ycfy0wq1","geo_precision":"range","state":"TX"},"type":"Feature","geometry":{"type":"Point","coordinates":[-96.970693,32.65071]}},{"properties":{"city":"Dallas","zip":"75205","st_add":"4400  St. John","geo_score":0.429,"amount":150.0,"id":"a665yc459cjc","geo_precision":"street","state":"TX"},"type":"Feature","geometry":{"type":"Point","coordinates":[-96.743102,32.713178]}},{"properties":{"city":"Dallas","zip":"75244","st_add":"5001  Spring Valley Road","geo_score":1.0,"amount":250.0,"id":"a665yca3xfu1","geo_precision":"range","state":"TX"},"type":"Feature","geometry":{"type":"Point","coordinates":[-96.826642,32.939521]}},{"properties":{"city":"DALLAS","zip":"75230","st_add":"6910  WAGGONER PLACE","geo_score":0.941,"amount":1000.0,"id":"a665ycdvhbal","geo_precision":"range","state":"TX"},"type":"Feature","geometry":{"type":"Point","coordinates":[-96.786528,32.887223]}},{"properties":{"city":"Dallas","zip":"75219","st_add":"11526  W. Ricks Circle","geo_score":0.333,"amount":125.0,"id":"a665yca1uisw","geo_precision":"street","state":"TX"},"type":"Feature","geometry":{"type":"Point","coordinates":[-96.796989,32.899473]}},{"properties":{"city":"Dallas","zip":"75356","st_add":"PO Box 560166","geo_score":1.0,"amount":1000.0,"id":"a665ycf7iqd2","geo_precision":"zip","state":"TX"},"type":"Feature","geometry":{"type":"Point","coordinates":[-96.777626,32.767268]}},{"properties":{"city":"Dallas","zip":"76034","st_add":"310  West Glade Road","geo_score":0.913,"amount":500.0,"id":"a665ycauirox","geo_precision":"range","state":"TX"},"type":"Feature","geometry":{"type":"Point","coordinates":[-97.171787,32.880645]}},{"properties":{"city":"Dallas","zip":"75356","st_add":"PO Box 560166","geo_score":1.0,"amount":300.0,"id":"a665ycbantoz","geo_precision":"zip","state":"TX"},"type":"Feature","geometry":{"type":"Point","coordinates":[-96.777626,32.767268]}},{"properties":{"city":"Dallas","zip":"75356","st_add":"PO Box 560166","geo_score":1.0,"amount":100.0,"id":"a665yc37c1wi","geo_precision":"zip","state":"TX"},"type":"Feature","geometry":{"type":"Point","coordinates":[-96.777626,32.767268]}},{"properties":{"city":"Dallas","zip":"75266","st_add":"PO Box 660675","geo_score":0.364,"amount":65.0,"id":"a665yc5kdrfi","geo_precision":"street","state":"TX"},"type":"Feature","geometry":{"type":"Point","coordinates":[-96.791654,32.80632]}},{"properties":{"city":"Dallas","zip":"75266","st_add":"PO Box 66075","geo_score":0.371,"amount":65.0,"id":"a665yc7c24ea","geo_precision":"street","state":"TX"},"type":"Feature","geometry":{"type":"Point","coordinates":[-96.791654,32.80632]}},{"properties":{"city":"Dallas","zip":"75266","st_add":"PO Box 660675","geo_score":0.364,"amount":35.0,"id":"a665ycdz0rsr","geo_precision":"street","state":"TX"},"type":"Feature","geometry":{"type":"Point","coordinates":[-96.791654,32.80632]}},{"properties":{"city":"Dallas","zip":"75208","st_add":"1031  N Winnetka Avenue","geo_score":1.0,"amount":988.97,"id":"a665yc8jefdh","geo_precision":"range","state":"TX"},"type":"Feature","geometry":{"type":"Point","coordinates":[-96.84025,32.755954]}},{"properties":{"city":"Dallas","zip":"75208","st_add":"1031  N Winnetka Avenue","geo_score":1.0,"amount":1215.0,"id":"a665yce01rjg","geo_precision":"range","state":"TX"},"type":"Feature","geometry":{"type":"Point","coordinates":[-96.84025,32.755954]}},{"properties":{"city":"Dallas","zip":"75208","st_add":"1031  N Winnetka Avenue","geo_score":1.0,"amount":181.11,"id":"a665ycfe47ac","geo_precision":"range","state":"TX"},"type":"Feature","geometry":{"type":"Point","coordinates":[-96.84025,32.755954]}},{"properties":{"city":"Dallas","zip":"75208","st_add":"1031  N Winnetka Avenue","geo_score":1.0,"amount":44.22,"id":"a665ycfr9eir","geo_precision":"range","state":"TX"},"type":"Feature","geometry":{"type":"Point","coordinates":[-96.84025,32.755954]}},{"properties":{"city":"Dallas","zip":"75208","st_add":"1031  N Winnetka Avenue","geo_score":1.0,"amount":329.78,"id":"a665yc95qjn0","geo_precision":"range","state":"TX"},"type":"Feature","geometry":{"type":"Point","coordinates":[-96.84025,32.755954]}},{"properties":{"city":"Dallas","zip":"75208","st_add":"1031  N Winnetka Avenue","geo_score":1.0,"amount":22.52,"id":"a665ycbdxyt4","geo_precision":"range","state":"TX"},"type":"Feature","geometry":{"type":"Point","coordinates":[-96.84025,32.755954]}},{"properties":{"city":"Dallas","zip":"75208","st_add":"1031  N Winnetka Avenue","geo_score":1.0,"amount":897.7,"id":"a665yc4c3f4i","geo_precision":"range","state":"TX"},"type":"Feature","geometry":{"type":"Point","coordinates":[-96.84025,32.755954]}},{"properties":{"city":"Dallas","zip":"75208","st_add":"1031  N Winnetka Avenue","geo_score":1.0,"amount":1417.24,"id":"a665yceycfra","geo_precision":"range","state":"TX"},"type":"Feature","geometry":{"type":"Point","coordinates":[-96.84025,32.755954]}},{"properties":{"city":"Dallas","zip":"75208","st_add":"1031  N Winnetka Avenue","geo_score":1.0,"amount":1194.78,"id":"a665yceuj7wj","geo_precision":"range","state":"TX"},"type":"Feature","geometry":{"type":"Point","coordinates":[-96.84025,32.755954]}},{"properties":{"city":"Dallas","zip":"75208","st_add":"1031  N Winnetka Avenue","geo_score":1.0,"amount":1059.9,"id":"a665ychxd8gq","geo_precision":"range","state":"TX"},"type":"Feature","geometry":{"type":"Point","coordinates":[-96.84025,32.755954]}},{"properties":{"city":"Dallas","zip":"75208","st_add":"1031  N Winnetka Avenue","geo_score":1.0,"amount":68.05,"id":"a665ycc2sc4a","geo_precision":"range","state":"TX"},"type":"Feature","geometry":{"type":"Point","coordinates":[-96.84025,32.755954]}},{"properties":{"city":"Dallas","zip":"75208","st_add":"1031  N Winnetka Avenue","geo_score":1.0,"amount":471.18,"id":"a665ychsk869","geo_precision":"range","state":"TX"},"type":"Feature","geometry":{"type":"Point","coordinates":[-96.84025,32.755954]}},{"properties":{"city":"Dallas","zip":"75208","st_add":"1031  N Winnetka","geo_score":0.927,"amount":273.7,"id":"a665yca2ezi5","geo_precision":"range","state":"TX"},"type":"Feature","geometry":{"type":"Point","coordinates":[-96.84025,32.755954]}},{"properties":{"city":"Dallas","zip":"75356","st_add":"PO Box 560166","geo_score":1.0,"amount":0.0,"id":"a665yccmwb0x","geo_precision":"zip","state":"TX"},"type":"Feature","geometry":{"type":"Point","coordinates":[-96.777626,32.767268]}},{"properties":{"city":"Dallas","zip":"75205","st_add":"4206  Normandy Avenue","geo_score":0.909,"amount":50.0,"id":"a665yc4m5vji","geo_precision":"range","state":"TX"},"type":"Feature","geometry":{"type":"Point","coordinates":[-96.807019,32.839579]}},{"properties":{"city":"Dallas","zip":"75230","st_add":"12211  Creek Forest","geo_score":0.955,"amount":1000.0,"id":"a665yc2stsmi","geo_precision":"range","state":"TX"},"type":"Feature","geometry":{"type":"Point","coordinates":[-96.779024,32.916233]}},{"properties":{"city":"Dallas","zip":"75230","st_add":"12211  creek forest","geo_score":0.955,"amount":500.0,"id":"a665yc8h5o3y","geo_precision":"range","state":"TX"},"type":"Feature","geometry":{"type":"Point","coordinates":[-96.779024,32.916233]}},{"properties":{"city":"Dallas","zip":"75205","st_add":"3616  Lindenwood","geo_score":0.842,"amount":1000.0,"id":"a665yc4083w0","geo_precision":"range","state":"TX"},"type":"Feature","geometry":{"type":"Point","coordinates":[-96.791259,32.828124]}},{"properties":{"city":"Dallas","zip":"75205","st_add":"3616  Lindenwood Avenue","geo_score":0.909,"amount":1000.0,"id":"a665yc7m8wra","geo_precision":"range","state":"TX"},"type":"Feature","geometry":{"type":"Point","coordinates":[-96.791259,32.828124]}},{"properties":{"city":"Fort Worth","zip":"76107","st_add":"1200  Western","geo_score":0.657,"amount":1000.0,"id":"a665yc4bjncm","geo_precision":"street","state":"TX"},"type":"Feature","geometry":{"type":"Point","coordinates":[-97.413609,32.735017]}},{"properties":{"city":"Dallas","zip":"75356","st_add":"PO Box 560166","geo_score":1.0,"amount":155.48,"id":"a665ychh0qyn","geo_precision":"zip","state":"TX"},"type":"Feature","geometry":{"type":"Point","coordinates":[-96.777626,32.767268]}},{"properties":{"city":"Dallas","zip":"75209","st_add":"PO Box 7270","geo_score":0.381,"amount":250.0,"id":"a665yc9vv9hk","geo_precision":"street","state":"TX"},"type":"Feature","geometry":{"type":"Point","coordinates":[-96.791654,32.80632]}},{"properties":{"city":"Dallas","zip":"75209","st_add":"PO Box 7270","geo_score":0.381,"amount":250.0,"id":"a665ycgqj3rq","geo_precision":"street","state":"TX"},"type":"Feature","geometry":{"type":"Point","coordinates":[-96.791654,32.80632]}},{"properties":{"city":"Dallas","zip":"75208","st_add":"1235  Lausanne Avenue","geo_score":1.0,"amount":500.0,"id":"a665yc945zdx","geo_precision":"range","state":"TX"},"type":"Feature","geometry":{"type":"Point","coordinates":[-96.845366,32.760319]}},{"properties":{"city":"Dallas","zip":"75224","st_add":"3936  Lost Creek Drive","geo_score":1.0,"amount":125.0,"id":"a665yc9ccnij","geo_precision":"range","state":"TX"},"type":"Feature","geometry":{"type":"Point","coordinates":[-96.846208,32.696046]}},{"properties":{"city":"Dallas","zip":"75356","st_add":"PO Box 560166","geo_score":1.0,"amount":176.0,"id":"a665yce1ol0m","geo_precision":"zip","state":"TX"},"type":"Feature","geometry":{"type":"Point","coordinates":[-96.777626,32.767268]}},{"properties":{"city":"Dallas","zip":"75205","st_add":"3929  Potomac Avenue","geo_score":0.909,"amount":250.0,"id":"a665ycdjwtr4","geo_precision":"range","state":"TX"},"type":"Feature","geometry":{"type":"Point","coordinates":[-96.799028,32.837712]}},{"properties":{"city":"Dallas","zip":"75229","st_add":"PO Box 29188","geo_score":0.371,"amount":200.0,"id":"a665ycfbat9q","geo_precision":"street","state":"TX"},"type":"Feature","geometry":{"type":"Point","coordinates":[-96.791654,32.80632]}},{"properties":{"city":"DALLAS","zip":"75229","st_add":"PO Box 29188","geo_score":0.371,"amount":100.0,"id":"a665yc3nchre","geo_precision":"street","state":"TX"},"type":"Feature","geometry":{"type":"Point","coordinates":[-96.791654,32.80632]}},{"properties":{"city":"DALLAS","zip":"75229","st_add":"PO Box 29188","geo_score":0.371,"amount":250.0,"id":"a665yc7qtgxi","geo_precision":"street","state":"TX"},"type":"Feature","geometry":{"type":"Point","coordinates":[-96.791654,32.80632]}},{"properties":{"city":"Dallas","zip":"75203","st_add":"110  Oregon Avenue","geo_score":1.0,"amount":500.0,"id":"a665yc5xymvn","geo_precision":"range","state":"TX"},"type":"Feature","geometry":{"type":"Point","coordinates":[-96.822717,32.766985]}},{"properties":{"city":"Dallas","zip":"75214","st_add":"6940  Lakeshore","geo_score":0.947,"amount":250.0,"id":"a665yc6116ex","geo_precision":"range","state":"TX"},"type":"Feature","geometry":{"type":"Point","coordinates":[-96.739775,32.820332]}},{"properties":{"city":"Dallas","zip":"75225","st_add":"8222  Douglas Avenue","geo_score":1.0,"amount":500.0,"id":"a665ycif0qhy","geo_precision":"range","state":"TX"},"type":"Feature","geometry":{"type":"Point","coordinates":[-96.808619,32.862587]}},{"properties":{"city":"Dallas","zip":"75261","st_add":"PO Box 619428","geo_score":0.364,"amount":50.0,"id":"a665yc6of4g3","geo_precision":"street","state":"TX"},"type":"Feature","geometry":{"type":"Point","coordinates":[-96.791654,32.80632]}},{"properties":{"city":"Dallas","zip":"75208","st_add":"1030  N Clinton Avenue","geo_score":1.0,"amount":250.0,"id":"a665yc3ofwkn","geo_precision":"range","state":"TX"},"type":"Feature","geometry":{"type":"Point","coordinates":[-96.841478,32.755964]}},{"properties":{"city":"DENTON","zip":"76207","st_add":"2136  CHINN ROAD","geo_score":1.0,"amount":11000.0,"id":"a665yc53ejsi","geo_precision":"range","state":"TX"},"type":"Feature","geometry":{"type":"Point","coordinates":[-97.156093,33.278823]}},{"properties":{"city":"DENTON","zip":"76207","st_add":"2136  CHINN ROAD","geo_score":1.0,"amount":11000.0,"id":"a665yc9x7lf9","geo_precision":"range","state":"TX"},"type":"Feature","geometry":{"type":"Point","coordinates":[-97.156093,33.278823]}},{"properties":{"city":"Dallas","zip":"75001","st_add":"16251  Dallas Parkway","geo_score":0.61,"amount":250.0,"id":"a665yc84013a","geo_precision":"street","state":"TX"},"type":"Feature","geometry":{"type":"Point","coordinates":[-96.839175,33.174998]}},{"properties":{"city":"Dallas","zip":"75205","st_add":"5  Willowood","geo_score":0.856,"amount":500.0,"id":"a665ycbbj6iv","geo_precision":"range","state":"TX"},"type":"Feature","geometry":{"type":"Point","coordinates":[-96.802633,32.826065]}},{"properties":{"city":"Dallas","zip":"75243","st_add":"8611  Breakers Point","geo_score":1.0,"amount":150.0,"id":"a665ycgonnjd","geo_precision":"range","state":"TX"},"type":"Feature","geometry":{"type":"Point","coordinates":[-96.758125,32.898153]}},{"properties":{"city":"Austin","zip":"78746","st_add":"4512  Elohi Drive","geo_score":0.925,"amount":1000.0,"id":"a665yci0lhte","geo_precision":"range","state":"TX"},"type":"Feature","geometry":{"type":"Point","coordinates":[-97.781502,30.325869]}},{"properties":{"city":"Austin","zip":"78746","st_add":"4512  Elohi Drive","geo_score":0.925,"amount":1000.0,"id":"a665yc6i0mst","geo_precision":"range","state":"TX"},"type":"Feature","geometry":{"type":"Point","coordinates":[-97.781502,30.325869]}},{"properties":{"city":"Dallas","zip":"75225","st_add":"3105  Stanford Avenue","geo_score":1.0,"amount":250.0,"id":"a665ycidv34t","geo_precision":"range","state":"TX"},"type":"Feature","geometry":{"type":"Point","coordinates":[-96.780314,32.853008]}},{"properties":{"city":"Dallas","zip":"75225","st_add":"3105  Stanford","geo_score":0.941,"amount":250.0,"id":"a665ycgyh0vu","geo_precision":"range","state":"TX"},"type":"Feature","geometry":{"type":"Point","coordinates":[-96.780314,32.853008]}},{"properties":{"city":"Dallas","zip":"75208","st_add":"1215  N. Windomere","geo_score":0.604,"amount":250.0,"id":"a665yc5432x5","geo_precision":"street","state":"TX"},"type":"Feature","geometry":{"type":"Point","coordinates":[-96.845351,32.744712]}},{"properties":{"city":"Dallas","zip":"75219","st_add":"PO Box 191185","geo_score":0.364,"amount":50.0,"id":"a665yc78s48i","geo_precision":"street","state":"TX"},"type":"Feature","geometry":{"type":"Point","coordinates":[-96.791654,32.80632]}},{"properties":{"city":"Dallas","zip":"75225","st_add":"6322  De Loache","geo_score":0.92,"amount":500.0,"id":"a665ychy5el8","geo_precision":"range","state":"TX"},"type":"Feature","geometry":{"type":"Point","coordinates":[-96.79717,32.870693]}},{"properties":{"city":"Dallas","zip":"75208","st_add":"1306  Rainbow Drive","geo_score":1.0,"amount":1000.0,"id":"a665ycfvhq02","geo_precision":"range","state":"TX"},"type":"Feature","geometry":{"type":"Point","coordinates":[-96.837136,32.759605]}},{"properties":{"city":"Dallas","zip":"75207","st_add":"1625  N. Stemmons Freeway","geo_score":0.61,"amount":1000.0,"id":"a665ycajudhq","geo_precision":"street","state":"TX"},"type":"Feature","geometry":{"type":"Point","coordinates":[-96.811606,32.770871]}},{"properties":{"city":"Dallas","zip":"75207","st_add":"1625  N. Stemmons Freeway","geo_score":0.61,"amount":1000.0,"id":"a665yce165ed","geo_precision":"street","state":"TX"},"type":"Feature","geometry":{"type":"Point","coordinates":[-96.811606,32.770871]}},{"properties":{"city":"Dallas","zip":"75069","st_add":"960  Englenook Court","geo_score":0.61,"amount":1000.0,"id":"a665yc58smpo","geo_precision":"street","state":"TX"},"type":"Feature","geometry":{"type":"Point","coordinates":[-96.737275,33.053284]}},{"properties":{"city":"Dallas","zip":"75208","st_add":"830  Stewart Drive","geo_score":1.0,"amount":1000.0,"id":"a665yc6wjtrj","geo_precision":"range","state":"TX"},"type":"Feature","geometry":{"type":"Point","coordinates":[-96.835992,32.755066]}},{"properties":{"city":"Dallas","zip":"75230","st_add":"11711  Forest Court","geo_score":0.902,"amount":250.0,"id":"a665yc4bgsh2","geo_precision":"street","state":"TX"},"type":"Feature","geometry":{"type":"Point","coordinates":[-96.791325,32.908357]}},{"properties":{"city":"Dallas","zip":"75208","st_add":"939  Lausanne Avenue","geo_score":1.0,"amount":50.0,"id":"a665ycheyd1m","geo_precision":"range","state":"TX"},"type":"Feature","geometry":{"type":"Point","coordinates":[-96.845251,32.754614]}},{"properties":{"city":"Dallas","zip":"75240","st_add":"5430  LBJ Freeway","geo_score":0.683,"amount":1000.0,"id":"a665ycbxjtxj","geo_precision":"zip","state":"TX"},"type":"Feature","geometry":{"type":"Point","coordinates":[-96.789191,32.910185]}},{"properties":{"city":"Dallas","zip":"75240","st_add":"13155  Noel Road","geo_score":1.0,"amount":125.0,"id":"a665ycirs339","geo_precision":"range","state":"TX"},"type":"Feature","geometry":{"type":"Point","coordinates":[-96.818063,32.927347]}},{"properties":{"city":"Dallas","zip":"75240","st_add":"13155  noel","geo_score":0.902,"amount":100.0,"id":"a665yc5dx8mn","geo_precision":"range","state":"TX"},"type":"Feature","geometry":{"type":"Point","coordinates":[-96.818063,32.927347]}},{"properties":{"city":"Dallas","zip":"75204","st_add":"927  Liberty Street","geo_score":1.0,"amount":125.0,"id":"a665ychtwzxt","geo_precision":"range","state":"TX"},"type":"Feature","geometry":{"type":"Point","coordinates":[-96.790162,32.792258]}},{"properties":{"city":"Dallas","zip":"75235","st_add":"PO Box 36611","geo_score":0.371,"amount":500.0,"id":"a665ycgmw3j3","geo_precision":"street","state":"TX"},"type":"Feature","geometry":{"type":"Point","coordinates":[-96.791654,32.80632]}},{"properties":{"city":"Dallas","zip":"75201","st_add":"1601  Elm Street","geo_score":1.0,"amount":1000.0,"id":"a665ycbsb7wg","geo_precision":"range","state":"TX"},"type":"Feature","geometry":{"type":"Point","coordinates":[-96.798673,32.781557]}},{"properties":{"city":"Dallas","zip":"75206","st_add":"5005  Greenville Avenue","geo_score":1.0,"amount":100.0,"id":"a665yccm4x1u","geo_precision":"range","state":"TX"},"type":"Feature","geometry":{"type":"Point","coordinates":[-96.770133,32.84784]}},{"properties":{"city":"Dallas","zip":"75208","st_add":"732  N Windomere","geo_score":0.932,"amount":125.0,"id":"a665ycetanom","geo_precision":"range","state":"TX"},"type":"Feature","geometry":{"type":"Point","coordinates":[-96.845255,32.751389]}},{"properties":{"city":"Dallas","zip":"75201","st_add":"2808  Fairmount Street","geo_score":1.0,"amount":125.0,"id":"a665yci9cwpv","geo_precision":"range","state":"TX"},"type":"Feature","geometry":{"type":"Point","coordinates":[-96.804753,32.797282]}},{"properties":{"city":"Dallas","zip":"75208","st_add":"906  Stevens Woods Court","geo_score":0.979,"amount":25.0,"id":"a665yc9fh522","geo_precision":"range","state":"TX"},"type":"Feature","geometry":{"type":"Point","coordinates":[-96.853004,32.753273]}},{"properties":{"city":"Dallas","zip":"75224","st_add":"707  Mayrant Drive","geo_score":1.0,"amount":100.0,"id":"a665ychw15pn","geo_precision":"range","state":"TX"},"type":"Feature","geometry":{"type":"Point","coordinates":[-96.834582,32.730139]}},{"properties":{"city":"Dallas","zip":"75208","st_add":"450  Allison Drive","geo_score":1.0,"amount":200.0,"id":"a665yc823ckz","geo_precision":"range","state":"TX"},"type":"Feature","geometry":{"type":"Point","coordinates":[-96.829352,32.760349]}},{"properties":{"city":"Dallas","zip":"75208","st_add":"450  Allison Drive","geo_score":1.0,"amount":100.0,"id":"a665yca2770e","geo_precision":"range","state":"TX"},"type":"Feature","geometry":{"type":"Point","coordinates":[-96.829352,32.760349]}},{"properties":{"city":"Dallas","zip":"75356","st_add":"PO Box 560166","geo_score":1.0,"amount":1000.0,"id":"a665ycbfhz7a","geo_precision":"zip","state":"TX"},"type":"Feature","geometry":{"type":"Point","coordinates":[-96.777626,32.767268]}},{"properties":{"city":"Dallas","zip":"75249","st_add":"8335  High Brush Drive","geo_score":0.45,"amount":100.0,"id":"a665ycem9ub1","geo_precision":"street","state":"TX"},"type":"Feature","geometry":{"type":"Point","coordinates":[-96.792711,32.741043]}},{"properties":{"city":"Dallas","zip":"75224","st_add":"732  Mayrant Drive","geo_score":1.0,"amount":50.0,"id":"a665yc52yhd8","geo_precision":"range","state":"TX"},"type":"Feature","geometry":{"type":"Point","coordinates":[-96.835004,32.729979]}},{"properties":{"city":"Dallas","zip":"75224","st_add":"732  Mayrant Drive","geo_score":1.0,"amount":200.0,"id":"a665ychwe7js","geo_precision":"range","state":"TX"},"type":"Feature","geometry":{"type":"Point","coordinates":[-96.835004,32.729979]}},{"properties":{"city":"Dallas","zip":"75208","st_add":"1154  Windomere","geo_score":0.91,"amount":0.0,"id":"a665ycifhsvl","geo_precision":"range","state":"TX"},"type":"Feature","geometry":{"type":"Point","coordinates":[-96.843917,32.758503]}},{"properties":{"city":"Dallas","zip":"75205","st_add":"4309  Versailles Avenue","geo_score":0.909,"amount":100.0,"id":"a665ychvbwbi","geo_precision":"range","state":"TX"},"type":"Feature","geometry":{"type":"Point","coordinates":[-96.807137,32.831195]}},{"properties":{"city":"Dallas","zip":"75235","st_add":"5415  MAPLE AVENUE","geo_score":1.0,"amount":1435.89,"id":"a665yc54jjvg","geo_precision":"range","state":"TX"},"type":"Feature","geometry":{"type":"Point","coordinates":[-96.833167,32.818621]}},{"properties":{"city":"Dallas","zip":"75235","st_add":"5415  Maple Avenue","geo_score":1.0,"amount":2973.62,"id":"a665yc3oxrsx","geo_precision":"range","state":"TX"},"type":"Feature","geometry":{"type":"Point","coordinates":[-96.833167,32.818621]}},{"properties":{"city":"Dallas","zip":"75235","st_add":"5415  Maple Avenue","geo_score":1.0,"amount":1229.89,"id":"a665ycib4k46","geo_precision":"range","state":"TX"},"type":"Feature","geometry":{"type":"Point","coordinates":[-96.833167,32.818621]}},{"properties":{"city":"Dallas","zip":"75219","st_add":"2999  Turtle Creek Company","geo_score":0.902,"amount":100.0,"id":"a665ychzdjyd","geo_precision":"range","state":"TX"},"type":"Feature","geometry":{"type":"Point","coordinates":[-96.80409,32.80482]}},{"properties":{"city":"Southlake","zip":"76092","st_add":"417  Southridge Lakes Parkway","geo_score":0.913,"amount":1000.0,"id":"a665ycb0x80u","geo_precision":"range","state":"TX"},"type":"Feature","geometry":{"type":"Point","coordinates":[-97.168233,32.949883]}},{"properties":{"city":"Southlake","zip":"76092","st_add":"417  Southridge Lakes Parkway","geo_score":0.913,"amount":1000.0,"id":"a665ycc7ou7u","geo_precision":"range","state":"TX"},"type":"Feature","geometry":{"type":"Point","coordinates":[-97.168233,32.949883]}},{"properties":{"city":"Dallas","zip":"75201","st_add":"3700  Trammell Crow","geo_score":0.512,"amount":1000.0,"id":"a665yc4tsdk1","geo_precision":"street","state":"TX"},"type":"Feature","geometry":{"type":"Point","coordinates":[-96.752952,32.844417]}},{"properties":{"city":"Dallas","zip":"75154","st_add":"610  Creek View Circle","geo_score":0.886,"amount":250.0,"id":"a665yc8khmgt","geo_precision":"range","state":"TX"},"type":"Feature","geometry":{"type":"Point","coordinates":[-96.881903,32.519114]}},{"properties":{"city":"Dallas","zip":"75208","st_add":"2183  Kessler Court","geo_score":1.0,"amount":100.0,"id":"a665yc51tsdf","geo_precision":"range","state":"TX"},"type":"Feature","geometry":{"type":"Point","coordinates":[-96.847053,32.762886]}},{"properties":{"city":"Dallas","zip":"75230","st_add":"46  Downs Lake Circle","geo_score":1.0,"amount":500.0,"id":"a665yc3xh9xm","geo_precision":"range","state":"TX"},"type":"Feature","geometry":{"type":"Point","coordinates":[-96.790105,32.920105]}},{"properties":{"city":"Dallas","zip":"75230","st_add":"46  Downs Lake Circle","geo_score":1.0,"amount":100.0,"id":"a665yc55dt13","geo_precision":"range","state":"TX"},"type":"Feature","geometry":{"type":"Point","coordinates":[-96.790105,32.920105]}},{"properties":{"city":"Dallas","zip":"75238","st_add":"10020  Caribou Trail","geo_score":1.0,"amount":100.0,"id":"a665yc3tsyak","geo_precision":"range","state":"TX"},"type":"Feature","geometry":{"type":"Point","coordinates":[-96.710466,32.884807]}},{"properties":{"city":"Dallas","zip":"75204","st_add":"4144  North Central Expressway","geo_score":1.0,"amount":250.0,"id":"a665yc7xxzwp","geo_precision":"range","state":"TX"},"type":"Feature","geometry":{"type":"Point","coordinates":[-96.789775,32.814304]}},{"properties":{"city":"Hurst","zip":"76054","st_add":"2816  Mesa Court","geo_score":1.0,"amount":1000.0,"id":"a665yc5xlbzs","geo_precision":"range","state":"TX"},"type":"Feature","geometry":{"type":"Point","coordinates":[-97.174239,32.87046]}},{"properties":{"city":"Hurst","zip":"76054","st_add":"2816  Mesa Court","geo_score":1.0,"amount":1000.0,"id":"a665ych44u8m","geo_precision":"range","state":"TX"},"type":"Feature","geometry":{"type":"Point","coordinates":[-97.174239,32.87046]}},{"properties":{"city":"Dallas","zip":"75208","st_add":"1939  Mayflower Drive","geo_score":1.0,"amount":250.0,"id":"a665yc6cga3h","geo_precision":"range","state":"TX"},"type":"Feature","geometry":{"type":"Point","coordinates":[-96.852774,32.758492]}},{"properties":{"city":"Dallas","zip":"75208","st_add":"2150  Kessler Court","geo_score":1.0,"amount":250.0,"id":"a665yc71j1mb","geo_precision":"range","state":"TX"},"type":"Feature","geometry":{"type":"Point","coordinates":[-96.845387,32.763143]}},{"properties":{"city":"Dallas","zip":"75356","st_add":"PO Box 560166","geo_score":1.0,"amount":100.0,"id":"a665ycaiooqw","geo_precision":"zip","state":"TX"},"type":"Feature","geometry":{"type":"Point","coordinates":[-96.777626,32.767268]}},{"properties":{"city":"Dallas","zip":"75356","st_add":"PO Box 560166","geo_score":1.0,"amount":250.0,"id":"a665ycd6346o","geo_precision":"zip","state":"TX"},"type":"Feature","geometry":{"type":"Point","coordinates":[-96.777626,32.767268]}},{"properties":{"city":"Dallas","zip":"75209","st_add":"4610  Wildwood Road","geo_score":0.902,"amount":250.0,"id":"a665yccgtss8","geo_precision":"range","state":"TX"},"type":"Feature","geometry":{"type":"Point","coordinates":[-96.833887,32.859058]}},{"properties":{"city":"Dallas","zip":"75208","st_add":"1935  W Colorado","geo_score":0.91,"amount":100.0,"id":"a665ycif3usj","geo_precision":"range","state":"TX"},"type":"Feature","geometry":{"type":"Point","coordinates":[-96.852459,32.760218]}},{"properties":{"city":"Dallas","zip":"75356","st_add":"PO Box 560166","geo_score":1.0,"amount":250.0,"id":"a665yc6pvkfj","geo_precision":"zip","state":"TX"},"type":"Feature","geometry":{"type":"Point","coordinates":[-96.777626,32.767268]}}],"is_temporal":false,"author":{"url":"","metadata":"","contact_name":"","contact_address":"","source":"","contact_phone":""},"source":"","pagination":{"sort":null,"start":0,"total":210,"limit":1000000},"state":"complete","tags":"","published":"2014-08-13T07:32:03-04:00","id":106763}