{"type":"FeatureCollection","data_type":"Dataset","url_type":null,"permissions":[{"permissions":{"download":true,"view":true},"group_id":"everyone"}],"classification":null,"title":"Rotterdam Connections by City","count":89,"stream_id":106777,"contributor":{"url":"http://geocommons.com/users/17832","name":"a.f.crossland@gmail.com"},"data_attributes":null,"calculation_params":null,"icon_link":null,"link":"http://geocommons.com/overlays/106777.json","extent":[-3.68275,37.5021,44.002,59.9132],"geometry_types":["point"],"unique_name":null,"name":"Rotterdam Connections by City","feature_count":89,"description":"","next_feature":null,"is_raster":false,"short_classification":"Y","stats":{},"features":[{"properties":{"city":"Krems","from":"Rotterdam","geo_score":0.918,"country":"Austria","id":"a68b3n8li0so","geo_precision":"zip"},"type":"Feature","geometry":{"type":"Point","coordinates":[13.6333333,47.5833333]}},{"properties":{"city":"Wels","from":"Rotterdam","geo_score":1.0,"country":"Austria","id":"a68b3nf4e0u9","geo_precision":"zip"},"type":"Feature","geometry":{"type":"Point","coordinates":[14.0333333,48.1666667]}},{"properties":{"city":"Wien","from":"Rotterdam","geo_score":1.0,"country":"Austria","id":"a68b3n8d8hdi","geo_precision":"zip"},"type":"Feature","geometry":{"type":"Point","coordinates":[16.4166667,48.25]}},{"properties":{"city":"Antwerp","from":"Rotterdam","geo_score":1.0,"country":"Belgium","id":"a68b3n2dfk3l","geo_precision":"zip"},"type":"Feature","geometry":{"type":"Point","coordinates":[4.4166667,51.2166667]}},{"properties":{"city":"Athus","from":"Rotterdam","geo_score":1.0,"country":"Belgium","id":"a68b3n4drfra","geo_precision":"zip"},"type":"Feature","geometry":{"type":"Point","coordinates":[5.8333333,49.5666667]}},{"properties":{"city":"Kortrijk","from":"Rotterdam","geo_score":1.0,"country":"Belgium","id":"a68b3n5rwit8","geo_precision":"zip"},"type":"Feature","geometry":{"type":"Point","coordinates":[3.26487064361572,50.8280325513329]}},{"properties":{"city":"Lovosice","from":"Rotterdam","geo_score":1.0,"country":"Czech Republic","id":"a68b3nar30l2","geo_precision":"zip"},"type":"Feature","geometry":{"type":"Point","coordinates":[14.0510300896998,50.5150382427267]}},{"properties":{"city":"Melnik","from":"Rotterdam","geo_score":1.0,"country":"Czech Republic","id":"a68b3n07jzhr","geo_precision":"zip"},"type":"Feature","geometry":{"type":"Point","coordinates":[14.4741074259756,50.3504968399971]}},{"properties":{"city":"Praha","from":"Rotterdam","geo_score":1.0,"country":"Czech Republic","id":"a68b3n9bxz5y","geo_precision":"zip"},"type":"Feature","geometry":{"type":"Point","coordinates":[14.4241322001241,50.0878367932108]}},{"properties":{"city":"Prerov","from":"Rotterdam","geo_score":1.0,"country":"Czech Republic","id":"a68b3nbqnzdn","geo_precision":"zip"},"type":"Feature","geometry":{"type":"Point","coordinates":[17.4509019922212,49.4551090356932]}},{"properties":{"city":"Zlin","from":"Rotterdam","geo_score":1.0,"country":"Czech Republic","id":"a68b3n0ye6qr","geo_precision":"zip"},"type":"Feature","geometry":{"type":"Point","coordinates":[17.6663338474031,49.2266542140525]}},{"properties":{"city":"Bayonna","from":"Rotterdam","geo_score":0.98,"country":"France","id":"a68b3nez758a","geo_precision":"zip"},"type":"Feature","geometry":{"type":"Point","coordinates":[-1.4833333,43.4833333]}},{"properties":{"city":"Dourges","from":"Rotterdam","geo_score":1.0,"country":"France","id":"a68b3n8mxnca","geo_precision":"zip"},"type":"Feature","geometry":{"type":"Point","coordinates":[2.9833333,50.4333333]}},{"properties":{"city":"Le Havre","from":"Rotterdam","geo_score":1.0,"country":"France","id":"a68b3n54vfi3","geo_precision":"zip"},"type":"Feature","geometry":{"type":"Point","coordinates":[0.107674598693848,49.4938035056669]}},{"properties":{"city":"Lyon","from":"Rotterdam","geo_score":1.0,"country":"France","id":"a68b3nf48rf0","geo_precision":"zip"},"type":"Feature","geometry":{"type":"Point","coordinates":[4.85,45.75]}},{"properties":{"city":"Marseille","from":"Rotterdam","geo_score":1.0,"country":"France","id":"a68b3n2lr8hn","geo_precision":"zip"},"type":"Feature","geometry":{"type":"Point","coordinates":[5.4,43.3]}},{"properties":{"city":"Miramas","from":"Rotterdam","geo_score":1.0,"country":"France","id":"a68b3n34nlev","geo_precision":"zip"},"type":"Feature","geometry":{"type":"Point","coordinates":[5.0,43.5833333]}},{"properties":{"city":"Ottmarsheim","from":"Rotterdam","geo_score":1.0,"country":"France","id":"a68b3n2ih1hw","geo_precision":"zip"},"type":"Feature","geometry":{"type":"Point","coordinates":[7.5,47.7833333]}},{"properties":{"city":"Paris","from":"Rotterdam","geo_score":1.0,"country":"France","id":"a68b3n4dspwq","geo_precision":"zip"},"type":"Feature","geometry":{"type":"Point","coordinates":[2.3488,48.85341]}},{"properties":{"city":"Strasbourg","from":"Rotterdam","geo_score":1.0,"country":"France","id":"a68b3nbhw58x","geo_precision":"zip"},"type":"Feature","geometry":{"type":"Point","coordinates":[7.75,48.5833333]}},{"properties":{"city":"Andernach","from":"Rotterdam","geo_score":1.0,"country":"Germany","id":"a68b3ndno67n","geo_precision":"zip"},"type":"Feature","geometry":{"type":"Point","coordinates":[7.4,50.4333333]}},{"properties":{"city":"Basel","from":"Rotterdam","geo_score":0.971,"country":"Germany","id":"a68b3n7w700v","geo_precision":"zip"},"type":"Feature","geometry":{"type":"Point","coordinates":[7.95,53.0]}},{"properties":{"city":"Buna","from":"Rotterdam","geo_score":0.929,"country":"Germany","id":"a68b3n01wttk","geo_precision":"zip"},"type":"Feature","geometry":{"type":"Point","coordinates":[7.1,50.7333333]}},{"properties":{"city":"Dortmund","from":"Rotterdam","geo_score":0.945,"country":"Germany","id":"a68b3mz0f355","geo_precision":"zip"},"type":"Feature","geometry":{"type":"Point","coordinates":[7.47695,51.5125]}},{"properties":{"city":"Duisburg","from":"Rotterdam","geo_score":0.945,"country":"Germany","id":"a68b3nc64v57","geo_precision":"zip"},"type":"Feature","geometry":{"type":"Point","coordinates":[6.77435,51.4293833333333]}},{"properties":{"city":"Gablingen","from":"Rotterdam","geo_score":1.0,"country":"Germany","id":"a68b3n0sk4k5","geo_precision":"zip"},"type":"Feature","geometry":{"type":"Point","coordinates":[10.8167,48.45]}},{"properties":{"city":"Germersheim","from":"Rotterdam","geo_score":1.0,"country":"Germany","id":"a68b3n6my8c1","geo_precision":"zip"},"type":"Feature","geometry":{"type":"Point","coordinates":[8.3638889,49.2230556]}},{"properties":{"city":"Hamburg","from":"Rotterdam","geo_score":1.0,"country":"Germany","id":"a68b3n7uoiak","geo_precision":"zip"},"type":"Feature","geometry":{"type":"Point","coordinates":[10.0,53.55]}},{"properties":{"city":"Keulen","from":"Rotterdam","geo_score":0.929,"country":"Germany","id":"a68b3ndi10wg","geo_precision":"zip"},"type":"Feature","geometry":{"type":"Point","coordinates":[6.95,50.9333333]}},{"properties":{"city":"Leipzig","from":"Rotterdam","geo_score":1.0,"country":"Germany","id":"a68b3n29wrax","geo_precision":"zip"},"type":"Feature","geometry":{"type":"Point","coordinates":[12.371292,51.33962]}},{"properties":{"city":"Ludwigshafen","from":"Rotterdam","geo_score":0.929,"country":"Germany","id":"a68b3nb9kqlv","geo_precision":"zip"},"type":"Feature","geometry":{"type":"Point","coordinates":[8.437625,49.4827875]}},{"properties":{"city":"Mannheim","from":"Rotterdam","geo_score":1.0,"country":"Germany","id":"a68b3n6fbcal","geo_precision":"zip"},"type":"Feature","geometry":{"type":"Point","coordinates":[8.4647222,49.4883333]}},{"properties":{"city":"Mainz","from":"Rotterdam","geo_score":1.0,"country":"Germany","id":"a68b3nd4q2a6","geo_precision":"zip"},"type":"Feature","geometry":{"type":"Point","coordinates":[8.2711111,50.0]}},{"properties":{"city":"Munchen","from":"Rotterdam","geo_score":0.982,"country":"Germany","id":"a68b3nadqfz9","geo_precision":"zip"},"type":"Feature","geometry":{"type":"Point","coordinates":[11.5754914283752,48.1374325498109]}},{"properties":{"city":"Neuss","from":"Rotterdam","geo_score":1.0,"country":"Germany","id":"a68b3nd2bn0k","geo_precision":"zip"},"type":"Feature","geometry":{"type":"Point","coordinates":[6.6833333,51.2]}},{"properties":{"city":"Schkopau","from":"Rotterdam","geo_score":1.0,"country":"Germany","id":"a68b3ne7isyl","geo_precision":"zip"},"type":"Feature","geometry":{"type":"Point","coordinates":[12.046292592625,51.4]}},{"properties":{"city":"Schwarzheide","from":"Rotterdam","geo_score":0.921,"country":"Germany","id":"a68b3n5zo53c","geo_precision":"zip"},"type":"Feature","geometry":{"type":"Point","coordinates":[8.4327778,48.0169444]}},{"properties":{"city":"Singen","from":"Rotterdam","geo_score":1.0,"country":"Germany","id":"a68b3nbkdxuo","geo_precision":"zip"},"type":"Feature","geometry":{"type":"Point","coordinates":[8.84030342102051,47.7593488844417]}},{"properties":{"city":"Stuttgart","from":"Rotterdam","geo_score":0.949,"country":"Germany","id":"a68b3neursx2","geo_precision":"zip"},"type":"Feature","geometry":{"type":"Point","coordinates":[9.1775,48.776667]}},{"properties":{"city":"Budapest","from":"Rotterdam","geo_score":0.933,"country":"Hungary","id":"a68b3mysypiv","geo_precision":"zip"},"type":"Feature","geometry":{"type":"Point","coordinates":[19.0833333,47.5]}},{"properties":{"city":"Gyor","from":"Rotterdam","geo_score":1.0,"country":"Hungary","id":"a68b3nad3f1f","geo_precision":"zip"},"type":"Feature","geometry":{"type":"Point","coordinates":[17.6351165771484,47.6833322473398]}},{"properties":{"city":"Sopron","from":"Rotterdam","geo_score":1.0,"country":"Hungary","id":"a68b3n0t0eii","geo_precision":"zip"},"type":"Feature","geometry":{"type":"Point","coordinates":[16.6,47.6833333]}},{"properties":{"city":"Bari","from":"Rotterdam","geo_score":1.0,"country":"Italy","id":"a68b3n8akvbh","geo_precision":"zip"},"type":"Feature","geometry":{"type":"Point","coordinates":[16.851185,41.117734]}},{"properties":{"city":"Bologna","from":"Rotterdam","geo_score":1.0,"country":"Italy","id":"a68b3n89k18n","geo_precision":"zip"},"type":"Feature","geometry":{"type":"Point","coordinates":[11.3387489318848,44.4938114812334]}},{"properties":{"city":"Busto Arsizio","from":"Rotterdam","geo_score":1.0,"country":"Italy","id":"a68b3n1u7xrl","geo_precision":"zip"},"type":"Feature","geometry":{"type":"Point","coordinates":[8.84914398193359,45.6112756155815]}},{"properties":{"city":"Catania Bicocca","from":"Rotterdam","geo_score":0.929,"country":"Italy","id":"a68b3n1rw7fy","geo_precision":"zip"},"type":"Feature","geometry":{"type":"Point","coordinates":[15.0871896743774,37.5021339578821]}},{"properties":{"city":"Fiorenzula","from":"Rotterdam","geo_score":0.946,"country":"Italy","id":"a68b3nbald5d","geo_precision":"zip"},"type":"Feature","geometry":{"type":"Point","coordinates":[9.908973,44.922064]}},{"properties":{"city":"Fronsinone","from":"Rotterdam","geo_score":0.914,"country":"Italy","id":"a68b3n14ig7z","geo_precision":"zip"},"type":"Feature","geometry":{"type":"Point","coordinates":[12.5047222,45.9091667]}},{"properties":{"city":"Marcianise Maddaloni","from":"Rotterdam","geo_score":0.932,"country":"Italy","id":"a68b3ncj8kes","geo_precision":"zip"},"type":"Feature","geometry":{"type":"Point","coordinates":[14.300929,41.032214]}},{"properties":{"city":"Melzo","from":"Rotterdam","geo_score":0.939,"country":"Italy","id":"a68b3nb666y0","geo_precision":"zip"},"type":"Feature","geometry":{"type":"Point","coordinates":[15.238283,38.221166]}},{"properties":{"city":"Milano","from":"Rotterdam","geo_score":1.0,"country":"Italy","id":"a68b3n4cfzfy","geo_precision":"zip"},"type":"Feature","geometry":{"type":"Point","coordinates":[9.1895055770874,45.4642693810258]}},{"properties":{"city":"Mortara","from":"Rotterdam","geo_score":1.0,"country":"Italy","id":"a68b3n324pzk","geo_precision":"zip"},"type":"Feature","geometry":{"type":"Point","coordinates":[8.735541,45.247261]}},{"properties":{"city":"Nola","from":"Rotterdam","geo_score":1.0,"country":"Italy","id":"a68b3mz0mi6v","geo_precision":"zip"},"type":"Feature","geometry":{"type":"Point","coordinates":[14.532936,40.922013]}},{"properties":{"city":"Novara","from":"Rotterdam","geo_score":1.0,"country":"Italy","id":"a68b3ncafjt2","geo_precision":"zip"},"type":"Feature","geometry":{"type":"Point","coordinates":[8.616835,45.440565]}},{"properties":{"city":"Padova","from":"Rotterdam","geo_score":1.0,"country":"Italy","id":"a68b3ncov6v8","geo_precision":"zip"},"type":"Feature","geometry":{"type":"Point","coordinates":[11.881808,45.415194]}},{"properties":{"city":"Pomezia","from":"Rotterdam","geo_score":1.0,"country":"Italy","id":"a68b3n1bwb1w","geo_precision":"zip"},"type":"Feature","geometry":{"type":"Point","coordinates":[12.505181,41.667013]}},{"properties":{"city":"Verona","from":"Rotterdam","geo_score":1.0,"country":"Italy","id":"a68b3n0rtc79","geo_precision":"zip"},"type":"Feature","geometry":{"type":"Point","coordinates":[10.997788,45.434186]}},{"properties":{"city":"Coevorden","from":"Rotterdam","geo_score":1.0,"country":"Netherlands","id":"a68b3nc87tls","geo_precision":"zip"},"type":"Feature","geometry":{"type":"Point","coordinates":[6.741667,52.6625]}},{"properties":{"city":"eindhoven","from":"Rotterdam","geo_score":1.0,"country":"Netherlands","id":"a68b3ne9umap","geo_precision":"zip"},"type":"Feature","geometry":{"type":"Point","coordinates":[5.477778,51.440833]}},{"properties":{"city":"Groningen","from":"Rotterdam","geo_score":1.0,"country":"Netherlands","id":"a68b3ncaxath","geo_precision":"zip"},"type":"Feature","geometry":{"type":"Point","coordinates":[6.566667,53.219167]}},{"properties":{"city":"Leeuwarden","from":"Rotterdam","geo_score":1.0,"country":"Netherlands","id":"a68b3nexj5kf","geo_precision":"zip"},"type":"Feature","geometry":{"type":"Point","coordinates":[5.7833333,53.2]}},{"properties":{"city":"Stein","from":"Rotterdam","geo_score":1.0,"country":"Netherlands","id":"a68b3nbdb50t","geo_precision":"zip"},"type":"Feature","geometry":{"type":"Point","coordinates":[5.766667,50.969167]}},{"properties":{"city":"Tilburg","from":"Rotterdam","geo_score":1.0,"country":"Netherlands","id":"a68b3n0sr215","geo_precision":"zip"},"type":"Feature","geometry":{"type":"Point","coordinates":[5.09130477905273,51.555514883268]}},{"properties":{"city":"Venlo","from":"Rotterdam","geo_score":1.0,"country":"Netherlands","id":"a68b3n45kjy4","geo_precision":"zip"},"type":"Feature","geometry":{"type":"Point","coordinates":[6.168056,51.37]}},{"properties":{"city":"Oslo","from":"Rotterdam","geo_score":1.0,"country":"Norway","id":"a68b3n4paj4d","geo_precision":"zip"},"type":"Feature","geometry":{"type":"Point","coordinates":[10.7389211654663,59.9132457671591]}},{"properties":{"city":"Brzeg Dolny","from":"Rotterdam","geo_score":0.929,"country":"Poland","id":"a68b3n4a1cx2","geo_precision":"zip"},"type":"Feature","geometry":{"type":"Point","coordinates":[17.4666667,50.85]}},{"properties":{"city":"Gadki","from":"Rotterdam","geo_score":0.929,"country":"Poland","id":"a68b3n87vmbe","geo_precision":"zip"},"type":"Feature","geometry":{"type":"Point","coordinates":[22.1666667,50.25]}},{"properties":{"city":"Gliwice Kontenerowa","from":"Rotterdam","geo_score":0.913,"country":"Poland","id":"a68b3nbhcmvv","geo_precision":"zip"},"type":"Feature","geometry":{"type":"Point","coordinates":[18.6666667,50.2833333]}},{"properties":{"city":"Katy Wroclawskie","from":"Rotterdam","geo_score":0.886,"country":"Poland","id":"a68b3n52a9e4","geo_precision":"zip"},"type":"Feature","geometry":{"type":"Point","coordinates":[19.2333333,49.8833333]}},{"properties":{"city":"Kobylnica","from":"Rotterdam","geo_score":0.968,"country":"Poland","id":"a68b3n35g7eo","geo_precision":"zip"},"type":"Feature","geometry":{"type":"Point","coordinates":[20.2333333,52.4666667]}},{"properties":{"city":"Kutno","from":"Rotterdam","geo_score":0.881,"country":"Poland","id":"a68b3n66cqto","geo_precision":"zip"},"type":"Feature","geometry":{"type":"Point","coordinates":[18.55,54.5]}},{"properties":{"city":"Slawkow","from":"Rotterdam","geo_score":0.878,"country":"Poland","id":"a68b3myr1ob1","geo_precision":"zip"},"type":"Feature","geometry":{"type":"Point","coordinates":[22.5,51.85]}},{"properties":{"city":"Warsazawa","from":"Rotterdam","geo_score":0.937,"country":"Poland","id":"a68b3n2jsp85","geo_precision":"zip"},"type":"Feature","geometry":{"type":"Point","coordinates":[21.1,50.9666667]}},{"properties":{"city":"Bradu De Sus","from":"Rotterdam","geo_score":0.914,"country":"Romania","id":"a68b3n6ot2im","geo_precision":"zip"},"type":"Feature","geometry":{"type":"Point","coordinates":[22.7833333,46.1333333]}},{"properties":{"city":"Bucuresti Noi","from":"Rotterdam","geo_score":0.964,"country":"Romania","id":"a68b3n4qv2pr","geo_precision":"zip"},"type":"Feature","geometry":{"type":"Point","coordinates":[26.1,44.4333333]}},{"properties":{"city":"Curtici","from":"Rotterdam","geo_score":1.0,"country":"Romania","id":"a68b3n8xnxo9","geo_precision":"zip"},"type":"Feature","geometry":{"type":"Point","coordinates":[21.3,46.35]}},{"properties":{"city":"Oradea","from":"Rotterdam","geo_score":1.0,"country":"Romania","id":"a68b3n2zqmlp","geo_precision":"zip"},"type":"Feature","geometry":{"type":"Point","coordinates":[21.9333333,47.0666667]}},{"properties":{"city":"Nizhny Novgorod","from":"Rotterdam","geo_score":0.99,"country":"Russia","id":"a68b3n9ppb77","geo_precision":"zip"},"type":"Feature","geometry":{"type":"Point","coordinates":[44.002046585083,56.3286733202717]}},{"properties":{"city":"Moscow","from":"Rotterdam","geo_score":1.0,"country":"Russia","id":"a68b3n6wdf8v","geo_precision":"zip"},"type":"Feature","geometry":{"type":"Point","coordinates":[37.6155556,55.7522222]}},{"properties":{"city":"Dunajska Streda","from":"Rotterdam","geo_score":1.0,"country":"Slovak Republic","id":"a68b3n4o1cmi","geo_precision":"zip"},"type":"Feature","geometry":{"type":"Point","coordinates":[17.6121139526367,47.9926788654112]}},{"properties":{"city":"Kosice","from":"Rotterdam","geo_score":1.0,"country":"Slovak Republic","id":"a68b3nb9sbmo","geo_precision":"zip"},"type":"Feature","geometry":{"type":"Point","coordinates":[21.25,48.7166667]}},{"properties":{"city":"Sladkovicovo","from":"Rotterdam","geo_score":1.0,"country":"Slovak Republic","id":"a68b3n5q4dff","geo_precision":"zip"},"type":"Feature","geometry":{"type":"Point","coordinates":[17.65,48.2]}},{"properties":{"city":"Koper","from":"Rotterdam","geo_score":1.0,"country":"Slovenia","id":"a68b3ne76wlp","geo_precision":"zip"},"type":"Feature","geometry":{"type":"Point","coordinates":[13.7294444,45.5469444]}},{"properties":{"city":"Ljubljana","from":"Rotterdam","geo_score":1.0,"country":"Slovenia","id":"a68b3n8b277c","geo_precision":"zip"},"type":"Feature","geometry":{"type":"Point","coordinates":[14.5144444,46.0552778]}},{"properties":{"city":"Granollers","from":"Rotterdam","geo_score":1.0,"country":"Spain","id":"a68b3n2c5oze","geo_precision":"zip"},"type":"Feature","geometry":{"type":"Point","coordinates":[2.28481292724609,41.6074849195481]}},{"properties":{"city":"Madrid","from":"Rotterdam","geo_score":1.0,"country":"Spain","id":"a68b3n1f1yih","geo_precision":"zip"},"type":"Feature","geometry":{"type":"Point","coordinates":[-3.68274615575072,40.4893538421231]}},{"properties":{"city":"Basel Wolf","from":"Rotterdam","geo_score":0.937,"country":"Switzerland","id":"a68b3n6jduf5","geo_precision":"zip"},"type":"Feature","geometry":{"type":"Point","coordinates":[7.6,47.5666667]}},{"properties":{"city":"Niederglatt","from":"Rotterdam","geo_score":1.0,"country":"Switzerland","id":"a68b3n1g4kf9","geo_precision":"zip"},"type":"Feature","geometry":{"type":"Point","coordinates":[8.49986664206128,47.4906607057557]}},{"properties":{"city":"Istanbul","from":"Rotterdam","geo_score":1.0,"country":"Turkey","id":"a68b3ndo0o3h","geo_precision":"zip"},"type":"Feature","geometry":{"type":"Point","coordinates":[28.9833068847656,41.0350820029997]}}],"is_temporal":false,"author":{"url":"","metadata":"","contact_name":"","contact_address":"","source":"","contact_phone":""},"source":"","pagination":{"sort":null,"start":0,"total":89,"limit":1000000},"state":"complete","tags":"","published":"2014-08-13T07:32:44-04:00","id":106777}