{"type":"FeatureCollection","data_type":"Dataset","url_type":null,"permissions":[{"permissions":{"download":true,"view":true},"group_id":"everyone"}],"classification":null,"title":"Oppty Locations Sales Index Recommendations","count":27,"stream_id":107196,"contributor":{"url":"http://geocommons.com/users/24360","name":"24360"},"data_attributes":null,"calculation_params":null,"icon_link":null,"link":"http://geocommons.com/overlays/107196.json","extent":[8.78472,33.7575,8.78472,33.7575],"geometry_types":["point"],"unique_name":null,"name":"Oppty Locations Sales Index Recommendations","feature_count":27,"description":"","next_feature":null,"is_raster":false,"short_classification":"Y","stats":{"modeled":{"max":7,"mean":0.703703703703704,"variance":2.75498575498575,"stdev":1.6598149761301,"min":0,"median":0},"c-mrr index":{"max":92.32,"mean":84.1533333333333,"variance":10.0483384615384,"stdev":3.16991142802736,"min":82.25,"median":82.25},"existing":{"max":0,"mean":0.0,"variance":0.0,"stdev":0.0,"min":0,"median":0},"p-mrr index":{"max":120.61,"mean":85.1137037037037,"variance":81.6744703703704,"stdev":9.03739289675791,"min":81.41,"median":81.41},"current mrr":{"max":0,"mean":0.0,"variance":0.0,"stdev":0.0,"min":0,"median":0},"weighted index":{"max":74.7,"mean":63.5185185185185,"variance":954.933105413106,"stdev":30.901991932772,"min":-49.4,"median":74.7},"competition factor":{"max":4.0,"mean":1.27037037037037,"variance":0.558319088319088,"stdev":0.747207526942207,"min":1.0,"median":1.0}},"features":[{"properties":{"location name":"Burlington, VT","city":"Burlington","modeled":0,"c-mrr index":92.32,"geo_score":0.0,"existing":0,"hc":"0","p-mrr index":87.34,"current mrr":0,"id":"a62jft5wjmu7","geo_precision":"unmatched","weighted index":-49.4,"competition factor":4.0,"state":"VT","lgcy":"O"},"type":"Feature","geometry":null},{"properties":{"location name":"Albany","city":"Albany","modeled":3,"c-mrr index":91.99,"geo_score":0.0,"existing":0,"hc":"3","p-mrr index":87.38,"current mrr":0,"id":"a62jftkor32y","geo_precision":"unmatched","weighted index":74.7,"competition factor":1.0,"state":"GA","lgcy":"D"},"type":"Feature","geometry":null},{"properties":{"location name":"Pensacola","city":"Pensacola","modeled":0,"c-mrr index":91.46,"geo_score":0.0,"existing":0,"hc":"0","p-mrr index":81.41,"current mrr":0,"id":"a62jftl052mp","geo_precision":"unmatched","weighted index":74.7,"competition factor":1.0,"state":"FL","lgcy":"D"},"type":"Feature","geometry":null},{"properties":{"location name":"Tallahassee","city":"Tallahassee","modeled":0,"c-mrr index":87.1,"geo_score":0.0,"existing":0,"hc":"0","p-mrr index":81.41,"current mrr":0,"id":"a62jftfk1ylh","geo_precision":"unmatched","weighted index":74.7,"competition factor":1.0,"state":"FL","lgcy":"D"},"type":"Feature","geometry":null},{"properties":{"location name":"Chattanooga","city":"Chattanooga","modeled":4,"c-mrr index":86.1,"geo_score":0.948,"existing":0,"hc":"4","p-mrr index":90.96,"current mrr":0,"id":"a62jftkf6po6","geo_precision":"zip","weighted index":74.7,"competition factor":1.0,"state":"TN","lgcy":"D"},"type":"Feature","geometry":{"type":"Point","coordinates":[8.7847222,33.7575]}},{"properties":{"location name":"Altoona, PA","city":"Altoona","modeled":1,"c-mrr index":85.92,"geo_score":0.0,"existing":0,"hc":"1","p-mrr index":84.81,"current mrr":0,"id":"a62jfth99udj","geo_precision":"unmatched","weighted index":74.7,"competition factor":1.0,"state":"PA","lgcy":"O"},"type":"Feature","geometry":null},{"properties":{"location name":"Biloxi","city":"Biloxi","modeled":0,"c-mrr index":85.65,"geo_score":0.0,"existing":0,"hc":"0","p-mrr index":83.19,"current mrr":0,"id":"a62jft9qzi4u","geo_precision":"unmatched","weighted index":74.7,"competition factor":1.0,"state":"MS","lgcy":"D"},"type":"Feature","geometry":null},{"properties":{"location name":"Hattiesburg","city":"Hattiesburg","modeled":0,"c-mrr index":85.21,"geo_score":0.0,"existing":0,"hc":"0","p-mrr index":81.41,"current mrr":0,"id":"a62jftereg4z","geo_precision":"unmatched","weighted index":74.7,"competition factor":1.0,"state":"MS","lgcy":"D"},"type":"Feature","geometry":null},{"properties":{"location name":"Elmira, NY","city":"Elmira","modeled":0,"c-mrr index":84.49,"geo_score":0.0,"existing":0,"hc":"0","p-mrr index":82.81,"current mrr":0,"id":"a62jft5u9pgy","geo_precision":"unmatched","weighted index":74.7,"competition factor":1.0,"state":"NY","lgcy":"O"},"type":"Feature","geometry":null},{"properties":{"location name":"Newburgh, NY--PA","city":"Newburgh","modeled":0,"c-mrr index":82.99,"geo_score":0.0,"existing":0,"hc":"0","p-mrr index":81.41,"current mrr":0,"id":"a62jftcukdwj","geo_precision":"unmatched","weighted index":74.7,"competition factor":1.0,"state":"NY","lgcy":"O"},"type":"Feature","geometry":null},{"properties":{"location name":"Evansville-Henderson, IN-KY","city":"Evansville","modeled":1,"c-mrr index":82.76,"geo_score":0.0,"existing":0,"hc":"1","p-mrr index":86.52,"current mrr":0,"id":"a62jft9cnjas","geo_precision":"unmatched","weighted index":54.0,"competition factor":1.5,"state":"IN","lgcy":"O"},"type":"Feature","geometry":null},{"properties":{"location name":"Detroit, MI","city":"Detroit","modeled":3,"c-mrr index":82.34,"geo_score":0.0,"existing":0,"hc":"3","p-mrr index":108.84,"current mrr":0,"id":"a62jft9kq997","geo_precision":"unmatched","weighted index":-8.0,"competition factor":3.0,"state":"MI","lgcy":"O"},"type":"Feature","geometry":null},{"properties":{"location name":"Wilmington--Newark, DE--MD","city":"Wilmington","modeled":0,"c-mrr index":82.31,"geo_score":0.0,"existing":0,"hc":"0","p-mrr index":81.64,"current mrr":0,"id":"a62jftb8s42j","geo_precision":"unmatched","weighted index":74.7,"competition factor":1.0,"state":"DE","lgcy":"O"},"type":"Feature","geometry":null},{"properties":{"location name":"Memphis","city":"Memphis","modeled":0,"c-mrr index":82.25,"geo_score":0.0,"existing":0,"hc":"0","p-mrr index":81.41,"current mrr":0,"id":"a62jft9g1kyr","geo_precision":"unmatched","weighted index":74.7,"competition factor":1.0,"state":"TN","lgcy":"D"},"type":"Feature","geometry":null},{"properties":{"location name":"Chicago/Gary","city":"Chicago","modeled":7,"c-mrr index":82.25,"geo_score":0.0,"existing":0,"hc":"7","p-mrr index":120.61,"current mrr":0,"id":"a62jftficfxa","geo_precision":"unmatched","weighted index":0.3,"competition factor":2.8,"state":"IL","lgcy":"N"},"type":"Feature","geometry":null},{"properties":{"location name":"Cincinnati, OH--KY--IN","city":"Cincinnati","modeled":0,"c-mrr index":82.25,"geo_score":0.0,"existing":0,"hc":"0","p-mrr index":81.41,"current mrr":0,"id":"a62jftapbtbb","geo_precision":"unmatched","weighted index":74.7,"competition factor":1.0,"state":"OH","lgcy":"N"},"type":"Feature","geometry":null},{"properties":{"location name":"Clarksville-Hopkinsville, TN-KY","city":"Clarksville","modeled":0,"c-mrr index":82.25,"geo_score":0.0,"existing":0,"hc":"0","p-mrr index":81.41,"current mrr":0,"id":"a62jfte3c7q5","geo_precision":"unmatched","weighted index":74.7,"competition factor":1.0,"state":"TN","lgcy":"N"},"type":"Feature","geometry":null},{"properties":{"location name":"Cumberland, MD-WV","city":"Cumberland","modeled":0,"c-mrr index":82.25,"geo_score":0.0,"existing":0,"hc":"0","p-mrr index":81.41,"current mrr":0,"id":"a62jftca14v7","geo_precision":"unmatched","weighted index":74.7,"competition factor":1.0,"state":"MD","lgcy":"N"},"type":"Feature","geometry":null},{"properties":{"location name":"Duluth-Superior, MN-WI","city":"Duluth","modeled":0,"c-mrr index":82.25,"geo_score":0.0,"existing":0,"hc":"0","p-mrr index":81.41,"current mrr":0,"id":"a62jfthdf85h","geo_precision":"unmatched","weighted index":74.7,"competition factor":1.0,"state":"MN","lgcy":"N"},"type":"Feature","geometry":null},{"properties":{"location name":"Huntington-Ashland, WV-KY-OH","city":"Huntington","modeled":0,"c-mrr index":82.25,"geo_score":0.0,"existing":0,"hc":"0","p-mrr index":81.41,"current mrr":0,"id":"a62jftbqf0oi","geo_precision":"unmatched","weighted index":74.7,"competition factor":1.0,"state":"WV","lgcy":"N"},"type":"Feature","geometry":null},{"properties":{"location name":"La Crosse, WI-MN","city":"La Crosse","modeled":0,"c-mrr index":82.25,"geo_score":0.0,"existing":0,"hc":"0","p-mrr index":81.41,"current mrr":0,"id":"a62jftgwwatk","geo_precision":"unmatched","weighted index":74.7,"competition factor":1.0,"state":"WI","lgcy":"N"},"type":"Feature","geometry":null},{"properties":{"location name":"Louisville, KY-IN","city":"Louisville","modeled":0,"c-mrr index":82.25,"geo_score":0.0,"existing":0,"hc":"0","p-mrr index":81.41,"current mrr":0,"id":"a62jftec9bu0","geo_precision":"unmatched","weighted index":74.7,"competition factor":1.0,"state":"KY","lgcy":"N"},"type":"Feature","geometry":null},{"properties":{"location name":"Minneapolis-St. Paul","city":"Minneapolis","modeled":0,"c-mrr index":82.25,"geo_score":0.0,"existing":0,"hc":"0","p-mrr index":81.41,"current mrr":0,"id":"a62jfth3na2e","geo_precision":"unmatched","weighted index":74.7,"competition factor":1.0,"state":"MN","lgcy":"N"},"type":"Feature","geometry":null},{"properties":{"location name":"Parkersburg-Marietta, WV-OH","city":"Parkersburg","modeled":0,"c-mrr index":82.25,"geo_score":0.0,"existing":0,"hc":"0","p-mrr index":81.41,"current mrr":0,"id":"a62jftkv5oaw","geo_precision":"unmatched","weighted index":74.7,"competition factor":1.0,"state":"WV","lgcy":"N"},"type":"Feature","geometry":null},{"properties":{"location name":"Springfield, IL","city":"Springfield","modeled":0,"c-mrr index":82.25,"geo_score":0.0,"existing":0,"hc":"0","p-mrr index":81.41,"current mrr":0,"id":"a62jftdtr6qk","geo_precision":"unmatched","weighted index":74.7,"competition factor":1.0,"state":"IL","lgcy":"N"},"type":"Feature","geometry":null},{"properties":{"location name":"St. Louis, MO-IL","city":"St. Louis","modeled":0,"c-mrr index":82.25,"geo_score":0.0,"existing":0,"hc":"0","p-mrr index":81.41,"current mrr":0,"id":"a62jft8591fe","geo_precision":"unmatched","weighted index":74.7,"competition factor":1.0,"state":"MO","lgcy":"N"},"type":"Feature","geometry":null},{"properties":{"location name":"Toledo, OH","city":"Toledo","modeled":0,"c-mrr index":82.25,"geo_score":0.0,"existing":0,"hc":"0","p-mrr index":81.41,"current mrr":0,"id":"a62jftaeel1q","geo_precision":"unmatched","weighted index":74.7,"competition factor":1.0,"state":"OH","lgcy":"N"},"type":"Feature","geometry":null}],"is_temporal":false,"author":{"url":null,"metadata":null,"contact_name":null,"contact_address":null,"source":null,"contact_phone":null},"source":null,"pagination":{"sort":null,"start":0,"total":27,"limit":1000000},"state":"complete","tags":"","published":"2014-08-13T08:09:11-04:00","id":107196}