{"type":"FeatureCollection","data_type":"Dataset","url_type":null,"permissions":[{"permissions":{"download":true,"view":true},"group_id":"everyone"}],"classification":null,"title":"Sales HC Recommendations","count":92,"stream_id":107215,"contributor":{"url":"http://geocommons.com/users/24360","name":"opusbvd"},"data_attributes":null,"calculation_params":null,"icon_link":null,"link":"http://geocommons.com/overlays/107215.json","extent":[-93.2638,25.7743,-70.2736,46.7833],"geometry_types":["point"],"unique_name":null,"name":"Sales HC Recommendations","feature_count":92,"description":"","next_feature":null,"is_raster":false,"short_classification":"Y","stats":{"hc_chg":{"max":7,"mean":0.282608695652174,"variance":4.88628762541806,"stdev":2.21049488246819,"min":-5,"median":0},"modeled":{"max":27,"mean":4.43478260869565,"variance":23.8308647873865,"stdev":4.8816866744381,"min":0,"median":3},"existing":{"max":26,"mean":4.15217391304348,"variance":21.1853798375538,"stdev":4.6027578512837,"min":0,"median":3}},"features":[{"properties":{"location name":"Chicago/Gary","city":"Chicago","location status":"N","hc_chg":7,"modeled":7,"geo_score":0.857,"existing":0,"id":"a6uaxigscjg0","geo_precision":"city","state":"IL","lgcy":"N"},"type":"Feature","geometry":{"type":"Point","coordinates":[-87.650052,41.850033]}},{"properties":{"location name":"Lyndhurst 1_2","city":"Lyndhurst","location status":"E","hc_chg":6,"modeled":14,"geo_score":0.857,"existing":8,"id":"a6uaxiueboxa","geo_precision":"city","state":"NJ","lgcy":"O"},"type":"Feature","geometry":{"type":"Point","coordinates":[-74.116517,40.799549]}},{"properties":{"location name":"Ft. Lauderdale","city":"Fort Lauderdale","location status":"E","hc_chg":5,"modeled":11,"geo_score":0.857,"existing":6,"id":"a6uaxijg30i2","geo_precision":"city","state":"FL","lgcy":"D"},"type":"Feature","geometry":{"type":"Point","coordinates":[-80.143379,26.122308]}},{"properties":{"location name":"Nashville","city":"Brentwood","location status":"E","hc_chg":4,"modeled":9,"geo_score":0.857,"existing":5,"id":"a6uaxivdxbp2","geo_precision":"city","state":"TN","lgcy":"D"},"type":"Feature","geometry":{"type":"Point","coordinates":[-86.907565,35.874553]}},{"properties":{"location name":"Greenville","city":"Greenville","location status":"E","hc_chg":4,"modeled":9,"geo_score":0.857,"existing":5,"id":"a6uaxihmkbmk","geo_precision":"city","state":"SC","lgcy":"D"},"type":"Feature","geometry":{"type":"Point","coordinates":[-82.402871,34.848567]}},{"properties":{"location name":"New Orleans","city":"Metairie","location status":"E","hc_chg":4,"modeled":9,"geo_score":0.857,"existing":5,"id":"a6uaxig2xnj8","geo_precision":"city","state":"LA","lgcy":"D"},"type":"Feature","geometry":{"type":"Point","coordinates":[-90.152852,29.984092]}},{"properties":{"location name":"Indianapolis, IN","city":"Indianapolis","location status":"E","hc_chg":4,"modeled":7,"geo_score":0.857,"existing":3,"id":"a6uaxiim8b6p","geo_precision":"city","state":"IN","lgcy":"O"},"type":"Feature","geometry":{"type":"Point","coordinates":[-86.158042,39.768377]}},{"properties":{"location name":"Albany, NY","city":"Albany","location status":"E","hc_chg":4,"modeled":5,"geo_score":0.857,"existing":1,"id":"a6uaxior6cul","geo_precision":"city","state":"NY","lgcy":"O"},"type":"Feature","geometry":{"type":"Point","coordinates":[-73.756232,42.652579]}},{"properties":{"location name":"Chattanooga","city":"Chattanooga","location status":"N","hc_chg":4,"modeled":4,"geo_score":0.857,"existing":0,"id":"a6uaxiun9wy6","geo_precision":"city","state":"TN","lgcy":"D"},"type":"Feature","geometry":{"type":"Point","coordinates":[-85.30968,35.04563]}},{"properties":{"location name":"Birmingham","city":"Birmingham","location status":"E","hc_chg":3,"modeled":8,"geo_score":0.857,"existing":5,"id":"a6uaxil4oq40","geo_precision":"city","state":"AL","lgcy":"D"},"type":"Feature","geometry":{"type":"Point","coordinates":[-86.80249,33.520661]}},{"properties":{"location name":"Baton Rouge","city":"Baton Rouge","location status":"E","hc_chg":3,"modeled":7,"geo_score":0.857,"existing":4,"id":"a6uaxiioviyy","geo_precision":"city","state":"LA","lgcy":"D"},"type":"Feature","geometry":{"type":"Point","coordinates":[-91.154551,30.450746]}},{"properties":{"location name":"Akron, OH","city":"Akron","location status":"E","hc_chg":3,"modeled":6,"geo_score":0.857,"existing":3,"id":"a6uaxikm0nu8","geo_precision":"city","state":"OH","lgcy":"O"},"type":"Feature","geometry":{"type":"Point","coordinates":[-81.519005,41.081445]}},{"properties":{"location name":"Albany","city":"Albany","location status":"N","hc_chg":3,"modeled":3,"geo_score":0.857,"existing":0,"id":"a6uaximkj7f8","geo_precision":"city","state":"GA","lgcy":"D"},"type":"Feature","geometry":{"type":"Point","coordinates":[-84.176751,31.560674]}},{"properties":{"location name":"Detroit, MI","city":"Detroit","location status":"N","hc_chg":3,"modeled":3,"geo_score":0.857,"existing":0,"id":"a6uaxilif6is","geo_precision":"city","state":"MI","lgcy":"O"},"type":"Feature","geometry":{"type":"Point","coordinates":[-83.045754,42.331427]}},{"properties":{"location name":"NY City 1_Queens 1","city":"New York","location status":"E","hc_chg":2,"modeled":16,"geo_score":0.857,"existing":14,"id":"a6uaxisbxscf","geo_precision":"city","state":"NY","lgcy":"O"},"type":"Feature","geometry":{"type":"Point","coordinates":[-74.005973,40.714269]}},{"properties":{"location name":"Pittsburgh 1_2","city":"Pittsburgh","location status":"E","hc_chg":2,"modeled":12,"geo_score":0.857,"existing":10,"id":"a6uaxihg19yh","geo_precision":"city","state":"PA","lgcy":"O"},"type":"Feature","geometry":{"type":"Point","coordinates":[-79.995886,40.440625]}},{"properties":{"location name":"Greensboro","city":"Greensboro","location status":"E","hc_chg":2,"modeled":7,"geo_score":0.857,"existing":5,"id":"a6uaxiktogbi","geo_precision":"city","state":"NC","lgcy":"D"},"type":"Feature","geometry":{"type":"Point","coordinates":[-79.791975,36.072636]}},{"properties":{"location name":"Columbia","city":"Columbia","location status":"E","hc_chg":2,"modeled":7,"geo_score":0.857,"existing":5,"id":"a6uaxikcvebb","geo_precision":"city","state":"SC","lgcy":"D"},"type":"Feature","geometry":{"type":"Point","coordinates":[-81.024864,33.987454]}},{"properties":{"location name":"Appleton, WI","city":"Appleton","location status":"E","hc_chg":2,"modeled":6,"geo_score":0.857,"existing":4,"id":"a6uaxiqvg25c","geo_precision":"city","state":"WI","lgcy":"O"},"type":"Feature","geometry":{"type":"Point","coordinates":[-88.370856,44.275702]}},{"properties":{"location name":"Melville","city":"Levittown","location status":"E","hc_chg":2,"modeled":6,"geo_score":0.857,"existing":4,"id":"a6uaxik064un","geo_precision":"city","state":"NY","lgcy":"O"},"type":"Feature","geometry":{"type":"Point","coordinates":[-73.515819,40.7228]}},{"properties":{"location name":"Dayton, OH","city":"Dayton","location status":"E","hc_chg":2,"modeled":4,"geo_score":0.857,"existing":2,"id":"a6uaxio3ma4u","geo_precision":"city","state":"OH","lgcy":"O"},"type":"Feature","geometry":{"type":"Point","coordinates":[-84.191607,39.758948]}},{"properties":{"location name":"Wilkes-Barre, PA","city":"Wilkes-Barre","location status":"E","hc_chg":2,"modeled":3,"geo_score":0.857,"existing":1,"id":"a6uaxiu7ea37","geo_precision":"city","state":"PA","lgcy":"O"},"type":"Feature","geometry":{"type":"Point","coordinates":[-75.881308,41.245915]}},{"properties":{"location name":"Atlanta","city":"Atlanta","location status":"E","hc_chg":1,"modeled":27,"geo_score":0.857,"existing":26,"id":"a6uaxiidb8fy","geo_precision":"city","state":"GA","lgcy":"D"},"type":"Feature","geometry":{"type":"Point","coordinates":[-84.387982,33.748995]}},{"properties":{"location name":"Buffalo-Erie","city":"Buffalo","location status":"E","hc_chg":1,"modeled":7,"geo_score":0.857,"existing":6,"id":"a6uaxij9tpn3","geo_precision":"city","state":"NY","lgcy":"O"},"type":"Feature","geometry":{"type":"Point","coordinates":[-78.878369,42.886447]}},{"properties":{"location name":"Madison, WI","city":"Madison","location status":"E","hc_chg":1,"modeled":5,"geo_score":0.857,"existing":4,"id":"a6uaxikyolq4","geo_precision":"city","state":"WI","lgcy":"O"},"type":"Feature","geometry":{"type":"Point","coordinates":[-89.40123,43.073052]}},{"properties":{"location name":"Harrisburg, PA","city":"Harrisburg","location status":"E","hc_chg":1,"modeled":4,"geo_score":0.857,"existing":3,"id":"a6uaxismcgi8","geo_precision":"city","state":"PA","lgcy":"O"},"type":"Feature","geometry":{"type":"Point","coordinates":[-76.884418,40.2737]}},{"properties":{"location name":"Augusta","city":"Augusta","location status":"E","hc_chg":1,"modeled":2,"geo_score":0.857,"existing":1,"id":"a6uaximv20s6","geo_precision":"city","state":"GA","lgcy":"D"},"type":"Feature","geometry":{"type":"Point","coordinates":[-81.974838,33.47097]}},{"properties":{"location name":"Macon","city":"Macon","location status":"E","hc_chg":1,"modeled":2,"geo_score":0.857,"existing":1,"id":"a6uaxifvw5a2","geo_precision":"city","state":"GA","lgcy":"D"},"type":"Feature","geometry":{"type":"Point","coordinates":[-83.632402,32.840695]}},{"properties":{"location name":"Altoona, PA","city":"Altoona","location status":"N","hc_chg":1,"modeled":1,"geo_score":0.776,"existing":0,"id":"a6uaxivv63d2","geo_precision":"city","state":"PA","lgcy":"O"},"type":"Feature","geometry":{"type":"Point","coordinates":[-76.012424,41.182027]}},{"properties":{"location name":"Evansville-Henderson, IN-KY","city":"Evansville","location status":"N","hc_chg":1,"modeled":1,"geo_score":0.857,"existing":0,"id":"a6uaxirsdl5e","geo_precision":"city","state":"IN","lgcy":"O"},"type":"Feature","geometry":{"type":"Point","coordinates":[-87.555848,37.974764]}},{"properties":{"location name":"Burlington 1-3","city":"Burlington","location status":"E","hc_chg":0,"modeled":18,"geo_score":0.857,"existing":18,"id":"a6uaxih0j0v9","geo_precision":"city","state":"MA","lgcy":"O"},"type":"Feature","geometry":{"type":"Point","coordinates":[-71.201539,42.504844]}},{"properties":{"location name":"Milwaukee, WI","city":"Milwaukee","location status":"E","hc_chg":0,"modeled":13,"geo_score":0.857,"existing":13,"id":"a6uaxirzbqup","geo_precision":"city","state":"WI","lgcy":"O"},"type":"Feature","geometry":{"type":"Point","coordinates":[-87.906474,43.038903]}},{"properties":{"location name":"Cumberland_Lincoln RI","city":"Cumberland","location status":"E","hc_chg":0,"modeled":12,"geo_score":0.816,"existing":12,"id":"a6uaxinnlr7p","geo_precision":"city","state":"RI","lgcy":"O"},"type":"Feature","geometry":{"type":"Point","coordinates":[-71.467004,41.974543]}},{"properties":{"location name":"Charlotte","city":"Charlotte","location status":"E","hc_chg":0,"modeled":12,"geo_score":0.857,"existing":12,"id":"a6uaxivg907k","geo_precision":"city","state":"NC","lgcy":"D"},"type":"Feature","geometry":{"type":"Point","coordinates":[-80.843127,35.227087]}},{"properties":{"location name":"Bedford, NH 1_2","city":"Bedford","location status":"E","hc_chg":0,"modeled":10,"geo_score":0.857,"existing":10,"id":"a6uaxitszpjj","geo_precision":"city","state":"NH","lgcy":"O"},"type":"Feature","geometry":{"type":"Point","coordinates":[-71.535515,42.93743]}},{"properties":{"location name":"Qunicy, MA","city":"Quincy","location status":"E","hc_chg":0,"modeled":8,"geo_score":0.857,"existing":8,"id":"a6uaxikw3l9g","geo_precision":"city","state":"MA","lgcy":"O"},"type":"Feature","geometry":{"type":"Point","coordinates":[-71.006042,42.241799]}},{"properties":{"location name":"Columbus, OH","city":"Columbus","location status":"E","hc_chg":0,"modeled":6,"geo_score":0.776,"existing":6,"id":"a6uaxisv1yst","geo_precision":"city","state":"OH","lgcy":"O"},"type":"Feature","geometry":{"type":"Point","coordinates":[-82.695724,39.998397]}},{"properties":{"location name":"Grand Rapids, MI","city":"Grand Rapids","location status":"E","hc_chg":0,"modeled":6,"geo_score":0.857,"existing":6,"id":"a6uaxiq2v4y6","geo_precision":"city","state":"MI","lgcy":"O"},"type":"Feature","geometry":{"type":"Point","coordinates":[-85.668086,42.96336]}},{"properties":{"location name":"Linthicum Heights","city":"Linthicum","location status":"E","hc_chg":0,"modeled":6,"geo_score":0.795,"existing":6,"id":"a6uaxigqt2q0","geo_precision":"city","state":"MD","lgcy":"O"},"type":"Feature","geometry":{"type":"Point","coordinates":[-76.631743,39.068309]}},{"properties":{"location name":"Rochester, NY","city":"Rochester","location status":"E","hc_chg":0,"modeled":6,"geo_score":0.857,"existing":6,"id":"a6uaxisc154d","geo_precision":"city","state":"NY","lgcy":"O"},"type":"Feature","geometry":{"type":"Point","coordinates":[-77.615557,43.154785]}},{"properties":{"location name":"Miami","city":"Miami","location status":"E","hc_chg":0,"modeled":6,"geo_score":0.857,"existing":6,"id":"a6uaxiovg0ez","geo_precision":"city","state":"FL","lgcy":"D"},"type":"Feature","geometry":{"type":"Point","coordinates":[-80.193659,25.774266]}},{"properties":{"location name":"Allentown PA","city":"Allentown","location status":"E","hc_chg":0,"modeled":4,"geo_score":0.857,"existing":4,"id":"a6uaxin40p88","geo_precision":"city","state":"PA","lgcy":"O"},"type":"Feature","geometry":{"type":"Point","coordinates":[-75.490183,40.608431]}},{"properties":{"location name":"Jacksonville","city":"Jacksonville","location status":"E","hc_chg":0,"modeled":4,"geo_score":0.857,"existing":4,"id":"a6uaxiqdlqjh","geo_precision":"city","state":"FL","lgcy":"D"},"type":"Feature","geometry":{"type":"Point","coordinates":[-81.655651,30.332184]}},{"properties":{"location name":"Fort Wayne, IN","city":"Ft. Wayne","location status":"E","hc_chg":0,"modeled":3,"geo_score":0.755,"existing":3,"id":"a6uaxiugh2do","geo_precision":"city","state":"IN","lgcy":"O"},"type":"Feature","geometry":{"type":"Point","coordinates":[-85.149971,40.553379]}},{"properties":{"location name":"South Bend, IN","city":"South Bend","location status":"E","hc_chg":0,"modeled":2,"geo_score":0.857,"existing":2,"id":"a6uaxikbx9du","geo_precision":"city","state":"IN","lgcy":"O"},"type":"Feature","geometry":{"type":"Point","coordinates":[-86.250007,41.683381]}},{"properties":{"location name":"Memphis","city":"Memphis","location status":null,"hc_chg":0,"modeled":0,"geo_score":0.857,"existing":0,"id":"a6uaxigakdf9","geo_precision":"city","state":"TN","lgcy":"D"},"type":"Feature","geometry":{"type":"Point","coordinates":[-90.04898,35.149534]}},{"properties":{"location name":"Pensacola","city":"Pensacola","location status":null,"hc_chg":0,"modeled":0,"geo_score":0.857,"existing":0,"id":"a6uaxiqnx6lu","geo_precision":"city","state":"FL","lgcy":"D"},"type":"Feature","geometry":{"type":"Point","coordinates":[-87.216915,30.421309]}},{"properties":{"location name":"Tallahassee","city":"Tallahassee","location status":null,"hc_chg":0,"modeled":0,"geo_score":0.857,"existing":0,"id":"a6uaxih8gbov","geo_precision":"city","state":"FL","lgcy":"D"},"type":"Feature","geometry":{"type":"Point","coordinates":[-84.280733,30.438256]}},{"properties":{"location name":"Biloxi","city":"Biloxi","location status":null,"hc_chg":0,"modeled":0,"geo_score":0.857,"existing":0,"id":"a6uaxital2dx","geo_precision":"city","state":"MS","lgcy":"D"},"type":"Feature","geometry":{"type":"Point","coordinates":[-88.978634,30.432454]}},{"properties":{"location name":"Hattiesburg","city":"Hattiesburg","location status":null,"hc_chg":0,"modeled":0,"geo_score":0.857,"existing":0,"id":"a6uaxii62zii","geo_precision":"city","state":"MS","lgcy":"D"},"type":"Feature","geometry":{"type":"Point","coordinates":[-89.28071,31.245138]}},{"properties":{"location name":"Burlington, VT","city":"Burlington","location status":null,"hc_chg":0,"modeled":0,"geo_score":0.78,"existing":0,"id":"a6uaxivplij6","geo_precision":"city","state":"VT","lgcy":"O"},"type":"Feature","geometry":{"type":"Point","coordinates":[-72.575941,44.21006]}},{"properties":{"location name":"Cincinnati, OH--KY--IN","city":"Cincinnati","location status":null,"hc_chg":0,"modeled":0,"geo_score":0.857,"existing":0,"id":"a6uaxijjw7ux","geo_precision":"city","state":"OH","lgcy":"N"},"type":"Feature","geometry":{"type":"Point","coordinates":[-84.456886,39.162004]}},{"properties":{"location name":"Clarksville-Hopkinsville, TN-KY","city":"Clarksville","location status":null,"hc_chg":0,"modeled":0,"geo_score":0.857,"existing":0,"id":"a6uaximuj5aa","geo_precision":"city","state":"TN","lgcy":"N"},"type":"Feature","geometry":{"type":"Point","coordinates":[-87.308491,36.51674]}},{"properties":{"location name":"Cumberland, MD-WV","city":"Cumberland","location status":null,"hc_chg":0,"modeled":0,"geo_score":0.757,"existing":0,"id":"a6uaxit44548","geo_precision":"city","state":"MD","lgcy":"N"},"type":"Feature","geometry":{"type":"Point","coordinates":[-76.631238,39.048359]}},{"properties":{"location name":"Duluth-Superior, MN-WI","city":"Duluth","location status":null,"hc_chg":0,"modeled":0,"geo_score":0.857,"existing":0,"id":"a6uaxiuis3qh","geo_precision":"city","state":"MN","lgcy":"N"},"type":"Feature","geometry":{"type":"Point","coordinates":[-92.106579,46.783273]}},{"properties":{"location name":"Elmira, NY","city":"Elmira","location status":null,"hc_chg":0,"modeled":0,"geo_score":0.857,"existing":0,"id":"a6uaxisy5s0f","geo_precision":"city","state":"NY","lgcy":"O"},"type":"Feature","geometry":{"type":"Point","coordinates":[-76.807734,42.089797]}},{"properties":{"location name":"Huntington-Ashland, WV-KY-OH","city":"Huntington","location status":null,"hc_chg":0,"modeled":0,"geo_score":0.857,"existing":0,"id":"a6uaxijkqife","geo_precision":"city","state":"WV","lgcy":"N"},"type":"Feature","geometry":{"type":"Point","coordinates":[-82.445154,38.41925]}},{"properties":{"location name":"La Crosse, WI-MN","city":"La Crosse","location status":null,"hc_chg":0,"modeled":0,"geo_score":0.857,"existing":0,"id":"a6uaxivu5c0j","geo_precision":"city","state":"WI","lgcy":"N"},"type":"Feature","geometry":{"type":"Point","coordinates":[-91.132072,43.85456]}},{"properties":{"location name":"Louisville, KY-IN","city":"Louisville","location status":null,"hc_chg":0,"modeled":0,"geo_score":0.857,"existing":0,"id":"a6uaxivxz5lb","geo_precision":"city","state":"KY","lgcy":"N"},"type":"Feature","geometry":{"type":"Point","coordinates":[-85.759407,38.254238]}},{"properties":{"location name":"Minneapolis-St. Paul","city":"Minneapolis","location status":null,"hc_chg":0,"modeled":0,"geo_score":0.857,"existing":0,"id":"a6uaxiu1yjcq","geo_precision":"city","state":"MN","lgcy":"N"},"type":"Feature","geometry":{"type":"Point","coordinates":[-93.263836,44.979965]}},{"properties":{"location name":"Newburgh, NY--PA","city":"Newburgh","location status":null,"hc_chg":0,"modeled":0,"geo_score":0.857,"existing":0,"id":"a6uaxiufnljq","geo_precision":"city","state":"NY","lgcy":"O"},"type":"Feature","geometry":{"type":"Point","coordinates":[-74.185363,41.38537]}},{"properties":{"location name":"Parkersburg-Marietta, WV-OH","city":"Parkersburg","location status":null,"hc_chg":0,"modeled":0,"geo_score":0.857,"existing":0,"id":"a6uaxioei32z","geo_precision":"city","state":"WV","lgcy":"N"},"type":"Feature","geometry":{"type":"Point","coordinates":[-81.55477,39.286315]}},{"properties":{"location name":"Springfield, IL","city":"Springfield","location status":null,"hc_chg":0,"modeled":0,"geo_score":0.818,"existing":0,"id":"a6uaximy65y8","geo_precision":"city","state":"IL","lgcy":"N"},"type":"Feature","geometry":{"type":"Point","coordinates":[-90.045117,41.612532]}},{"properties":{"location name":"St. Louis, MO-IL","city":"Saint Louis","location status":null,"hc_chg":0,"modeled":0,"geo_score":0.857,"existing":0,"id":"a6uaxivl0283","geo_precision":"city","state":"MO","lgcy":"N"},"type":"Feature","geometry":{"type":"Point","coordinates":[-90.197889,38.627273]}},{"properties":{"location name":"Toledo, OH","city":"Toledo","location status":null,"hc_chg":0,"modeled":0,"geo_score":0.857,"existing":0,"id":"a6uaximgppaw","geo_precision":"city","state":"OH","lgcy":"N"},"type":"Feature","geometry":{"type":"Point","coordinates":[-83.555212,41.663938]}},{"properties":{"location name":"Wilmington--Newark, DE--MD","city":"Wilmington","location status":null,"hc_chg":0,"modeled":0,"geo_score":0.857,"existing":0,"id":"a6uaximhvi7g","geo_precision":"city","state":"DE","lgcy":"O"},"type":"Feature","geometry":{"type":"Point","coordinates":[-75.546589,39.745947]}},{"properties":{"location name":"North Haven 1_2","city":"North Haven","location status":"E","hc_chg":-1,"modeled":12,"geo_score":0.857,"existing":13,"id":"a6uaxike9n60","geo_precision":"city","state":"CT","lgcy":"O"},"type":"Feature","geometry":{"type":"Point","coordinates":[-72.862644,41.384381]}},{"properties":{"location name":"Conshohocken (Philly)","city":"Conshohocken","location status":"E","hc_chg":-1,"modeled":7,"geo_score":0.857,"existing":8,"id":"a6uaxiqbu4vg","geo_precision":"city","state":"PA","lgcy":"O"},"type":"Feature","geometry":{"type":"Point","coordinates":[-75.304377,40.082509]}},{"properties":{"location name":"Springfield, MA","city":"Springfield","location status":"E","hc_chg":-1,"modeled":7,"geo_score":0.857,"existing":8,"id":"a6uaxigco8pa","geo_precision":"city","state":"MA","lgcy":"O"},"type":"Feature","geometry":{"type":"Point","coordinates":[-72.589811,42.101483]}},{"properties":{"location name":"West Palm Beach","city":"West Palm Beach","location status":"E","hc_chg":-1,"modeled":5,"geo_score":0.762,"existing":6,"id":"a6uaxiubz7ng","geo_precision":"city","state":"FL","lgcy":"D"},"type":"Feature","geometry":{"type":"Point","coordinates":[-80.035596,26.778118]}},{"properties":{"location name":"Charleston","city":"North Charleston","location status":"E","hc_chg":-1,"modeled":4,"geo_score":0.857,"existing":5,"id":"a6uaxiv83rkb","geo_precision":"city","state":"SC","lgcy":"D"},"type":"Feature","geometry":{"type":"Point","coordinates":[-79.97481,32.85462]}},{"properties":{"location name":"Knoxville","city":"Knoxville","location status":"E","hc_chg":-1,"modeled":3,"geo_score":0.794,"existing":4,"id":"a6uaxitxnw4h","geo_precision":"city","state":"TN","lgcy":"D"},"type":"Feature","geometry":{"type":"Point","coordinates":[-86.784443,36.16589]}},{"properties":{"location name":"Loves Park, IL","city":"Loves Park","location status":"E","hc_chg":-1,"modeled":2,"geo_score":0.857,"existing":3,"id":"a6uaxis770jo","geo_precision":"city","state":"IL","lgcy":"O"},"type":"Feature","geometry":{"type":"Point","coordinates":[-89.004716,42.341767]}},{"properties":{"location name":"Montgomery","city":"Montgomery","location status":"E","hc_chg":-1,"modeled":2,"geo_score":0.857,"existing":3,"id":"a6uaxiqhbd3k","geo_precision":"city","state":"AL","lgcy":"D"},"type":"Feature","geometry":{"type":"Point","coordinates":[-86.299969,32.366805]}},{"properties":{"location name":"Eastern NC","city":"Grenville","location status":"E","hc_chg":-1,"modeled":1,"geo_score":0.818,"existing":2,"id":"a6uaxigp0k89","geo_precision":"city","state":"NC","lgcy":"D"},"type":"Feature","geometry":{"type":"Point","coordinates":[-81.703445,36.408734]}},{"properties":{"location name":"Columbus","city":"Columbus","location status":"E","hc_chg":-1,"modeled":1,"geo_score":0.857,"existing":2,"id":"a6uaxii8v4xq","geo_precision":"city","state":"GA","lgcy":"D"},"type":"Feature","geometry":{"type":"Point","coordinates":[-84.987709,32.460976]}},{"properties":{"location name":"Wilmington","city":"Wilmington","location status":"E","hc_chg":-1,"modeled":1,"geo_score":0.857,"existing":2,"id":"a6uaxiv3c6ev","geo_precision":"city","state":"NC","lgcy":"D"},"type":"Feature","geometry":{"type":"Point","coordinates":[-77.94471,34.225726]}},{"properties":{"location name":"Daytona","city":"Daytona Beach","location status":"E","hc_chg":-1,"modeled":0,"geo_score":0.81,"existing":1,"id":"a6uaxitih4jz","geo_precision":"city","state":"FL","lgcy":"D"},"type":"Feature","geometry":{"type":"Point","coordinates":[-80.982832,29.176093]}},{"properties":{"location name":"Florence","city":"Florence","location status":"E","hc_chg":-1,"modeled":0,"geo_score":0.857,"existing":1,"id":"a6uaxikfmubc","geo_precision":"city","state":"AL","lgcy":"D"},"type":"Feature","geometry":{"type":"Point","coordinates":[-87.686915,34.869601]}},{"properties":{"location name":"Raleigh","city":"Raleigh","location status":"E","hc_chg":-2,"modeled":11,"geo_score":0.857,"existing":13,"id":"a6uaxiucwrrk","geo_precision":"city","state":"NC","lgcy":"D"},"type":"Feature","geometry":{"type":"Point","coordinates":[-78.638615,35.772096]}},{"properties":{"location name":"Jackson","city":"Jackson","location status":"E","hc_chg":-2,"modeled":3,"geo_score":0.857,"existing":5,"id":"a6uaxivjczcb","geo_precision":"city","state":"MS","lgcy":"D"},"type":"Feature","geometry":{"type":"Point","coordinates":[-90.18481,32.298757]}},{"properties":{"location name":"Ocala","city":"Ocala","location status":"E","hc_chg":-2,"modeled":0,"geo_score":0.857,"existing":2,"id":"a6uaxisebie9","geo_precision":"city","state":"FL","lgcy":"D"},"type":"Feature","geometry":{"type":"Point","coordinates":[-82.169401,29.238672]}},{"properties":{"location name":"Orlando","city":"Orlando","location status":"E","hc_chg":-3,"modeled":3,"geo_score":0.857,"existing":6,"id":"a6uaxigicpew","geo_precision":"city","state":"FL","lgcy":"D"},"type":"Feature","geometry":{"type":"Point","coordinates":[-81.379237,28.538336]}},{"properties":{"location name":"Huntsville","city":"Huntsville","location status":"E","hc_chg":-3,"modeled":3,"geo_score":0.857,"existing":6,"id":"a6uaxijuborv","geo_precision":"city","state":"AL","lgcy":"D"},"type":"Feature","geometry":{"type":"Point","coordinates":[-86.556439,34.718428]}},{"properties":{"location name":"Portland, ME","city":"Scarborough","location status":"E","hc_chg":-3,"modeled":1,"geo_score":0.857,"existing":4,"id":"a6uaxipu8tbr","geo_precision":"city","state":"ME","lgcy":"O"},"type":"Feature","geometry":{"type":"Point","coordinates":[-70.273642,43.576983]}},{"properties":{"location name":"Savannah","city":"Savannah","location status":"E","hc_chg":-3,"modeled":1,"geo_score":0.857,"existing":4,"id":"a6uaxiq9n1ct","geo_precision":"city","state":"GA","lgcy":"D"},"type":"Feature","geometry":{"type":"Point","coordinates":[-81.099834,32.083541]}},{"properties":{"location name":"Anniston","city":"Anniston","location status":"E","hc_chg":-3,"modeled":0,"geo_score":0.857,"existing":3,"id":"a6uaxikybama","geo_precision":"city","state":"AL","lgcy":"D"},"type":"Feature","geometry":{"type":"Point","coordinates":[-85.792328,33.759768]}},{"properties":{"location name":"Dothan","city":"Dothan","location status":"E","hc_chg":-3,"modeled":0,"geo_score":0.857,"existing":3,"id":"a6uaxire34k8","geo_precision":"city","state":"AL","lgcy":"D"},"type":"Feature","geometry":{"type":"Point","coordinates":[-85.371845,31.148124]}},{"properties":{"location name":"Rye Brook 1_2","city":"Rye Brook","location status":"E","hc_chg":-4,"modeled":6,"geo_score":0.857,"existing":10,"id":"a6uaxijok9mg","geo_precision":"city","state":"NY","lgcy":"O"},"type":"Feature","geometry":{"type":"Point","coordinates":[-73.683462,41.019264]}},{"properties":{"location name":"Mobile","city":"Mobile","location status":"E","hc_chg":-4,"modeled":2,"geo_score":0.857,"existing":6,"id":"a6uaxilka6ei","geo_precision":"city","state":"AL","lgcy":"D"},"type":"Feature","geometry":{"type":"Point","coordinates":[-88.043054,30.694357]}},{"properties":{"location name":"Marlborough 1_2","city":"Marlboro","location status":"E","hc_chg":-5,"modeled":5,"geo_score":0.857,"existing":10,"id":"a6uaxiumzio7","geo_precision":"city","state":"MA","lgcy":"O"},"type":"Feature","geometry":{"type":"Point","coordinates":[-70.97311,42.716759]}},{"properties":{"location name":"Tampa","city":"Tampa","location status":"E","hc_chg":-5,"modeled":0,"geo_score":0.857,"existing":5,"id":"a6uaxir8nyax","geo_precision":"city","state":"FL","lgcy":"D"},"type":"Feature","geometry":{"type":"Point","coordinates":[-82.458428,27.947522]}}],"is_temporal":false,"author":{"url":"","metadata":"","contact_name":"","contact_address":"","source":"","contact_phone":""},"source":"","pagination":{"sort":null,"start":0,"total":92,"limit":1000000},"state":"complete","tags":"","published":"2014-08-13T08:11:06-04:00","id":107215}