{"type":"FeatureCollection","data_type":"Dataset","url_type":null,"permissions":[{"permissions":{"download":true,"view":true},"group_id":"everyone"}],"classification":null,"title":"existing locations sales index recommendations","count":65,"stream_id":107411,"contributor":{"url":"http://geocommons.com/users/24360","name":"24360"},"data_attributes":null,"calculation_params":null,"icon_link":null,"link":"http://geocommons.com/overlays/107411.json","extent":[9.86667,-1.68333,80.3333,25.4833],"geometry_types":["point"],"unique_name":null,"name":"existing locations sales index recommendations","feature_count":65,"description":"","next_feature":null,"is_raster":false,"short_classification":"Y","stats":{"modeled":{"max":27,"mean":5.98461538461538,"variance":24.4528846153846,"stdev":4.94498580537746,"min":0,"median":6},"c-mrr index":{"max":200.0,"mean":101.388307692308,"variance":327.171233028846,"stdev":18.0878753044366,"min":84.48,"median":95.81},"existing":{"max":26,"mean":5.87692307692308,"variance":19.8283653846154,"stdev":4.45290527460616,"min":1,"median":5},"hc":{"max":6,"mean":0.107692307692308,"variance":5.72259615384615,"stdev":2.39219484027663,"min":-5,"median":0},"p-mrr index":{"max":200.0,"mean":101.735846153846,"variance":628.199443413462,"stdev":25.0639071857015,"min":81.41,"median":93.94},"current mrr":{"max":2511496,"mean":408216.261538462,"variance":148844229847.571,"stdev":385803.356449333,"min":47668,"median":289315},"weighted index":{"max":200.0,"mean":102.723076923077,"variance":792.253677884616,"stdev":28.1470012236582,"min":33.3,"median":96.8},"competition factor":{"max":3.5,"mean":1.31076923076923,"variance":0.417850961538461,"stdev":0.646413924307375,"min":0.5,"median":1.0}},"features":[{"properties":{"geo_precision0":"unmatched","location name":"Atlanta","city":"Atlanta","geo_score0":0.0,"latitude":"33.748995","modeled":27,"c-mrr index":137.8,"existing":26,"geo_score":"0.857","hc":1,"p-mrr index":200.0,"current mrr":1184920,"longitude":"-84.387982","id":"a68h7dp7d9lc","geo_precision":"city","weighted index":76.6,"competition factor":2.2,"state":"GA","lgcy":"D"},"type":"Feature","geometry":null},{"properties":{"geo_precision0":"unmatched","location name":"Burlington 1-3","city":"Burlington","geo_score0":0.0,"latitude":"42.504844","modeled":18,"c-mrr index":200.0,"existing":18,"geo_score":"0.857","hc":0,"p-mrr index":182.04,"current mrr":2511496,"longitude":"-71.201539","id":"a68h7dj8jhpm","geo_precision":"city","weighted index":75.8,"competition factor":2.5,"state":"MA","lgcy":"O"},"type":"Feature","geometry":null},{"properties":{"geo_precision0":"unmatched","location name":"NY City 1_Queens 1","city":"New York","geo_score0":0.0,"latitude":"40.714269","modeled":16,"c-mrr index":115.01,"existing":14,"geo_score":"0.857","hc":2,"p-mrr index":170.43,"current mrr":698693,"longitude":"-74.005973","id":"a68h7dkituq3","geo_precision":"city","weighted index":84.5,"competition factor":2.5,"state":"NY","lgcy":"O"},"type":"Feature","geometry":null},{"properties":{"geo_precision0":"unmatched","location name":"Raleigh","city":"Raleigh","geo_score0":0.0,"latitude":"35.772096","modeled":11,"c-mrr index":119.72,"existing":13,"geo_score":"0.857","hc":-2,"p-mrr index":104.92,"current mrr":799232,"longitude":"-78.638615","id":"a68h7dirx13y","geo_precision":"city","weighted index":95.1,"competition factor":1.0,"state":"NC","lgcy":"D"},"type":"Feature","geometry":null},{"properties":{"geo_precision0":"unmatched","location name":"Milwaukee, WI","city":"Milwaukee","geo_score0":0.0,"latitude":"43.038903","modeled":13,"c-mrr index":114.1,"existing":13,"geo_score":"0.857","hc":0,"p-mrr index":125.95,"current mrr":679440,"longitude":"-87.906474","id":"a68h7ddata5p","geo_precision":"city","weighted index":96.8,"competition factor":1.4,"state":"WI","lgcy":"O"},"type":"Feature","geometry":null},{"properties":{"geo_precision0":"unmatched","location name":"North Haven 1_2","city":"North Haven","geo_score0":0.0,"latitude":"41.384381","modeled":12,"c-mrr index":108.77,"existing":13,"geo_score":"0.857","hc":-1,"p-mrr index":81.41,"current mrr":565668,"longitude":"-72.862644","id":"a68h7de6r0sf","geo_precision":"city","weighted index":74.7,"competition factor":1.0,"state":"CT","lgcy":"O"},"type":"Feature","geometry":null},{"properties":{"geo_precision0":"unmatched","location name":"Cumberland_Lincoln RI","city":"Cumberland","geo_score0":0.0,"latitude":"41.974543","modeled":12,"c-mrr index":112.53,"existing":12,"geo_score":"0.816","hc":0,"p-mrr index":118.17,"current mrr":645828,"longitude":"-71.467004","id":"a68h7ddktjz5","geo_precision":"city","weighted index":109.3,"competition factor":1.0,"state":"RI","lgcy":"O"},"type":"Feature","geometry":null},{"properties":{"geo_precision0":"unmatched","location name":"Charlotte","city":"Charlotte","geo_score0":0.0,"latitude":"35.227087","modeled":12,"c-mrr index":104.58,"existing":12,"geo_score":"0.857","hc":0,"p-mrr index":109.24,"current mrr":476325,"longitude":"-80.843127","id":"a68h7df0z89e","geo_precision":"city","weighted index":96.7,"competition factor":1.1,"state":"NC","lgcy":"D"},"type":"Feature","geometry":null},{"properties":{"geo_precision0":"unmatched","location name":"Bedford, NH 1_2","city":"Bedford","geo_score0":0.0,"latitude":"42.93743","modeled":10,"c-mrr index":149.64,"existing":10,"geo_score":"0.857","hc":0,"p-mrr index":87.21,"current mrr":1437401,"longitude":"-71.535515","id":"a68h7djhbbl6","geo_precision":"city","weighted index":81.2,"competition factor":1.0,"state":"NH","lgcy":"O"},"type":"Feature","geometry":null},{"properties":{"geo_precision0":"unmatched","location name":"Pittsburgh 1_2","city":"Pittsburgh","geo_score0":0.0,"latitude":"40.440625","modeled":12,"c-mrr index":120.53,"existing":10,"geo_score":"0.857","hc":2,"p-mrr index":109.35,"current mrr":816415,"longitude":"-79.995886","id":"a68h7dhani9g","geo_precision":"city","weighted index":106.2,"competition factor":1.0,"state":"PA","lgcy":"O"},"type":"Feature","geometry":null},{"properties":{"geo_precision0":"unmatched","location name":"Marlborough 1_2","city":"Marlboro","geo_score0":0.0,"latitude":"42.716759","modeled":5,"c-mrr index":101.72,"existing":10,"geo_score":"0.857","hc":-5,"p-mrr index":93.94,"current mrr":415259,"longitude":"-70.97311","id":"a68h7dcduayr","geo_precision":"city","weighted index":88.8,"competition factor":1.0,"state":"MA","lgcy":"O"},"type":"Feature","geometry":null},{"properties":{"geo_precision0":"unmatched","location name":"Rye Brook 1_2","city":"Rye Brook","geo_score0":0.0,"latitude":"41.019264","modeled":6,"c-mrr index":97.77,"existing":10,"geo_score":"0.857","hc":-4,"p-mrr index":89.15,"current mrr":331089,"longitude":"-73.683462","id":"a68h7dlcrua9","geo_precision":"city","weighted index":83.4,"competition factor":1.0,"state":"NY","lgcy":"O"},"type":"Feature","geometry":null},{"properties":{"geo_precision0":"unmatched","location name":"Springfield, MA","city":"Springfield","geo_score0":0.0,"latitude":"42.101483","modeled":7,"c-mrr index":137.21,"existing":8,"geo_score":"0.857","hc":-1,"p-mrr index":96.79,"current mrr":1172320,"longitude":"-72.589811","id":"a68h7dcymqwa","geo_precision":"city","weighted index":96.4,"competition factor":1.0,"state":"MA","lgcy":"O"},"type":"Feature","geometry":null},{"properties":{"geo_precision0":"unmatched","location name":"Lyndhurst 1_2","city":"Lyndhurst","geo_score0":0.0,"latitude":"40.799549","modeled":14,"c-mrr index":107.55,"existing":8,"geo_score":"0.857","hc":6,"p-mrr index":186.02,"current mrr":539632,"longitude":"-74.116517","id":"a68h7dimsc7d","geo_precision":"city","weighted index":119.1,"competition factor":3.5,"state":"NJ","lgcy":"O"},"type":"Feature","geometry":null},{"properties":{"geo_precision0":"unmatched","location name":"Qunicy, MA","city":"Quincy","geo_score0":0.0,"latitude":"42.241799","modeled":8,"c-mrr index":89.89,"existing":8,"geo_score":"0.857","hc":0,"p-mrr index":86.07,"current mrr":162939,"longitude":"-71.006042","id":"a68h7dfcxmuu","geo_precision":"city","weighted index":101.9,"competition factor":0.5,"state":"MA","lgcy":"O"},"type":"Feature","geometry":null},{"properties":{"geo_precision0":"unmatched","location name":"Conshohocken (Philly)","city":"Conshohocken","geo_score0":0.0,"latitude":"40.082509","modeled":7,"c-mrr index":88.14,"existing":8,"geo_score":"0.857","hc":-1,"p-mrr index":132.24,"current mrr":125625,"longitude":"-75.304377","id":"a68h7dg18otw","geo_precision":"city","weighted index":63.8,"competition factor":3.0,"state":"PA","lgcy":"O"},"type":"Feature","geometry":null},{"properties":{"geo_precision0":"unmatched","location name":"Buffalo-Erie","city":"Buffalo","geo_score0":0.0,"latitude":"42.886447","modeled":7,"c-mrr index":124.09,"existing":6,"geo_score":"0.857","hc":1,"p-mrr index":97.11,"current mrr":892316,"longitude":"-78.878369","id":"a68h7dfl263x","geo_precision":"city","weighted index":104.2,"competition factor":1.0,"state":"NY","lgcy":"O"},"type":"Feature","geometry":null},{"properties":{"geo_precision0":"unmatched","location name":"Huntsville","city":"Huntsville","geo_score0":0.0,"latitude":"34.718428","modeled":3,"c-mrr index":107.87,"existing":6,"geo_score":"0.857","hc":-3,"p-mrr index":88.37,"current mrr":546562,"longitude":"-86.556439","id":"a68h7ddjm4ea","geo_precision":"city","weighted index":87.8,"competition factor":1.0,"state":"AL","lgcy":"D"},"type":"Feature","geometry":null},{"properties":{"geo_precision0":"unmatched","location name":"Rochester, NY","city":"Rochester","geo_score0":0.0,"latitude":"43.154785","modeled":6,"c-mrr index":101.86,"existing":6,"geo_score":"0.857","hc":0,"p-mrr index":107.29,"current mrr":418217,"longitude":"-77.615557","id":"a68h7din0q93","geo_precision":"city","weighted index":123.4,"competition factor":1.0,"state":"NY","lgcy":"O"},"type":"Feature","geometry":null},{"properties":{"geo_precision0":"unmatched","location name":"Orlando","city":"Orlando","geo_score0":0.0,"latitude":"28.538336","modeled":3,"c-mrr index":99.03,"existing":6,"geo_score":"0.857","hc":-3,"p-mrr index":88.47,"current mrr":357977,"longitude":"-81.379237","id":"a68h7dm2yg2n","geo_precision":"city","weighted index":88.0,"competition factor":1.0,"state":"FL","lgcy":"D"},"type":"Feature","geometry":null},{"properties":{"geo_precision0":"unmatched","location name":"Ft. Lauderdale","city":"Fort Lauderdale","geo_score0":0.0,"latitude":"26.122308","modeled":11,"c-mrr index":98.31,"existing":6,"geo_score":"0.857","hc":5,"p-mrr index":104.22,"current mrr":342501,"longitude":"-80.143379","id":"a68h7ddrcnlh","geo_precision":"city","weighted index":117.6,"competition factor":1.0,"state":"FL","lgcy":"D"},"type":"Feature","geometry":null},{"properties":{"geo_precision0":"unmatched","location name":"West Palm Beach","city":"West Palm Beach","geo_score0":0.0,"latitude":"26.778118","modeled":5,"c-mrr index":96.43,"existing":6,"geo_score":"0.762","hc":-1,"p-mrr index":92.08,"current mrr":302454,"longitude":"-80.035596","id":"a68h7dp5yxw4","geo_precision":"city","weighted index":94.8,"competition factor":1.0,"state":"FL","lgcy":"D"},"type":"Feature","geometry":null},{"properties":{"geo_precision0":"unmatched","location name":"Miami","city":"Miami","geo_score0":0.0,"latitude":"25.774266","modeled":6,"c-mrr index":95.81,"existing":6,"geo_score":"0.857","hc":0,"p-mrr index":93.58,"current mrr":289315,"longitude":"-80.193659","id":"a68h7dnhkx6k","geo_precision":"city","weighted index":97.6,"competition factor":1.0,"state":"FL","lgcy":"D"},"type":"Feature","geometry":null},{"properties":{"geo_precision0":"unmatched","location name":"Mobile","city":"Mobile","geo_score0":0.0,"latitude":"30.694357","modeled":2,"c-mrr index":93.71,"existing":6,"geo_score":"0.857","hc":-4,"p-mrr index":86.17,"current mrr":244546,"longitude":"-88.043054","id":"a68h7dm13n1u","geo_precision":"city","weighted index":83.6,"competition factor":1.0,"state":"AL","lgcy":"D"},"type":"Feature","geometry":null},{"properties":{"geo_precision0":"unmatched","location name":"Columbus, OH","city":"Columbus","geo_score0":0.0,"latitude":"39.998397","modeled":6,"c-mrr index":90.62,"existing":6,"geo_score":"0.776","hc":0,"p-mrr index":119.94,"current mrr":178445,"longitude":"-82.695724","id":"a68h7das76a1","geo_precision":"city","weighted index":64.5,"competition factor":3.0,"state":"OH","lgcy":"O"},"type":"Feature","geometry":null},{"properties":{"geo_precision0":"unmatched","location name":"Grand Rapids, MI","city":"Grand Rapids","geo_score0":0.0,"latitude":"42.96336","modeled":6,"c-mrr index":89.81,"existing":6,"geo_score":"0.857","hc":0,"p-mrr index":111.6,"current mrr":161307,"longitude":"-85.668086","id":"a68h7db8v5yz","geo_precision":"city","weighted index":115.0,"competition factor":1.4,"state":"MI","lgcy":"O"},"type":"Feature","geometry":null},{"properties":{"geo_precision0":"unmatched","location name":"Linthicum Heights","city":"Linthicum","geo_score0":0.0,"latitude":"39.068309","modeled":6,"c-mrr index":86.89,"existing":6,"geo_score":"0.795","hc":0,"p-mrr index":101.65,"current mrr":98928,"longitude":"-76.631743","id":"a68h7dll3jn6","geo_precision":"city","weighted index":112.8,"competition factor":1.0,"state":"MD","lgcy":"O"},"type":"Feature","geometry":null},{"properties":{"geo_precision0":"unmatched","location name":"Birmingham","city":"Birmingham","geo_score0":0.0,"latitude":"33.520661","modeled":8,"c-mrr index":111.08,"existing":5,"geo_score":"0.857","hc":3,"p-mrr index":101.75,"current mrr":615034,"longitude":"-86.80249","id":"a68h7dl2lpuk","geo_precision":"city","weighted index":112.4,"competition factor":1.2,"state":"AL","lgcy":"D"},"type":"Feature","geometry":null},{"properties":{"geo_precision0":"unmatched","location name":"Tampa","city":"Tampa","geo_score0":0.0,"latitude":"27.947522","modeled":0,"c-mrr index":107.18,"existing":5,"geo_score":"0.857","hc":-5,"p-mrr index":81.41,"current mrr":531850,"longitude":"-82.458428","id":"a68h7di704lw","geo_precision":"city","weighted index":74.7,"competition factor":1.0,"state":"FL","lgcy":"D"},"type":"Feature","geometry":null},{"properties":{"geo_precision0":"unmatched","location name":"Greenville","city":"Greenville","geo_score0":0.0,"latitude":"34.848567","modeled":9,"c-mrr index":103.61,"existing":5,"geo_score":"0.857","hc":4,"p-mrr index":99.31,"current mrr":455537,"longitude":"-82.402871","id":"a68h7dgidowd","geo_precision":"city","weighted index":115.1,"competition factor":1.0,"state":"SC","lgcy":"D"},"type":"Feature","geometry":null},{"properties":{"geo_precision0":"unmatched","location name":"Columbia","city":"Columbia","geo_score0":0.0,"latitude":"33.987454","modeled":7,"c-mrr index":99.21,"existing":5,"geo_score":"0.857","hc":2,"p-mrr index":95.86,"current mrr":361752,"longitude":"-81.024864","id":"a68h7ddonm8v","geo_precision":"city","weighted index":107.3,"competition factor":1.0,"state":"SC","lgcy":"D"},"type":"Feature","geometry":null},{"properties":{"geo_precision0":"unmatched","location name":"Greensboro","city":"Greensboro","geo_score0":0.0,"latitude":"36.072636","modeled":7,"c-mrr index":95.26,"existing":5,"geo_score":"0.857","hc":2,"p-mrr index":95.54,"current mrr":277452,"longitude":"-79.791975","id":"a68h7dklgqb4","geo_precision":"city","weighted index":106.6,"competition factor":1.0,"state":"NC","lgcy":"D"},"type":"Feature","geometry":null},{"properties":{"geo_precision0":"unmatched","location name":"Nashville","city":"Brentwood","geo_score0":0.0,"latitude":"35.874553","modeled":9,"c-mrr index":93.01,"existing":5,"geo_score":"0.857","hc":4,"p-mrr index":125.34,"current mrr":229491,"longitude":"-86.907565","id":"a68h7dlwfalf","geo_precision":"city","weighted index":116.1,"competition factor":2.4,"state":"TN","lgcy":"D"},"type":"Feature","geometry":null},{"properties":{"geo_precision0":"unmatched","location name":"Jackson","city":"Jackson","geo_score0":0.0,"latitude":"32.298757","modeled":3,"c-mrr index":92.54,"existing":5,"geo_score":"0.857","hc":-2,"p-mrr index":88.31,"current mrr":219413,"longitude":"-90.18481","id":"a68h7do3cvso","geo_precision":"city","weighted index":90.3,"competition factor":1.0,"state":"MS","lgcy":"D"},"type":"Feature","geometry":null},{"properties":{"geo_precision0":"unmatched","location name":"Charleston","city":"North Charleston","geo_score0":0.0,"latitude":"32.85462","modeled":4,"c-mrr index":91.93,"existing":5,"geo_score":"0.857","hc":-1,"p-mrr index":90.69,"current mrr":206525,"longitude":"-79.97481","id":"a68h7dam11mr","geo_precision":"city","weighted index":95.7,"competition factor":1.0,"state":"SC","lgcy":"D"},"type":"Feature","geometry":null},{"properties":{"geo_precision0":"unmatched","location name":"New Orleans","city":"Metairie","geo_score0":0.0,"latitude":"29.984092","modeled":9,"c-mrr index":90.89,"existing":5,"geo_score":"0.857","hc":4,"p-mrr index":100.94,"current mrr":184396,"longitude":"-90.152852","id":"a68h7d9tszvh","geo_precision":"city","weighted index":118.8,"competition factor":1.0,"state":"LA","lgcy":"D"},"type":"Feature","geometry":null},{"properties":{"geo_precision0":"unmatched","location name":"Portland, ME","city":"Scarborough","geo_score0":0.0,"latitude":"43.576983","modeled":1,"c-mrr index":109.97,"existing":4,"geo_score":"0.857","hc":-3,"p-mrr index":85.18,"current mrr":591334,"longitude":"-70.273642","id":"a68h7dh3vjqq","geo_precision":"city","weighted index":85.3,"competition factor":1.0,"state":"ME","lgcy":"O"},"type":"Feature","geometry":null},{"properties":{"geo_precision0":"unmatched","location name":"Jacksonville","city":"Jacksonville","geo_score0":0.0,"latitude":"30.332184","modeled":4,"c-mrr index":100.18,"existing":4,"geo_score":"0.857","hc":0,"p-mrr index":89.48,"current mrr":382402,"longitude":"-81.655651","id":"a68h7dm3y26c","geo_precision":"city","weighted index":97.5,"competition factor":1.0,"state":"FL","lgcy":"D"},"type":"Feature","geometry":null},{"properties":{"geo_precision0":"unmatched","location name":"Allentown PA","city":"Allentown","geo_score0":0.0,"latitude":"40.608431","modeled":4,"c-mrr index":93.0,"existing":4,"geo_score":"0.857","hc":0,"p-mrr index":91.26,"current mrr":229206,"longitude":"-75.490183","id":"a68h7dml53n0","geo_precision":"city","weighted index":102.5,"competition factor":1.0,"state":"PA","lgcy":"O"},"type":"Feature","geometry":null},{"properties":{"geo_precision0":"unmatched","location name":"Knoxville","city":"Knoxville","geo_score0":0.0,"latitude":"36.16589","modeled":3,"c-mrr index":92.96,"existing":4,"geo_score":"0.794","hc":-1,"p-mrr index":95.78,"current mrr":228539,"longitude":"-83.784443","id":"a68h7doavmmr","geo_precision":"city","weighted index":73.9,"competition factor":2.0,"state":"TN","lgcy":"D"},"type":"Feature","geometry":null},{"properties":{"geo_precision0":"unmatched","location name":"Appleton, WI","city":"Appleton","geo_score0":0.0,"latitude":"44.275702","modeled":6,"c-mrr index":92.38,"existing":4,"geo_score":"0.857","hc":2,"p-mrr index":96.26,"current mrr":216119,"longitude":"-88.370856","id":"a68h7dfrct2c","geo_precision":"city","weighted index":116.6,"competition factor":1.0,"state":"WI","lgcy":"O"},"type":"Feature","geometry":null},{"properties":{"geo_precision0":"unmatched","location name":"Melville","city":"Levittown","geo_score0":0.0,"latitude":"40.7228","modeled":6,"c-mrr index":91.22,"existing":4,"geo_score":"0.857","hc":2,"p-mrr index":114.35,"current mrr":191318,"longitude":"-73.515819","id":"a68h7di3kb9w","geo_precision":"city","weighted index":105.7,"competition factor":2.5,"state":"NY","lgcy":"O"},"type":"Feature","geometry":null},{"properties":{"geo_precision0":"unmatched","location name":"Madison, WI","city":"Madison","geo_score0":0.0,"latitude":"43.073052","modeled":5,"c-mrr index":90.28,"existing":4,"geo_score":"0.857","hc":1,"p-mrr index":93.94,"current mrr":171291,"longitude":"-89.40123","id":"a68h7dj8793s","geo_precision":"city","weighted index":110.1,"competition factor":1.0,"state":"WI","lgcy":"O"},"type":"Feature","geometry":null},{"properties":{"geo_precision0":"unmatched","location name":"Baton Rouge","city":"Baton Rouge","geo_score0":0.0,"latitude":"30.450746","modeled":7,"c-mrr index":89.36,"existing":4,"geo_score":"0.857","hc":3,"p-mrr index":96.91,"current mrr":151569,"longitude":"-91.154551","id":"a68h7dejo2vd","geo_precision":"city","weighted index":118.5,"competition factor":1.0,"state":"LA","lgcy":"D"},"type":"Feature","geometry":null},{"properties":{"geo_precision0":"unmatched","location name":"Savannah","city":"Savannah","geo_score0":0.0,"latitude":"32.083541","modeled":1,"c-mrr index":84.48,"existing":4,"geo_score":"0.857","hc":-3,"p-mrr index":84.76,"current mrr":47668,"longitude":"-81.099834","id":"a68h7do3t24h","geo_precision":"city","weighted index":84.1,"competition factor":1.0,"state":"GA","lgcy":"D"},"type":"Feature","geometry":null},{"properties":{"geo_precision0":"unmatched","location name":"Montgomery","city":"Montgomery","geo_score0":0.0,"latitude":"32.366805","modeled":2,"c-mrr index":113.03,"existing":3,"geo_score":"0.857","hc":-1,"p-mrr index":87.25,"current mrr":656589,"longitude":"-86.299969","id":"a68h7dew5sgz","geo_precision":"city","weighted index":96.7,"competition factor":1.0,"state":"AL","lgcy":"D"},"type":"Feature","geometry":null},{"properties":{"geo_precision0":"zip","location name":"Fort Wayne, IN","city":"Ft. Wayne","geo_score0":0.918,"latitude":"40.553379","modeled":3,"c-mrr index":106.59,"existing":3,"geo_score":"0.755","hc":0,"p-mrr index":93.98,"current mrr":519127,"longitude":"-85.149971","id":"a68h7dnki0lf","geo_precision":"city","weighted index":122.0,"competition factor":1.0,"state":"IN","lgcy":"O"},"type":"Feature","geometry":{"type":"Point","coordinates":[78.95,20.0666667]}},{"properties":{"geo_precision0":"unmatched","location name":"Akron, OH","city":"Akron","geo_score0":0.0,"latitude":"41.081445","modeled":6,"c-mrr index":95.87,"existing":3,"geo_score":"0.857","hc":3,"p-mrr index":125.67,"current mrr":290506,"longitude":"-81.519005","id":"a68h7dou73zg","geo_precision":"city","weighted index":200.0,"competition factor":2.0,"state":"OH","lgcy":"O"},"type":"Feature","geometry":null},{"properties":{"geo_precision0":"unmatched","location name":"Anniston","city":"Anniston","geo_score0":0.0,"latitude":"33.759768","modeled":0,"c-mrr index":93.7,"existing":3,"geo_score":"0.857","hc":-3,"p-mrr index":82.05,"current mrr":244208,"longitude":"-85.792328","id":"a68h7div20ep","geo_precision":"city","weighted index":77.1,"competition factor":1.0,"state":"AL","lgcy":"D"},"type":"Feature","geometry":null},{"properties":{"geo_precision0":"unmatched","location name":"Indianapolis, IN","city":"Indianapolis","geo_score0":0.0,"latitude":"39.768377","modeled":7,"c-mrr index":93.08,"existing":3,"geo_score":"0.857","hc":4,"p-mrr index":127.61,"current mrr":230962,"longitude":"-86.158042","id":"a68h7diije5e","geo_precision":"city","weighted index":166.0,"competition factor":3.0,"state":"IN","lgcy":"O"},"type":"Feature","geometry":null},{"properties":{"geo_precision0":"unmatched","location name":"Dothan","city":"Dothan","geo_score0":0.0,"latitude":"31.148124","modeled":0,"c-mrr index":89.74,"existing":3,"geo_score":"0.857","hc":-3,"p-mrr index":83.12,"current mrr":159814,"longitude":"-85.371845","id":"a68h7dcm9l5h","geo_precision":"city","weighted index":81.1,"competition factor":1.0,"state":"AL","lgcy":"D"},"type":"Feature","geometry":null},{"properties":{"geo_precision0":"unmatched","location name":"Harrisburg, PA","city":"Harrisburg","geo_score0":0.0,"latitude":"40.2737","modeled":4,"c-mrr index":89.52,"existing":3,"geo_score":"0.857","hc":1,"p-mrr index":94.62,"current mrr":155054,"longitude":"-76.884418","id":"a68h7dg1hmq2","geo_precision":"city","weighted index":124.4,"competition factor":1.0,"state":"PA","lgcy":"O"},"type":"Feature","geometry":null},{"properties":{"geo_precision0":"unmatched","location name":"Loves Park, IL","city":"Loves Park","geo_score0":0.0,"latitude":"42.341767","modeled":2,"c-mrr index":87.1,"existing":3,"geo_score":"0.857","hc":-1,"p-mrr index":86.97,"current mrr":103374,"longitude":"-89.004716","id":"a68h7dgpw51r","geo_precision":"city","weighted index":95.6,"competition factor":1.0,"state":"IL","lgcy":"O"},"type":"Feature","geometry":null},{"properties":{"geo_precision0":"unmatched","location name":"Columbus","city":"Columbus","geo_score0":0.0,"latitude":"32.460976","modeled":1,"c-mrr index":99.14,"existing":2,"geo_score":"0.857","hc":-1,"p-mrr index":84.91,"current mrr":360221,"longitude":"-84.987709","id":"a68h7dn3ei3o","geo_precision":"city","weighted index":94.4,"competition factor":1.0,"state":"GA","lgcy":"D"},"type":"Feature","geometry":null},{"properties":{"geo_precision0":"unmatched","location name":"Eastern NC","city":"Grenville","geo_score0":0.0,"latitude":"36.408734","modeled":1,"c-mrr index":95.88,"existing":2,"geo_score":"0.818","hc":-1,"p-mrr index":84.32,"current mrr":290712,"longitude":"-81.703445","id":"a68h7dn9lhkz","geo_precision":"city","weighted index":91.1,"competition factor":1.0,"state":"NC","lgcy":"D"},"type":"Feature","geometry":null},{"properties":{"geo_precision0":"unmatched","location name":"Ocala","city":"Ocala","geo_score0":0.0,"latitude":"29.238672","modeled":0,"c-mrr index":93.08,"existing":2,"geo_score":"0.857","hc":-2,"p-mrr index":81.41,"current mrr":230961,"longitude":"-82.169401","id":"a68h7deisjqt","geo_precision":"city","weighted index":74.7,"competition factor":1.0,"state":"FL","lgcy":"D"},"type":"Feature","geometry":null},{"properties":{"geo_precision0":"unmatched","location name":"Dayton, OH","city":"Dayton","geo_score0":0.0,"latitude":"39.758948","modeled":4,"c-mrr index":92.42,"existing":2,"geo_score":"0.857","hc":2,"p-mrr index":100.4,"current mrr":216861,"longitude":"-84.191607","id":"a68h7dojktjp","geo_precision":"city","weighted index":140.6,"competition factor":2.0,"state":"OH","lgcy":"O"},"type":"Feature","geometry":null},{"properties":{"geo_precision0":"unmatched","location name":"Wilmington","city":"Wilmington","geo_score0":0.0,"latitude":"34.225726","modeled":1,"c-mrr index":90.3,"existing":2,"geo_score":"0.857","hc":-1,"p-mrr index":84.87,"current mrr":171692,"longitude":"-77.94471","id":"a68h7df6xvaa","geo_precision":"city","weighted index":94.2,"competition factor":1.0,"state":"NC","lgcy":"D"},"type":"Feature","geometry":null},{"properties":{"geo_precision0":"zip","location name":"South Bend, IN","city":"South Bend","geo_score0":0.889,"latitude":"41.683381","modeled":2,"c-mrr index":89.57,"existing":2,"geo_score":"0.857","hc":0,"p-mrr index":87.09,"current mrr":156183,"longitude":"-86.250007","id":"a68h7dj0j8uw","geo_precision":"city","weighted index":106.8,"competition factor":1.0,"state":"IN","lgcy":"O"},"type":"Feature","geometry":{"type":"Point","coordinates":[80.3333333,25.4833333]}},{"properties":{"geo_precision0":"unmatched","location name":"Albany, NY","city":"Albany","geo_score0":0.0,"latitude":"42.652579","modeled":5,"c-mrr index":99.52,"existing":1,"geo_score":"0.857","hc":4,"p-mrr index":92.43,"current mrr":368383,"longitude":"-73.756232","id":"a68h7dcqjc6a","geo_precision":"city","weighted index":199.2,"competition factor":1.0,"state":"NY","lgcy":"O"},"type":"Feature","geometry":null},{"properties":{"geo_precision0":"unmatched","location name":"Wilkes-Barre, PA","city":"Wilkes-Barre","geo_score0":0.0,"latitude":"41.245915","modeled":3,"c-mrr index":90.46,"existing":1,"geo_score":"0.857","hc":2,"p-mrr index":89.71,"current mrr":175071,"longitude":"-75.881308","id":"a68h7dot3chu","geo_precision":"city","weighted index":168.4,"competition factor":1.0,"state":"PA","lgcy":"O"},"type":"Feature","geometry":null},{"properties":{"geo_precision0":"unmatched","location name":"Florence","city":"Florence","geo_score0":0.0,"latitude":"34.869601","modeled":0,"c-mrr index":88.65,"existing":1,"geo_score":"0.857","hc":-1,"p-mrr index":82.2,"current mrr":136485,"longitude":"-87.686915","id":"a68h7dl92qz4","geo_precision":"city","weighted index":83.7,"competition factor":1.0,"state":"AL","lgcy":"D"},"type":"Feature","geometry":null},{"properties":{"geo_precision0":"zip","location name":"Macon","city":"Macon","geo_score0":0.911,"latitude":"32.840695","modeled":2,"c-mrr index":88.28,"existing":1,"geo_score":"0.857","hc":1,"p-mrr index":86.19,"current mrr":128712,"longitude":"-83.632402","id":"a68h7dggwrak","geo_precision":"city","weighted index":128.7,"competition factor":1.0,"state":"GA","lgcy":"D"},"type":"Feature","geometry":{"type":"Point","coordinates":[9.8666667,-1.6833333]}},{"properties":{"geo_precision0":"unmatched","location name":"Daytona","city":"Daytona Beach","geo_score0":0.0,"latitude":"29.176093","modeled":0,"c-mrr index":88.25,"existing":1,"geo_score":"0.81","hc":-1,"p-mrr index":81.41,"current mrr":128045,"longitude":"-80.982832","id":"a68h7dnzfm7u","geo_precision":"city","weighted index":33.3,"competition factor":2.0,"state":"FL","lgcy":"D"},"type":"Feature","geometry":null},{"properties":{"geo_precision0":"unmatched","location name":"Augusta","city":"Augusta","geo_score0":0.0,"latitude":"33.47097","modeled":2,"c-mrr index":88.13,"existing":1,"geo_score":"0.857","hc":1,"p-mrr index":86.14,"current mrr":125351,"longitude":"-81.974838","id":"a68h7djjj7mj","geo_precision":"city","weighted index":128.2,"competition factor":1.0,"state":"GA","lgcy":"D"},"type":"Feature","geometry":null}],"is_temporal":false,"author":{"url":null,"metadata":null,"contact_name":null,"contact_address":null,"source":null,"contact_phone":null},"source":null,"pagination":{"sort":null,"start":0,"total":65,"limit":1000000},"state":"complete","tags":"","published":"2014-08-13T08:30:44-04:00","id":107411}