{"type":"FeatureCollection","data_type":"Dataset","url_type":null,"permissions":[{"permissions":{"download":true,"view":true},"group_id":"everyone"}],"classification":null,"title":"LPC Work Addresses, Austin Texas","count":661,"stream_id":108069,"contributor":{"url":"http://geocommons.com/users/25198","name":"tcollins11@mac.com"},"data_attributes":null,"calculation_params":null,"icon_link":null,"link":"http://geocommons.com/overlays/108069.json","extent":[-102.374,26.1927,-95.2788,33.1435],"geometry_types":["point"],"unique_name":null,"name":"LPC Work Addresses, Austin Texas","feature_count":661,"description":"","next_feature":null,"is_raster":false,"short_classification":"Y","stats":{"lic#":{"max":63602,"mean":20276.4780635401,"variance":325730517.022624,"stdev":18048.0059015567,"min":1,"median":14819}},"features":[{"properties":{"lic#":15621,"name":"INSIGHT CENTER","city":"AUSTIN","st":"TX","zip":"78983","selected address":"2308 LAKE AUSTIN BLVD","geo_score":0.805,"id":"a6772mmu7xug","geo_precision":"range"},"type":"Feature","geometry":{"type":"Point","coordinates":[-97.771541,30.277548]}},{"properties":{"lic#":17896,"name":"PIONEER HERITAGE MIDDLE SCHOOL","city":"FRISCO","st":"TX","zip":"75034","selected address":"1649 HIGH SHOALS DR","geo_score":0.919,"id":"a6772miobobu","geo_precision":"range"},"type":"Feature","geometry":{"type":"Point","coordinates":[-96.877788,33.143526]}},{"properties":{"lic#":17199,"name":"MOUNTAIN VIEW COLLEGE","city":"DALLAS","st":"TX","zip":"75211","selected address":"4849 W. ILLINOIS AVE.","geo_score":0.495,"id":"a6772msj40c2","geo_precision":"street"},"type":"Feature","geometry":{"type":"Point","coordinates":[-96.870114,32.720256]}},{"properties":{"lic#":9896,"name":"JH JOHNSTON","city":"DALLAS","st":"TX","zip":"75218","selected address":"P.O. BOX 180097","geo_score":0.371,"id":"a6772ml4ybta","geo_precision":"street"},"type":"Feature","geometry":{"type":"Point","coordinates":[-96.791654,32.80632]}},{"properties":{"lic#":1504,"name":"DIVISION FOR REHABILITATION SERVICES","city":"TYLER","st":"TX","zip":"75703","selected address":"3800 PALUXY,  SUITE 325","geo_score":0.764,"id":"a6772mhefxsc","geo_precision":"street"},"type":"Feature","geometry":{"type":"Point","coordinates":[-95.278827,32.305402]}},{"properties":{"lic#":8207,"name":"ORDAMC-DEPT. OF SOCIAL WORK","city":"FORT HOOD","st":"TX","zip":"76544","selected address":"BLG 2255 52ND AND 76ST TANK BN RD","geo_score":0.505,"id":"a6772meo7dn8","geo_precision":"street"},"type":"Feature","geometry":{"type":"Point","coordinates":[-97.796832,31.117877]}},{"properties":{"lic#":19682,"name":"UNIVERSITY OF ST. THOMAS","city":"HOUSTON","st":"TX","zip":"77006","selected address":"3800 MONTROSE BLVD","geo_score":1.0,"id":"a6772mplhm7i","geo_precision":"range"},"type":"Feature","geometry":{"type":"Point","coordinates":[-95.391173,29.738775]}},{"properties":{"lic#":17446,"name":"OPTUMHEALTH","city":"HOUSTON","st":"TX","zip":"77027","selected address":"2000 WEST LOOP SOUTH SUITE 1700\rSUITE 600","geo_score":0.355,"id":"a6772mi6n9i7","geo_precision":"street"},"type":"Feature","geometry":{"type":"Point","coordinates":[-95.358616,29.786707]}},{"properties":{"lic#":15143,"name":"TELECARE","city":"HOUSTON","st":"TX","zip":"77057","selected address":"5850 SAN FELIPE SUITE 500","geo_score":0.897,"id":"a6772mr4q27d","geo_precision":"range"},"type":"Feature","geometry":{"type":"Point","coordinates":[-95.484334,29.749926]}},{"properties":{"lic#":13597,"name":"TEXAS DEPT OF CRIMINAL JUSTICE","city":"HUNTSVILLE","st":"TX","zip":"77340","selected address":"HWY 75 SOUTH","geo_score":0.871,"id":"a6772mnzr86c","geo_precision":"zip"},"type":"Feature","geometry":{"type":"Point","coordinates":[-95.444387,30.696305]}},{"properties":{"lic#":14355,"name":"TEXANA MHMR","city":"RICHMOND","st":"TX","zip":"77471","selected address":"4910 AIRPORT","geo_score":0.825,"id":"a6772miwts21","geo_precision":"range"},"type":"Feature","geometry":{"type":"Point","coordinates":[-95.772112,29.542989]}},{"properties":{"lic#":17554,"name":"NEW BRAUNFELS CHURCH OF NAZARENE","city":"NEW BRAUNFELS","st":"TX","zip":"78130","selected address":"1465 IH-35 NORTH","geo_score":0.593,"id":"a6772mjxpyg1","geo_precision":"zip"},"type":"Feature","geometry":{"type":"Point","coordinates":[-98.170843,29.665781]}},{"properties":{"lic#":11373,"name":"Unnown","city":"NEW BRAUNFELS","st":"TX","zip":"78130","selected address":"263 LUCINDA","geo_score":0.846,"id":"a6772mu39ec1","geo_precision":"range"},"type":"Feature","geometry":{"type":"Point","coordinates":[-98.061123,29.684663]}},{"properties":{"lic#":10099,"name":"CENTER FOR HEALTH CARE SERVICE","city":"SAN ANTONIO","st":"TX","zip":"78207","selected address":"520 N. MEDINA","geo_score":0.619,"id":"a6772mo1ndy6","geo_precision":"street"},"type":"Feature","geometry":{"type":"Point","coordinates":[-98.505086,29.426229]}},{"properties":{"lic#":18286,"name":"T. M. CLARK ELEMENTARY","city":"PORTLAND","st":"TX","zip":"78374","selected address":"2250 MEMORIAL PKWY","geo_score":1.0,"id":"a6772msg22vy","geo_precision":"range"},"type":"Feature","geometry":{"type":"Point","coordinates":[-97.319417,27.895335]}},{"properties":{"lic#":13931,"name":"JESSEE. APPLEWHITE, M.ED.,LPC","city":"HARLINGEN","st":"TX","zip":"78550","selected address":"2002 N. G. STREET\r#3D","geo_score":0.508,"id":"a6772mft1rhk","geo_precision":"street"},"type":"Feature","geometry":{"type":"Point","coordinates":[-97.703307,26.192743]}},{"properties":{"lic#":10439,"name":"TEXAS STATE UNIVERSITY","city":"SAN MARCOS","st":"TX","zip":"78601","selected address":"601 UNIVERSITY DRIVE","geo_score":0.737,"id":"a6772mfapax7","geo_precision":"range"},"type":"Feature","geometry":{"type":"Point","coordinates":[-95.550796,30.730881]}},{"properties":{"lic#":13344,"name":"SELF","city":"BASTROP","st":"TX","zip":"78602","selected address":"909 PECAN ST.","geo_score":0.916,"id":"a6772mgpendl","geo_precision":"range"},"type":"Feature","geometry":{"type":"Point","coordinates":[-97.317514,30.10956]}},{"properties":{"lic#":63326,"name":"AUSTIN RECOVERY","city":"BUDA","st":"TX","zip":"78610","selected address":"13207 WRIGHT ROAD","geo_score":0.789,"id":"a6772mi97t2c","geo_precision":"range"},"type":"Feature","geometry":{"type":"Point","coordinates":[-97.752487,30.083658]}},{"properties":{"lic#":15531,"name":"SUSAN TIFFEE","city":"BUDA","st":"TX","zip":"78610","selected address":"104 SEQUOYAH","geo_score":0.846,"id":"a6772mtj5gbo","geo_precision":"range"},"type":"Feature","geometry":{"type":"Point","coordinates":[-97.837308,30.08238]}},{"properties":{"lic#":10199,"name":"JERALD S ANDERSEN LPC LMFT","city":"CEDAR PARK","st":"TX","zip":"78613","selected address":"900 QUEST PARKWAY","geo_score":1.0,"id":"a6772mlc7qyx","geo_precision":"range"},"type":"Feature","geometry":{"type":"Point","coordinates":[-97.824171,30.519662]}},{"properties":{"lic#":17676,"name":"LAKELINE CHURCH","city":"CEDAR PARK","st":"TX","zip":"78613","selected address":"715 DISCOVERY BLVD, STE 412","geo_score":0.679,"id":"a6772mspra2k","geo_precision":"street"},"type":"Feature","geometry":{"type":"Point","coordinates":[-97.807933,30.520089]}},{"properties":{"lic#":11527,"name":"SELF","city":"CEDAR PARK","st":"TX","zip":"78613","selected address":"303 MONARCH COVE","geo_score":1.0,"id":"a6772mgzj829","geo_precision":"range"},"type":"Feature","geometry":{"type":"Point","coordinates":[-97.837896,30.508764]}},{"properties":{"lic#":1249,"name":"DEL VALLE HIGH SCHOOL","city":"DEL VALLE","st":"TX","zip":"78617","selected address":"5201 ROSS RD.","geo_score":0.915,"id":"a6772merve2u","geo_precision":"range"},"type":"Feature","geometry":{"type":"Point","coordinates":[-97.614486,30.17906]}},{"properties":{"lic#":60016,"name":"DEL VALLE JUNIOR HIGH SCHOOL","city":"DEL VALLE","st":"TX","zip":"78617","selected address":"5500 ROSS ROAD","geo_score":0.915,"id":"a6772mjtmolz","geo_precision":"range"},"type":"Feature","geometry":{"type":"Point","coordinates":[-97.629441,30.17239]}},{"properties":{"lic#":13629,"name":"PATHFINDERS","city":"DRIFTWOOD","st":"TX","zip":"78619","selected address":"PO BOX 40","geo_score":0.469,"id":"a6772mlg3sx3","geo_precision":"street"},"type":"Feature","geometry":{"type":"Point","coordinates":[-97.680168,29.895531]}},{"properties":{"lic#":13684,"name":"CORE HEALTH CARE","city":"DRIPPING SPRINGS","st":"TX","zip":"78620","selected address":"P.O. BOX 419","geo_score":0.429,"id":"a6772moln0t8","geo_precision":"street"},"type":"Feature","geometry":{"type":"Point","coordinates":[-98.256365,30.718445]}},{"properties":{"lic#":18547,"name":"ANDREW LIPINSKI","city":"GEORGETOWN","st":"TX","zip":"78628","selected address":"2508 WILLIAMS DR, #205","geo_score":0.717,"id":"a6772mfsyfqn","geo_precision":"street"},"type":"Feature","geometry":{"type":"Point","coordinates":[-97.680655,30.650644]}},{"properties":{"lic#":18043,"name":"LIFEBRIDGE COUNSELING SERVICES","city":"GEORGETOWN","st":"TX","zip":"78628","selected address":"3613 WILLIAMS DR., SUITE 301","geo_score":0.486,"id":"a6772mtq7vgj","geo_precision":"street"},"type":"Feature","geometry":{"type":"Point","coordinates":[-97.681975,30.651937]}},{"properties":{"lic#":2892,"name":"CAREER LIFE TRANSITION COUNSELING","city":"LEANDER","st":"TX","zip":"78641","selected address":"24404 CISCO TRAIL","geo_score":0.912,"id":"a6772miw8iqn","geo_precision":"range"},"type":"Feature","geometry":{"type":"Point","coordinates":[-97.960954,30.595453]}},{"properties":{"lic#":18486,"name":"PEGASUS SCHOOLS, INC.","city":"LOCKHART","st":"TX","zip":"78644","selected address":"896 ROBIN RANCH RD\rPO BOX 577","geo_score":0.461,"id":"a6772mtpidfn","geo_precision":"street"},"type":"Feature","geometry":{"type":"Point","coordinates":[-97.680607,29.895474]}},{"properties":{"lic#":61365,"name":"CHILD PROTECTIVE SVES","city":"MANCHACA","st":"TX","zip":"78652","selected address":"14000 SUMMIT LANE S-106","geo_score":0.488,"id":"a6772mp9xit2","geo_precision":"street"},"type":"Feature","geometry":{"type":"Point","coordinates":[-98.05167,29.997944]}},{"properties":{"lic#":16636,"name":"Unnown","city":"MANCHACA","st":"TX","zip":"78652","selected address":"1715 WEST FM 1626, SUITE 102","geo_score":0.939,"id":"a6772mhm2ai5","geo_precision":"street"},"type":"Feature","geometry":{"type":"Point","coordinates":[-97.835742,30.140469]}},{"properties":{"lic#":13297,"name":"Unnown","city":"MANCHACA","st":"TX","zip":"78652","selected address":"1715 WEST FM 1626, SUITE 102","geo_score":0.939,"id":"a6772mr55tn3","geo_precision":"street"},"type":"Feature","geometry":{"type":"Point","coordinates":[-97.835742,30.140469]}},{"properties":{"lic#":17905,"name":"Unnown","city":"MANCHACA","st":"TX","zip":"78652","selected address":"1715 W. FM 1626, SUITE 103","geo_score":0.633,"id":"a6772mh6a7g0","geo_precision":"street"},"type":"Feature","geometry":{"type":"Point","coordinates":[-97.835742,30.140469]}},{"properties":{"lic#":61405,"name":"MANOR ISD","city":"MANOR","st":"TX","zip":"78653","selected address":"10323 HWY 290 E","geo_score":0.802,"id":"a6772moy0zju","geo_precision":"range"},"type":"Feature","geometry":{"type":"Point","coordinates":[-97.572441,30.345778]}},{"properties":{"lic#":16467,"name":"ADELA ELISA CARAMANICA, LPC","city":"PFLUGERVILLE","st":"TX","zip":"78660","selected address":"15901 CENTRAL COMMERCE\rSTE #404","geo_score":0.756,"id":"a6772mej3vfh","geo_precision":"street"},"type":"Feature","geometry":{"type":"Point","coordinates":[-97.656135,30.452374]}},{"properties":{"lic#":20034,"name":"HENDRICKSON HIGH SCHOOL","city":"PFLUGERVILLE","st":"TX","zip":"78660","selected address":"2905 FM685","geo_score":0.434,"id":"a6772mu8d4ug","geo_precision":"street"},"type":"Feature","geometry":{"type":"Point","coordinates":[-98.229126,30.768175]}},{"properties":{"lic#":60855,"name":"INTERVENTION SERVICES","city":"ROUND ROCK","st":"TX","zip":"78660","selected address":"PO BOX 662","geo_score":0.56,"id":"a6772mph6rfi","geo_precision":"street"},"type":"Feature","geometry":{"type":"Point","coordinates":[-97.644573,30.448605]}},{"properties":{"lic#":11733,"name":"PFLUGERVILLE ISD","city":"PFLUGERVILLE","st":"TX","zip":"78660","selected address":"1246 GRAND AVENUE","geo_score":0.695,"id":"a6772mjqua05","geo_precision":"street"},"type":"Feature","geometry":{"type":"Point","coordinates":[-97.665711,30.447138]}},{"properties":{"lic#":15747,"name":"PFLUGERVILLE ISD","city":"PFLUGERVILLE","st":"TX","zip":"78660","selected address":"PFLUGERVILLE HIGH SCHOOL\r1301 WEST PECAN","geo_score":0.759,"id":"a6772mp76wbk","geo_precision":"street"},"type":"Feature","geometry":{"type":"Point","coordinates":[-97.62936,30.466762]}},{"properties":{"lic#":12861,"name":"PFLUGERVILLE ISD","city":"PFLUGERVILLE","st":"TX","zip":"78660","selected address":"1401 W. PECAN","geo_score":0.625,"id":"a6772mi8847n","geo_precision":"street"},"type":"Feature","geometry":{"type":"Point","coordinates":[-97.640524,30.447217]}},{"properties":{"lic#":16505,"name":"PFLUGERVILLE ISD - TIMMERMAN ELEMENTARY","city":"PFLUGERVILLE","st":"TX","zip":"78660","selected address":"700 WEST PECAN STREET","geo_score":0.963,"id":"a6772mouu34z","geo_precision":"range"},"type":"Feature","geometry":{"type":"Point","coordinates":[-97.64264,30.446869]}},{"properties":{"lic#":17484,"name":"Unnown","city":"PFLUGERVILLE","st":"TX","zip":"78660","selected address":"203 W. MAIN, STE. A","geo_score":0.633,"id":"a6772meiat7h","geo_precision":"street"},"type":"Feature","geometry":{"type":"Point","coordinates":[-97.620392,30.440723]}},{"properties":{"lic#":11343,"name":"BLUEBONNET TRAILS CMHMR","city":"ROUND ROCK","st":"TX","zip":"78664","selected address":"1009 N. GEORGETOWN ST.","geo_score":0.479,"id":"a6772mh7920f","geo_precision":"street"},"type":"Feature","geometry":{"type":"Point","coordinates":[-97.671427,30.5208]}},{"properties":{"lic#":14739,"name":"SAN GABRIEL PSYCHOLOGICAL SERV","city":"ROUND ROCK","st":"TX","zip":"78664","selected address":"107 SOUTH SHEPPARD ST","geo_score":0.912,"id":"a6772mif8ipr","geo_precision":"range"},"type":"Feature","geometry":{"type":"Point","coordinates":[-97.676681,30.509113]}},{"properties":{"lic#":11127,"name":"PSYCHIATRIC SOLUTIONS, INC.","city":"SAN MARCOS","st":"TX","zip":"78666","selected address":"120 BERT BROWN ROAD","geo_score":0.86,"id":"a6772mfacw8e","geo_precision":"range"},"type":"Feature","geometry":{"type":"Point","coordinates":[-97.927551,29.899502]}},{"properties":{"lic#":16880,"name":"TEXAS STATE CAREER SERVICES","city":"SAN MARCOS","st":"TX","zip":"78666","selected address":"601 UNIVERSITY DRIVE","geo_score":0.913,"id":"a6772mt6y18l","geo_precision":"range"},"type":"Feature","geometry":{"type":"Point","coordinates":[-97.937896,29.885821]}},{"properties":{"lic#":13186,"name":"OLD TOWN ELEMENTARY/ROUND RISD","city":"ROUND ROCK","st":"TX","zip":"78681","selected address":"2300 CHAPARRAL DRIVE","geo_score":0.807,"id":"a6772mhwmgvs","geo_precision":"street"},"type":"Feature","geometry":{"type":"Point","coordinates":[-97.702614,30.531066]}},{"properties":{"lic#":17774,"name":"ATCMHMR","city":"AUSTIN","st":"TX","zip":"78701","selected address":"56 EAST AVENUE","geo_score":0.875,"id":"a6772mlj4amv","geo_precision":"range"},"type":"Feature","geometry":{"type":"Point","coordinates":[-97.738249,30.25734]}},{"properties":{"lic#":16163,"name":"ATCMHMR","city":"AUSTIN","st":"TX","zip":"78701","selected address":"56 EAST AVE","geo_score":0.875,"id":"a6772mngs39f","geo_precision":"range"},"type":"Feature","geometry":{"type":"Point","coordinates":[-97.738249,30.25734]}},{"properties":{"lic#":12067,"name":"ATCMHMR UM DEPT","city":"AUSTIN","st":"TX","zip":"78701","selected address":"56 EAST AVENUE","geo_score":0.875,"id":"a6772mt9msd4","geo_precision":"range"},"type":"Feature","geometry":{"type":"Point","coordinates":[-97.738249,30.25734]}},{"properties":{"lic#":3357,"name":"AUSTIN COMMUNITY COLLEGE","city":"AUSTIN","st":"TX","zip":"78701","selected address":"1212 RIO GRANDE","geo_score":0.947,"id":"a6772mt8wcfk","geo_precision":"range"},"type":"Feature","geometry":{"type":"Point","coordinates":[-97.747146,30.276448]}},{"properties":{"lic#":698,"name":"AUSTIN COMMUNITY COLLEGE","city":"AUSTIN","st":"TX","zip":"78701","selected address":"1212 RIO GRANDE","geo_score":0.947,"id":"a6772mmihyt6","geo_precision":"range"},"type":"Feature","geometry":{"type":"Point","coordinates":[-97.747146,30.276448]}},{"properties":{"lic#":5235,"name":"AUSTIN COMMUNITY COLLEGE","city":"AUSTIN","st":"TX","zip":"78701","selected address":"1212 RIO GRANDE","geo_score":0.947,"id":"a6772mui1kc0","geo_precision":"range"},"type":"Feature","geometry":{"type":"Point","coordinates":[-97.747146,30.276448]}},{"properties":{"lic#":11062,"name":"AUSTIN MEDICAL EDUCATION PROGR","city":"AUSTIN","st":"TX","zip":"78701","selected address":"1313 RED RIVER\r#100","geo_score":0.464,"id":"a6772mn374ge","geo_precision":"street"},"type":"Feature","geometry":{"type":"Point","coordinates":[-97.777633,30.221259]}},{"properties":{"lic#":19642,"name":"AUSTIN TRAVIS CO MHMR","city":"AUSTIN","st":"TX","zip":"78701","selected address":"15 WALLER CT","geo_score":0.768,"id":"a6772mibk495","geo_precision":"range"},"type":"Feature","geometry":{"type":"Point","coordinates":[-97.735677,30.253027]}},{"properties":{"lic#":18295,"name":"AUSTIN TRAVIS COUNTY MHMR","city":"AUSTIN","st":"TX","zip":"78701","selected address":"56 EAST AVE","geo_score":0.875,"id":"a6772mhsi34m","geo_precision":"range"},"type":"Feature","geometry":{"type":"Point","coordinates":[-97.738249,30.25734]}},{"properties":{"lic#":5677,"name":"AUSTIN TRAVIS COUNTY MHMRA","city":"AUSTIN","st":"TX","zip":"78701","selected address":"56 EAST AVENUE","geo_score":0.875,"id":"a6772mkjzk3n","geo_precision":"range"},"type":"Feature","geometry":{"type":"Point","coordinates":[-97.738249,30.25734]}},{"properties":{"lic#":60805,"name":"AUSTIN WELLNESS CENTER","city":"AUSTIN","st":"TX","zip":"78701","selected address":"800 WEST AVE STE 101","geo_score":0.405,"id":"a6772mko2fcq","geo_precision":"street"},"type":"Feature","geometry":{"type":"Point","coordinates":[-97.925203,30.310259]}},{"properties":{"lic#":16673,"name":"AUSTIN-TRAVIS COUNTY MHMR","city":"AUSTIN","st":"TX","zip":"78701","selected address":"56 EAST AVE.","geo_score":0.875,"id":"a6772mo5hew0","geo_precision":"range"},"type":"Feature","geometry":{"type":"Point","coordinates":[-97.738249,30.25734]}},{"properties":{"lic#":15204,"name":"AUSTIN-TRAVIS COUNTY MHMR","city":"AUSTIN","st":"TX","zip":"78701","selected address":"2700 S IH 35","geo_score":0.545,"id":"a6772mhi72jo","geo_precision":"street"},"type":"Feature","geometry":{"type":"Point","coordinates":[-97.730486,30.27856]}},{"properties":{"lic#":14834,"name":"AUSTIN-TRAVIS COUNTY MHMR/PSYCHIATRIC EM","city":"AUSTIN","st":"TX","zip":"78701","selected address":"1612 E CESAR CHAVEZ","geo_score":0.763,"id":"a6772msgsh97","geo_precision":"street"},"type":"Feature","geometry":{"type":"Point","coordinates":[-97.736767,30.261229]}},{"properties":{"lic#":15631,"name":"CENPATICO BEHAVIORAL HEALTH","city":"AUSTIN","st":"TX","zip":"78701","selected address":"504 LAVACA, STE. 850","geo_score":0.744,"id":"a6772mslngk0","geo_precision":"range"},"type":"Feature","geometry":{"type":"Point","coordinates":[-97.744337,30.271068]}},{"properties":{"lic#":17742,"name":"CENPATICO BEHAVIORAL HEALTH","city":"AUSTIN","st":"TX","zip":"78701","selected address":"504 LAVACA ST, STE 850","geo_score":0.571,"id":"a6772mp0whwp","geo_precision":"street"},"type":"Feature","geometry":{"type":"Point","coordinates":[-97.746944,30.26407]}},{"properties":{"lic#":9294,"name":"COMMITTEE ON PEOPLE WITH DISABILITIES","city":"AUSTIN","st":"TX","zip":"78701","selected address":"PO BOX 12428--1100 SAN JACINT0","geo_score":0.646,"id":"a6772miy22ke","geo_precision":"street"},"type":"Feature","geometry":{"type":"Point","coordinates":[-97.742104,30.262691]}},{"properties":{"lic#":60570,"name":"COUNSELING CIRCLE","city":"AUSTIN","st":"TX","zip":"78701","selected address":"2222 WESTERN TRAILS #205","geo_score":0.551,"id":"a6772mmlgebr","geo_precision":"street"},"type":"Feature","geometry":{"type":"Point","coordinates":[-97.823421,30.21129]}},{"properties":{"lic#":62173,"name":"DAVID WEIGLE PHD","city":"AUSTIN","st":"TX","zip":"78701","selected address":"1313 RED RIVER #100","geo_score":0.464,"id":"a6772mjapa17","geo_precision":"street"},"type":"Feature","geometry":{"type":"Point","coordinates":[-97.777633,30.221259]}},{"properties":{"lic#":6273,"name":"DOMESTIC RELATIONS OFFICE","city":"AUSTIN","st":"TX","zip":"78701","selected address":"1010 LAVACA STREET","geo_score":1.0,"id":"a6772mn8q7r4","geo_precision":"range"},"type":"Feature","geometry":{"type":"Point","coordinates":[-97.743773,30.272577]}},{"properties":{"lic#":62213,"name":"DR. DAVID C. WEIGLE","city":"AUSTIN","st":"TX","zip":"78701","selected address":"1313 RED RIVER #100","geo_score":0.464,"id":"a6772mm8i22h","geo_precision":"street"},"type":"Feature","geometry":{"type":"Point","coordinates":[-97.777633,30.221259]}},{"properties":{"lic#":11355,"name":"JOAN YAMINI M.ED., LPC","city":"AUSTIN","st":"TX","zip":"78701","selected address":"603 W. 18TH STREET","geo_score":0.633,"id":"a6772mr8pv7q","geo_precision":"street"},"type":"Feature","geometry":{"type":"Point","coordinates":[-97.738498,30.279659]}},{"properties":{"lic#":19628,"name":"KERENSA HILL, PH.D.","city":"AUSTIN","st":"TX","zip":"78701","selected address":"1206 NUECES","geo_score":0.927,"id":"a6772mnn2jwn","geo_precision":"range"},"type":"Feature","geometry":{"type":"Point","coordinates":[-97.746265,30.2755]}},{"properties":{"lic#":19097,"name":"MHMR- PSYCHIATRIC EMERGENCY SERVICES","city":"AUSTIN","st":"TX","zip":"78701","selected address":"56 EAST AVE","geo_score":0.875,"id":"a6772mu5qrw1","geo_precision":"range"},"type":"Feature","geometry":{"type":"Point","coordinates":[-97.738249,30.25734]}},{"properties":{"lic#":2091,"name":"MICHELLE HALSALL","city":"AUSTIN","st":"TX","zip":"78701","selected address":"504 WEST 17TH STREET","geo_score":0.916,"id":"a6772mgw25d4","geo_precision":"range"},"type":"Feature","geometry":{"type":"Point","coordinates":[-97.743419,30.280093]}},{"properties":{"lic#":14307,"name":"PRIVATE PRACTICE","city":"AUSTIN","st":"TX","zip":"78701","selected address":"707 WEST 10TH ST","geo_score":0.916,"id":"a6772mm7adii","geo_precision":"range"},"type":"Feature","geometry":{"type":"Point","coordinates":[-97.748212,30.273694]}},{"properties":{"lic#":6380,"name":"SELF EMPLOYED","city":"AUSTIN","st":"TX","zip":"78701","selected address":"710 WEST AVE.","geo_score":0.875,"id":"a6772mrml5d7","geo_precision":"range"},"type":"Feature","geometry":{"type":"Point","coordinates":[-97.75021,30.271282]}},{"properties":{"lic#":11846,"name":"SELF-EMPLOYED","city":"AUSTIN","st":"TX","zip":"78701","selected address":"812 W. 11TH ST.  STE 201","geo_score":0.633,"id":"a6772mk1kio5","geo_precision":"street"},"type":"Feature","geometry":{"type":"Point","coordinates":[-97.741106,30.272748]}},{"properties":{"lic#":17116,"name":"SHANNON BROOKS, M.A.","city":"AUSTIN","st":"TX","zip":"78701","selected address":"601 W. 18TH ST.","geo_score":0.633,"id":"a6772mhy396y","geo_precision":"street"},"type":"Feature","geometry":{"type":"Point","coordinates":[-97.738498,30.279659]}},{"properties":{"lic#":11865,"name":"TEXAS EDUCATION AGENCY","city":"AUSTIN","st":"TX","zip":"78701","selected address":"1701 N. CONGRESS AVENUE","geo_score":0.61,"id":"a6772mea8zw3","geo_precision":"street"},"type":"Feature","geometry":{"type":"Point","coordinates":[-97.744566,30.263382]}},{"properties":{"lic#":12828,"name":"TEXAS EDUCATION AGENCY OFFICE OF INSPECT","city":"AUSTIN","st":"TX","zip":"78701","selected address":"1701 N. CONGRESS AVE.","geo_score":0.61,"id":"a6772mjbzga3","geo_precision":"street"},"type":"Feature","geometry":{"type":"Point","coordinates":[-97.744566,30.263382]}},{"properties":{"lic#":8538,"name":"TEXAS STATE UNIVERSITY","city":"AUSTIN","st":"TX","zip":"78701","selected address":"1701 N. CONGRESS","geo_score":0.61,"id":"a6772mh3v4wg","geo_precision":"street"},"type":"Feature","geometry":{"type":"Point","coordinates":[-97.744566,30.263382]}},{"properties":{"lic#":14589,"name":"TRAVIS COUNTY - TAIP","city":"AUSTIN","st":"TX","zip":"78701","selected address":"411 W. 13TH\rEXECUTIVE OFFICE BUILDING","geo_score":0.633,"id":"a6772mqsukmg","geo_precision":"street"},"type":"Feature","geometry":{"type":"Point","coordinates":[-97.742588,30.275736]}},{"properties":{"lic#":16399,"name":"TRAVIS COUNTY MHMR","city":"AUSTIN","st":"TX","zip":"78701","selected address":"56 EAST AVENUE","geo_score":0.875,"id":"a6772mrekdf2","geo_precision":"range"},"type":"Feature","geometry":{"type":"Point","coordinates":[-97.738249,30.25734]}},{"properties":{"lic#":1028,"name":"UNIVERSITY OF TEXAS","city":"AUSTIN","st":"TX","zip":"78701","selected address":"SCHOOL OF NURSING\r1700 RED RIVER","geo_score":0.423,"id":"a6772mkrq10i","geo_precision":"street"},"type":"Feature","geometry":{"type":"Point","coordinates":[-97.855481,30.238542]}},{"properties":{"lic#":16269,"name":"UNIVERSITY OF TEXAS-AUSTIN","city":"AUSTIN","st":"TX","zip":"78701","selected address":"1700 RED RIVER","geo_score":0.659,"id":"a6772ml8l7yr","geo_precision":"range"},"type":"Feature","geometry":{"type":"Point","coordinates":[-97.786277,30.226079]}},{"properties":{"lic#":6677,"name":"WYNETTE WORD BARTON M.S.","city":"KYLE","st":"TX","zip":"78701","selected address":"1717 N BURLESON","geo_score":0.522,"id":"a6772mt11xlg","geo_precision":"street"},"type":"Feature","geometry":{"type":"Point","coordinates":[-97.736004,30.231655]}},{"properties":{"lic#":3344,"name":"Unnown","city":"AUSTIN","st":"TX","zip":"78701","selected address":"901 NUECES","geo_score":0.927,"id":"a6772mk3k5cs","geo_precision":"range"},"type":"Feature","geometry":{"type":"Point","coordinates":[-97.747394,30.272446]}},{"properties":{"lic#":9899,"name":"Unnown","city":"AUSTIN","st":"TX","zip":"78701","selected address":"1605- B WEST AVENUE","geo_score":0.434,"id":"a6772mr3bu2f","geo_precision":"street"},"type":"Feature","geometry":{"type":"Point","coordinates":[-97.73591,30.302583]}},{"properties":{"lic#":8522,"name":"Unnown","city":"AUSTIN","st":"TX","zip":"78701","selected address":"900 CONGRESS, STE 300","geo_score":0.61,"id":"a6772mucwmv6","geo_precision":"street"},"type":"Feature","geometry":{"type":"Point","coordinates":[-97.744566,30.263382]}},{"properties":{"lic#":15122,"name":"Unnown","city":"AUSTIN","st":"TX","zip":"78701","selected address":"717 W 6TH ST","geo_score":0.902,"id":"a6772mt80it8","geo_precision":"range"},"type":"Feature","geometry":{"type":"Point","coordinates":[-97.749674,30.270002]}},{"properties":{"lic#":18906,"name":"Unnown","city":"AUSTIN","st":"TX","zip":"78701","selected address":"601 W 18TH ST","geo_score":0.916,"id":"a6772mny2egk","geo_precision":"range"},"type":"Feature","geometry":{"type":"Point","coordinates":[-97.74413,30.281225]}},{"properties":{"lic#":61828,"name":"Unnown","city":"AUSTIN","st":"TX","zip":"78701","selected address":"500 E 7TH ST","geo_score":0.902,"id":"a6772mjfscow","geo_precision":"range"},"type":"Feature","geometry":{"type":"Point","coordinates":[-97.737918,30.2677]}},{"properties":{"lic#":18026,"name":"ANY BABY CAN","city":"AUSTIN","st":"TX","zip":"78702","selected address":"1121 EAST 7TH STREET","geo_score":0.902,"id":"a6772mfxnh2o","geo_precision":"range"},"type":"Feature","geometry":{"type":"Point","coordinates":[-97.730983,30.265614]}},{"properties":{"lic#":63269,"name":"ATCMHMR","city":"AUSTIN","st":"TX","zip":"78702","selected address":"1631-D EAST 2ND ST","geo_score":0.854,"id":"a6772mq0fm8r","geo_precision":"range"},"type":"Feature","geometry":{"type":"Point","coordinates":[-97.727712,30.259212]}},{"properties":{"lic#":61159,"name":"ATCMHMR - OAK SPRINGS TREATMENT CENTER","city":"AUSTIN","st":"TX","zip":"78702","selected address":"3000 OAK SPRINGS","geo_score":0.951,"id":"a6772mp1n2gg","geo_precision":"range"},"type":"Feature","geometry":{"type":"Point","coordinates":[-97.698656,30.273445]}},{"properties":{"lic#":61018,"name":"AUSTIN TRAVIS COUNTY MHMR","city":"AUSTIN","st":"TX","zip":"78702","selected address":"1631- D EAST 2ND","geo_score":0.586,"id":"a6772mfckw71","geo_precision":"street"},"type":"Feature","geometry":{"type":"Point","coordinates":[-97.720086,30.257125]}},{"properties":{"lic#":61208,"name":"AUSTIN TRAVIS COUNTY MHMR","city":"AUSTIN","st":"TX","zip":"78702","selected address":"1631 E 2ND ST BLDG B","geo_score":0.805,"id":"a6772mqe53tb","geo_precision":"range"},"type":"Feature","geometry":{"type":"Point","coordinates":[-97.727712,30.259212]}},{"properties":{"lic#":6984,"name":"AUSTIN/TRAVIS COUNTY MHMR","city":"AUSTIN","st":"TX","zip":"78702","selected address":"1633 E 2ND ST","geo_score":0.902,"id":"a6772mefm85f","geo_precision":"range"},"type":"Feature","geometry":{"type":"Point","coordinates":[-97.727677,30.259197]}},{"properties":{"lic#":9463,"name":"BETH O'NEAL, M.A., L.P.C.","city":"AUSTIN","st":"TX","zip":"78702","selected address":"1631A E 2ND ST","geo_score":0.902,"id":"a6772mhd8iv9","geo_precision":"range"},"type":"Feature","geometry":{"type":"Point","coordinates":[-97.727712,30.259212]}},{"properties":{"lic#":62107,"name":"CITY OF AUSTIN FQHCS","city":"AUSTIN","st":"TX","zip":"78702","selected address":"15 WALKER ST FLOOR 5","geo_score":0.554,"id":"a6772merpf6j","geo_precision":"street"},"type":"Feature","geometry":{"type":"Point","coordinates":[-97.734462,30.26467]}},{"properties":{"lic#":61031,"name":"DISCOVERY COUNSELING","city":"AUSTIN","st":"TX","zip":"78702","selected address":"111 W 24TH ST","geo_score":0.721,"id":"a6772mhxrbjh","geo_precision":"range"},"type":"Feature","geometry":{"type":"Point","coordinates":[-97.738345,30.287462]}},{"properties":{"lic#":12437,"name":"LIFEWORKS","city":"AUSTIN","st":"TX","zip":"78702","selected address":"2001 CHICON ST.","geo_score":0.807,"id":"a6772miqh4w8","geo_precision":"street"},"type":"Feature","geometry":{"type":"Point","coordinates":[-97.721237,30.279805]}},{"properties":{"lic#":16715,"name":"PHOENIX ACADEMY","city":"AUSTIN","st":"TX","zip":"78702","selected address":"400 W LIVE OAK","geo_score":0.746,"id":"a6772mkpu21h","geo_precision":"range"},"type":"Feature","geometry":{"type":"Point","coordinates":[-97.755485,30.243274]}},{"properties":{"lic#":14219,"name":"SETON EAST COMMUNITY HEALTHY CLINIC/FAMI","city":"AUSTIN","st":"TX","zip":"78702","selected address":"2811 EAST 2ND","geo_score":0.805,"id":"a6772mg6vq7l","geo_precision":"range"},"type":"Feature","geometry":{"type":"Point","coordinates":[-97.712248,30.253875]}},{"properties":{"lic#":17752,"name":"TRAVIS COUNTY SHERIFF'S OFFICE","city":"AUSTIN","st":"TX","zip":"78702","selected address":"VICTIM SERVICES DIVISION\r501 W. 11TH STREET","geo_score":0.816,"id":"a6772mpygl1p","geo_precision":"street"},"type":"Feature","geometry":{"type":"Point","coordinates":[-97.732475,30.270329]}},{"properties":{"lic#":12546,"name":"AANDREA E. PULLY, M.ED.","city":"AUSTIN","st":"TX","zip":"78703","selected address":"508 DEEP EDDY #2","geo_score":0.628,"id":"a6772mllmj3e","geo_precision":"street"},"type":"Feature","geometry":{"type":"Point","coordinates":[-97.773405,30.277165]}},{"properties":{"lic#":14520,"name":"AMY C PERSON","city":"AUSTIN","st":"TX","zip":"78703","selected address":"1613- B WEST 6TH STREET","geo_score":0.634,"id":"a6772mgqxkzs","geo_precision":"range"},"type":"Feature","geometry":{"type":"Point","coordinates":[-97.764355,30.275851]}},{"properties":{"lic#":11031,"name":"ANNE SPENCE CARLSON, PH.D.","city":"AUSTIN","st":"TX","zip":"78703","selected address":"2207 WESTOVER ROAD","geo_score":0.902,"id":"a6772ml30gsa","geo_precision":"range"},"type":"Feature","geometry":{"type":"Point","coordinates":[-97.759761,30.300899]}},{"properties":{"lic#":15720,"name":"AUSTIN I.S.D.","city":"AUSTIN","st":"TX","zip":"78703","selected address":"1111 W 6TH ST","geo_score":0.805,"id":"a6772mig2l6w","geo_precision":"range"},"type":"Feature","geometry":{"type":"Point","coordinates":[-97.755743,30.272257]}},{"properties":{"lic#":14174,"name":"AUSTIN INDEPENDENT SCHOOL DISTRICT","city":"AUSTIN","st":"TX","zip":"78703","selected address":"1111 WEST 6TH STREET\rKEALING JUNIOR HIGH","geo_score":0.666,"id":"a6772mjpoc9q","geo_precision":"range"},"type":"Feature","geometry":{"type":"Point","coordinates":[-97.755743,30.272257]}},{"properties":{"lic#":5442,"name":"AUSTIN INDEPENDENT SCHOOLS","city":"AUSTIN","st":"TX","zip":"78703","selected address":"1111 WEST  SIXTH STREET","geo_score":0.805,"id":"a6772mhyh8cr","geo_precision":"range"},"type":"Feature","geometry":{"type":"Point","coordinates":[-97.755743,30.272257]}},{"properties":{"lic#":7080,"name":"AUSTIN ISD","city":"AUSTIN","st":"TX","zip":"78703","selected address":"1111 W 6TH ST","geo_score":0.805,"id":"a6772mfk4ws2","geo_precision":"range"},"type":"Feature","geometry":{"type":"Point","coordinates":[-97.755743,30.272257]}},{"properties":{"lic#":2688,"name":"AUSTIN ISD","city":"AUSTIN","st":"TX","zip":"78703","selected address":"1111 W. 6TH STREET","geo_score":0.357,"id":"a6772mu5p4mf","geo_precision":"range"},"type":"Feature","geometry":{"type":"Point","coordinates":[-97.76422,30.275769]}},{"properties":{"lic#":7620,"name":"AUSTIN ISD","city":"AUSTIN","st":"TX","zip":"78703","selected address":"1111 W 6TH ST","geo_score":0.805,"id":"a6772mhddaoj","geo_precision":"range"},"type":"Feature","geometry":{"type":"Point","coordinates":[-97.755743,30.272257]}},{"properties":{"lic#":6284,"name":"AUSTIN ISD","city":"AUSTIN","st":"TX","zip":"78703","selected address":"1111 WEST 6TH","geo_score":0.707,"id":"a6772mh8hjjb","geo_precision":"range"},"type":"Feature","geometry":{"type":"Point","coordinates":[-97.755743,30.272257]}},{"properties":{"lic#":11878,"name":"AUSTIN ISD","city":"AUSTIN","st":"TX","zip":"78703","selected address":"1111 WEST 6TH STREET","geo_score":0.805,"id":"a6772mez1utn","geo_precision":"range"},"type":"Feature","geometry":{"type":"Point","coordinates":[-97.755743,30.272257]}},{"properties":{"lic#":7983,"name":"AUSTIN ISD / MATHEWS ELEMENTARY SCHOOL","city":"AUSTIN","st":"TX","zip":"78703","selected address":"906 W LYNN ST","geo_score":0.902,"id":"a6772msudmpc","geo_precision":"range"},"type":"Feature","geometry":{"type":"Point","coordinates":[-97.760719,30.277853]}},{"properties":{"lic#":11642,"name":"AUSTIN-TRAVIS COUNTY MHMR","city":"AUSTIN","st":"TX","zip":"78703","selected address":"708 PATTERSON AVENUE","geo_score":0.902,"id":"a6772mho46hb","geo_precision":"range"},"type":"Feature","geometry":{"type":"Point","coordinates":[-97.765751,30.278144]}},{"properties":{"lic#":13764,"name":"BARBARA REIVER","city":"AUSTIN","st":"TX","zip":"78703","selected address":"1617 WEST 6TH STREET, SUITE B","geo_score":0.571,"id":"a6772mu5qbcg","geo_precision":"range"},"type":"Feature","geometry":{"type":"Point","coordinates":[-97.76422,30.275769]}},{"properties":{"lic#":11655,"name":"BECCA ARONOW LPC, PA","city":"AUSTIN","st":"TX","zip":"78703","selected address":"1717 W. 6TH STREET, SUITE 345","geo_score":0.357,"id":"a6772mr3r9lz","geo_precision":"range"},"type":"Feature","geometry":{"type":"Point","coordinates":[-97.76422,30.275769]}},{"properties":{"lic#":10826,"name":"CAROLYN P. MILLER","city":"AUSTIN","st":"TX","zip":"78703","selected address":"2514 JANICE DR","geo_score":0.902,"id":"a6772mq6uaa5","geo_precision":"range"},"type":"Feature","geometry":{"type":"Point","coordinates":[-97.76461,30.297561]}},{"properties":{"lic#":8466,"name":"CASTLE HILL PSYCHOTHERAPY GROUP","city":"AUSTIN","st":"TX","zip":"78703","selected address":"1211 BAYLOR","geo_score":0.829,"id":"a6772mh8evbt","geo_precision":"range"},"type":"Feature","geometry":{"type":"Point","coordinates":[-97.752305,30.27737]}},{"properties":{"lic#":9375,"name":"CATHERINE COGBURN","city":"AUSTIN","st":"TX","zip":"78703","selected address":"1211 BAYLOR ST #200","geo_score":0.709,"id":"a6772mlscsjl","geo_precision":"street"},"type":"Feature","geometry":{"type":"Point","coordinates":[-97.756649,30.269634]}},{"properties":{"lic#":14102,"name":"DENA ROBERTS, M.ED., LPC","city":"AUSTIN","st":"TX","zip":"78703","selected address":"2409 MARLTON DRIVE","geo_score":0.902,"id":"a6772mmtwcm2","geo_precision":"range"},"type":"Feature","geometry":{"type":"Point","coordinates":[-97.770968,30.284644]}},{"properties":{"lic#":4802,"name":"EDUCATIONAL SEARCH &amp; PLACEMENT","city":"AUSTIN","st":"TX","zip":"78703","selected address":"1005 GASTON AVENUE","geo_score":0.902,"id":"a6772ms70xpi","geo_precision":"range"},"type":"Feature","geometry":{"type":"Point","coordinates":[-97.747981,30.292602]}},{"properties":{"lic#":9644,"name":"EILEEN ROSEN","city":"AUSTIN","st":"TX","zip":"78703","selected address":"1611 WETHERSFIELD ROAD","geo_score":0.902,"id":"a6772mu1k4xm","geo_precision":"range"},"type":"Feature","geometry":{"type":"Point","coordinates":[-97.762058,30.286036]}},{"properties":{"lic#":14581,"name":"HOGG FOUNDATION FOR MENTAL HEALTH","city":"AUSTIN","st":"TX","zip":"78703","selected address":"3001 LAKE AUSTIN BLVD.","geo_score":0.902,"id":"a6772mnalxr6","geo_precision":"range"},"type":"Feature","geometry":{"type":"Point","coordinates":[-97.7787,30.285999]}},{"properties":{"lic#":15517,"name":"INSIGHT CENTER","city":"AUSTIN","st":"TX","zip":"78703","selected address":"2308 LAKE AUSTIN BLVD.","geo_score":0.902,"id":"a6772mt3s2mx","geo_precision":"range"},"type":"Feature","geometry":{"type":"Point","coordinates":[-97.771541,30.277548]}},{"properties":{"lic#":12211,"name":"JEFFREY S. HUDSON, M.ED. L.P.C","city":"AUSTIN","st":"TX","zip":"78703","selected address":"508 DEEP EDDY AVENUE\rSUITE 4","geo_score":0.799,"id":"a6772msvfh6o","geo_precision":"range"},"type":"Feature","geometry":{"type":"Point","coordinates":[-97.772284,30.278047]}},{"properties":{"lic#":14506,"name":"LAURA WARD DREW MA LPC","city":"AUSTIN","st":"TX","zip":"78703","selected address":"1510 W 34TH #202A","geo_score":0.54,"id":"a6772mn3gd0i","geo_precision":"street"},"type":"Feature","geometry":{"type":"Point","coordinates":[-97.749913,30.305303]}},{"properties":{"lic#":2548,"name":"MAC HRUSKA M.S.","city":"AUSTIN","st":"TX","zip":"78703","selected address":"1501 WEST 6TH STREET","geo_score":0.805,"id":"a6772mmem33i","geo_precision":"range"},"type":"Feature","geometry":{"type":"Point","coordinates":[-97.761496,30.274383]}},{"properties":{"lic#":13614,"name":"MICHAEL HEGENER","city":"AUSTIN","st":"TX","zip":"78703","selected address":"508 DEEP EDDY AVE, STE 2","geo_score":0.468,"id":"a6772mnccp2k","geo_precision":"street"},"type":"Feature","geometry":{"type":"Point","coordinates":[-97.772838,30.277662]}},{"properties":{"lic#":18904,"name":"PATTI MCCULLAR, LPC INDIVIDUAL COUPLES C","city":"AUSTIN","st":"TX","zip":"78703","selected address":"2306 LAKE AUSTIN BLVD.","geo_score":0.902,"id":"a6772mnmg63f","geo_precision":"range"},"type":"Feature","geometry":{"type":"Point","coordinates":[-97.771528,30.277541]}},{"properties":{"lic#":17982,"name":"PRIVATE PRACTICE","city":"AUSTIN","st":"TX","zip":"78703","selected address":"2502 VELASQUEZ DRIVE","geo_score":0.902,"id":"a6772mmskiw8","geo_precision":"range"},"type":"Feature","geometry":{"type":"Point","coordinates":[-97.77417,30.303423]}},{"properties":{"lic#":14912,"name":"SHERRI STILES, MA, LPC","city":"AUSTIN","st":"TX","zip":"78703","selected address":"2404 LAKE AUSTIN  BLVD","geo_score":0.902,"id":"a6772mrco8oz","geo_precision":"range"},"type":"Feature","geometry":{"type":"Point","coordinates":[-97.772363,30.277977]}},{"properties":{"lic#":13185,"name":"Unnown","city":"AUSTIN","st":"TX","zip":"78703","selected address":"2306 LAKE AUSTIN BLVD.","geo_score":0.902,"id":"a6772mnapyuf","geo_precision":"range"},"type":"Feature","geometry":{"type":"Point","coordinates":[-97.771528,30.277541]}},{"properties":{"lic#":9292,"name":"Unnown","city":"AUSTIN","st":"TX","zip":"78703","selected address":"508 DEEP EDDY, SUITE 1-A","geo_score":0.74,"id":"a6772mtw3uy0","geo_precision":"street"},"type":"Feature","geometry":{"type":"Point","coordinates":[-97.772838,30.277662]}},{"properties":{"lic#":17696,"name":"Unnown","city":"AUSTIN","st":"TX","zip":"78703","selected address":"2306 LAKE AUSTIN BLVD.","geo_score":0.902,"id":"a6772mn7w76s","geo_precision":"range"},"type":"Feature","geometry":{"type":"Point","coordinates":[-97.771528,30.277541]}},{"properties":{"lic#":13839,"name":"Unnown","city":"AUSTIN","st":"TX","zip":"78703","selected address":"1300 WEST LYNN, SUITE 207","geo_score":0.735,"id":"a6772mhvij5w","geo_precision":"street"},"type":"Feature","geometry":{"type":"Point","coordinates":[-97.763318,30.273707]}},{"properties":{"lic#":14123,"name":"Unnown","city":"AUSTIN","st":"TX","zip":"78703","selected address":"1717 WEST 10TH STREET","geo_score":0.819,"id":"a6772mqw2iaf","geo_precision":"range"},"type":"Feature","geometry":{"type":"Point","coordinates":[-97.762035,30.280138]}},{"properties":{"lic#":9018,"name":"Unnown","city":"AUSTIN","st":"TX","zip":"78703","selected address":"1500 W. 6TH STREET","geo_score":0.357,"id":"a6772mea86y5","geo_precision":"range"},"type":"Feature","geometry":{"type":"Point","coordinates":[-97.76422,30.275769]}},{"properties":{"lic#":19269,"name":"ACCESSIBLE ARTS SCHOOL OUTREACH PROGRAM","city":"AUSTIN","st":"TX","zip":"78704","selected address":"1310 S 1ST ST STE 200","geo_score":0.883,"id":"a6772men4psp","geo_precision":"range"},"type":"Feature","geometry":{"type":"Point","coordinates":[-97.754302,30.251442]}},{"properties":{"lic#":11013,"name":"ASSOC PROFESSOR OF COUNSELING","city":"AUSTIN","st":"TX","zip":"78704","selected address":"3001 S CONGRESS AVE","geo_score":0.805,"id":"a6772ml1p3af","geo_precision":"street"},"type":"Feature","geometry":{"type":"Point","coordinates":[-97.748652,30.252273]}},{"properties":{"lic#":16218,"name":"ATC - MHMR","city":"AUSTIN","st":"TX","zip":"78704","selected address":"4019 MANCHACA RD.","geo_score":1.0,"id":"a6772min9oe4","geo_precision":"range"},"type":"Feature","geometry":{"type":"Point","coordinates":[-97.78606,30.233266]}},{"properties":{"lic#":18421,"name":"ATC MHMR","city":"AUSTIN","st":"TX","zip":"78704","selected address":"105 W. RIVERSIDE DR.","geo_score":0.607,"id":"a6772mghqidd","geo_precision":"street"},"type":"Feature","geometry":{"type":"Point","coordinates":[-97.746874,30.257144]}},{"properties":{"lic#":18653,"name":"ATCMHMR","city":"AUSTIN","st":"TX","zip":"78704","selected address":"1631 E 2ND ST\rBLDG C","geo_score":0.772,"id":"a6772mje4dzv","geo_precision":"range"},"type":"Feature","geometry":{"type":"Point","coordinates":[-97.756538,30.249522]}},{"properties":{"lic#":6266,"name":"AUSTIN COMMUNITY COLLEGE","city":"AUSTIN","st":"TX","zip":"78704","selected address":"1212 RIO GRANDE","geo_score":0.752,"id":"a6772mun0ytr","geo_precision":"range"},"type":"Feature","geometry":{"type":"Point","coordinates":[-97.747146,30.276448]}},{"properties":{"lic#":14624,"name":"AUSTIN FAMILY HOUSE","city":"AUSTIN","st":"TX","zip":"78704","selected address":"2604 PARAMOUNT DR","geo_score":0.927,"id":"a6772mr4gedc","geo_precision":"range"},"type":"Feature","geometry":{"type":"Point","coordinates":[-97.780512,30.247553]}},{"properties":{"lic#":12080,"name":"AUSTIN ISD","city":"AUSTIN","st":"TX","zip":"78704","selected address":"906 W. MILTON","geo_score":0.619,"id":"a6772mswdar6","geo_precision":"street"},"type":"Feature","geometry":{"type":"Point","coordinates":[-97.750625,30.247024]}},{"properties":{"lic#":16678,"name":"AUSTIN TRAVIS CO MHMR","city":"AUSTIN","st":"TX","zip":"78704","selected address":"1430 COLLIER ST","geo_score":1.0,"id":"a6772mebo5cx","geo_precision":"range"},"type":"Feature","geometry":{"type":"Point","coordinates":[-97.766716,30.252504]}},{"properties":{"lic#":18715,"name":"AUSTIN TRAVIS CO MHMR","city":"AUSTIN","st":"TX","zip":"78704","selected address":"105 W RIVERSIDE STE 120","geo_score":0.89,"id":"a6772mf8i2ws","geo_precision":"range"},"type":"Feature","geometry":{"type":"Point","coordinates":[-97.746892,30.257164]}},{"properties":{"lic#":14075,"name":"AUSTIN TRAVIS COUNTY INTEGRAL","city":"AUSTIN","st":"TX","zip":"78704","selected address":"P O BOX 3548","geo_score":0.333,"id":"a6772mfa8wyj","geo_precision":"street"},"type":"Feature","geometry":{"type":"Point","coordinates":[-97.714795,30.358445]}},{"properties":{"lic#":62243,"name":"AUSTIN TRAVIS COUNTY MHMR","city":"AUSTIN","st":"TX","zip":"78704","selected address":"2515 S. CONGRESS","geo_score":0.607,"id":"a6772mj99ttf","geo_precision":"street"},"type":"Feature","geometry":{"type":"Point","coordinates":[-97.745174,30.26165]}},{"properties":{"lic#":18419,"name":"AUSTIN TRAVIS COUNTY MHMR","city":"AUSTIN","st":"TX","zip":"78704","selected address":"1430 COLLIER STREET","geo_score":1.0,"id":"a6772moup9xq","geo_precision":"range"},"type":"Feature","geometry":{"type":"Point","coordinates":[-97.766716,30.252504]}},{"properties":{"lic#":19111,"name":"AUSTIN TRAVIS COUNTY MHMR","city":"AUSTIN","st":"TX","zip":"78704","selected address":"105 W RIVERSIDE DR SUITE 120","geo_score":0.883,"id":"a6772mr8m9q7","geo_precision":"range"},"type":"Feature","geometry":{"type":"Point","coordinates":[-97.746892,30.257164]}},{"properties":{"lic#":12338,"name":"AUSTIN TRAVIS COUNTY MHMR","city":"AUSTIN","st":"TX","zip":"78704","selected address":"1430 COLLIER ST","geo_score":1.0,"id":"a6772mn9giti","geo_precision":"range"},"type":"Feature","geometry":{"type":"Point","coordinates":[-97.766716,30.252504]}},{"properties":{"lic#":17736,"name":"CENPATICO BEHAVIORAL HEALTH","city":"AUSTIN","st":"TX","zip":"78704","selected address":"1400 S CONGRESS STE B 250","geo_score":0.696,"id":"a6772mt6kv4c","geo_precision":"street"},"type":"Feature","geometry":{"type":"Point","coordinates":[-97.748652,30.252273]}},{"properties":{"lic#":63487,"name":"COMMUNITIES IN SCHOOLS - CENTRAL TEXAS","city":"AUSTIN","st":"TX","zip":"78704","selected address":"3000 S. IH-35, STE 200","geo_score":0.633,"id":"a6772mefnss6","geo_precision":"street"},"type":"Feature","geometry":{"type":"Point","coordinates":[-97.742032,30.248165]}},{"properties":{"lic#":12675,"name":"CONGRESS AVE BAPTIST CHURCH","city":"AUSTIN","st":"TX","zip":"78704","selected address":"1511 S CONGRESS AVE","geo_score":0.806,"id":"a6772meq52lo","geo_precision":"street"},"type":"Feature","geometry":{"type":"Point","coordinates":[-97.748652,30.252273]}},{"properties":{"lic#":17349,"name":"DAVID B. HOOD","city":"AUSTIN","st":"TX","zip":"78704","selected address":"1725 GLENCLIFF DRIVE","geo_score":1.0,"id":"a6772mjnq9yb","geo_precision":"range"},"type":"Feature","geometry":{"type":"Point","coordinates":[-97.783645,30.259964]}},{"properties":{"lic#":13834,"name":"DAYGLO FAMILY TREATMENT CENTER AUSTIN","city":"AUSTIN","st":"TX","zip":"78704","selected address":"2700 SOUTH IH 35","geo_score":0.941,"id":"a6772mf303we","geo_precision":"range"},"type":"Feature","geometry":{"type":"Point","coordinates":[-97.745889,30.226512]}},{"properties":{"lic#":61980,"name":"DEPT. OF ASSISTIVE AND REHABILITATIVE SE","city":"AUSTIN","st":"TX","zip":"78704","selected address":"2416 A SOUTH LAMAR","geo_score":0.854,"id":"a6772mhadufv","geo_precision":"range"},"type":"Feature","geometry":{"type":"Point","coordinates":[-97.777314,30.246853]}},{"properties":{"lic#":18246,"name":"FRESH PERSPECTIVES COUNSELING","city":"AUSTIN","st":"TX","zip":"78704","selected address":"3001 S. LAMAR BLVD\rSTE 220","geo_score":0.633,"id":"a6772mh87bqo","geo_precision":"street"},"type":"Feature","geometry":{"type":"Point","coordinates":[-97.742032,30.248165]}},{"properties":{"lic#":62749,"name":"FULMORE MIDDLE SCHOOL","city":"AUSTIN","st":"TX","zip":"78704","selected address":"201 EAST MARY ST.","geo_score":0.916,"id":"a6772ml7e9t1","geo_precision":"range"},"type":"Feature","geometry":{"type":"Point","coordinates":[-97.752433,30.245497]}},{"properties":{"lic#":11576,"name":"KALILA B. HOMANN, M.A., L.P.C.","city":"AUSTIN","st":"TX","zip":"78704","selected address":"1310 SOUTH FIRST ST.\rSUITE 200","geo_score":0.857,"id":"a6772mqaay6z","geo_precision":"street"},"type":"Feature","geometry":{"type":"Point","coordinates":[-97.749276,30.259757]}},{"properties":{"lic#":19242,"name":"LIFE PRACTICE","city":"AUSTIN","st":"TX","zip":"78704","selected address":"2111 DIXON","geo_score":0.526,"id":"a6772mmj5j71","geo_precision":"street"},"type":"Feature","geometry":{"type":"Point","coordinates":[-97.822932,30.195207]}},{"properties":{"lic#":61768,"name":"LIFEWORKS","city":"AUSTIN","st":"TX","zip":"78704","selected address":"1221 W BEN WHITE BLVD SUITE 10\r8A","geo_score":0.88,"id":"a6772ms3sykt","geo_precision":"range"},"type":"Feature","geometry":{"type":"Point","coordinates":[-97.778348,30.227377]}},{"properties":{"lic#":16916,"name":"MHMR CHILDREN'S SERVICES","city":"AUSTIN","st":"TX","zip":"78704","selected address":"105 RIVERSIDE DRIVE, SUITE 120","geo_score":0.679,"id":"a6772mhbt3go","geo_precision":"street"},"type":"Feature","geometry":{"type":"Point","coordinates":[-97.742032,30.248165]}},{"properties":{"lic#":11942,"name":"MOLLY SERAFIN, M.ED., LPC","city":"AUSTIN","st":"TX","zip":"78704","selected address":"1403 NEWTON ST.","geo_score":1.0,"id":"a6772mekm8e8","geo_precision":"range"},"type":"Feature","geometry":{"type":"Point","coordinates":[-97.751304,30.250505]}},{"properties":{"lic#":9346,"name":"NICK DUNCAN/M.ED./L.P.C.","city":"AUSTIN","st":"TX","zip":"78704","selected address":"2135 BARTON HILLS","geo_score":0.955,"id":"a6772mgk3fm8","geo_precision":"range"},"type":"Feature","geometry":{"type":"Point","coordinates":[-97.786418,30.252837]}},{"properties":{"lic#":19057,"name":"PHOENIX ACADEMY","city":"AUSTIN","st":"TX","zip":"78704","selected address":"400 W. LIVE OAK","geo_score":0.614,"id":"a6772mm93xr0","geo_precision":"street"},"type":"Feature","geometry":{"type":"Point","coordinates":[-97.752434,30.241923]}},{"properties":{"lic#":19063,"name":"PHOENIX ACADEMY","city":"AUSTIN","st":"TX","zip":"78704","selected address":"400 W LIVE OAK","geo_score":0.941,"id":"a6772mu9o45z","geo_precision":"range"},"type":"Feature","geometry":{"type":"Point","coordinates":[-97.755485,30.243274]}},{"properties":{"lic#":19885,"name":"PHOENIX HOUSE ACADEMY","city":"AUSTIN","st":"TX","zip":"78704","selected address":"400 W LIVE OAK","geo_score":0.941,"id":"a6772mhbk14y","geo_precision":"range"},"type":"Feature","geometry":{"type":"Point","coordinates":[-97.755485,30.243274]}},{"properties":{"lic#":19318,"name":"POSITIVE HEALTH MANAGEMENT","city":"AUSTIN","st":"TX","zip":"78704","selected address":"2315 W. BEN WHITE BLVD.","geo_score":0.604,"id":"a6772mkbijwe","geo_precision":"street"},"type":"Feature","geometry":{"type":"Point","coordinates":[-97.763598,30.223409]}},{"properties":{"lic#":18156,"name":"PROVIDENCE SERVICE CORPORATION","city":"AUSTIN","st":"TX","zip":"78704","selected address":"1524 SOUTH IH-35, #210","geo_score":0.545,"id":"a6772mqz42p4","geo_precision":"street"},"type":"Feature","geometry":{"type":"Point","coordinates":[-97.735863,30.248533]}},{"properties":{"lic#":8752,"name":"REBECCA SUE DAVIS, M.ED.","city":"AUSTIN","st":"TX","zip":"78704","selected address":"1708 NICKERSON","geo_score":0.947,"id":"a6772mr9grvv","geo_precision":"range"},"type":"Feature","geometry":{"type":"Point","coordinates":[-97.749491,30.246638]}},{"properties":{"lic#":12656,"name":"RESOURCES","city":"AUSTIN","st":"TX","zip":"78704","selected address":"2807 MANCHACA","geo_score":0.941,"id":"a6772miycjpk","geo_precision":"range"},"type":"Feature","geometry":{"type":"Point","coordinates":[-97.781411,30.244157]}},{"properties":{"lic#":17137,"name":"RESOURCES FOR LIVING","city":"AUSTIN","st":"TX","zip":"78704","selected address":"2807 MANCHACA ROAD","geo_score":1.0,"id":"a6772mr1rcuf","geo_precision":"range"},"type":"Feature","geometry":{"type":"Point","coordinates":[-97.781411,30.244157]}},{"properties":{"lic#":19553,"name":"RIO GRANDE CNSLG CTR","city":"AUSTIN","st":"TX","zip":"78704","selected address":"1825 FORTVIEW RD STE 112F","geo_score":0.879,"id":"a6772mftvc98","geo_precision":"range"},"type":"Feature","geometry":{"type":"Point","coordinates":[-97.785842,30.230146]}},{"properties":{"lic#":8330,"name":"RIO GRANDE COUNSELING CENTER","city":"AUSTIN","st":"TX","zip":"78704","selected address":"1823 FORTVIEW, SUITE 101","geo_score":0.914,"id":"a6772meap23m","geo_precision":"street"},"type":"Feature","geometry":{"type":"Point","coordinates":[-97.781127,30.228206]}},{"properties":{"lic#":11427,"name":"ROBERT MURPHY, LPC","city":"AUSTIN","st":"TX","zip":"78704","selected address":"206 E. LIVE OAK STREET","geo_score":0.614,"id":"a6772msvv3yo","geo_precision":"street"},"type":"Feature","geometry":{"type":"Point","coordinates":[-97.752434,30.241923]}},{"properties":{"lic#":2673,"name":"SANDRA SUE ENRIGHT M.A.","city":"AUSTIN","st":"TX","zip":"78704","selected address":"1700 MICHAEL STREET","geo_score":1.0,"id":"a6772mrrs22l","geo_precision":"range"},"type":"Feature","geometry":{"type":"Point","coordinates":[-97.777129,30.257475]}},{"properties":{"lic#":12984,"name":"SELF","city":"AUSTIN","st":"TX","zip":"78704","selected address":"611 S. CONGRESS AVE.\rSUITE 215C","geo_score":0.633,"id":"a6772mtpnchu","geo_precision":"street"},"type":"Feature","geometry":{"type":"Point","coordinates":[-97.742032,30.248165]}},{"properties":{"lic#":18127,"name":"SELF","city":"AUSTIN","st":"TX","zip":"78704","selected address":"2124 BLUEBONNET LN","geo_score":1.0,"id":"a6772migv1n1","geo_precision":"range"},"type":"Feature","geometry":{"type":"Point","coordinates":[-97.775334,30.24978]}},{"properties":{"lic#":13537,"name":"ST IGNATIUS MARTYR CATHOLIC CHURCH","city":"AUSTIN","st":"TX","zip":"78704","selected address":"2309 EUCLID AVE","geo_score":1.0,"id":"a6772mon0jth","geo_precision":"range"},"type":"Feature","geometry":{"type":"Point","coordinates":[-97.754788,30.241347]}},{"properties":{"lic#":11645,"name":"ST. EDWARD'S UNIVERSITY","city":"AUSTIN","st":"TX","zip":"78704","selected address":"3001 S. CONGRESS AVENUE","geo_score":0.607,"id":"a6772mk9asv2","geo_precision":"street"},"type":"Feature","geometry":{"type":"Point","coordinates":[-97.745174,30.26165]}},{"properties":{"lic#":17343,"name":"ST. EDWARDS UNIVERSITY","city":"AUSTIN","st":"TX","zip":"78704","selected address":"3001 S. CONGRESS AVE. #1050","geo_score":0.732,"id":"a6772mjmjcpi","geo_precision":"range"},"type":"Feature","geometry":{"type":"Point","coordinates":[-97.74819,30.253202]}},{"properties":{"lic#":18312,"name":"ST.EDWARD'S UNIVERISTY","city":"AUSTIN","st":"TX","zip":"78704","selected address":"3001 S. CONGRESS AVE.","geo_score":0.607,"id":"a6772mp9kkzw","geo_precision":"street"},"type":"Feature","geometry":{"type":"Point","coordinates":[-97.745174,30.26165]}},{"properties":{"lic#":15572,"name":"STARBRIGHT PRESCHOOL","city":"AUSTIN","st":"TX","zip":"78704","selected address":"3900 VALLEY VIEW RD","geo_score":0.951,"id":"a6772msgov5s","geo_precision":"range"},"type":"Feature","geometry":{"type":"Point","coordinates":[-97.782792,30.234587]}},{"properties":{"lic#":18628,"name":"TEXAS SCHOOL FOR DEAF","city":"AUSTIN","st":"TX","zip":"78704","selected address":"1102 SOUTH CONGRESS AVENUE","geo_score":1.0,"id":"a6772mgoxdkf","geo_precision":"range"},"type":"Feature","geometry":{"type":"Point","coordinates":[-97.748291,30.252876]}},{"properties":{"lic#":9746,"name":"TEXAS SCHOOL FOR DEAF","city":"AUSTIN","st":"TX","zip":"78704","selected address":"1102 S. CONGRESS","geo_score":0.607,"id":"a6772mmm434o","geo_precision":"street"},"type":"Feature","geometry":{"type":"Point","coordinates":[-97.745174,30.26165]}},{"properties":{"lic#":9120,"name":"TEXAS SCHOOL FOR DEAF","city":"AUSTIN","st":"TX","zip":"78704","selected address":"11025 S CONGRESS","geo_score":0.732,"id":"a6772mtvk19o","geo_precision":"street"},"type":"Feature","geometry":{"type":"Point","coordinates":[-97.748652,30.252273]}},{"properties":{"lic#":61704,"name":"TEXAS STATE FOR DEAF","city":"AUSTIN","st":"TX","zip":"78704","selected address":"1102 S CONGRESS AVE","geo_score":1.0,"id":"a6772mmxfv8c","geo_precision":"range"},"type":"Feature","geometry":{"type":"Point","coordinates":[-97.748291,30.252876]}},{"properties":{"lic#":13307,"name":"THERAPY CENTER","city":"AUSTIN","st":"TX","zip":"78704","selected address":"3625 MANCHACA ROAD #103","geo_score":0.805,"id":"a6772mfop6jp","geo_precision":"street"},"type":"Feature","geometry":{"type":"Point","coordinates":[-97.781397,30.244258]}},{"properties":{"lic#":17526,"name":"TRACY L. TOWNSEND, LPC","city":"AUSTIN","st":"TX","zip":"78704","selected address":"2101 S. LAMAR, STE 200","geo_score":0.633,"id":"a6772ml50lws","geo_precision":"street"},"type":"Feature","geometry":{"type":"Point","coordinates":[-97.742032,30.248165]}},{"properties":{"lic#":17595,"name":"TRAVIS COUNTY DEAF SERVICES","city":"AUSTIN","st":"TX","zip":"78704","selected address":"2201 POST RD\rSUITE 100","geo_score":0.833,"id":"a6772mru7tul","geo_precision":"range"},"type":"Feature","geometry":{"type":"Point","coordinates":[-97.751413,30.241481]}},{"properties":{"lic#":63516,"name":"TRAVIS COUNTY JUVENILE PROBATION","city":"AUSTIN","st":"TX","zip":"78704","selected address":"2515 S. CONGRESS AVE.","geo_score":0.607,"id":"a6772mnz9w5x","geo_precision":"street"},"type":"Feature","geometry":{"type":"Point","coordinates":[-97.745174,30.26165]}},{"properties":{"lic#":16248,"name":"TRAVIS COUNTY MHMR","city":"AUSTIN","st":"TX","zip":"78704","selected address":"2700 SOUTH IH-35","geo_score":0.74,"id":"a6772mm8ze6i","geo_precision":"range"},"type":"Feature","geometry":{"type":"Point","coordinates":[-97.745889,30.226512]}},{"properties":{"lic#":13127,"name":"TRAVIS HEIGHTS ELEMENTARY","city":"AUSTIN","st":"TX","zip":"78704","selected address":"2010 ALAMEDA DRIVE","geo_score":1.0,"id":"a6772mfuwikr","geo_precision":"range"},"type":"Feature","geometry":{"type":"Point","coordinates":[-97.745533,30.241293]}},{"properties":{"lic#":16096,"name":"UT-AUSTIN","city":"AUSTIN","st":"TX","zip":"78704","selected address":"100A W. DEAN KEETON","geo_score":0.347,"id":"a6772mmkdoj8","geo_precision":"street"},"type":"Feature","geometry":{"type":"Point","coordinates":[-97.786647,30.190019]}},{"properties":{"lic#":61793,"name":"WATERLOO COUNSELING CENTER","city":"AUSTIN","st":"TX","zip":"78704","selected address":"3000 S IH 35 STE 315","geo_score":0.814,"id":"a6772mqnf1ng","geo_precision":"range"},"type":"Feature","geometry":{"type":"Point","coordinates":[-97.744655,30.227095]}},{"properties":{"lic#":16839,"name":"WATERLOO COUNSELING CENTER","city":"AUSTIN","st":"TX","zip":"78704","selected address":"1524 S IH 35 STE 218","geo_score":0.814,"id":"a6772mezrmqp","geo_precision":"range"},"type":"Feature","geometry":{"type":"Point","coordinates":[-97.735693,30.243707]}},{"properties":{"lic#":20348,"name":"WATERLOO COUNSELING CENTER","city":"AUSTIN","st":"TX","zip":"78704","selected address":"3000 S IH-35 STE 315","geo_score":0.814,"id":"a6772mer433r","geo_precision":"range"},"type":"Feature","geometry":{"type":"Point","coordinates":[-97.746555,30.225377]}},{"properties":{"lic#":61867,"name":"WATERLOO COUNSELING CENTER","city":"AUSTIN","st":"TX","zip":"78704","selected address":"3000 S IH 35 SUITE 315","geo_score":0.797,"id":"a6772mekmomc","geo_precision":"range"},"type":"Feature","geometry":{"type":"Point","coordinates":[-97.744655,30.227095]}},{"properties":{"lic#":20122,"name":"WATERLOO COUNSELING CENTER","city":"AUSTIN","st":"TX","zip":"78704","selected address":"3000 S. IH 35, STE. 315","geo_score":0.464,"id":"a6772mmif37h","geo_precision":"street"},"type":"Feature","geometry":{"type":"Point","coordinates":[-97.735759,30.248027]}},{"properties":{"lic#":13970,"name":"WATERLOO COUSELING CENTER","city":"AUSTIN","st":"TX","zip":"78704","selected address":"3000 SOUTH IH 35, STE. 315","geo_score":0.596,"id":"a6772mp1lqmn","geo_precision":"street"},"type":"Feature","geometry":{"type":"Point","coordinates":[-97.742032,30.248165]}},{"properties":{"lic#":12642,"name":"WILLIAM EWING COOPER, M.TH.","city":"AUSTIN","st":"TX","zip":"78704","selected address":"206 C PARK LANE","geo_score":0.958,"id":"a6772muf9lcz","geo_precision":"range"},"type":"Feature","geometry":{"type":"Point","coordinates":[-97.74827,30.249649]}},{"properties":{"lic#":61955,"name":"WORK","city":"AUSTIN","st":"TX","zip":"78704","selected address":"3625 MANCHACA RD. STE 202","geo_score":0.633,"id":"a6772mi3wxeg","geo_precision":"street"},"type":"Feature","geometry":{"type":"Point","coordinates":[-97.742032,30.248165]}},{"properties":{"lic#":11833,"name":"YOUTH OPTIONS","city":"AUSTIN","st":"TX","zip":"78704","selected address":"3816 SOUTH FIRST STREET","geo_score":0.902,"id":"a6772mto4nei","geo_precision":"range"},"type":"Feature","geometry":{"type":"Point","coordinates":[-97.768752,30.227586]}},{"properties":{"lic#":13231,"name":"Unnown","city":"AUSTIN","st":"TX","zip":"78704","selected address":"2111 DICKSON #14","geo_score":0.74,"id":"a6772msbzu4x","geo_precision":"street"},"type":"Feature","geometry":{"type":"Point","coordinates":[-97.779843,30.245351]}},{"properties":{"lic#":16662,"name":"Unnown","city":"AUSTIN","st":"TX","zip":"78704","selected address":"2118 OXFORD AVENUE","geo_score":1.0,"id":"a6772megkw3s","geo_precision":"range"},"type":"Feature","geometry":{"type":"Point","coordinates":[-97.771133,30.249405]}},{"properties":{"lic#":15506,"name":"Unnown","city":"AUSTIN","st":"TX","zip":"78704","selected address":"3625 MANCHACA ROAD, SUITE 202","geo_score":0.679,"id":"a6772mnypriv","geo_precision":"street"},"type":"Feature","geometry":{"type":"Point","coordinates":[-97.742032,30.248165]}},{"properties":{"lic#":9934,"name":"Unnown","city":"AUSTIN","st":"TX","zip":"78704","selected address":"1714- B BARTON HILLS DRIVE","geo_score":0.979,"id":"a6772mo62vww","geo_precision":"range"},"type":"Feature","geometry":{"type":"Point","coordinates":[-97.779191,30.258931]}},{"properties":{"lic#":17651,"name":"Unnown","city":"AUSTIN","st":"TX","zip":"78704","selected address":"3816 S. LAMAR #3723","geo_score":0.737,"id":"a6772mk60fse","geo_precision":"range"},"type":"Feature","geometry":{"type":"Point","coordinates":[-97.788418,30.239001]}},{"properties":{"lic#":14819,"name":"Unnown","city":"AUSTIN","st":"TX","zip":"78704","selected address":"3205 S FIRST","geo_score":0.805,"id":"a6772mk8aui0","geo_precision":"range"},"type":"Feature","geometry":{"type":"Point","coordinates":[-97.765077,30.233457]}},{"properties":{"lic#":11543,"name":"Unnown","city":"AUSTIN","st":"TX","zip":"78704","selected address":"1310 SOUTH 1ST STREET\rSUITE 200","geo_score":0.854,"id":"a6772mfj6y0d","geo_precision":"range"},"type":"Feature","geometry":{"type":"Point","coordinates":[-97.754302,30.251442]}},{"properties":{"lic#":12398,"name":"Unnown","city":"AUSTIN","st":"TX","zip":"78704","selected address":"2403 WEST BEN WHITE BLVD","geo_score":1.0,"id":"a6772mlgr2wf","geo_precision":"range"},"type":"Feature","geometry":{"type":"Point","coordinates":[-97.794452,30.232466]}},{"properties":{"lic#":14277,"name":"Unnown","city":"AUSTIN","st":"TX","zip":"78704","selected address":"2502 RAE DELL AVE","geo_score":1.0,"id":"a6772mqninoh","geo_precision":"range"},"type":"Feature","geometry":{"type":"Point","coordinates":[-97.780869,30.248895]}},{"properties":{"lic#":18747,"name":"AUDRY STEELE, M.A., LPC","city":"AUSTIN","st":"TX","zip":"78705","selected address":"3705 MEDICAL PARKWAY, STE 360","geo_score":0.571,"id":"a6772mqvqqqo","geo_precision":"street"},"type":"Feature","geometry":{"type":"Point","coordinates":[-97.744509,30.304608]}},{"properties":{"lic#":3431,"name":"AUSTIN FAMILY INSTITUTE","city":"AUSTIN","st":"TX","zip":"78705","selected address":"2404 RIO GRANDE","geo_score":0.947,"id":"a6772mn4rx1k","geo_precision":"range"},"type":"Feature","geometry":{"type":"Point","coordinates":[-97.744656,30.288158]}},{"properties":{"lic#":12349,"name":"BRACKENRIDGE HOSPITAL","city":"AUSTIN","st":"TX","zip":"78705","selected address":"601 E. 15TH STREET","geo_score":0.347,"id":"a6772mqo439z","geo_precision":"street"},"type":"Feature","geometry":{"type":"Point","coordinates":[-97.737078,30.276297]}},{"properties":{"lic#":14534,"name":"COUNSELING &amp; MEDIATION SERVICES OF AUSTI","city":"AUSTIN","st":"TX","zip":"78705","selected address":"1011 W. 31ST STREET","geo_score":0.633,"id":"a6772mm7gjbv","geo_precision":"street"},"type":"Feature","geometry":{"type":"Point","coordinates":[-97.736949,30.295185]}},{"properties":{"lic#":13008,"name":"CRAWFORD HOSPICE SERVICES","city":"AUSTIN","st":"TX","zip":"78705","selected address":"709 W. 34TH ST. STE#B","geo_score":0.633,"id":"a6772mlcwz38","geo_precision":"street"},"type":"Feature","geometry":{"type":"Point","coordinates":[-97.736153,30.298672]}},{"properties":{"lic#":11813,"name":"HYDE PARK COUNSELING CENTER","city":"AUSTIN","st":"TX","zip":"78705","selected address":"711 W. 38TH STREET, SUITE E-2","geo_score":0.633,"id":"a6772mm4rxxs","geo_precision":"street"},"type":"Feature","geometry":{"type":"Point","coordinates":[-97.73471,30.301071]}},{"properties":{"lic#":16105,"name":"INTEGRATED BEHAVIORAL HEALTH","city":"AUSTIN","st":"TX","zip":"78705","selected address":"1907 N. LAMAR, SUITE 354","geo_score":0.614,"id":"a6772mnkwxlq","geo_precision":"street"},"type":"Feature","geometry":{"type":"Point","coordinates":[-97.75589,30.267287]}},{"properties":{"lic#":17656,"name":"JOAN L. MCGUIRE, M.A.","city":"AUSTIN","st":"TX","zip":"78705","selected address":"1011 WEST 21ST STREET","geo_score":0.738,"id":"a6772mlzhxs3","geo_precision":"street"},"type":"Feature","geometry":{"type":"Point","coordinates":[-97.748151,30.284868]}},{"properties":{"lic#":18342,"name":"LIFE'S JOURNEY","city":"AUSTIN","st":"TX","zip":"78705","selected address":"1011 WEST 31ST STREET","geo_score":0.916,"id":"a6772mqtboza","geo_precision":"range"},"type":"Feature","geometry":{"type":"Point","coordinates":[-97.746401,30.300269]}},{"properties":{"lic#":7777,"name":"PRIVATE PRACTICE","city":"AUSTIN","st":"TX","zip":"78705","selected address":"1004 WEST 31ST STREET","geo_score":0.916,"id":"a6772mnqz845","geo_precision":"range"},"type":"Feature","geometry":{"type":"Point","coordinates":[-97.746292,30.300246]}},{"properties":{"lic#":16033,"name":"PROFESSIONAL CHRISTIAN COUNSELING SERVIC","city":"AUSTIN","st":"TX","zip":"78705","selected address":"2200 SAN ANTONIO ST","geo_score":1.0,"id":"a6772mi8266v","geo_precision":"range"},"type":"Feature","geometry":{"type":"Point","coordinates":[-97.7429,30.285083]}},{"properties":{"lic#":2087,"name":"RICHARD HOLDEN THOMPSON PH.D.","city":"AUSTIN","st":"TX","zip":"78705","selected address":"1011 W. 31ST STREET","geo_score":0.633,"id":"a6772mq0b04e","geo_precision":"street"},"type":"Feature","geometry":{"type":"Point","coordinates":[-97.736949,30.295185]}},{"properties":{"lic#":61837,"name":"RICHARDSON THOMPSON","city":"AUSTIN","st":"TX","zip":"78705","selected address":"1011 W 31TH","geo_score":0.833,"id":"a6772mf6mjrc","geo_precision":"range"},"type":"Feature","geometry":{"type":"Point","coordinates":[-97.746401,30.300269]}},{"properties":{"lic#":16340,"name":"SELF","city":"AUSTIN","st":"TX","zip":"78705","selected address":"100 EAST 27TH STREET","geo_score":0.875,"id":"a6772mo79cxh","geo_precision":"range"},"type":"Feature","geometry":{"type":"Point","coordinates":[-97.737769,30.291749]}},{"properties":{"lic#":17149,"name":"ST DAVID'S MEDICAL CTR0 REHAB CTR","city":"AUSTIN","st":"TX","zip":"78705","selected address":"1005 EAST 32ND STREET","geo_score":0.916,"id":"a6772mlc7ojy","geo_precision":"range"},"type":"Feature","geometry":{"type":"Point","coordinates":[-97.724976,30.290025]}},{"properties":{"lic#":18863,"name":"UNIVERSITY OF TEXAS","city":"AUSTIN","st":"TX","zip":"78705","selected address":"1011 W. 31ST ST.\rSTUDENT SERVICES BLDG.","geo_score":0.633,"id":"a6772mu5c3i8","geo_precision":"street"},"type":"Feature","geometry":{"type":"Point","coordinates":[-97.736949,30.295185]}},{"properties":{"lic#":58983,"name":"UNIVERSITY OF TEXAS @ AUSTIN","city":"AUSTIN","st":"TX","zip":"78705","selected address":"CAREER EXPLORATION CENTER\rA115 JESTER","geo_score":0.607,"id":"a6772mp12vet","geo_precision":"street"},"type":"Feature","geometry":{"type":"Point","coordinates":[-97.784937,30.226297]}},{"properties":{"lic#":19424,"name":"UNIVERSITY OF TEXAS AT AUSTIN","city":"AUSTIN","st":"TX","zip":"78705","selected address":"CAREER EXPLORTION CENTER\rA-115 JESTER","geo_score":0.406,"id":"a6772mq6qzxp","geo_precision":"street"},"type":"Feature","geometry":{"type":"Point","coordinates":[-97.976584,30.376776]}},{"properties":{"lic#":18022,"name":"VETERANS OF AMERICA","city":"AUSTIN","st":"TX","zip":"78705","selected address":"1905 N. LAMAR #201","geo_score":0.639,"id":"a6772mhfxz3l","geo_precision":"street"},"type":"Feature","geometry":{"type":"Point","coordinates":[-97.755684,30.26775]}},{"properties":{"lic#":13910,"name":"Unnown","city":"AUSTIN","st":"TX","zip":"78705","selected address":"1011 W 31ST ST","geo_score":0.916,"id":"a6772mt1tcu0","geo_precision":"range"},"type":"Feature","geometry":{"type":"Point","coordinates":[-97.746401,30.300269]}},{"properties":{"lic#":12203,"name":"Unnown","city":"AUSTIN","st":"TX","zip":"78705","selected address":"1011 W. 31ST ST.","geo_score":0.633,"id":"a6772mssd72n","geo_precision":"street"},"type":"Feature","geometry":{"type":"Point","coordinates":[-97.736949,30.295185]}},{"properties":{"lic#":63364,"name":"RESOURCES FOR LIVING","city":"AUSTIN","st":"TX","zip":"78709","selected address":"PO BOX 91929","geo_score":0.329,"id":"a6772mnsqgji","geo_precision":"street"},"type":"Feature","geometry":{"type":"Point","coordinates":[-97.714795,30.358445]}},{"properties":{"lic#":19233,"name":"RESOURCES FOR LIVING","city":"AUSTIN","st":"TX","zip":"78709","selected address":"PO BOX 91929","geo_score":0.329,"id":"a6772mot7maw","geo_precision":"street"},"type":"Feature","geometry":{"type":"Point","coordinates":[-97.714795,30.358445]}},{"properties":{"lic#":19158,"name":"RESOURCES FOR LIVING","city":"AUSTIN","st":"TX","zip":"78709","selected address":"PO BOX 91929","geo_score":0.329,"id":"a6772me63u0n","geo_precision":"street"},"type":"Feature","geometry":{"type":"Point","coordinates":[-97.714795,30.358445]}},{"properties":{"lic#":62967,"name":"RESOURCES FOR LIVING","city":"AUSTIN","st":"TX","zip":"78709","selected address":"PO BOX 91929","geo_score":0.329,"id":"a6772me5p897","geo_precision":"street"},"type":"Feature","geometry":{"type":"Point","coordinates":[-97.714795,30.358445]}},{"properties":{"lic#":18801,"name":"RESOURCES FOR LIVING","city":"AUSTIN","st":"TX","zip":"78709","selected address":"PO BOX 91929","geo_score":0.329,"id":"a6772mpe2yp5","geo_precision":"street"},"type":"Feature","geometry":{"type":"Point","coordinates":[-97.714795,30.358445]}},{"properties":{"lic#":19077,"name":"RESOURCES FOR LIVING","city":"AUSTIN","st":"TX","zip":"78709","selected address":"PO BOX 91929","geo_score":0.329,"id":"a6772mm4p1ks","geo_precision":"street"},"type":"Feature","geometry":{"type":"Point","coordinates":[-97.714795,30.358445]}},{"properties":{"lic#":11874,"name":"TDMHMR","city":"AUSTIN","st":"TX","zip":"78711","selected address":"P.O. BOX 12668","geo_score":0.286,"id":"a6772mkht03l","geo_precision":"street"},"type":"Feature","geometry":{"type":"Point","coordinates":[-97.714795,30.358445]}},{"properties":{"lic#":12627,"name":"TEXAS MENTAL HEALTH MENTAL RETARDATION","city":"AUSTIN","st":"TX","zip":"78711","selected address":"P.O. BOX 12668","geo_score":0.286,"id":"a6772mnz51cp","geo_precision":"street"},"type":"Feature","geometry":{"type":"Point","coordinates":[-97.714795,30.358445]}},{"properties":{"lic#":14799,"name":"TX DEPT OF MHMR","city":"AUSTIN","st":"TX","zip":"78711","selected address":"PO BOX 12668","geo_score":0.329,"id":"a6772mrp787b","geo_precision":"street"},"type":"Feature","geometry":{"type":"Point","coordinates":[-97.714795,30.358445]}},{"properties":{"lic#":17657,"name":"PRIVATE PRACTICE MARY STEINHAR","city":"AUSTIN","st":"TX","zip":"78712","selected address":"BELLMONT HALL 506","geo_score":0.514,"id":"a6772mgg6zbd","geo_precision":"street"},"type":"Feature","geometry":{"type":"Point","coordinates":[-97.805416,30.37735]}},{"properties":{"lic#":62084,"name":"UNIVERSITY OF TEXAS AT AUSTIN","city":"AUSTIN","st":"TX","zip":"78712","selected address":"1 UNIVERSITY STATION G6100","geo_score":0.691,"id":"a6772mocqbif","geo_precision":"street"},"type":"Feature","geometry":{"type":"Point","coordinates":[-97.73934,30.286659]}},{"properties":{"lic#":62884,"name":"UNIVERSITY OF TEXAS-AUSTIN","city":"AUSTIN","st":"TX","zip":"78712","selected address":"1 UNIVERSITY, STATION A8000","geo_score":0.637,"id":"a6772mfi1e7w","geo_precision":"street"},"type":"Feature","geometry":{"type":"Point","coordinates":[-97.73953,30.287535]}},{"properties":{"lic#":4132,"name":"TX HEALTH &amp; HUMAN SERVICES COMMISSION","city":"AUSTIN","st":"TX","zip":"78714","selected address":"8317 CROSS PARK","geo_score":0.752,"id":"a6772mr0fl2i","geo_precision":"range"},"type":"Feature","geometry":{"type":"Point","coordinates":[-97.671252,30.335758]}},{"properties":{"lic#":60871,"name":"SELF","city":"AUSTIN","st":"TX","zip":"78715","selected address":"P O BOX 151854","geo_score":0.325,"id":"a6772mt2smuw","geo_precision":"street"},"type":"Feature","geometry":{"type":"Point","coordinates":[-97.714795,30.358445]}},{"properties":{"lic#":62593,"name":"UNIVERSITY OF TEXAS AT AUSTIN","city":"AUSTIN","st":"TX","zip":"78715","selected address":"100 W DEAN KEETON","geo_score":0.76,"id":"a6772mtofkw5","geo_precision":"range"},"type":"Feature","geometry":{"type":"Point","coordinates":[-97.737991,30.289561]}},{"properties":{"lic#":17535,"name":"TEXAS COUNCIL ON FAMILY VIOLENCE","city":"AUSTIN","st":"TX","zip":"78716","selected address":"P.O. BOX 161810","geo_score":0.286,"id":"a6772mtndb3e","geo_precision":"street"},"type":"Feature","geometry":{"type":"Point","coordinates":[-97.714795,30.358445]}},{"properties":{"lic#":18267,"name":"MERRILY C. JONES","city":"AUSTIN","st":"TX","zip":"78717","selected address":"13740 RESEARCH BLVD., SUITE V-4","geo_score":0.446,"id":"a6772muhp0u4","geo_precision":"street"},"type":"Feature","geometry":{"type":"Point","coordinates":[-97.778174,30.138384]}},{"properties":{"lic#":11402,"name":"CENTER FOR MARRIAGE &amp; FAMILY INTIMACY","city":"AUSTIN","st":"TX","zip":"78720","selected address":"PO BOX 201808","geo_score":0.325,"id":"a6772mk6wxpx","geo_precision":"street"},"type":"Feature","geometry":{"type":"Point","coordinates":[-97.714795,30.358445]}},{"properties":{"lic#":58179,"name":"LIFELINE FAMILY ENRICHMENT","city":"AUSTIN","st":"TX","zip":"78720","selected address":"P O BOX 203993","geo_score":0.325,"id":"a6772mk19tgd","geo_precision":"street"},"type":"Feature","geometry":{"type":"Point","coordinates":[-97.714795,30.358445]}},{"properties":{"lic#":18037,"name":"ELEMENTARY SCHOOL COUNSELOR","city":"AUSTIN","st":"TX","zip":"78721","selected address":"1135 GARLAND AVE","geo_score":1.0,"id":"a6772mrvzbkf","geo_precision":"range"},"type":"Feature","geometry":{"type":"Point","coordinates":[-97.684962,30.270084]}},{"properties":{"lic#":12350,"name":"DENISE V DE LA GARZA","city":"AUSTIN","st":"TX","zip":"78722","selected address":"3311 LARRY LN.\rSUITE 108","geo_score":1.0,"id":"a6772mf15dsf","geo_precision":"street"},"type":"Feature","geometry":{"type":"Point","coordinates":[-97.713056,30.285252]}},{"properties":{"lic#":60665,"name":"LIFEWORKS","city":"AUSTIN","st":"TX","zip":"78722","selected address":"2001 CHICON","geo_score":0.927,"id":"a6772mg4aih0","geo_precision":"range"},"type":"Feature","geometry":{"type":"Point","coordinates":[-97.721441,30.280839]}},{"properties":{"lic#":19013,"name":"LIFEWORKS","city":"AUSTIN","st":"TX","zip":"78722","selected address":"2001 CHICON","geo_score":0.927,"id":"a6772mhhz6gz","geo_precision":"range"},"type":"Feature","geometry":{"type":"Point","coordinates":[-97.721441,30.280839]}},{"properties":{"lic#":19078,"name":"LIFEWORKS","city":"AUSTIN","st":"TX","zip":"78722","selected address":"2001 CHICON ST","geo_score":1.0,"id":"a6772mlgeijr","geo_precision":"range"},"type":"Feature","geometry":{"type":"Point","coordinates":[-97.721441,30.280839]}},{"properties":{"lic#":19893,"name":"ADVANCED WELLNESS OF AUSTIN","city":"AUSTIN","st":"TX","zip":"78723","selected address":"1106 CLAYTON LN SUITE 528W","geo_score":0.854,"id":"a6772mlrx240","geo_precision":"range"},"type":"Feature","geometry":{"type":"Point","coordinates":[-97.702072,30.318428]}},{"properties":{"lic#":13167,"name":"AUSTIN INDEPENDENT SCHOOL DIST","city":"AUSTIN","st":"TX","zip":"78723","selected address":"ANDREWS ELEMENTARY SCHOOL\r6801 NORTHEAST DR","geo_score":0.424,"id":"a6772mo423on","geo_precision":"street"},"type":"Feature","geometry":{"type":"Point","coordinates":[-97.776828,30.267712]}},{"properties":{"lic#":61646,"name":"CAPITAL AREA HEALTH","city":"AUSTIN","st":"TX","zip":"78723","selected address":"1106 CLAYTON LANE   SUITE 105","geo_score":0.862,"id":"a6772mmq73ao","geo_precision":"range"},"type":"Feature","geometry":{"type":"Point","coordinates":[-97.702072,30.318428]}},{"properties":{"lic#":60926,"name":"CAPITAL AREA MENTAL HEALTH","city":"AUSTIN","st":"TX","zip":"78723","selected address":"1106 CLAYTON LN STE105W","geo_score":0.927,"id":"a6772mnfuwvn","geo_precision":"range"},"type":"Feature","geometry":{"type":"Point","coordinates":[-97.702072,30.318428]}},{"properties":{"lic#":62690,"name":"CAPITAL AREA MENTAL HEALTH","city":"AUSTIN","st":"TX","zip":"78723","selected address":"1106 CLAYTON LN #105W","geo_score":0.805,"id":"a6772mkiargq","geo_precision":"street"},"type":"Feature","geometry":{"type":"Point","coordinates":[-97.706612,30.320567]}},{"properties":{"lic#":61523,"name":"CAPITAL AREA MENTAL HEALTH","city":"AUSTIN","st":"TX","zip":"78723","selected address":"1106 CLATON LANE","geo_score":0.967,"id":"a6772mkymdso","geo_precision":"range"},"type":"Feature","geometry":{"type":"Point","coordinates":[-97.702072,30.318428]}},{"properties":{"lic#":18811,"name":"CAPITAL AREA MENTAL HEALTH CEN","city":"AUSTIN","st":"TX","zip":"78723","selected address":"1106 CLAYTON LANE\rSUITE 105W","geo_score":0.854,"id":"a6772mghof72","geo_precision":"range"},"type":"Feature","geometry":{"type":"Point","coordinates":[-97.702072,30.318428]}},{"properties":{"lic#":14670,"name":"CAPITAL AREA MENTAL HEALTH CENTER","city":"AUSTIN","st":"TX","zip":"78723","selected address":"1106 CLAYTON LANE STE 105W","geo_score":0.872,"id":"a6772mni5zbi","geo_precision":"range"},"type":"Feature","geometry":{"type":"Point","coordinates":[-97.702072,30.318428]}},{"properties":{"lic#":18291,"name":"CAPITAL AREA MENTAL HEALTH CTR","city":"AUSTIN","st":"TX","zip":"78723","selected address":"1106 CLAYTON LANE\rSUITE 105-W","geo_score":0.854,"id":"a6772mt3jy9r","geo_precision":"range"},"type":"Feature","geometry":{"type":"Point","coordinates":[-97.702072,30.318428]}},{"properties":{"lic#":62210,"name":"CAPITAL AREA MH CENTER","city":"AUSTIN","st":"TX","zip":"78723","selected address":"1106 CLAYTON LANE, STE 105-W","geo_score":0.571,"id":"a6772mk6mm4r","geo_precision":"street"},"type":"Feature","geometry":{"type":"Point","coordinates":[-97.706612,30.320567]}},{"properties":{"lic#":263,"name":"COUNSELING &amp; PSYCHOTHERAPY SERVICE","city":"AUSTIN","st":"TX","zip":"78723","selected address":"7205 BUCKNELL STREET","geo_score":0.941,"id":"a6772mrq74wu","geo_precision":"range"},"type":"Feature","geometry":{"type":"Point","coordinates":[-97.673185,30.320556]}},{"properties":{"lic#":19771,"name":"JANET KAYE LOVE, M.S., LPC, NCC","city":"AUSTIN","st":"TX","zip":"78723","selected address":"7333 E. HWY 290 STE 103","geo_score":0.633,"id":"a6772moj0kyk","geo_precision":"street"},"type":"Feature","geometry":{"type":"Point","coordinates":[-97.704984,30.322767]}},{"properties":{"lic#":62040,"name":"MENTOR NETWORK","city":"AUSTIN","st":"TX","zip":"78723","selected address":"1106 CLATON LANE SUITE 230W","geo_score":0.828,"id":"a6772mq2i4w7","geo_precision":"range"},"type":"Feature","geometry":{"type":"Point","coordinates":[-97.702072,30.318428]}},{"properties":{"lic#":15211,"name":"REGION XIII EDUCATION SERVICE CENTER","city":"AUSTIN","st":"TX","zip":"78723","selected address":"REGIONAL DAY SCHOOL FOR DEAF\r5701 SPRINGDALE ROAD","geo_score":0.7,"id":"a6772mkyeiw3","geo_precision":"street"},"type":"Feature","geometry":{"type":"Point","coordinates":[-97.680433,30.289263]}},{"properties":{"lic#":3493,"name":"STRESS MANAGEMENT &amp; COUNSELING ASSOCIATE","city":"AUSTIN","st":"TX","zip":"78723","selected address":"1106 CLAYTON LANE #490-E","geo_score":0.513,"id":"a6772mt3gmr4","geo_precision":"street"},"type":"Feature","geometry":{"type":"Point","coordinates":[-97.706612,30.320567]}},{"properties":{"lic#":9372,"name":"TDFP SVC (DEPT. OF FAMILY &amp; PROTECTIVE S","city":"AUSTIN","st":"TX","zip":"78723","selected address":"701 W. 51ST STREET\rMAIL CODE: W-152","geo_score":0.571,"id":"a6772mjidgxh","geo_precision":"street"},"type":"Feature","geometry":{"type":"Point","coordinates":[-97.698876,30.303907]}},{"properties":{"lic#":62010,"name":"TEXAS MENTOR","city":"AUSTIN","st":"TX","zip":"78723","selected address":"1106 CLAYTON LANE SUITE 230","geo_score":0.862,"id":"a6772mrk4dze","geo_precision":"range"},"type":"Feature","geometry":{"type":"Point","coordinates":[-97.702072,30.318428]}},{"properties":{"lic#":4257,"name":"TEXAS REHABILITATION COMMISSION","city":"AUSTIN","st":"TX","zip":"78723","selected address":"5203A CAMERON ROAD","geo_score":1.0,"id":"a6772mrmxy5o","geo_precision":"range"},"type":"Feature","geometry":{"type":"Point","coordinates":[-97.708819,30.310007]}},{"properties":{"lic#":13385,"name":"Unnown","city":"AUSTIN","st":"TX","zip":"78723","selected address":"7650 ED BLUSTEIN BLVD","geo_score":0.98,"id":"a6772mqhihfq","geo_precision":"range"},"type":"Feature","geometry":{"type":"Point","coordinates":[-97.671948,30.324411]}},{"properties":{"lic#":10177,"name":"Unnown","city":"AUSTIN","st":"TX","zip":"78723","selected address":"1106 CLAYTON LANE, SUITE 552W","geo_score":1.0,"id":"a6772msmq7yy","geo_precision":"street"},"type":"Feature","geometry":{"type":"Point","coordinates":[-97.706612,30.320567]}},{"properties":{"lic#":15575,"name":"Unnown","city":"AUSTIN","st":"TX","zip":"78723","selected address":"1106 CLAYTON LANE, SUITE 435-W","geo_score":1.0,"id":"a6772msasy1w","geo_precision":"street"},"type":"Feature","geometry":{"type":"Point","coordinates":[-97.706612,30.320567]}},{"properties":{"lic#":61113,"name":"TFL","city":"AUSTIN","st":"TX","zip":"78724","selected address":"6400 MLK BLVD","geo_score":0.415,"id":"a6772mrhihp7","geo_precision":"street"},"type":"Feature","geometry":{"type":"Point","coordinates":[-97.849139,30.210091]}},{"properties":{"lic#":18359,"name":"CELEBRATION CHURCH","city":"GEORGETOWN","st":"TX","zip":"78726","selected address":"1202 COUNTY RD 116","geo_score":0.424,"id":"a6772mqd614m","geo_precision":"street"},"type":"Feature","geometry":{"type":"Point","coordinates":[-97.745303,30.16704]}},{"properties":{"lic#":18721,"name":"CROSSING","city":"AUSTIN","st":"TX","zip":"78726","selected address":"13500 FM 2769","geo_score":1.0,"id":"a6772mjywchx","geo_precision":"range"},"type":"Feature","geometry":{"type":"Point","coordinates":[-97.862147,30.445123]}},{"properties":{"lic#":15947,"name":"BARTON HOUSE","city":"AUSTIN","st":"TX","zip":"78727","selected address":"3706 ADELPHI LN","geo_score":0.902,"id":"a6772mnj0alg","geo_precision":"street"},"type":"Feature","geometry":{"type":"Point","coordinates":[-97.714795,30.421081]}},{"properties":{"lic#":15369,"name":"CITADEL GROUP","city":"AUSTIN","st":"TX","zip":"78727","selected address":"1033 LA POSADA DR. STE. 200","geo_score":0.512,"id":"a6772mu0m9nw","geo_precision":"street"},"type":"Feature","geometry":{"type":"Point","coordinates":[-97.694246,30.419454]}},{"properties":{"lic#":11421,"name":"HARRY LUNDELL P.C., L.P.C.","city":"AUSTIN","st":"TX","zip":"78727","selected address":"5404 PONY CHASE","geo_score":1.0,"id":"a6772mf8txdl","geo_precision":"range"},"type":"Feature","geometry":{"type":"Point","coordinates":[-97.739785,30.423724]}},{"properties":{"lic#":16267,"name":"JULIA FANNIN M.ED. (SELF EMPLOYED)","city":"AUSTIN","st":"TX","zip":"78727","selected address":"4212 Dauphin BEE CAVES RD, STE 100","geo_score":0.571,"id":"a6772mid2u3l","geo_precision":"street"},"type":"Feature","geometry":{"type":"Point","coordinates":[-97.696185,30.420408]}},{"properties":{"lic#":62827,"name":"Unnown","city":"AUSTIN","st":"TX","zip":"78727","selected address":"13012 IRONGATE CIRCLE","geo_score":1.0,"id":"a6772mgorhz0","geo_precision":"range"},"type":"Feature","geometry":{"type":"Point","coordinates":[-97.692697,30.423905]}},{"properties":{"lic#":17694,"name":"DFPS/ADULT PROTECTIVE SERVICES","city":"AUSTIN","st":"TX","zip":"78728","selected address":"14000 SUMMIT DRIVE\rSUITE 100","geo_score":0.854,"id":"a6772mqqmis0","geo_precision":"range"},"type":"Feature","geometry":{"type":"Point","coordinates":[-97.688158,30.438173]}},{"properties":{"lic#":17181,"name":"NOT CURRENTLY EMPLOYED","city":"AUSTIN","st":"TX","zip":"78728","selected address":"3709 BRATTON HEIGHTS","geo_score":0.717,"id":"a6772mnqqd9x","geo_precision":"street"},"type":"Feature","geometry":{"type":"Point","coordinates":[-97.686599,30.4458]}},{"properties":{"lic#":10405,"name":"PFLUGERVILLE ISD-NW ELEMENTARY SCHOOL","city":"AUSTIN","st":"TX","zip":"78728","selected address":"14014 THERMAL DRIVE","geo_score":1.0,"id":"a6772mu9m45y","geo_precision":"range"},"type":"Feature","geometry":{"type":"Point","coordinates":[-97.675068,30.431919]}},{"properties":{"lic#":4283,"name":"ROUND ROCK ISD","city":"AUSTIN","st":"TX","zip":"78728","selected address":"14650 WELLS BRANCH PKWY","geo_score":0.805,"id":"a6772ms35lqy","geo_precision":"street"},"type":"Feature","geometry":{"type":"Point","coordinates":[-97.69782,30.440213]}},{"properties":{"lic#":62798,"name":"CAPITAL AREA MENTAL HEALTH CENTER","city":"AUSTIN","st":"TX","zip":"78729","selected address":"1106 CLAYTON LN.","geo_score":0.805,"id":"a6772mec6dts","geo_precision":"range"},"type":"Feature","geometry":{"type":"Point","coordinates":[-97.702072,30.318428]}},{"properties":{"lic#":7701,"name":"CPC CAPITAL HOSPITAL","city":"AUSTIN","st":"TX","zip":"78729","selected address":"12151 HUNTERS CHASE DRIVE","geo_score":0.912,"id":"a6772mliinq8","geo_precision":"range"},"type":"Feature","geometry":{"type":"Point","coordinates":[-97.778005,30.440379]}},{"properties":{"lic#":10544,"name":"CPC CAPITAL HOSPITAL","city":"AUSTIN","st":"TX","zip":"78729","selected address":"12151 HUNTERS CHASE DR","geo_score":0.912,"id":"a6772mml3iqh","geo_precision":"range"},"type":"Feature","geometry":{"type":"Point","coordinates":[-97.778005,30.440379]}},{"properties":{"lic#":9582,"name":"GREG SIMS","city":"AUSTIN","st":"TX","zip":"78729","selected address":"12741 N. HWY 183\rBLDG. 300 SUTIE #301","geo_score":0.354,"id":"a6772mionog6","geo_precision":"street"},"type":"Feature","geometry":{"type":"Point","coordinates":[-97.778174,30.138384]}},{"properties":{"lic#":63483,"name":"INSURANCE DESIGNERS","city":"AUSTIN","st":"TX","zip":"78729","selected address":"12466 LOS INDIOS TRAIL #100","geo_score":0.717,"id":"a6772mjym3r3","geo_precision":"street"},"type":"Feature","geometry":{"type":"Point","coordinates":[-97.76879,30.438226]}},{"properties":{"lic#":17787,"name":"ROUND ROCK I.S.D.","city":"AUSTIN","st":"TX","zip":"78729","selected address":"MCNEIL HIGH SCHOOL - COUNSELOR\r5720 MCNEIL DRIVE","geo_score":0.604,"id":"a6772mox5xmj","geo_precision":"street"},"type":"Feature","geometry":{"type":"Point","coordinates":[-97.727171,30.448507]}},{"properties":{"lic#":13229,"name":"ROUND ROCK ISD AT POND SPRINGS","city":"AUSTIN","st":"TX","zip":"78729","selected address":"7825 ELKHORN MOUNTAIN TRAIL","geo_score":0.912,"id":"a6772mtvrlqp","geo_precision":"range"},"type":"Feature","geometry":{"type":"Point","coordinates":[-97.764968,30.44643]}},{"properties":{"lic#":62151,"name":"SELF-EMPLOYED","city":"AUSTIN","st":"TX","zip":"78729","selected address":"7708 SAN FELIPE BLVD","geo_score":0.719,"id":"a6772mr4etuw","geo_precision":"street"},"type":"Feature","geometry":{"type":"Point","coordinates":[-97.767743,30.437385]}},{"properties":{"lic#":12682,"name":"SELF-EMPLOYED","city":"AUSTIN","st":"TX","zip":"78729","selected address":"12900 PARTRIDGE BEND","geo_score":0.873,"id":"a6772mfrkd47","geo_precision":"range"},"type":"Feature","geometry":{"type":"Point","coordinates":[-97.762087,30.448523]}},{"properties":{"lic#":19620,"name":"DR. RICHARD K. YUEN","city":"AUSTIN","st":"TX","zip":"78730","selected address":"7117 BAREFOOT COVE","geo_score":1.0,"id":"a6772mnqc1v6","geo_precision":"range"},"type":"Feature","geometry":{"type":"Point","coordinates":[-97.818139,30.343271]}},{"properties":{"lic#":9755,"name":"MARY SULLIVANT DAIGLE","city":"AUSTIN","st":"TX","zip":"78730","selected address":"3710 WEATHERHILL COVE","geo_score":1.0,"id":"a6772mesj3a7","geo_precision":"range"},"type":"Feature","geometry":{"type":"Point","coordinates":[-97.842452,30.352849]}},{"properties":{"lic#":5483,"name":"A.J.A.","city":"AUSTIN","st":"TX","zip":"78731","selected address":"7300 HART LANE","geo_score":1.0,"id":"a6772mf456tl","geo_precision":"range"},"type":"Feature","geometry":{"type":"Point","coordinates":[-97.755267,30.356862]}},{"properties":{"lic#":15240,"name":"AUSTIN BIOFEEDBACK CENTER","city":"AUSTIN","st":"TX","zip":"78731","selected address":"3624 N HILLS DR #B205","geo_score":0.571,"id":"a6772mkazps6","geo_precision":"street"},"type":"Feature","geometry":{"type":"Point","coordinates":[-97.751416,30.347828]}},{"properties":{"lic#":2240,"name":"AUSTIN ISD","city":"AUSTIN","st":"TX","zip":"78731","selected address":"3700 NORTH HILLS DR","geo_score":1.0,"id":"a6772mg4quh8","geo_precision":"range"},"type":"Feature","geometry":{"type":"Point","coordinates":[-97.757926,30.352971]}},{"properties":{"lic#":4620,"name":"AUSTIN PSYCHIATRIC CONSULTANTS","city":"AUSTIN","st":"TX","zip":"78731","selected address":"1500 W 38TH STREET\rSUITE 53","geo_score":0.635,"id":"a6772mihz972","geo_precision":"street"},"type":"Feature","geometry":{"type":"Point","coordinates":[-97.751892,30.311014]}},{"properties":{"lic#":19053,"name":"BRIAN BARBER COUNSELING","city":"AUSTIN","st":"TX","zip":"78731","selected address":"PO BOX 27475","geo_score":0.329,"id":"a6772mkm19wn","geo_precision":"street"},"type":"Feature","geometry":{"type":"Point","coordinates":[-97.714795,30.358445]}},{"properties":{"lic#":3066,"name":"CAPITAL AREA PSY SYSTEMS INC","city":"AUSTIN","st":"TX","zip":"78731","selected address":"5806 MESA DRIVE\rSUITE #350","geo_score":0.672,"id":"a6772mu2ojos","geo_precision":"street"},"type":"Feature","geometry":{"type":"Point","coordinates":[-97.7696,30.341383]}},{"properties":{"lic#":16348,"name":"CATHEY REYNOLDS, LPC","city":"AUSTIN","st":"TX","zip":"78731","selected address":"3724 JEFFERSON, SUITE 207","geo_score":0.922,"id":"a6772mofmbcj","geo_precision":"street"},"type":"Feature","geometry":{"type":"Point","coordinates":[-97.750502,30.309503]}},{"properties":{"lic#":12489,"name":"CENPATICO BEHAVIORAL HEALTH","city":"AUSTIN","st":"TX","zip":"78731","selected address":"5806 MESA DR   #350","geo_score":0.805,"id":"a6772mq9evjc","geo_precision":"street"},"type":"Feature","geometry":{"type":"Point","coordinates":[-97.7696,30.341383]}},{"properties":{"lic#":11893,"name":"DEER OAKS MENTAL HEALTH ASSOCIATES","city":"AUSTIN","st":"TX","zip":"78731","selected address":"1600 W. 38TH","geo_score":0.633,"id":"a6772mpr1k20","geo_precision":"street"},"type":"Feature","geometry":{"type":"Point","coordinates":[-97.753727,30.311403]}},{"properties":{"lic#":9753,"name":"DR. BETH DEANS","city":"AUSTIN","st":"TX","zip":"78731","selected address":"3617- D JORGE DRIVE","geo_score":0.963,"id":"a6772miyfsdb","geo_precision":"range"},"type":"Feature","geometry":{"type":"Point","coordinates":[-97.762602,30.34096]}},{"properties":{"lic#":13063,"name":"FOCUSING ON RESULTS","city":"AUSTIN","st":"TX","zip":"78731","selected address":"3510 WENDEL COVE #4","geo_score":0.805,"id":"a6772mf769ow","geo_precision":"street"},"type":"Feature","geometry":{"type":"Point","coordinates":[-97.75558,30.346567]}},{"properties":{"lic#":13158,"name":"KIRK VANLANINGHAM","city":"AUSTIN","st":"TX","zip":"78731","selected address":"3636 EXECUTIVE CENTER DR #158","geo_score":0.805,"id":"a6772mm537ic","geo_precision":"street"},"type":"Feature","geometry":{"type":"Point","coordinates":[-97.746283,30.358493]}},{"properties":{"lic#":14970,"name":"MERIDIAN SURGERY CENTER","city":"AUSTIN","st":"TX","zip":"78731","selected address":"4220 BULL CREEK","geo_score":0.947,"id":"a6772mt7okz2","geo_precision":"range"},"type":"Feature","geometry":{"type":"Point","coordinates":[-97.754598,30.316307]}},{"properties":{"lic#":12207,"name":"SETON SHOAL CREEK HOSPITAL","city":"AUSTIN","st":"TX","zip":"78731","selected address":"3501 MILLS AVE","geo_score":1.0,"id":"a6772mqmep52","geo_precision":"range"},"type":"Feature","geometry":{"type":"Point","coordinates":[-97.749223,30.305735]}},{"properties":{"lic#":60880,"name":"SHOAL CREEL HOSPITAL","city":"AUSTIN","st":"TX","zip":"78731","selected address":"3501 MILLS AVENUE","geo_score":1.0,"id":"a6772mlg7si5","geo_precision":"range"},"type":"Feature","geometry":{"type":"Point","coordinates":[-97.749223,30.305735]}},{"properties":{"lic#":4420,"name":"Unnown","city":"AUSTIN","st":"TX","zip":"78731","selected address":"5750 BALCONES, STE 202","geo_score":0.614,"id":"a6772mqi08qb","geo_precision":"street"},"type":"Feature","geometry":{"type":"Point","coordinates":[-97.765746,30.31871]}},{"properties":{"lic#":13208,"name":"Unnown","city":"AUSTIN","st":"TX","zip":"78731","selected address":"3410 FAR WEST BLVD #205","geo_score":0.725,"id":"a6772mn3d83s","geo_precision":"street"},"type":"Feature","geometry":{"type":"Point","coordinates":[-97.749617,30.35191]}},{"properties":{"lic#":4632,"name":"Unnown","city":"AUSTIN","st":"TX","zip":"78731","selected address":"3724 JEFFERSON, SUITE 207","geo_score":0.922,"id":"a6772miusfst","geo_precision":"street"},"type":"Feature","geometry":{"type":"Point","coordinates":[-97.750502,30.309503]}},{"properties":{"lic#":13770,"name":"Unnown","city":"AUSTIN","st":"TX","zip":"78731","selected address":"7805 MORITZ LN.","geo_score":1.0,"id":"a6772mqaozfc","geo_precision":"range"},"type":"Feature","geometry":{"type":"Point","coordinates":[-97.75593,30.366105]}},{"properties":{"lic#":13809,"name":"Unnown","city":"AUSTIN","st":"TX","zip":"78731","selected address":"5750 BALCONES #202","geo_score":0.746,"id":"a6772mjjg1vk","geo_precision":"street"},"type":"Feature","geometry":{"type":"Point","coordinates":[-97.767567,30.313786]}},{"properties":{"lic#":16450,"name":"Unnown","city":"AUSTIN","st":"TX","zip":"78731","selected address":"5806 MESA DRIVE, SUITE 330","geo_score":1.0,"id":"a6772mf20qfj","geo_precision":"street"},"type":"Feature","geometry":{"type":"Point","coordinates":[-97.771844,30.34479]}},{"properties":{"lic#":19813,"name":"LEANDER ISD","city":"AUSTIN","st":"TX","zip":"78732","selected address":"12601 COUNTRY TRLS","geo_score":0.434,"id":"a6772mr041dg","geo_precision":"street"},"type":"Feature","geometry":{"type":"Point","coordinates":[-97.71922,30.362771]}},{"properties":{"lic#":9940,"name":"DRAKE BEAN AND MORIN","city":"AUSTIN","st":"TX","zip":"78733","selected address":"9600 GREAT HILLS DRIVE #150W","geo_score":0.464,"id":"a6772medgle0","geo_precision":"street"},"type":"Feature","geometry":{"type":"Point","coordinates":[-97.860452,30.336275]}},{"properties":{"lic#":11204,"name":"WESTLAKE HIGH SCHOOL","city":"AUSTIN","st":"TX","zip":"78733","selected address":"4100 WESTBANK","geo_score":0.746,"id":"a6772mgl172l","geo_precision":"range"},"type":"Feature","geometry":{"type":"Point","coordinates":[-97.815763,30.275871]}},{"properties":{"lic#":16975,"name":"HUDSON BEND MIDDLE SCHOOL","city":"AUSTIN","st":"TX","zip":"78734","selected address":"15600 LARIAT TRAIL","geo_score":0.916,"id":"a6772mtsupf9","geo_precision":"range"},"type":"Feature","geometry":{"type":"Point","coordinates":[-97.936789,30.39109]}},{"properties":{"lic#":9045,"name":"JEANNE A. HARRINGTON, LPC, LMFT","city":"LAKEWAY","st":"TX","zip":"78734","selected address":"801 RR 620 SOUTH, SUITE 100 F","geo_score":0.857,"id":"a6772mplbsyw","geo_precision":"street"},"type":"Feature","geometry":{"type":"Point","coordinates":[-97.950302,30.367468]}},{"properties":{"lic#":11235,"name":"SELF EMPLOYED","city":"AUSTIN","st":"TX","zip":"78734","selected address":"P.O. BOX 340040\r12 CASA VERDE","geo_score":0.449,"id":"a6772mgt5zsf","geo_precision":"street"},"type":"Feature","geometry":{"type":"Point","coordinates":[-98.003285,30.358275]}},{"properties":{"lic#":5269,"name":"Unnown","city":"AUSTIN","st":"TX","zip":"78734","selected address":"112 DEER HORN CT","geo_score":0.916,"id":"a6772mef7h4z","geo_precision":"range"},"type":"Feature","geometry":{"type":"Point","coordinates":[-97.979541,30.365685]}},{"properties":{"lic#":61551,"name":"APC MH MR","city":"AUSTIN","st":"TX","zip":"78735","selected address":"4405 MESQUITE SPRING COVE","geo_score":0.911,"id":"a6772mk6r4mr","geo_precision":"range"},"type":"Feature","geometry":{"type":"Point","coordinates":[-97.832018,30.249554]}},{"properties":{"lic#":11021,"name":"MARSHALL ALLAN DIVITA","city":"AUSTIN","st":"TX","zip":"78735","selected address":"5508 WEST HIGHWAY 290 STE 225","geo_score":0.731,"id":"a6772mj9dve1","geo_precision":"range"},"type":"Feature","geometry":{"type":"Point","coordinates":[-97.841236,30.236771]}},{"properties":{"lic#":4810,"name":"AUSTIN COMMUNITY COLLEGE","city":"AUSTIN","st":"TX","zip":"78736","selected address":"7748 HIGHWAY 290 WEST","geo_score":0.721,"id":"a6772mh4bylo","geo_precision":"street"},"type":"Feature","geometry":{"type":"Point","coordinates":[-97.949604,30.224839]}},{"properties":{"lic#":13236,"name":"AUSTIN COMMUNITY COLLEGE","city":"AUSTIN","st":"TX","zip":"78736","selected address":"7748 HIGHWAY 290 W","geo_score":0.721,"id":"a6772mrazx14","geo_precision":"street"},"type":"Feature","geometry":{"type":"Point","coordinates":[-97.949604,30.224839]}},{"properties":{"lic#":9618,"name":"AUSTIN COMMUNITY COLLEGE-PINNACLE CAMPUS","city":"AUSTIN","st":"TX","zip":"78736","selected address":"7748 HWY 290 WEST","geo_score":0.721,"id":"a6772mlf2ar4","geo_precision":"street"},"type":"Feature","geometry":{"type":"Point","coordinates":[-97.949604,30.224839]}},{"properties":{"lic#":6676,"name":"RENAISSANCE CLINICAL ENTERPRISES","city":"AUSTIN","st":"TX","zip":"78736","selected address":"6910B RIFLE BEND","geo_score":1.0,"id":"a6772mjhx2bn","geo_precision":"range"},"type":"Feature","geometry":{"type":"Point","coordinates":[-97.887525,30.243595]}},{"properties":{"lic#":17083,"name":"SELF","city":"AUSTIN","st":"TX","zip":"78736","selected address":"6939 THOMAS SPRINGS ROAD","geo_score":0.806,"id":"a6772mi23tj2","geo_precision":"street"},"type":"Feature","geometry":{"type":"Point","coordinates":[-97.916448,30.254797]}},{"properties":{"lic#":4605,"name":"SELF:CHARLIE LOVE, MS,LPC,LMFT","city":"AUSTIN","st":"TX","zip":"78736","selected address":"7705 MOWINKLE COVE","geo_score":1.0,"id":"a6772mhonjyz","geo_precision":"range"},"type":"Feature","geometry":{"type":"Point","coordinates":[-97.909647,30.241709]}},{"properties":{"lic#":9804,"name":"PATRICIA H. GRAJKOWSKI, LPC","city":"AUSTIN","st":"TX","zip":"78737","selected address":"14101 HIGHWAY 290W, SUITE 213","geo_score":0.878,"id":"a6772mlv88c8","geo_precision":"street"},"type":"Feature","geometry":{"type":"Point","coordinates":[-97.953308,30.223307]}},{"properties":{"lic#":10123,"name":"SELF EMPLOYED PRIVATE CONSULTANT","city":"AUSTIN","st":"TX","zip":"78737","selected address":"16201 WESTVIEW TRAIL","geo_score":1.0,"id":"a6772mk10ssh","geo_precision":"range"},"type":"Feature","geometry":{"type":"Point","coordinates":[-97.970233,30.144903]}},{"properties":{"lic#":2,"name":"Unnown","city":"AUSTIN","st":"TX","zip":"78737","selected address":"7615 BELLA VISTE TRAIL","geo_score":0.977,"id":"a6772mlosazi","geo_precision":"range"},"type":"Feature","geometry":{"type":"Point","coordinates":[-97.899219,30.213568]}},{"properties":{"lic#":10260,"name":"INTRACORP","city":"AUSTIN","st":"TX","zip":"78738","selected address":"5115 AVISPA WAY","geo_score":0.915,"id":"a6772mjy2yqs","geo_precision":"range"},"type":"Feature","geometry":{"type":"Point","coordinates":[-97.98245,30.309807]}},{"properties":{"lic#":1492,"name":"LAKE TRAVIS ISD","city":"AUSTIN","st":"TX","zip":"78738","selected address":"3324 RR 620 S.","geo_score":0.66,"id":"a6772mpjo79e","geo_precision":"range"},"type":"Feature","geometry":{"type":"Point","coordinates":[-97.961806,30.325958]}},{"properties":{"lic#":13029,"name":"LAKE TRAVIS ISD","city":"AUSTIN","st":"TX","zip":"78738","selected address":"11801 SONOMA","geo_score":0.648,"id":"a6772me76of6","geo_precision":"street"},"type":"Feature","geometry":{"type":"Point","coordinates":[-97.93178,30.309222]}},{"properties":{"lic#":15155,"name":"LAKE TRAVIS ISD","city":"AUSTIN","st":"TX","zip":"78738","selected address":"3322 RANCH ROAD 620 SOUTH","geo_score":0.793,"id":"a6772mgni3df","geo_precision":"range"},"type":"Feature","geometry":{"type":"Point","coordinates":[-97.962097,30.326037]}},{"properties":{"lic#":9997,"name":"FOCUS COUNSELING ASSOCIATES","city":"AUSTIN","st":"TX","zip":"78739","selected address":"6408 WALEBRIDGE LANE","geo_score":1.0,"id":"a6772mp17f4n","geo_precision":"range"},"type":"Feature","geometry":{"type":"Point","coordinates":[-97.89364,30.19128]}},{"properties":{"lic#":739,"name":"AUSTIN COMMUNITY COLLEGE-RIVERSIDE CAMPU","city":"AUSTIN","st":"TX","zip":"78741","selected address":"1020 GROVE BLVD","geo_score":0.922,"id":"a6772mh3u7n7","geo_precision":"range"},"type":"Feature","geometry":{"type":"Point","coordinates":[-97.703407,30.236507]}},{"properties":{"lic#":12040,"name":"LAURA GAY MORIN","city":"AUSTIN","st":"TX","zip":"78741","selected address":"2239 CROMWELL CIRCLE #1415","geo_score":0.727,"id":"a6772mr7vga4","geo_precision":"street"},"type":"Feature","geometry":{"type":"Point","coordinates":[-97.721156,30.23057]}},{"properties":{"lic#":13911,"name":"LINDER ELEMENTARY SERVICES","city":"AUSTIN","st":"TX","zip":"78741","selected address":"2800 METCALF ROAD","geo_score":0.893,"id":"a6772mq4vown","geo_precision":"range"},"type":"Feature","geometry":{"type":"Point","coordinates":[-97.736261,30.225749]}},{"properties":{"lic#":8449,"name":"MARKUM COUNSELING ASSOCIATES","city":"AUSTIN","st":"TX","zip":"78741","selected address":"2101 S IH-35 #209","geo_score":0.423,"id":"a6772mk7k46j","geo_precision":"range"},"type":"Feature","geometry":{"type":"Point","coordinates":[-97.736439,30.262167]}},{"properties":{"lic#":62051,"name":"YMCA","city":"AUSTIN","st":"TX","zip":"78741","selected address":"2015 SOUTH IH35 SUITE 110","geo_score":0.408,"id":"a6772mlgggr5","geo_precision":"street"},"type":"Feature","geometry":{"type":"Point","coordinates":[-97.742032,30.248165]}},{"properties":{"lic#":61554,"name":"YWCA","city":"AUSTIN","st":"TX","zip":"78741","selected address":"2015 S IH 35 STE 110","geo_score":0.736,"id":"a6772mns1nru","geo_precision":"range"},"type":"Feature","geometry":{"type":"Point","coordinates":[-97.739583,30.235725]}},{"properties":{"lic#":63098,"name":"YWCA OF GREATER AUSTIN","city":"AUSTIN","st":"TX","zip":"78741","selected address":"2015 S. IH35, STE 110","geo_score":0.347,"id":"a6772mmjyhh5","geo_precision":"street"},"type":"Feature","geometry":{"type":"Point","coordinates":[-97.742032,30.248165]}},{"properties":{"lic#":14205,"name":"Unnown","city":"AUSTIN","st":"TX","zip":"78741","selected address":"1020 GROVE BLVD.","geo_score":0.922,"id":"a6772mlqz7cy","geo_precision":"range"},"type":"Feature","geometry":{"type":"Point","coordinates":[-97.703407,30.236507]}},{"properties":{"lic#":12540,"name":"AUSTIN ISD / WIDEN ELEMENTARY SCHOOL","city":"AUSTIN","st":"TX","zip":"78744","selected address":"5606 NUCKOLS CROSSING","geo_score":0.623,"id":"a6772mnrn04i","geo_precision":"street"},"type":"Feature","geometry":{"type":"Point","coordinates":[-97.737268,30.195764]}},{"properties":{"lic#":12717,"name":"ATCMHMR","city":"AUSTIN","st":"TX","zip":"78745","selected address":"2 SUNSET TRAIL","geo_score":0.927,"id":"a6772mmub0ht","geo_precision":"range"},"type":"Feature","geometry":{"type":"Point","coordinates":[-97.804682,30.226011]}},{"properties":{"lic#":19821,"name":"AUSTIN I.S.D.","city":"AUSTIN","st":"TX","zip":"78745","selected address":"CROCKETT HIGH SCHOOL\r5601 MANCHACA RD.","geo_score":0.598,"id":"a6772mfjglaf","geo_precision":"street"},"type":"Feature","geometry":{"type":"Point","coordinates":[-97.788522,30.229636]}},{"properties":{"lic#":63602,"name":"AUSTIN ISD","city":"AUSTIN","st":"TX","zip":"78745","selected address":"201 E. MARY ST","geo_score":0.347,"id":"a6772mrb9xs6","geo_precision":"street"},"type":"Feature","geometry":{"type":"Point","coordinates":[-97.751303,30.245144]}},{"properties":{"lic#":12532,"name":"BETHANY LUTHERAN CHURCH","city":"AUSTIN","st":"TX","zip":"78745","selected address":"6215 MANCHACA","geo_score":0.868,"id":"a6772moiy6gy","geo_precision":"range"},"type":"Feature","geometry":{"type":"Point","coordinates":[-97.803619,30.210517]}},{"properties":{"lic#":19444,"name":"EANES ISD WESTLAKE HIGH SCHOOL","city":"AUSTIN","st":"TX","zip":"78745","selected address":"4100 WEST BANK DR","geo_score":0.61,"id":"a6772mle8rzn","geo_precision":"zip"},"type":"Feature","geometry":{"type":"Point","coordinates":[-97.803617,30.225765]}},{"properties":{"lic#":17801,"name":"LIFE WORKS","city":"AUSTIN","st":"TX","zip":"78745","selected address":"6001 S. 1ST","geo_score":0.536,"id":"a6772mh729ha","geo_precision":"street"},"type":"Feature","geometry":{"type":"Point","coordinates":[-97.770432,30.224971]}},{"properties":{"lic#":13613,"name":"MARTHA ROMERO BRICKLEY, LPC","city":"AUSTIN","st":"TX","zip":"78745","selected address":null,"geo_score":0.893,"id":"a6772msni2qc","geo_precision":"zip"},"type":"Feature","geometry":{"type":"Point","coordinates":[-97.803617,30.225765]}},{"properties":{"lic#":63486,"name":"OAKS TREATMENT CENTER","city":"AUSTIN","st":"TX","zip":"78745","selected address":"1407 W. STASSNEY LN.","geo_score":0.503,"id":"a6772mea97a7","geo_precision":"street"},"type":"Feature","geometry":{"type":"Point","coordinates":[-97.774879,30.20478]}},{"properties":{"lic#":14810,"name":"OAKS TREATMENT CENTER","city":"AUSTIN","st":"TX","zip":"78745","selected address":"1407 W STASSNEY LANE","geo_score":0.927,"id":"a6772mei6wx5","geo_precision":"range"},"type":"Feature","geometry":{"type":"Point","coordinates":[-97.790738,30.212073]}},{"properties":{"lic#":17773,"name":"ORION TRATMENT CENTER","city":"AUSTIN","st":"TX","zip":"78745","selected address":"4419 FRONTIER TRAIL","geo_score":0.927,"id":"a6772mtimm6h","geo_precision":"range"},"type":"Feature","geometry":{"type":"Point","coordinates":[-97.794668,30.232126]}},{"properties":{"lic#":1,"name":"PLEASANT HILL ELEMENTARY","city":"AUSTIN","st":"TX","zip":"78745","selected address":"6405 CIRCLE S RD.","geo_score":0.829,"id":"a6772motmgrq","geo_precision":"range"},"type":"Feature","geometry":{"type":"Point","coordinates":[-97.776893,30.195518]}},{"properties":{"lic#":9650,"name":"R. JANE O'CAROLAN, PH.D","city":"AUSTIN","st":"TX","zip":"78745","selected address":"2506 CARLOW DRIVE","geo_score":0.927,"id":"a6772mrx1xms","geo_precision":"range"},"type":"Feature","geometry":{"type":"Point","coordinates":[-97.809002,30.211955]}},{"properties":{"lic#":19839,"name":"SELF","city":"AUSTIN","st":"TX","zip":"78745","selected address":"8103 BRODIE LANE,  SUITE I","geo_score":0.518,"id":"a6772mka3sw9","geo_precision":"street"},"type":"Feature","geometry":{"type":"Point","coordinates":[-97.818491,30.232075]}},{"properties":{"lic#":9576,"name":"SELF-EMPLOYED","city":"AUSTIN","st":"TX","zip":"78745","selected address":"2402 BROKERN OAK DR.","geo_score":0.488,"id":"a6772mqm0ckj","geo_precision":"street"},"type":"Feature","geometry":{"type":"Point","coordinates":[-97.831361,30.198714]}},{"properties":{"lic#":17816,"name":"SELF-EMPLOYED","city":"AUSTIN","st":"TX","zip":"78745","selected address":"4701 WESTGATE BLVD., #A102","geo_score":0.429,"id":"a6772mgqj7yo","geo_precision":"street"},"type":"Feature","geometry":{"type":"Point","coordinates":[-97.755658,30.285462]}},{"properties":{"lic#":11128,"name":"WEBB COUNSELING ASSOCIATES","city":"AUSTIN","st":"TX","zip":"78745","selected address":"7806 BEAUREGARD CIRCLE","geo_score":0.927,"id":"a6772mlqt0v6","geo_precision":"range"},"type":"Feature","geometry":{"type":"Point","coordinates":[-97.812858,30.194172]}},{"properties":{"lic#":14944,"name":"Unnown","city":"AUSTIN","st":"TX","zip":"78745","selected address":"4515 MANCHACA ROAD\rSUITE 203","geo_score":0.797,"id":"a6772mtbauzp","geo_precision":"range"},"type":"Feature","geometry":{"type":"Point","coordinates":[-97.789485,30.228107]}},{"properties":{"lic#":15502,"name":"ASHLEY P BRORBY","city":"AUSTIN","st":"TX","zip":"78746","selected address":"1007 MOPAC CIRCLE STE 102","geo_score":0.8,"id":"a6772mjbgghi","geo_precision":"range"},"type":"Feature","geometry":{"type":"Point","coordinates":[-97.783848,30.2663]}},{"properties":{"lic#":15743,"name":"ASSESSMENT ASSOC OF AUSTIN, KEVIN MCFARL","city":"AUSTIN","st":"TX","zip":"78746","selected address":"3421 BEE CAVES RD","geo_score":0.925,"id":"a6772mginaqa","geo_precision":"range"},"type":"Feature","geometry":{"type":"Point","coordinates":[-97.803222,30.276475]}},{"properties":{"lic#":61700,"name":"AUSTIN BEE CAVES COUNSELING CENTER","city":"AUSTIN","st":"TX","zip":"78746","selected address":"3534 BEE CAVES ROAD, SUITE 114","geo_score":0.504,"id":"a6772mhakxnc","geo_precision":"street"},"type":"Feature","geometry":{"type":"Point","coordinates":[-97.782831,30.266236]}},{"properties":{"lic#":15225,"name":"AUSTIN BEHAVIORAL HEALTH CENTER","city":"AUSTIN","st":"TX","zip":"78746","selected address":"3355 BEE CAVE RD #160","geo_score":0.535,"id":"a6772mg2ss8y","geo_precision":"street"},"type":"Feature","geometry":{"type":"Point","coordinates":[-97.835986,30.288703]}},{"properties":{"lic#":62706,"name":"AUSTIN FAMILY INSTITUTE","city":"AUSTIN","st":"TX","zip":"78746","selected address":"4201 BEE CAVE RD, C-213","geo_score":0.523,"id":"a6772ml4fd9x","geo_precision":"street"},"type":"Feature","geometry":{"type":"Point","coordinates":[-97.835986,30.288703]}},{"properties":{"lic#":62737,"name":"AUSTIN TRAVIS COUNTY MHMR","city":"AUSTIN","st":"TX","zip":"78746","selected address":"105 RIVERSIDE DR","geo_score":0.78,"id":"a6772msa7gl1","geo_precision":"range"},"type":"Feature","geometry":{"type":"Point","coordinates":[-97.746892,30.257164]}},{"properties":{"lic#":11360,"name":"BRYAN WHEELER MED, LPC","city":"AUSTIN","st":"TX","zip":"78746","selected address":"3345 BEE CAVES ROAD, STE 150","geo_score":0.504,"id":"a6772mu1doq4","geo_precision":"street"},"type":"Feature","geometry":{"type":"Point","coordinates":[-97.782831,30.266236]}},{"properties":{"lic#":8324,"name":"CAREER EXPLORATION CENTER - UNIVERSITY O","city":"AUSTIN","st":"TX","zip":"78746","selected address":"JESTER A-115","geo_score":0.719,"id":"a6772mi47s66","geo_precision":"street"},"type":"Feature","geometry":{"type":"Point","coordinates":[-97.797727,30.379082]}},{"properties":{"lic#":17907,"name":"CATHY MARCHESE-FARISS","city":"AUSTIN","st":"TX","zip":"78746","selected address":"3530 BEE CAVES ROAD, SUITE 214","geo_score":0.504,"id":"a6772mog7lrk","geo_precision":"street"},"type":"Feature","geometry":{"type":"Point","coordinates":[-97.782831,30.266236]}},{"properties":{"lic#":18038,"name":"CHRISTINA RODRIGUEZ","city":"AUSTIN","st":"TX","zip":"78746","selected address":"3530 BEE CAVE RD #2141","geo_score":0.535,"id":"a6772mlsttup","geo_precision":"street"},"type":"Feature","geometry":{"type":"Point","coordinates":[-97.836048,30.288414]}},{"properties":{"lic#":16821,"name":"CONNIE DOLAND--LPC, LCDC","city":"AUSTIN","st":"TX","zip":"78746","selected address":"3536 BEE CAVES #100","geo_score":0.671,"id":"a6772mfehmhs","geo_precision":"street"},"type":"Feature","geometry":{"type":"Point","coordinates":[-97.782831,30.266236]}},{"properties":{"lic#":9019,"name":"COUNSELING CIRCLE","city":"AUSTIN","st":"TX","zip":"78746","selected address":"1007 MOPAC CIRCLE #102","geo_score":0.73,"id":"a6772mpaxfyj","geo_precision":"street"},"type":"Feature","geometry":{"type":"Point","coordinates":[-97.783628,30.265936]}},{"properties":{"lic#":11115,"name":"CRAIG A. RUSSELL, M.ED., LPC","city":"AUSTIN","st":"TX","zip":"78746","selected address":"1101 S. CAPITAL OF TEXAS HWY\rSUITE A-200","geo_score":0.485,"id":"a6772mfe2k7l","geo_precision":"street"},"type":"Feature","geometry":{"type":"Point","coordinates":[-97.825249,30.305434]}},{"properties":{"lic#":2025,"name":"DIPLOMATE C.G. JUNG INSTITUTE ZURICH","city":"AUSTIN","st":"TX","zip":"78746","selected address":"2901 BARTON SKYWAY #2408","geo_score":0.73,"id":"a6772mlzl8bd","geo_precision":"street"},"type":"Feature","geometry":{"type":"Point","coordinates":[-97.787521,30.257941]}},{"properties":{"lic#":15994,"name":"DR. BAER","city":"AUSTIN","st":"TX","zip":"78746","selected address":"7 GROVE COURT","geo_score":0.925,"id":"a6772mqn6j3m","geo_precision":"range"},"type":"Feature","geometry":{"type":"Point","coordinates":[-97.789093,30.272578]}},{"properties":{"lic#":15571,"name":"DR. C. ANNE BISHOP","city":"AUSTIN","st":"TX","zip":"78746","selected address":"3355 BEE CAVE ROAD #505","geo_score":0.535,"id":"a6772mfrwknx","geo_precision":"street"},"type":"Feature","geometry":{"type":"Point","coordinates":[-97.835986,30.288703]}},{"properties":{"lic#":61618,"name":"EANES ISD","city":"AUSTIN","st":"TX","zip":"78746","selected address":"3301 PINNACLE","geo_score":0.866,"id":"a6772mj6esju","geo_precision":"range"},"type":"Feature","geometry":{"type":"Point","coordinates":[-97.804516,30.269018]}},{"properties":{"lic#":17501,"name":"EANES ISD","city":"AUSTIN","st":"TX","zip":"78746","selected address":"6401 CEDAR STREET","geo_score":0.925,"id":"a6772mrk47qt","geo_precision":"range"},"type":"Feature","geometry":{"type":"Point","coordinates":[-97.806668,30.341068]}},{"properties":{"lic#":5297,"name":"EDUCATIONAL SEARCH &amp; PLACEMENT","city":"AUSTIN","st":"TX","zip":"78746","selected address":"3006 BEE CAVES RD./#A-290","geo_score":0.504,"id":"a6772mprcobb","geo_precision":"street"},"type":"Feature","geometry":{"type":"Point","coordinates":[-97.782831,30.266236]}},{"properties":{"lic#":19396,"name":"FOREST TRAIL ELEM. SCHOOL","city":"AUSTIN","st":"TX","zip":"78746","selected address":"1203 LOOP 360 SOUTH","geo_score":0.779,"id":"a6772mkhyh7k","geo_precision":"range"},"type":"Feature","geometry":{"type":"Point","coordinates":[-97.825065,30.316371]}},{"properties":{"lic#":9449,"name":"GAIL E. GIBBONS","city":"AUSTIN","st":"TX","zip":"78746","selected address":"2525 WALLING WOOD BLDG 7A\rSTE 700","geo_score":0.785,"id":"a6772mjrskru","geo_precision":"range"},"type":"Feature","geometry":{"type":"Point","coordinates":[-97.783046,30.264982]}},{"properties":{"lic#":19244,"name":"JAN FORD MUSTIN, PH D; PC","city":"AUSTIN","st":"TX","zip":"78746","selected address":"4407 BEE CAVES RD #411","geo_score":0.73,"id":"a6772mh5nddc","geo_precision":"street"},"type":"Feature","geometry":{"type":"Point","coordinates":[-97.782831,30.266236]}},{"properties":{"lic#":2386,"name":"JAN T. BROWN, LPC","city":"AUSTIN","st":"TX","zip":"78746","selected address":"3530 BEE CAVES ROAD #214","geo_score":0.73,"id":"a6772mh7haky","geo_precision":"street"},"type":"Feature","geometry":{"type":"Point","coordinates":[-97.782831,30.266236]}},{"properties":{"lic#":757,"name":"JOAN GIVENS","city":"AUSTIN","st":"TX","zip":"78746","selected address":"1004 MOPAC CIRCLE STE 100","geo_score":0.8,"id":"a6772moofy2s","geo_precision":"range"},"type":"Feature","geometry":{"type":"Point","coordinates":[-97.783816,30.266292]}},{"properties":{"lic#":19038,"name":"JOHN V JONES LPC","city":"AUSTIN","st":"TX","zip":"78746","selected address":"1007 MOPAC CIRCLE #102","geo_score":0.73,"id":"a6772mqz60tk","geo_precision":"street"},"type":"Feature","geometry":{"type":"Point","coordinates":[-97.783628,30.265936]}},{"properties":{"lic#":63089,"name":"JONATHAN F. ANDERSON","city":"AUSTIN","st":"TX","zip":"78746","selected address":"3355 BEE CAVES RD #505","geo_score":0.73,"id":"a6772mg0ddj1","geo_precision":"street"},"type":"Feature","geometry":{"type":"Point","coordinates":[-97.782831,30.266236]}},{"properties":{"lic#":1625,"name":"JUDY HARALSON, M.ED., L.P.C.","city":"AUSTIN","st":"TX","zip":"78746","selected address":"3103 BEE CAVES ROAD\rSUITE #125","geo_score":0.632,"id":"a6772mfqtgyd","geo_precision":"street"},"type":"Feature","geometry":{"type":"Point","coordinates":[-97.782831,30.266236]}},{"properties":{"lic#":15243,"name":"KEVIN MCFARLEY PHD","city":"AUSTIN","st":"TX","zip":"78746","selected address":"3421 BEE CAVES RD","geo_score":0.925,"id":"a6772mftn608","geo_precision":"range"},"type":"Feature","geometry":{"type":"Point","coordinates":[-97.803222,30.276475]}},{"properties":{"lic#":15446,"name":"LAURA FOSTER, M.ED., LPC-S, RP","city":"AUSTIN","st":"TX","zip":"78746","selected address":"7004 BEE CAVES ROAD\rBUILDING 2, SUITE 105","geo_score":0.504,"id":"a6772mrrg9u4","geo_precision":"street"},"type":"Feature","geometry":{"type":"Point","coordinates":[-97.782831,30.266236]}},{"properties":{"lic#":19162,"name":"LAURA ICHON","city":"AUSTIN","st":"TX","zip":"78746","selected address":"3103 BEECAVES STE 123","geo_score":0.8,"id":"a6772mia4ga6","geo_precision":"range"},"type":"Feature","geometry":{"type":"Point","coordinates":[-97.795523,30.271653]}},{"properties":{"lic#":14320,"name":"LESLIE K GROVE MED LPC","city":"AUSTIN","st":"TX","zip":"78746","selected address":"2525 WALLINGWOOD DRIVE\rBLDG 1 STE 124","geo_score":0.791,"id":"a6772mf0ty5b","geo_precision":"range"},"type":"Feature","geometry":{"type":"Point","coordinates":[-97.783046,30.264982]}},{"properties":{"lic#":10529,"name":"LESLIE KING SMITH, M.ED.","city":"AUSTIN","st":"TX","zip":"78746","selected address":"3355 BEE CAVES RD STE. 507","geo_score":0.662,"id":"a6772mkft09x","geo_precision":"street"},"type":"Feature","geometry":{"type":"Point","coordinates":[-97.782831,30.266236]}},{"properties":{"lic#":16497,"name":"LIFEWORKS","city":"AUSTIN","st":"TX","zip":"78746","selected address":"2525 WALLINGWOOD DR, STE 600","geo_score":0.462,"id":"a6772mrl5btl","geo_precision":"street"},"type":"Feature","geometry":{"type":"Point","coordinates":[-97.782304,30.265324]}},{"properties":{"lic#":8875,"name":"LINDA B. SCOTT, M.ED.","city":"AUSTIN","st":"TX","zip":"78746","selected address":"1007 MOPAC CIRCLE, SUITE 102","geo_score":0.89,"id":"a6772mlvq0gz","geo_precision":"street"},"type":"Feature","geometry":{"type":"Point","coordinates":[-97.783628,30.265936]}},{"properties":{"lic#":18750,"name":"LYNNE RHODES, LPC","city":"AUSTIN","st":"TX","zip":"78746","selected address":"2525 WALLINGWOOD DR BLDG 13 B","geo_score":0.823,"id":"a6772mgdlktw","geo_precision":"range"},"type":"Feature","geometry":{"type":"Point","coordinates":[-97.783046,30.264982]}},{"properties":{"lic#":5241,"name":"OMS GLOBAL, PRESIDENT","city":"AUSTIN","st":"TX","zip":"78746","selected address":"402 WESTBROOK DRIVE","geo_score":0.925,"id":"a6772mnf41k2","geo_precision":"range"},"type":"Feature","geometry":{"type":"Point","coordinates":[-97.800294,30.279366]}},{"properties":{"lic#":9213,"name":"PAMELA J. MONDAY, PH.D.","city":"AUSTIN","st":"TX","zip":"78746","selected address":"3355 BEE CAVES RD BLDG 7 #705","geo_score":0.632,"id":"a6772mo0zgrw","geo_precision":"street"},"type":"Feature","geometry":{"type":"Point","coordinates":[-97.782831,30.266236]}},{"properties":{"lic#":17095,"name":"PRIVATE PRACTICE","city":"AUSTIN","st":"TX","zip":"78746","selected address":"2525 WALLINGWOOD DRIVE\rBLDG. 7C, SUITE 705A","geo_score":0.495,"id":"a6772ml7ac3k","geo_precision":"street"},"type":"Feature","geometry":{"type":"Point","coordinates":[-97.782304,30.265324]}},{"properties":{"lic#":61600,"name":"SCOTT HAMMEL","city":"AUSTIN","st":"TX","zip":"78746","selected address":"3660 STONE RIDGE RD\rA101","geo_score":0.716,"id":"a6772mhejzc0","geo_precision":"street"},"type":"Feature","geometry":{"type":"Point","coordinates":[-97.814472,30.266835]}},{"properties":{"lic#":19356,"name":"SELF","city":"AUSTIN","st":"TX","zip":"78746","selected address":"3355 BEE CAVES RD STE 507","geo_score":0.815,"id":"a6772megtv8o","geo_precision":"range"},"type":"Feature","geometry":{"type":"Point","coordinates":[-97.802041,30.275752]}},{"properties":{"lic#":9967,"name":"SHARON W BATES, M.ED./LPC","city":"AUSTIN","st":"TX","zip":"78746","selected address":"5224 BEE CAVES RD\rSTE #I-2","geo_score":0.462,"id":"a6772mrd4xhn","geo_precision":"street"},"type":"Feature","geometry":{"type":"Point","coordinates":[-97.816604,30.288961]}},{"properties":{"lic#":11688,"name":"TRAVIS GENE SEBERA","city":"AUSTIN","st":"TX","zip":"78746","selected address":"1007 MOPAC CIRCLE #102","geo_score":0.73,"id":"a6772mnwal8b","geo_precision":"street"},"type":"Feature","geometry":{"type":"Point","coordinates":[-97.783628,30.265936]}},{"properties":{"lic#":18988,"name":"VICTOR X. RIVERA","city":"AUSTIN","st":"TX","zip":"78746","selected address":"1007 MOPAC CIR, STE 102","geo_score":0.547,"id":"a6772mpfd1m4","geo_precision":"street"},"type":"Feature","geometry":{"type":"Point","coordinates":[-97.775938,30.26933]}},{"properties":{"lic#":14186,"name":"WEST AUSTIN PSYCHOTHERAPY","city":"AUSTIN","st":"TX","zip":"78746","selected address":"3355 BEE CAVES ROAD #403","geo_score":0.73,"id":"a6772mhjfx49","geo_precision":"street"},"type":"Feature","geometry":{"type":"Point","coordinates":[-97.782831,30.266236]}},{"properties":{"lic#":13959,"name":"WEST AUSTIN PSYCHOTHERAPY","city":"AUSTIN","st":"TX","zip":"78746","selected address":"3355 BEE CAVES #403","geo_score":0.671,"id":"a6772mff4k8j","geo_precision":"street"},"type":"Feature","geometry":{"type":"Point","coordinates":[-97.782831,30.266236]}},{"properties":{"lic#":14402,"name":"WEST LAKE BIBLE CHURCH","city":"AUSTIN","st":"TX","zip":"78746","selected address":"3423 BEE CAVE","geo_score":0.563,"id":"a6772mq0w2rh","geo_precision":"street"},"type":"Feature","geometry":{"type":"Point","coordinates":[-97.836048,30.288414]}},{"properties":{"lic#":9689,"name":"WESTLAKE UNITED METHODIST CHURCH","city":"AUSTIN","st":"TX","zip":"78746","selected address":"1460 RED BUD TRAIL","geo_score":0.925,"id":"a6772mkz50ya","geo_precision":"range"},"type":"Feature","geometry":{"type":"Point","coordinates":[-97.822335,30.297845]}},{"properties":{"lic#":61242,"name":"WORKERS ASSISTANCE PROGRAM","city":"AUSTIN","st":"TX","zip":"78746","selected address":"2525 WALLINGWOOD DR\rBLDG 5","geo_score":0.844,"id":"a6772mg25ybg","geo_precision":"range"},"type":"Feature","geometry":{"type":"Point","coordinates":[-97.783046,30.264982]}},{"properties":{"lic#":61372,"name":"WORKERS ASSISTANCE PROGRAM","city":"AUSTIN","st":"TX","zip":"78746","selected address":"2525 WALLINGWOOD BLVD 5","geo_score":0.852,"id":"a6772msxnbq4","geo_precision":"range"},"type":"Feature","geometry":{"type":"Point","coordinates":[-97.783046,30.264982]}},{"properties":{"lic#":6991,"name":"Unnown","city":"AUSTIN","st":"TX","zip":"78746","selected address":"7004 BEE CAVES ROAD #2-105","geo_score":0.73,"id":"a6772mlpdb74","geo_precision":"street"},"type":"Feature","geometry":{"type":"Point","coordinates":[-97.782831,30.266236]}},{"properties":{"lic#":10117,"name":"Unnown","city":"AUSTIN","st":"TX","zip":"78746","selected address":"2525 WALLINGWOOD DRIVE","geo_score":0.925,"id":"a6772mjprjez","geo_precision":"range"},"type":"Feature","geometry":{"type":"Point","coordinates":[-97.783046,30.264982]}},{"properties":{"lic#":16807,"name":"Unnown","city":"AUSTIN","st":"TX","zip":"78746","selected address":"3355 BEE CAVES ROAD #505","geo_score":0.73,"id":"a6772msdwhkm","geo_precision":"street"},"type":"Feature","geometry":{"type":"Point","coordinates":[-97.782831,30.266236]}},{"properties":{"lic#":3866,"name":"Unnown","city":"AUSTIN","st":"TX","zip":"78746","selected address":"3355 BEE CAVE RD, BLDG. 1, STE. 104","geo_score":0.479,"id":"a6772mu5gsmz","geo_precision":"street"},"type":"Feature","geometry":{"type":"Point","coordinates":[-97.835986,30.288703]}},{"properties":{"lic#":10604,"name":"Unnown","city":"AUSTIN","st":"TX","zip":"78746","selected address":"5524 BEE CAVES RD, BLDG E-1","geo_score":0.56,"id":"a6772mnfsmua","geo_precision":"street"},"type":"Feature","geometry":{"type":"Point","coordinates":[-97.816604,30.288961]}},{"properties":{"lic#":15703,"name":"Unnown","city":"AUSTIN","st":"TX","zip":"78746","selected address":"2525 WALLINGWOOD B-1 #15","geo_score":0.685,"id":"a6772mev6rwv","geo_precision":"street"},"type":"Feature","geometry":{"type":"Point","coordinates":[-97.785545,30.263958]}},{"properties":{"lic#":16567,"name":"Unnown","city":"AUSTIN","st":"TX","zip":"78746","selected address":"1000 WESTBANK DRIVE, BLDG. 1","geo_score":0.496,"id":"a6772mpcajlz","geo_precision":"street"},"type":"Feature","geometry":{"type":"Point","coordinates":[-97.807437,30.280082]}},{"properties":{"lic#":13620,"name":"Unnown","city":"AUSTIN","st":"TX","zip":"78746","selected address":"2525 WALLINGWOOD, STE. 124","geo_score":0.437,"id":"a6772mh9wjh6","geo_precision":"street"},"type":"Feature","geometry":{"type":"Point","coordinates":[-97.785545,30.263958]}},{"properties":{"lic#":17002,"name":"Unnown","city":"AUSTIN","st":"TX","zip":"78746","selected address":"1015 BEE CAVE WOODS DRIVE\rSUITE 207A","geo_score":0.81,"id":"a6772mo6ba5p","geo_precision":"range"},"type":"Feature","geometry":{"type":"Point","coordinates":[-97.796928,30.271289]}},{"properties":{"lic#":12227,"name":"Unnown","city":"AUSTIN","st":"TX","zip":"78746","selected address":"3839 BEE CAVE RD STE 202","geo_score":0.496,"id":"a6772mg72poe","geo_precision":"street"},"type":"Feature","geometry":{"type":"Point","coordinates":[-97.836048,30.288414]}},{"properties":{"lic#":17331,"name":"RESOURCES FOR LIVING","city":"AUSTIN","st":"TX","zip":"78747","selected address":"2807 MANCHACA ROAD","geo_score":0.805,"id":"a6772mttaq13","geo_precision":"range"},"type":"Feature","geometry":{"type":"Point","coordinates":[-97.781411,30.244157]}},{"properties":{"lic#":13358,"name":"SELF / PRIVATE PRACTICE","city":"AUSTIN","st":"TX","zip":"78747","selected address":"2110A BOCA RATON DR.\rSUITE 203","geo_score":0.583,"id":"a6772mqccpup","geo_precision":"street"},"type":"Feature","geometry":{"type":"Point","coordinates":[-97.778174,30.138384]}},{"properties":{"lic#":13742,"name":"SELF- EMPLOYED","city":"AUSTIN","st":"TX","zip":"78747","selected address":"2203 ONION CREEK PKWY #15","geo_score":0.74,"id":"a6772monevtu","geo_precision":"street"},"type":"Feature","geometry":{"type":"Point","coordinates":[-97.796701,30.137134]}},{"properties":{"lic#":13663,"name":"ASSESSMENT AND COUNSELING SERVICES","city":"AUSTIN","st":"TX","zip":"78748","selected address":"11308 DEPUTY DR","geo_score":0.924,"id":"a6772mqwoozc","geo_precision":"range"},"type":"Feature","geometry":{"type":"Point","coordinates":[-97.853059,30.163375]}},{"properties":{"lic#":8198,"name":"AUSTIN ISD-WILLIAMS ELEMENTARY SCHOOL","city":"AUSTIN","st":"TX","zip":"78748","selected address":"500 E MAIRO","geo_score":0.799,"id":"a6772mqzg8sf","geo_precision":"range"},"type":"Feature","geometry":{"type":"Point","coordinates":[-97.791836,30.180452]}},{"properties":{"lic#":13899,"name":"AUSTIN RECOVERY CENTER","city":"AUSTIN","st":"TX","zip":"78748","selected address":"1900 RIO GRANDE","geo_score":0.752,"id":"a6772mfysz8z","geo_precision":"range"},"type":"Feature","geometry":{"type":"Point","coordinates":[-97.745174,30.282663]}},{"properties":{"lic#":14908,"name":"AUSTIN RECOVERY CENTER","city":"AUSTIN","st":"TX","zip":"78748","selected address":"3207 SLAUGHTER LANE","geo_score":0.9,"id":"a6772mtvh9uo","geo_precision":"range"},"type":"Feature","geometry":{"type":"Point","coordinates":[-97.844475,30.180826]}},{"properties":{"lic#":18652,"name":"SATURDAY'S CHILD FAMILY ASSESSMENT SERVI","city":"AUSTIN","st":"TX","zip":"78748","selected address":"714 DULWICH","geo_score":0.859,"id":"a6772miedm95","geo_precision":"range"},"type":"Feature","geometry":{"type":"Point","coordinates":[-97.799359,30.180731]}},{"properties":{"lic#":13438,"name":"SECCA, INC.","city":"AUSTIN","st":"TX","zip":"78748","selected address":"12126 HEWITT LANE","geo_score":0.924,"id":"a6772mtgubwv","geo_precision":"range"},"type":"Feature","geometry":{"type":"Point","coordinates":[-97.847095,30.14911]}},{"properties":{"lic#":62894,"name":"WELLS FARGO BANK","city":"AUSTIN","st":"TX","zip":"78748","selected address":"9908 BRODIE LN","geo_score":0.924,"id":"a6772mjpxc2q","geo_precision":"range"},"type":"Feature","geometry":{"type":"Point","coordinates":[-97.84896,30.184631]}},{"properties":{"lic#":13550,"name":"AISD","city":"AUSTIN","st":"TX","zip":"78749","selected address":"4801 MONTEREY OAKS BLVD","geo_score":1.0,"id":"a6772mmqgjhp","geo_precision":"range"},"type":"Feature","geometry":{"type":"Point","coordinates":[-97.84044,30.232564]}},{"properties":{"lic#":11510,"name":"AUSTIN CHILD GUIDANCE CENTER","city":"AUSTIN","st":"TX","zip":"78749","selected address":"810 WEST 45TH STREET","geo_score":0.721,"id":"a6772mqedk03","geo_precision":"range"},"type":"Feature","geometry":{"type":"Point","coordinates":[-97.735337,30.312359]}},{"properties":{"lic#":7785,"name":"AUSTIN ISD / BOWIE HIGH SCHOOL","city":"AUSTIN","st":"TX","zip":"78749","selected address":"4103 W SLAUGHTER LANE","geo_score":1.0,"id":"a6772mtn2hzk","geo_precision":"range"},"type":"Feature","geometry":{"type":"Point","coordinates":[-97.85684,30.189089]}},{"properties":{"lic#":9140,"name":"AUSTIN ISD-BOWIE HIGH SCHOOL","city":"AUSTIN","st":"TX","zip":"78749","selected address":"4103 W SLAUGHTER LANE","geo_score":1.0,"id":"a6772mrxo7in","geo_precision":"range"},"type":"Feature","geometry":{"type":"Point","coordinates":[-97.85684,30.189089]}},{"properties":{"lic#":63570,"name":"FEFC","city":"AUSTIN","st":"TX","zip":"78749","selected address":"4220 MONTEREY OAKS","geo_score":0.927,"id":"a6772mmjqqmy","geo_precision":"range"},"type":"Feature","geometry":{"type":"Point","coordinates":[-97.834019,30.229058]}},{"properties":{"lic#":18154,"name":"RESOUCES FOR LIVING","city":"AUSTIN","st":"TX","zip":"78749","selected address":"4407 MONTEREY OAKS #150","geo_score":0.732,"id":"a6772mth2g78","geo_precision":"street"},"type":"Feature","geometry":{"type":"Point","coordinates":[-97.830891,30.226678]}},{"properties":{"lic#":20331,"name":"RESOURCES FOR LIVING","city":"AUSTIN","st":"TX","zip":"78749","selected address":"4407 MONTEREY OAKS BLVD #150","geo_score":0.805,"id":"a6772meaqlze","geo_precision":"street"},"type":"Feature","geometry":{"type":"Point","coordinates":[-97.830891,30.226678]}},{"properties":{"lic#":19520,"name":"RESOURCES FOR LIVING","city":"AUSTIN","st":"TX","zip":"78749","selected address":"4407 MONTEREY OAKS BLVD","geo_score":1.0,"id":"a6772mh3fddd","geo_precision":"range"},"type":"Feature","geometry":{"type":"Point","coordinates":[-97.83605,30.230119]}},{"properties":{"lic#":12096,"name":"RESOURCES FOR LIVING","city":"AUSTIN","st":"TX","zip":"78749","selected address":"4407 MONTEREY OAKS BLVD.\rSUITE 150","geo_score":0.625,"id":"a6772mlorp1x","geo_precision":"street"},"type":"Feature","geometry":{"type":"Point","coordinates":[-97.839261,30.231596]}},{"properties":{"lic#":19783,"name":"RESOURCES FOR LIVING","city":"AUSTIN","st":"TX","zip":"78749","selected address":"44707 MONTEREY OAKS BLVD\rSTE 150","geo_score":0.725,"id":"a6772moumcb8","geo_precision":"street"},"type":"Feature","geometry":{"type":"Point","coordinates":[-97.839824,30.236448]}},{"properties":{"lic#":18147,"name":"RESOURSE FOR LIVING","city":"AUSTIN","st":"TX","zip":"78749","selected address":"4407 MONTERREY OAKS BLVD #150","geo_score":0.788,"id":"a6772mmoozm8","geo_precision":"street"},"type":"Feature","geometry":{"type":"Point","coordinates":[-97.830891,30.226678]}},{"properties":{"lic#":18268,"name":"RESOURUS FOR LIVING","city":"AUSTIN","st":"TX","zip":"78749","selected address":"4407 MONTERCY OAKD BLVD STE 15\r0","geo_score":0.424,"id":"a6772mn7788b","geo_precision":"street"},"type":"Feature","geometry":{"type":"Point","coordinates":[-97.728117,30.297867]}},{"properties":{"lic#":17508,"name":"Unnown","city":"AUSTIN","st":"TX","zip":"78749","selected address":"4407 MONTEREY OAKS, SUITE 150","geo_score":0.625,"id":"a6772mhbg7n6","geo_precision":"street"},"type":"Feature","geometry":{"type":"Point","coordinates":[-97.839261,30.231596]}},{"properties":{"lic#":12331,"name":"J-BEAR REHABILITATION, INC.","city":"AUSTIN","st":"TX","zip":"78750","selected address":"13740 RESEARCH BLVD. #K-2","geo_score":0.371,"id":"a6772metw6rw","geo_precision":"street"},"type":"Feature","geometry":{"type":"Point","coordinates":[-97.700188,30.270291]}},{"properties":{"lic#":12836,"name":"LAKE CREEK CHRISTIAN COUNSELING CENTER","city":"AUSTIN","st":"TX","zip":"78750","selected address":"11603 JAMIESON DR.","geo_score":1.0,"id":"a6772mtbjqqg","geo_precision":"range"},"type":"Feature","geometry":{"type":"Point","coordinates":[-97.812571,30.443429]}},{"properties":{"lic#":505,"name":"MICHAEL J. SLIWA, MA, LPC, LMFT, CCMHC","city":"AUSTIN","st":"TX","zip":"78750","selected address":"12120 RR NORTH","geo_score":0.415,"id":"a6772mgnit19","geo_precision":"street"},"type":"Feature","geometry":{"type":"Point","coordinates":[-97.898975,30.237945]}},{"properties":{"lic#":61250,"name":"NCWC","city":"AUSTIN","st":"TX","zip":"78750","selected address":"12335 HYMEADOW DR","geo_score":1.0,"id":"a6772mlxvmbj","geo_precision":"range"},"type":"Feature","geometry":{"type":"Point","coordinates":[-97.796321,30.455433]}},{"properties":{"lic#":3435,"name":"NORTHWEST AUSTIN PROFESSIONAL COUNSELING","city":"AUSTIN","st":"TX","zip":"78750","selected address":"13740 RESEARCH, SUITE H-1","geo_score":0.571,"id":"a6772mszqaht","geo_precision":"street"},"type":"Feature","geometry":{"type":"Point","coordinates":[-97.74278,30.382845]}},{"properties":{"lic#":13038,"name":"NORTHWEST COUNSELING &amp; WELLNESS","city":"AUSTIN","st":"TX","zip":"78750","selected address":"12335 HYMEADOW #400","geo_score":0.746,"id":"a6772mqb61jd","geo_precision":"street"},"type":"Feature","geometry":{"type":"Point","coordinates":[-97.796101,30.452707]}},{"properties":{"lic#":62924,"name":"NORTHWEST COUNSELING AND WELLNESS CENTER","city":"AUSTIN","st":"TX","zip":"78750","selected address":"12335 HYMEADOW #1400","geo_score":0.746,"id":"a6772mox18jl","geo_precision":"street"},"type":"Feature","geometry":{"type":"Point","coordinates":[-97.796101,30.452707]}},{"properties":{"lic#":3139,"name":"SYNERGY COUNSELING &amp; CONSULTING","city":"AUSTIN","st":"TX","zip":"78750","selected address":"13740 RESEARCH D-4","geo_score":0.512,"id":"a6772mj8znzg","geo_precision":"street"},"type":"Feature","geometry":{"type":"Point","coordinates":[-97.766722,30.43242]}},{"properties":{"lic#":9580,"name":"SYNERGY COUNSELING &amp; CONSULTING","city":"AUSTIN","st":"TX","zip":"78750","selected address":"13740 RESEARCH D-4","geo_score":0.512,"id":"a6772mpbbg60","geo_precision":"street"},"type":"Feature","geometry":{"type":"Point","coordinates":[-97.766722,30.43242]}},{"properties":{"lic#":12502,"name":"WESTWOOD HIGH SCHOOL","city":"AUSTIN","st":"TX","zip":"78750","selected address":"12400 MELLOW MEADOW","geo_score":0.464,"id":"a6772mtbp949","geo_precision":"street"},"type":"Feature","geometry":{"type":"Point","coordinates":[-97.781977,30.423925]}},{"properties":{"lic#":7916,"name":"WESTWOOD HIGH SCHOOL","city":"AUSTIN","st":"TX","zip":"78750","selected address":"12400 MELLOW MEADOW DRIVE","geo_score":0.443,"id":"a6772mlvhnov","geo_precision":"street"},"type":"Feature","geometry":{"type":"Point","coordinates":[-97.781977,30.423925]}},{"properties":{"lic#":17850,"name":"Unnown","city":"AUSTIN","st":"TX","zip":"78750","selected address":"12120 RR 620 NORTH","geo_score":0.586,"id":"a6772mnb3t6z","geo_precision":"street"},"type":"Feature","geometry":{"type":"Point","coordinates":[-97.797018,30.468163]}},{"properties":{"lic#":17404,"name":"Unnown","city":"AUSTIN","st":"TX","zip":"78750","selected address":"12120 RR 620 NORTH","geo_score":0.586,"id":"a6772miq7af7","geo_precision":"street"},"type":"Feature","geometry":{"type":"Point","coordinates":[-97.797018,30.468163]}},{"properties":{"lic#":19384,"name":"ANEW/INTEGRAL CARE OF AUSTIN TRAVIS COUN","city":"AUSTIN","st":"TX","zip":"78751","selected address":"4920 IH 35 N","geo_score":0.738,"id":"a6772mr6hhlo","geo_precision":"range"},"type":"Feature","geometry":{"type":"Point","coordinates":[-97.711783,30.307834]}},{"properties":{"lic#":11267,"name":"AUSTIN CHILD GUIDANCE CENTER","city":"AUSTIN","st":"TX","zip":"78751","selected address":"810 W 45TH STREET","geo_score":0.635,"id":"a6772me8ltqg","geo_precision":"street"},"type":"Feature","geometry":{"type":"Point","coordinates":[-97.732976,30.310843]}},{"properties":{"lic#":63166,"name":"AUSTIN CHILD GUIDANCE CENTER","city":"AUSTIN","st":"TX","zip":"78751","selected address":"810 W 45TH ST","geo_score":0.635,"id":"a6772mueeijq","geo_precision":"street"},"type":"Feature","geometry":{"type":"Point","coordinates":[-97.732976,30.310843]}},{"properties":{"lic#":15836,"name":"AUSTIN CHILD GUIDANCE CTR","city":"AUSTIN","st":"TX","zip":"78751","selected address":"810 WEST 45TH ST","geo_score":0.635,"id":"a6772ml58wyj","geo_precision":"street"},"type":"Feature","geometry":{"type":"Point","coordinates":[-97.732976,30.310843]}},{"properties":{"lic#":3352,"name":"AUSTIN I.S.D.","city":"AUSTIN","st":"TX","zip":"78751","selected address":"3908 AVENUE B","geo_score":0.913,"id":"a6772mtpunsy","geo_precision":"range"},"type":"Feature","geometry":{"type":"Point","coordinates":[-97.735414,30.303275]}},{"properties":{"lic#":62238,"name":"AUSTIN STATE HOSPITAL","city":"AUSTIN","st":"TX","zip":"78751","selected address":"4110 GUADALUPE","geo_score":0.86,"id":"a6772mgdupvc","geo_precision":"range"},"type":"Feature","geometry":{"type":"Point","coordinates":[-97.735735,30.306505]}},{"properties":{"lic#":18218,"name":"AUSTIN STATE HOSPITAL","city":"AUSTIN","st":"TX","zip":"78751","selected address":"4110 GUADALUPE","geo_score":0.86,"id":"a6772mnp8yem","geo_precision":"range"},"type":"Feature","geometry":{"type":"Point","coordinates":[-97.735735,30.306505]}},{"properties":{"lic#":8876,"name":"AUSTIN TRAVIS COUNTY INTEGRAL","city":"AUSTIN","st":"TX","zip":"78751","selected address":"4920 NORTH IH 35","geo_score":0.855,"id":"a6772me93auw","geo_precision":"range"},"type":"Feature","geometry":{"type":"Point","coordinates":[-97.711783,30.307834]}},{"properties":{"lic#":11975,"name":"AUSTIN-TRAVIS COUNTY MHMR","city":"AUSTIN","st":"TX","zip":"78751","selected address":"717 WEST 6TH STREET","geo_score":0.707,"id":"a6772ml7urj1","geo_precision":"range"},"type":"Feature","geometry":{"type":"Point","coordinates":[-97.749674,30.270002]}},{"properties":{"lic#":14035,"name":"CHRISTINA CARSON","city":"AUSTIN","st":"TX","zip":"78751","selected address":"HELPING HAND HOME\r3804 AVENUE \"B\"","geo_score":0.552,"id":"a6772mgkihjs","geo_precision":"street"},"type":"Feature","geometry":{"type":"Point","coordinates":[-97.736311,30.301857]}},{"properties":{"lic#":17569,"name":"DEPT OF STATE HEALTH SERVICES","city":"AUSTIN","st":"TX","zip":"78751","selected address":"1100 W 49TH ST STE T608.11","geo_score":0.558,"id":"a6772msg08pi","geo_precision":"street"},"type":"Feature","geometry":{"type":"Point","coordinates":[-97.724251,30.313595]}},{"properties":{"lic#":14487,"name":"DSHS","city":"AUSTIN","st":"TX","zip":"78751","selected address":"909 W. 45TH ST.\rBUILDING 4","geo_score":0.506,"id":"a6772mtoybdd","geo_precision":"street"},"type":"Feature","geometry":{"type":"Point","coordinates":[-97.728389,30.308633]}},{"properties":{"lic#":63042,"name":"GRIFFIN SCHOOL","city":"AUSTIN","st":"TX","zip":"78751","selected address":"710 E. 41ST. ST","geo_score":0.506,"id":"a6772mnx6fvi","geo_precision":"street"},"type":"Feature","geometry":{"type":"Point","coordinates":[-97.731242,30.304205]}},{"properties":{"lic#":17577,"name":"HYDE PARK COUNSELING ASSOCIATES","city":"AUSTIN","st":"TX","zip":"78751","selected address":"704 PARK BLVD","geo_score":0.913,"id":"a6772ml88xfg","geo_precision":"range"},"type":"Feature","geometry":{"type":"Point","coordinates":[-97.724266,30.302776]}},{"properties":{"lic#":16602,"name":"NEW MOON COUNSELING","city":"AUSTIN","st":"TX","zip":"78751","selected address":"4300 AVENUE C","geo_score":0.913,"id":"a6772mg50ba3","geo_precision":"range"},"type":"Feature","geometry":{"type":"Point","coordinates":[-97.731631,30.307326]}},{"properties":{"lic#":3335,"name":"TEXAS REHABILITATION COMMISSION","city":"AUSTIN","st":"TX","zip":"78751","selected address":"4900 NORTH LAMAR BLVD","geo_score":0.913,"id":"a6772mn5ykwz","geo_precision":"range"},"type":"Feature","geometry":{"type":"Point","coordinates":[-97.731736,30.317363]}},{"properties":{"lic#":11784,"name":"TEXAS YOUTH COMMISSION","city":"AUSTIN","st":"TX","zip":"78751","selected address":"4900 N. LAMAR BLVD","geo_score":0.487,"id":"a6772mff5uj6","geo_precision":"street"},"type":"Feature","geometry":{"type":"Point","coordinates":[-97.73082,30.318769]}},{"properties":{"lic#":13840,"name":"TRAVIS COUNTY COUNSELING &amp; EDUCATION SER","city":"AUSTIN,","st":"TX","zip":"78751","selected address":"4920 N. IH 35  SUITE 100","geo_score":0.552,"id":"a6772mhvmllg","geo_precision":"street"},"type":"Feature","geometry":{"type":"Point","coordinates":[-97.720174,30.294304]}},{"properties":{"lic#":4963,"name":"TX DEPT OF FAMILY &amp; PROTECTIVE SERVICES","city":"AUSTIN","st":"TX","zip":"78751","selected address":"701 W. 51ST STREET","geo_score":0.506,"id":"a6772memd1ft","geo_precision":"street"},"type":"Feature","geometry":{"type":"Point","coordinates":[-97.723424,30.315993]}},{"properties":{"lic#":16740,"name":"WEDNESDAY STREET SERVICES","city":"AUSTIN","st":"TX","zip":"78751","selected address":"5108 EILERS AVENUE","geo_score":0.913,"id":"a6772mht6y8g","geo_precision":"range"},"type":"Feature","geometry":{"type":"Point","coordinates":[-97.71726,30.312998]}},{"properties":{"lic#":17049,"name":"Unnown","city":"AUSTIN","st":"TX","zip":"78751","selected address":"4110 GUADALUPE, BLDG. 639","geo_score":0.452,"id":"a6772mjgxf3b","geo_precision":"street"},"type":"Feature","geometry":{"type":"Point","coordinates":[-97.738147,30.30274]}},{"properties":{"lic#":16908,"name":"AISD - WEBB MIDDLE SCHOOL","city":"AUSTIN","st":"TX","zip":"78752","selected address":"601 E. ST. JOHN'S AVENUE","geo_score":0.357,"id":"a6772mot384v","geo_precision":"street"},"type":"Feature","geometry":{"type":"Point","coordinates":[-97.685248,30.370752]}},{"properties":{"lic#":12247,"name":"CAROLYN FLEMING, M.ED., LPC","city":"AUSTIN","st":"TX","zip":"78752","selected address":"608 BISSONET LANE","geo_score":1.0,"id":"a6772mt1k903","geo_precision":"range"},"type":"Feature","geometry":{"type":"Point","coordinates":[-97.712662,30.342009]}},{"properties":{"lic#":7294,"name":"LUTHERAN SOCIAL SERVICES OF SOUTH, INC.","city":"AUSTIN","st":"TX","zip":"78752","selected address":"314 HIGHLAND MALL BLVD STE 200","geo_score":0.907,"id":"a6772miwnbrd","geo_precision":"range"},"type":"Feature","geometry":{"type":"Point","coordinates":[-97.711911,30.32857]}},{"properties":{"lic#":7087,"name":"NEEDOM AND ASSOCIATES","city":"AUSTIN","st":"TX","zip":"78752","selected address":"314 HIGHLAND MALL BLVD.\rSUITE 260-10","geo_score":0.614,"id":"a6772mfojrg4","geo_precision":"street"},"type":"Feature","geometry":{"type":"Point","coordinates":[-97.681722,30.326354]}},{"properties":{"lic#":11852,"name":"JOHN B. CONNALLY HIGH SCHOOL","city":"AUSTIN","st":"TX","zip":"78753","selected address":"13212 NORTH LAMAR","geo_score":0.802,"id":"a6772miftg2n","geo_precision":"range"},"type":"Feature","geometry":{"type":"Point","coordinates":[-97.675921,30.417349]}},{"properties":{"lic#":19008,"name":"VICTORIA JONES","city":"AUSTIN","st":"TX","zip":"78753","selected address":"12433 DIONYSUS DR.","geo_score":0.724,"id":"a6772mq23kxs","geo_precision":"street"},"type":"Feature","geometry":{"type":"Point","coordinates":[-97.651502,30.400333]}},{"properties":{"lic#":17759,"name":"Unnown","city":"AUSTIN","st":"TX","zip":"78753","selected address":"502 W. LONGSPUR BLVD.","geo_score":0.485,"id":"a6772mn0lvop","geo_precision":"street"},"type":"Feature","geometry":{"type":"Point","coordinates":[-97.689905,30.365527]}},{"properties":{"lic#":15071,"name":"AUSTIN RECOVERY","city":"AUSTIN","st":"TX","zip":"78754","selected address":"8402 CROSS PARK DRIVE","geo_score":1.0,"id":"a6772mlrkg7v","geo_precision":"range"},"type":"Feature","geometry":{"type":"Point","coordinates":[-97.67654,30.338519]}},{"properties":{"lic#":18518,"name":"AUSTIN RECOVERY","city":"AUSTIN","st":"TX","zip":"78754","selected address":"8402 CROSSPARK","geo_score":0.947,"id":"a6772mfcaw6w","geo_precision":"range"},"type":"Feature","geometry":{"type":"Point","coordinates":[-97.67654,30.338519]}},{"properties":{"lic#":62166,"name":"DIOCESE OF AUSTIN","city":"AUSTIN","st":"TX","zip":"78754","selected address":"1625 RUTHER FORD LANE","geo_score":1.0,"id":"a6772mn0fr4e","geo_precision":"range"},"type":"Feature","geometry":{"type":"Point","coordinates":[-97.680434,30.334735]}},{"properties":{"lic#":63076,"name":"PALADIN LLC COMMUNITY MENTAL HEALTH","city":"AUSTIN","st":"TX","zip":"78754","selected address":"8500 SHOAL CREEK BLDG #4 STE 150","geo_score":0.427,"id":"a6772mjzodam","geo_precision":"street"},"type":"Feature","geometry":{"type":"Point","coordinates":[-97.925203,30.310259]}},{"properties":{"lic#":16446,"name":"TX DPRS","city":"AUSTIN","st":"TX","zip":"78754","selected address":"8100 CAMERON RD","geo_score":1.0,"id":"a6772meakccp","geo_precision":"range"},"type":"Feature","geometry":{"type":"Point","coordinates":[-97.683349,30.337265]}},{"properties":{"lic#":8964,"name":"AUSTIN COMMUNITY COLLEGE","city":"AUSTIN","st":"TX","zip":"78756","selected address":"11928 STONEHOLLOW","geo_score":0.76,"id":"a6772mnpp5ki","geo_precision":"range"},"type":"Feature","geometry":{"type":"Point","coordinates":[-97.704763,30.401623]}},{"properties":{"lic#":60163,"name":"AUSTIN ISD","city":"AUSTIN","st":"TX","zip":"78756","selected address":"5600 SUNSHINE DR.","geo_score":1.0,"id":"a6772msfn7di","geo_precision":"range"},"type":"Feature","geometry":{"type":"Point","coordinates":[-97.729194,30.326255]}},{"properties":{"lic#":13423,"name":"DEANNA ENGBER","city":"AUSTIN","st":"TX","zip":"78756","selected address":"4101 MEDICAL PARKWAY STE 101","geo_score":0.897,"id":"a6772mjh0nmc","geo_precision":"range"},"type":"Feature","geometry":{"type":"Point","coordinates":[-97.742613,30.309845]}},{"properties":{"lic#":1259,"name":"DIVISION FOR BLIND SERVICES","city":"AUSTIN","st":"TX","zip":"78756","selected address":"4800 N. LAMAR","geo_score":0.614,"id":"a6772msgg511","geo_precision":"street"},"type":"Feature","geometry":{"type":"Point","coordinates":[-97.742381,30.306254]}},{"properties":{"lic#":19412,"name":"DIVISION FOR BLIND SERVICES","city":"AUSTIN","st":"TX","zip":"78756","selected address":"4800 NORTH LAMAR SUITE#110","geo_score":0.672,"id":"a6772mpkh9ca","geo_precision":"street"},"type":"Feature","geometry":{"type":"Point","coordinates":[-97.743049,30.305197]}},{"properties":{"lic#":61860,"name":"FOR LOVE OF CHRIST","city":"AUSTIN","st":"TX","zip":"78756","selected address":"2306 HANCOCK DRIVE","geo_score":1.0,"id":"a6772mr3kqvu","geo_precision":"range"},"type":"Feature","geometry":{"type":"Point","coordinates":[-97.742652,30.324225]}},{"properties":{"lic#":4253,"name":"FRANK EUGENE ALLEN ED.D.","city":"AUSTIN","st":"TX","zip":"78756","selected address":"1806 W. KOENING","geo_score":1.0,"id":"a6772mijd86n","geo_precision":"zip"},"type":"Feature","geometry":{"type":"Point","coordinates":[-97.737583,30.320606]}},{"properties":{"lic#":3729,"name":"JAMES P. BANKS M.S.","city":"AUSTIN","st":"TX","zip":"78756","selected address":"4107 MEDICAL PKWY SUITE 110","geo_score":0.877,"id":"a6772mfx3oj4","geo_precision":"range"},"type":"Feature","geometry":{"type":"Point","coordinates":[-97.742612,30.309927]}},{"properties":{"lic#":63469,"name":"JOHN GOULD, PHD PRIVATE PRACTICE","city":"AUSTIN","st":"TX","zip":"78756","selected address":"4314 MEDICAL PKWY, STE 201","geo_score":0.571,"id":"a6772mhvng0j","geo_precision":"street"},"type":"Feature","geometry":{"type":"Point","coordinates":[-97.745476,30.303065]}},{"properties":{"lic#":10121,"name":"LISTENING TREE ASSOCIATES","city":"AUSTIN","st":"TX","zip":"78756","selected address":"3906 NORTH LAMAR #202","geo_score":0.688,"id":"a6772mqkl1sx","geo_precision":"street"},"type":"Feature","geometry":{"type":"Point","coordinates":[-97.743049,30.305197]}},{"properties":{"lic#":13022,"name":"MOE PECK, PH.D.","city":"AUSTIN","st":"TX","zip":"78756","selected address":"5617 ADAMS AVE","geo_score":1.0,"id":"a6772msv07tr","geo_precision":"range"},"type":"Feature","geometry":{"type":"Point","coordinates":[-97.739768,30.330295]}},{"properties":{"lic#":61834,"name":"PATHWAYS COUNSELING P C","city":"AUSTIN","st":"TX","zip":"78756","selected address":"3906 NORTH LAMAR","geo_score":0.883,"id":"a6772mtb1px5","geo_precision":"range"},"type":"Feature","geometry":{"type":"Point","coordinates":[-97.742129,30.306756]}},{"properties":{"lic#":61819,"name":"SAMARITAN CENTER","city":"AUSTIN","st":"TX","zip":"78756","selected address":"5425 A BURNET RD","geo_score":0.967,"id":"a6772moq9npp","geo_precision":"range"},"type":"Feature","geometry":{"type":"Point","coordinates":[-97.739792,30.328975]}},{"properties":{"lic#":16869,"name":"SAMARITAN CENTER FOR COUNSELIN","city":"AUSTIN","st":"TX","zip":"78756","selected address":"5425- A BURNET ROAD","geo_score":0.967,"id":"a6772mhvwcae","geo_precision":"range"},"type":"Feature","geometry":{"type":"Point","coordinates":[-97.739792,30.328975]}},{"properties":{"lic#":16785,"name":"SAMARITAN CENTER FOR COUNSELING &amp; PASTOR","city":"AUSTIN","st":"TX","zip":"78756","selected address":"5425- A BURNET ROAD","geo_score":0.967,"id":"a6772mmmcosr","geo_precision":"range"},"type":"Feature","geometry":{"type":"Point","coordinates":[-97.739792,30.328975]}},{"properties":{"lic#":9413,"name":"SAMARITAN CENTER FOR COUNSELING AND PAST","city":"AUSTIN","st":"TX","zip":"78756","selected address":"5425-A BURNET ROAD","geo_score":0.967,"id":"a6772mef2eto","geo_precision":"range"},"type":"Feature","geometry":{"type":"Point","coordinates":[-97.739792,30.328975]}},{"properties":{"lic#":19803,"name":"SAMARITAN CTR FOR CNSLG &amp; PASTORAL CARE","city":"AUSTIN","st":"TX","zip":"78756","selected address":"5425 A BURNET RD","geo_score":0.967,"id":"a6772mqlcb7i","geo_precision":"range"},"type":"Feature","geometry":{"type":"Point","coordinates":[-97.739792,30.328975]}},{"properties":{"lic#":13106,"name":"SARAH CORTEZ","city":"AUSTIN","st":"TX","zip":"78756","selected address":"4107 MEDICAL PARKWAY, SUITE C","geo_score":0.61,"id":"a6772mu12xjd","geo_precision":"street"},"type":"Feature","geometry":{"type":"Point","coordinates":[-97.745476,30.303065]}},{"properties":{"lic#":8458,"name":"STEVEN G. LARSON","city":"AUSTIN","st":"TX","zip":"78756","selected address":"3906 NORTH LAMAR BLVD.","geo_score":1.0,"id":"a6772mlbfa8o","geo_precision":"range"},"type":"Feature","geometry":{"type":"Point","coordinates":[-97.742129,30.306756]}},{"properties":{"lic#":2326,"name":"TEXAS COMMISSION FOR BLIND","city":"AUSTIN","st":"TX","zip":"78756","selected address":"4800 N LAMAR #220","geo_score":0.688,"id":"a6772msgla0b","geo_precision":"street"},"type":"Feature","geometry":{"type":"Point","coordinates":[-97.743049,30.305197]}},{"properties":{"lic#":8949,"name":"TX DEPT. OF STATE HEALTH SERVICES","city":"AUSTIN","st":"TX","zip":"78756","selected address":"1100 W. 49TH STREET","geo_score":0.633,"id":"a6772mmg8az1","geo_precision":"street"},"type":"Feature","geometry":{"type":"Point","coordinates":[-97.734878,30.317895]}},{"properties":{"lic#":8489,"name":"Unnown","city":"AUSTIN","st":"TX","zip":"78756","selected address":"2100 NORTHLAND DR","geo_score":1.0,"id":"a6772mecwa46","geo_precision":"range"},"type":"Feature","geometry":{"type":"Point","coordinates":[-97.740065,30.332473]}},{"properties":{"lic#":12776,"name":"Unnown","city":"AUSTIN","st":"TX","zip":"78756","selected address":"4107 MEDICAL PARKWAY #104","geo_score":0.805,"id":"a6772mm2sdax","geo_precision":"street"},"type":"Feature","geometry":{"type":"Point","coordinates":[-97.745451,30.303113]}},{"properties":{"lic#":15261,"name":"Unnown","city":"AUSTIN","st":"TX","zip":"78756","selected address":"5617- A ADAMS AVENUE","geo_score":0.967,"id":"a6772mexlw90","geo_precision":"range"},"type":"Feature","geometry":{"type":"Point","coordinates":[-97.739768,30.330295]}},{"properties":{"lic#":14089,"name":"Unnown","city":"AUSTIN","st":"TX","zip":"78756","selected address":"5617 ADAMS AVE","geo_score":1.0,"id":"a6772mq2pf4x","geo_precision":"range"},"type":"Feature","geometry":{"type":"Point","coordinates":[-97.739768,30.330295]}},{"properties":{"lic#":18087,"name":"Unnown","city":"AUSTIN","st":"TX","zip":"78756","selected address":"5617- A ADAMS AVENUE","geo_score":0.967,"id":"a6772mm4lhgx","geo_precision":"range"},"type":"Feature","geometry":{"type":"Point","coordinates":[-97.739768,30.330295]}},{"properties":{"lic#":14294,"name":"AUSTIN CENTER FOR LIFE ENRICHMENT","city":"AUSTIN","st":"TX","zip":"78757","selected address":"8705 SHOAL CREEK BLVD. #101","geo_score":0.805,"id":"a6772migwptg","geo_precision":"street"},"type":"Feature","geometry":{"type":"Point","coordinates":[-97.749181,30.334645]}},{"properties":{"lic#":19055,"name":"AUSTIN CENTER FOR LIFE ENRICHMENT","city":"AUSTIN","st":"TX","zip":"78757","selected address":"8705 SHOAL CREEK BLVD.\rSUITE 101","geo_score":0.637,"id":"a6772mqboxy5","geo_precision":"street"},"type":"Feature","geometry":{"type":"Point","coordinates":[-97.748702,30.341275]}},{"properties":{"lic#":17222,"name":"BREAKTHROUGH AUSTIN","city":"AUSTIN","st":"TX","zip":"78757","selected address":"4131 SPICEWOOD SPRINGS #2","geo_score":0.577,"id":"a6772mido98y","geo_precision":"street"},"type":"Feature","geometry":{"type":"Point","coordinates":[-97.744735,30.361296]}},{"properties":{"lic#":62063,"name":"BRYCE GIBBS PHD","city":"AUSTIN","st":"TX","zip":"78757","selected address":"3215 STECK AVE SUITE 100","geo_score":0.854,"id":"a6772mlywavd","geo_precision":"range"},"type":"Feature","geometry":{"type":"Point","coordinates":[-97.736559,30.365426]}},{"properties":{"lic#":17589,"name":"COMMUNITIES IN SCHOOLS","city":"AUSTIN","st":"TX","zip":"78757","selected address":"5902 LAIRD DR.","geo_score":1.0,"id":"a6772mhsmzb9","geo_precision":"range"},"type":"Feature","geometry":{"type":"Point","coordinates":[-97.73891,30.334432]}},{"properties":{"lic#":62882,"name":"CORNERSTONE COUNSELING","city":"AUSTIN","st":"TX","zip":"78757","selected address":"2417 ASHDALE DR.","geo_score":1.0,"id":"a6772mfnl4zf","geo_precision":"range"},"type":"Feature","geometry":{"type":"Point","coordinates":[-97.730591,30.358833]}},{"properties":{"lic#":61505,"name":"DR. SHELLEY GRAHAM &amp; ASSOCIATES","city":"AUSTIN","st":"TX","zip":"78757","selected address":"8307 SHOAL CREEK BLVD","geo_score":1.0,"id":"a6772mof6f14","geo_precision":"range"},"type":"Feature","geometry":{"type":"Point","coordinates":[-97.738085,30.367636]}},{"properties":{"lic#":11738,"name":"JIM MAXWELL","city":"AUSTIN","st":"TX","zip":"78757","selected address":"5902 LAIRD DR.","geo_score":1.0,"id":"a6772mjxonv4","geo_precision":"range"},"type":"Feature","geometry":{"type":"Point","coordinates":[-97.73891,30.334432]}},{"properties":{"lic#":18056,"name":"LUTHERAN SOCIAL SERVICES","city":"AUSTIN","st":"TX","zip":"78757","selected address":"8305 CROSS PARK DRIVE","geo_score":0.672,"id":"a6772mmio08y","geo_precision":"street"},"type":"Feature","geometry":{"type":"Point","coordinates":[-97.744638,30.346276]}},{"properties":{"lic#":19069,"name":"METAMPRPHOSIS HOUSE","city":"AUSTIN","st":"TX","zip":"78757","selected address":"8307 SHOAL CREEK BLVD","geo_score":1.0,"id":"a6772ms93qak","geo_precision":"range"},"type":"Feature","geometry":{"type":"Point","coordinates":[-97.738085,30.367636]}},{"properties":{"lic#":11288,"name":"PAUL BOONE, LPC","city":"AUSTIN","st":"TX","zip":"78757","selected address":"7600 BURNET RD #320","geo_score":0.805,"id":"a6772mnkn812","geo_precision":"street"},"type":"Feature","geometry":{"type":"Point","coordinates":[-97.739821,30.334851]}},{"properties":{"lic#":12617,"name":"SELF","city":"AUSTIN","st":"TX","zip":"78757","selected address":"5902 LAIRD DRIVE","geo_score":1.0,"id":"a6772ml230qq","geo_precision":"range"},"type":"Feature","geometry":{"type":"Point","coordinates":[-97.73891,30.334432]}},{"properties":{"lic#":17805,"name":"SELF - EMPLOYED","city":"AUSTIN","st":"TX","zip":"78757","selected address":"6607 ARGENTIA RD.","geo_score":1.0,"id":"a6772mreysr2","geo_precision":"range"},"type":"Feature","geometry":{"type":"Point","coordinates":[-97.747838,30.346261]}},{"properties":{"lic#":62771,"name":"SHOAL CREEK COUNSELING","city":"AUSTIN","st":"TX","zip":"78757","selected address":"8307 SHOAL CREEK BLVD","geo_score":1.0,"id":"a6772mgy14m8","geo_precision":"range"},"type":"Feature","geometry":{"type":"Point","coordinates":[-97.738085,30.367636]}},{"properties":{"lic#":1175,"name":"SUSANNE SLAY M.S./L.P.C.","city":"AUUSTIN","st":"TX","zip":"78757","selected address":"2301 W. ANDERSON #103","geo_score":0.525,"id":"a6772mtvfp0m","geo_precision":"street"},"type":"Feature","geometry":{"type":"Point","coordinates":[-97.713338,30.34715]}},{"properties":{"lic#":17053,"name":"Unnown","city":"AUSTIN","st":"TX","zip":"78757","selected address":"3215 STECK AVENUE, SUITE 100","geo_score":1.0,"id":"a6772mn2ynp9","geo_precision":"street"},"type":"Feature","geometry":{"type":"Point","coordinates":[-97.732616,30.363462]}},{"properties":{"lic#":14192,"name":"Unnown","city":"AUSTIN","st":"TX","zip":"78757","selected address":"8307 SHOAL CREEK BLVD.","geo_score":1.0,"id":"a6772mu8ntc7","geo_precision":"range"},"type":"Feature","geometry":{"type":"Point","coordinates":[-97.738085,30.367636]}},{"properties":{"lic#":61826,"name":"AMERICAN CANCER SECIETY","city":"AUSTIN","st":"TX","zip":"78758","selected address":"1825- B KRAMER LANE STE-200","geo_score":0.863,"id":"a6772mnymj1e","geo_precision":"range"},"type":"Feature","geometry":{"type":"Point","coordinates":[-97.706416,30.386828]}},{"properties":{"lic#":62155,"name":"AMERICAN CANCER SOCIETY","city":"AUSTIN","st":"TX","zip":"78758","selected address":"1825 B KRAMER LN","geo_score":0.967,"id":"a6772mjz750o","geo_precision":"range"},"type":"Feature","geometry":{"type":"Point","coordinates":[-97.706416,30.386828]}},{"properties":{"lic#":10763,"name":"AMERICAN CANCER SOCIETY","city":"AUSTIN","st":"TX","zip":"78758","selected address":"1825 B KRAMER LANE STE 200","geo_score":0.863,"id":"a6772miercgi","geo_precision":"range"},"type":"Feature","geometry":{"type":"Point","coordinates":[-97.706416,30.386828]}},{"properties":{"lic#":63393,"name":"AMERICAN CANCER SOCIETY","city":"AUSTIN","st":"TX","zip":"78758","selected address":"11701 STONEHOLLOW DR.","geo_score":1.0,"id":"a6772mfprsnq","geo_precision":"range"},"type":"Feature","geometry":{"type":"Point","coordinates":[-97.709867,30.398124]}},{"properties":{"lic#":272,"name":"AUSTIN COMMUNITY COLLEGE","city":"AUSTIN","st":"TX","zip":"78758","selected address":"11928 STONEHOLLOW DR.","geo_score":1.0,"id":"a6772mkp1y57","geo_precision":"range"},"type":"Feature","geometry":{"type":"Point","coordinates":[-97.704763,30.401623]}},{"properties":{"lic#":5567,"name":"AUSTIN COMMUNITY COLLEGE","city":"AUSTIN","st":"TX","zip":"78758","selected address":"11928 STONEHOLLOW","geo_score":0.955,"id":"a6772mrw2g26","geo_precision":"range"},"type":"Feature","geometry":{"type":"Point","coordinates":[-97.704763,30.401623]}},{"properties":{"lic#":1080,"name":"AUSTIN COMMUNITY COLLEGE","city":"AUSTIN","st":"TX","zip":"78758","selected address":"11928 STONEHOLLOW DRIVE","geo_score":1.0,"id":"a6772mr6gr98","geo_precision":"range"},"type":"Feature","geometry":{"type":"Point","coordinates":[-97.704763,30.401623]}},{"properties":{"lic#":17885,"name":"AUSTIN COMMUNITY COLLEGE-NORTHRIDGE","city":"AUSTIN","st":"TX","zip":"78758","selected address":"11928 STONEHOLLOW DR.","geo_score":1.0,"id":"a6772mo6mq7p","geo_precision":"range"},"type":"Feature","geometry":{"type":"Point","coordinates":[-97.704763,30.401623]}},{"properties":{"lic#":10045,"name":"GARY AVIGNON","city":"AUSTIN","st":"TX","zip":"78758","selected address":"9025 RESEARCH BLVD #200","geo_score":0.61,"id":"a6772mgfxkje","geo_precision":"street"},"type":"Feature","geometry":{"type":"Point","coordinates":[-97.740436,30.379946]}},{"properties":{"lic#":14625,"name":"HILL COUNTRY COUNSELING","city":"AUSTIN","st":"TX","zip":"78758","selected address":"1433 FAIRFIELD DR.","geo_score":1.0,"id":"a6772mjlrsyl","geo_precision":"range"},"type":"Feature","geometry":{"type":"Point","coordinates":[-97.715359,30.360728]}},{"properties":{"lic#":13416,"name":"JAMES M. MCVEY","city":"AUSTIN","st":"TX","zip":"78758","selected address":"10111 GOLDEN MEADOW STE. D","geo_score":0.602,"id":"a6772mry2bze","geo_precision":"street"},"type":"Feature","geometry":{"type":"Point","coordinates":[-97.71067,30.380872]}},{"properties":{"lic#":18436,"name":"LIFEWORKS","city":"AUSTIN","st":"TX","zip":"78758","selected address":"8913 COLLINFIELD","geo_score":0.955,"id":"a6772mld23eh","geo_precision":"range"},"type":"Feature","geometry":{"type":"Point","coordinates":[-97.705985,30.360714]}},{"properties":{"lic#":63079,"name":"LIFEWORKS","city":"AUSTIN","st":"TX","zip":"78758","selected address":"8913 COLLINFIELD DR.","geo_score":1.0,"id":"a6772mi9u8c4","geo_precision":"range"},"type":"Feature","geometry":{"type":"Point","coordinates":[-97.705985,30.360714]}},{"properties":{"lic#":60853,"name":"NORTH AUSTIN MEDICAL CENTER","city":"AUSTIN","st":"TX","zip":"78758","selected address":"12221 MOPAC EXPWY. NORTH","geo_score":0.614,"id":"a6772mqc323k","geo_precision":"street"},"type":"Feature","geometry":{"type":"Point","coordinates":[-97.706466,30.413874]}},{"properties":{"lic#":17105,"name":"SCHOOL COUNSELOR- WOOLDRIDGE ELEMENTARY","city":"AUSTIN","st":"TX","zip":"78758","selected address":"1412 NORSEMAN TERRACE","geo_score":1.0,"id":"a6772mne23ch","geo_precision":"range"},"type":"Feature","geometry":{"type":"Point","coordinates":[-97.710132,30.364412]}},{"properties":{"lic#":18523,"name":"SETTLEMENT HOME","city":"AUSTIN","st":"TX","zip":"78758","selected address":"1600 PEYTON GIN ROAD","geo_score":0.973,"id":"a6772mpi1i95","geo_precision":"range"},"type":"Feature","geometry":{"type":"Point","coordinates":[-97.713432,30.363785]}},{"properties":{"lic#":62159,"name":"SETTLEMENT HOME","city":"AUSTIN","st":"TX","zip":"78758","selected address":"1600 PEYTON SIN RD","geo_score":0.452,"id":"a6772mpb9kul","geo_precision":"street"},"type":"Feature","geometry":{"type":"Point","coordinates":[-97.689454,30.319122]}},{"properties":{"lic#":61136,"name":"SETTLEMENT HOME","city":"AUSTIN","st":"TX","zip":"78758","selected address":"1600 PAYTON GIN RD","geo_score":1.0,"id":"a6772mruzdcz","geo_precision":"range"},"type":"Feature","geometry":{"type":"Point","coordinates":[-97.713432,30.363785]}},{"properties":{"lic#":14406,"name":"SETTLEMENT HOME","city":"AUSTIN","st":"TX","zip":"78758","selected address":"1600 PAYTON GIN ROAD","geo_score":1.0,"id":"a6772mkm7w8v","geo_precision":"range"},"type":"Feature","geometry":{"type":"Point","coordinates":[-97.713432,30.363785]}},{"properties":{"lic#":20199,"name":"Unnown","city":"AUSTIN","st":"TX","zip":"78758","selected address":"2100 KRAMER LN\rSUITE 200","geo_score":0.854,"id":"a6772mfp34k2","geo_precision":"range"},"type":"Feature","geometry":{"type":"Point","coordinates":[-97.711565,30.389338]}},{"properties":{"lic#":19082,"name":"Unnown","city":"AUSTIN","st":"TX","zip":"78758","selected address":"1433 FAIRFIELD DR.","geo_score":1.0,"id":"a6772mn7b2ak","geo_precision":"range"},"type":"Feature","geometry":{"type":"Point","coordinates":[-97.715359,30.360728]}},{"properties":{"lic#":16367,"name":"AETNA","city":"AUSTIN","st":"TX","zip":"78759","selected address":"4407 MONTEREY OAKS #150","geo_score":0.537,"id":"a6772mtxiuea","geo_precision":"street"},"type":"Feature","geometry":{"type":"Point","coordinates":[-97.830891,30.226678]}},{"properties":{"lic#":858,"name":"ARLINGTON ISD-MARTIN HIGH SCHOOL","city":"ARLINGTON","st":"TX","zip":"78759","selected address":"4501 W PLEASANT RIDGE","geo_score":0.526,"id":"a6772mp2kr7v","geo_precision":"street"},"type":"Feature","geometry":{"type":"Point","coordinates":[-97.676341,30.343845]}},{"properties":{"lic#":8546,"name":"AUSTIN COUNSELING SERVICES FOR WOMEN","city":"AUSTIN","st":"TX","zip":"78759","selected address":"4131 SPICEWOOD SPRINGS RD #H-2","geo_score":0.443,"id":"a6772mp1t8vf","geo_precision":"street"},"type":"Feature","geometry":{"type":"Point","coordinates":[-97.744909,30.361209]}},{"properties":{"lic#":18579,"name":"AUSTIN PSYCHOLOGICAL AND TESTING CENTER","city":"AUSTIN","st":"TX","zip":"78759","selected address":"8140 NORTH MOPAC\rBLDG 2, STE 250","geo_score":0.538,"id":"a6772mrpaoyv","geo_precision":"street"},"type":"Feature","geometry":{"type":"Point","coordinates":[-97.74587,30.365537]}},{"properties":{"lic#":10646,"name":"BARBARA L. GRANT","city":"AUSTIN","st":"TX","zip":"78759","selected address":"4131 SPICEWOOD SPRINGS RD\rBLDG D #1","geo_score":0.654,"id":"a6772muclvjf","geo_precision":"street"},"type":"Feature","geometry":{"type":"Point","coordinates":[-97.744768,30.36121]}},{"properties":{"lic#":62938,"name":"BRIGHTON GARDENS","city":"AUSTIN","st":"TX","zip":"78759","selected address":"4401 SPICEWOOD SPRINGS RD","geo_score":0.912,"id":"a6772mmnf956","geo_precision":"range"},"type":"Feature","geometry":{"type":"Point","coordinates":[-97.758153,30.372412]}},{"properties":{"lic#":17278,"name":"CAREER COUNSELOR, DRARR, BRAM,MORIN","city":"AUSTIN","st":"TX","zip":"78759","selected address":"9600 GREAT HILLS TRAIL","geo_score":0.912,"id":"a6772moibq13","geo_precision":"range"},"type":"Feature","geometry":{"type":"Point","coordinates":[-97.754725,30.394803]}},{"properties":{"lic#":18279,"name":"CENTER FOR RELATIONAL CARE","city":"AUSTIN","st":"TX","zip":"78759","selected address":"11615 ANGUS RD., STE 218","geo_score":0.538,"id":"a6772moawxua","geo_precision":"street"},"type":"Feature","geometry":{"type":"Point","coordinates":[-97.74587,30.365537]}},{"properties":{"lic#":62934,"name":"CENTER FOR RELATIONAL CARE","city":"AUSTIN","st":"TX","zip":"78759","selected address":"11615 ANGUS RD, STE 218","geo_score":0.538,"id":"a6772mljlped","geo_precision":"street"},"type":"Feature","geometry":{"type":"Point","coordinates":[-97.74587,30.365537]}},{"properties":{"lic#":10742,"name":"CENTRAL TEXAS PAIN INSTITUTE","city":"AUSTIN","st":"TX","zip":"78759","selected address":"4100 DUVAL RD.\rBLDG 3 SUITE 100","geo_score":0.871,"id":"a6772mtqyaue","geo_precision":"street"},"type":"Feature","geometry":{"type":"Point","coordinates":[-97.716095,30.409059]}},{"properties":{"lic#":13088,"name":"CHARLES JOHN ECKERMAN, M.ED.","city":"AUSTIN","st":"TX","zip":"78759","selected address":"4601 SPICEWOOD SPRINGS RD.\rSUITE 4-200","geo_score":0.56,"id":"a6772momk8oz","geo_precision":"street"},"type":"Feature","geometry":{"type":"Point","coordinates":[-97.755041,30.370313]}},{"properties":{"lic#":61906,"name":"CROSSROADS COUNCELING ASSOC","city":"AUSTIN","st":"TX","zip":"78759","selected address":"4131 SPICEWOOD SPRINGS RD","geo_score":0.912,"id":"a6772mfd30t8","geo_precision":"range"},"type":"Feature","geometry":{"type":"Point","coordinates":[-97.755861,30.370951]}},{"properties":{"lic#":19095,"name":"CROSSROADS COUSELING ASSOCIATES","city":"AUSTIN","st":"TX","zip":"78759","selected address":"4131 SPICEWOOD SPRINGS RD","geo_score":0.912,"id":"a6772mfeiopd","geo_precision":"range"},"type":"Feature","geometry":{"type":"Point","coordinates":[-97.755861,30.370951]}},{"properties":{"lic#":10414,"name":"DEVORAH RUSSELL BROCK, M.ED. LPC","city":"AUSTIN","st":"TX","zip":"78759","selected address":"4131 SPICEWOOD SPRINGS RD.\rBLDG. K, SUITE 10","geo_score":0.443,"id":"a6772mq5dv0c","geo_precision":"street"},"type":"Feature","geometry":{"type":"Point","coordinates":[-97.744909,30.361209]}},{"properties":{"lic#":17728,"name":"DONNA M. ROSE","city":"AUSTIN","st":"TX","zip":"78759","selected address":"4412 SPICEWOOD SPRINGS #702","geo_score":0.685,"id":"a6772mmeif23","geo_precision":"street"},"type":"Feature","geometry":{"type":"Point","coordinates":[-97.744735,30.361296]}},{"properties":{"lic#":16680,"name":"DR NICOLAS CARRASCO","city":"AUSTIN","st":"TX","zip":"78759","selected address":"4131 SPICEWOOD SPRINGS ROAD BLD L2","geo_score":0.859,"id":"a6772mugeb2y","geo_precision":"range"},"type":"Feature","geometry":{"type":"Point","coordinates":[-97.755861,30.370951]}},{"properties":{"lic#":11028,"name":"FAMILY FORUM","city":"AUSTIN","st":"TX","zip":"78759","selected address":"5207 DOE VALLEY LANE","geo_score":0.912,"id":"a6772mpwd0fw","geo_precision":"range"},"type":"Feature","geometry":{"type":"Point","coordinates":[-97.761051,30.392262]}},{"properties":{"lic#":17108,"name":"FOR CHILDREN SAKE","city":"AUSTIN","st":"TX","zip":"78759","selected address":"12741 RESEARCH BLVD #200","geo_score":0.717,"id":"a6772mk25nvn","geo_precision":"street"},"type":"Feature","geometry":{"type":"Point","coordinates":[-97.740436,30.379946]}},{"properties":{"lic#":15582,"name":"FOR CHILDREN'S SAKE","city":"AUSTIN","st":"TX","zip":"78759","selected address":"12741 RESEARCH BLVD. #200","geo_score":0.717,"id":"a6772mnbuamv","geo_precision":"street"},"type":"Feature","geometry":{"type":"Point","coordinates":[-97.740436,30.379946]}},{"properties":{"lic#":16654,"name":"GINA C. EDWARDS, MA, LPC","city":"AUSTIN","st":"TX","zip":"78759","selected address":"12741 RESEARCH BLVD.\rSUITE 303","geo_score":0.479,"id":"a6772mtgkqx4","geo_precision":"street"},"type":"Feature","geometry":{"type":"Point","coordinates":[-97.74278,30.382845]}},{"properties":{"lic#":61497,"name":"GLOBAL DATA SYSTEMS INC","city":"AUSTIN","st":"TX","zip":"78759","selected address":"9430 RESEARCH BLVD\rECHELON BLDG 2 STE 140","geo_score":0.552,"id":"a6772mn3kvs3","geo_precision":"street"},"type":"Feature","geometry":{"type":"Point","coordinates":[-97.744591,30.387777]}},{"properties":{"lic#":10345,"name":"GREAT HILLS BAPTIST CHURCH","city":"AUSTIN","st":"TX","zip":"78759","selected address":"10500 JOLLYVILLE ROAD","geo_score":0.912,"id":"a6772mf2zm1e","geo_precision":"range"},"type":"Feature","geometry":{"type":"Point","coordinates":[-97.749871,30.39822]}},{"properties":{"lic#":2186,"name":"JANEY COLORITO MSED, LPC","city":"AUSTIN","st":"TX","zip":"78759","selected address":"4131 SPICEWOOD SPRINGS ROAD\rSUITE N5","geo_score":0.839,"id":"a6772mmur3hg","geo_precision":"range"},"type":"Feature","geometry":{"type":"Point","coordinates":[-97.755861,30.370951]}},{"properties":{"lic#":1155,"name":"JEANNE QUEREAU, M.A.","city":"AUSTIN","st":"TX","zip":"78759","selected address":"9500 JOLLYVILLE RD., #121","geo_score":0.717,"id":"a6772mg3ryur","geo_precision":"street"},"type":"Feature","geometry":{"type":"Point","coordinates":[-97.740436,30.379946]}},{"properties":{"lic#":62907,"name":"LEADING EDGE PERSONEL","city":"AUSTIN","st":"TX","zip":"78759","selected address":"8200 N. MOPACE, STE 115","geo_score":0.49,"id":"a6772mrd1lr2","geo_precision":"street"},"type":"Feature","geometry":{"type":"Point","coordinates":[-97.74587,30.365537]}},{"properties":{"lic#":10191,"name":"LISA LEONARD","city":"AUSTIN","st":"TX","zip":"78759","selected address":"4131 SPICEWOOD SPRINGS\rBLDG I, SUITE 2","geo_score":0.56,"id":"a6772mfg7sgc","geo_precision":"street"},"type":"Feature","geometry":{"type":"Point","coordinates":[-97.755041,30.370313]}},{"properties":{"lic#":2497,"name":"MARIAN DOLORES O'BRIEN M.ED.","city":"AUSTIN","st":"TX","zip":"78759","selected address":"4131 SPICEWOOD SPRINGS #H-2","geo_score":0.443,"id":"a6772mkyw6cj","geo_precision":"street"},"type":"Feature","geometry":{"type":"Point","coordinates":[-97.744909,30.361209]}},{"properties":{"lic#":10422,"name":"MARIPOSA PSYCHOTHERAPY SERVICE","city":"AUSTIN","st":"TX","zip":"78759","selected address":"4131 SPICEWOOD SPRINGS #M-4","geo_score":0.49,"id":"a6772mpag8hc","geo_precision":"street"},"type":"Feature","geometry":{"type":"Point","coordinates":[-97.744929,30.363716]}},{"properties":{"lic#":18252,"name":"MARK M. MONROE, M.A., LPC","city":"AUSTIN","st":"TX","zip":"78759","selected address":"6607 THREE OAKS CIRCLE","geo_score":0.79,"id":"a6772mhlyo1r","geo_precision":"range"},"type":"Feature","geometry":{"type":"Point","coordinates":[-97.760944,30.426256]}},{"properties":{"lic#":9622,"name":"MARTHA ANN BRANDT","city":"AUSTIN","st":"TX","zip":"78759","selected address":"SUITE H-2\r4131 SPICEWOOD SPRINGS","geo_score":0.665,"id":"a6772ml7stxp","geo_precision":"street"},"type":"Feature","geometry":{"type":"Point","coordinates":[-97.744909,30.361209]}},{"properties":{"lic#":10153,"name":"MERIT BEHAVIORAL CARE CORPORATION (MBC)","city":"AUSTIN","st":"TX","zip":"78759","selected address":"8911 CAPITAL OF TEXAS HWY.\rSUITE 4260","geo_score":0.514,"id":"a6772mmaxk1z","geo_precision":"street"},"type":"Feature","geometry":{"type":"Point","coordinates":[-97.788957,30.368394]}},{"properties":{"lic#":16909,"name":"MERRY FISKE ANDERSON","city":"AUSTIN","st":"TX","zip":"78759","selected address":"12741 RESEARCH BLVD #300","geo_score":0.717,"id":"a6772mrzqnw8","geo_precision":"street"},"type":"Feature","geometry":{"type":"Point","coordinates":[-97.740436,30.379946]}},{"properties":{"lic#":18061,"name":"PRIVATE PRACTICE","city":"AUSTIN","st":"TX","zip":"78759","selected address":"4131 SPICEWOOD SPRINGS ROAD #H-2","geo_score":0.443,"id":"a6772mnmxttc","geo_precision":"street"},"type":"Feature","geometry":{"type":"Point","coordinates":[-97.744909,30.361209]}},{"properties":{"lic#":15138,"name":"RRISD","city":"AUSTIN","st":"TX","zip":"78759","selected address":"12500 MELLOW MEADOW","geo_score":0.571,"id":"a6772mnvb4fi","geo_precision":"street"},"type":"Feature","geometry":{"type":"Point","coordinates":[-97.781977,30.423925]}},{"properties":{"lic#":14312,"name":"SPICEWOOD PSYCHOTHERAPY GROUP","city":"AUSTIN","st":"TX","zip":"78759","selected address":"4131 SPICEWOOD SPRINGS ROAD\rSUITE K-6","geo_score":0.83,"id":"a6772mtpbwbd","geo_precision":"range"},"type":"Feature","geometry":{"type":"Point","coordinates":[-97.755861,30.370951]}},{"properties":{"lic#":15917,"name":"STEWART GALLAS","city":"AUSTIN","st":"TX","zip":"78759","selected address":"4131 SPICEWOOD SPRINGS\rBUILDING M, SUITE 1","geo_score":0.614,"id":"a6772mg2sybe","geo_precision":"street"},"type":"Feature","geometry":{"type":"Point","coordinates":[-97.733335,30.394434]}},{"properties":{"lic#":18796,"name":"TIMOTHY CENTER","city":"AUSTIN","st":"TX","zip":"78759","selected address":"11754 JOLLYVILLE RD #110","geo_score":0.717,"id":"a6772mrkggnz","geo_precision":"street"},"type":"Feature","geometry":{"type":"Point","coordinates":[-97.740436,30.379946]}},{"properties":{"lic#":61978,"name":"TIMOTHY CENTER","city":"AUSTIN","st":"TX","zip":"78759","selected address":"11754 JOLLYVILLE RD\rSTE110","geo_score":0.854,"id":"a6772mfamtqh","geo_precision":"range"},"type":"Feature","geometry":{"type":"Point","coordinates":[-97.753372,30.420586]}},{"properties":{"lic#":15875,"name":"TIMOTHY CENTER/JENNIFER HICKS","city":"AUSTIN","st":"TX","zip":"78759","selected address":"11754 JOLLYVILLE RD., STE. 110","geo_score":0.522,"id":"a6772mkej6b2","geo_precision":"street"},"type":"Feature","geometry":{"type":"Point","coordinates":[-97.74587,30.365537]}},{"properties":{"lic#":8738,"name":"TREATY OAKS PSYCHOTHERAPY CENTER","city":"AUSTIN","st":"TX","zip":"78759","selected address":"4210 SPICEWOOD SPRINGS #106","geo_score":0.685,"id":"a6772mf9hfzn","geo_precision":"street"},"type":"Feature","geometry":{"type":"Point","coordinates":[-97.744735,30.361296]}},{"properties":{"lic#":8858,"name":"Unnown","city":"AUSTIN","st":"TX","zip":"78759","selected address":"4131 SPICEWOOD SPRINGS ROAD","geo_score":0.912,"id":"a6772mn8p39n","geo_precision":"range"},"type":"Feature","geometry":{"type":"Point","coordinates":[-97.755861,30.370951]}},{"properties":{"lic#":16942,"name":"Unnown","city":"AUSTIN","st":"TX","zip":"78759","selected address":"4131 SPICEWOOD SPRINGS #G5","geo_score":0.467,"id":"a6772mu590o1","geo_precision":"street"},"type":"Feature","geometry":{"type":"Point","coordinates":[-97.744909,30.361209]}},{"properties":{"lic#":13794,"name":"Unnown","city":"AUSTIN","st":"TX","zip":"78759","selected address":"11907 B DOUBLOON COVE","geo_score":0.89,"id":"a6772mgvzq9v","geo_precision":"range"},"type":"Feature","geometry":{"type":"Point","coordinates":[-97.759612,30.426503]}},{"properties":{"lic#":14054,"name":"Unnown","city":"AUSTIN","st":"TX","zip":"78759","selected address":"8500 ANDREAS COVE","geo_score":0.912,"id":"a6772mqmkgss","geo_precision":"range"},"type":"Feature","geometry":{"type":"Point","coordinates":[-97.762881,30.382859]}},{"properties":{"lic#":15287,"name":"Unnown","city":"AUSTIN","st":"TX","zip":"78759","selected address":"4131 SPICEWOOD SPRINGS RD. #M2","geo_score":0.476,"id":"a6772mu06dsh","geo_precision":"street"},"type":"Feature","geometry":{"type":"Point","coordinates":[-97.790207,30.415543]}},{"properties":{"lic#":11226,"name":"Unnown","city":"AUSTIN","st":"TX","zip":"78759","selected address":"4412 SPICEWOOD SPRINGS ROAD\rSUITE 200","geo_score":0.822,"id":"a6772mu57jyu","geo_precision":"range"},"type":"Feature","geometry":{"type":"Point","coordinates":[-97.758227,30.372556]}},{"properties":{"lic#":12251,"name":"Unnown","city":"AUSTIN","st":"TX","zip":"78759","selected address":"4131 SPICEWOOD SPRINGS ROAD\rBLDG. H, SUITE 2","geo_score":0.443,"id":"a6772mrm4vfd","geo_precision":"street"},"type":"Feature","geometry":{"type":"Point","coordinates":[-97.744909,30.361209]}},{"properties":{"lic#":17008,"name":"SAFE PLACE","city":"AUSTIN","st":"TX","zip":"78760","selected address":"P.O. BOX 19454","geo_score":0.286,"id":"a6772molovkb","geo_precision":"street"},"type":"Feature","geometry":{"type":"Point","coordinates":[-97.714795,30.358445]}},{"properties":{"lic#":63378,"name":"SAFEPLACE","city":"AUSTIN","st":"TX","zip":"78760","selected address":"PO BOX 19449","geo_score":0.329,"id":"a6772mue5st7","geo_precision":"street"},"type":"Feature","geometry":{"type":"Point","coordinates":[-97.714795,30.358445]}},{"properties":{"lic#":8214,"name":"TERRY L. VANDER MOLEN PH.D. AND ASSOCIAT","city":"AUSTIN","st":"TX","zip":"78761","selected address":"PO BOX 14273","geo_score":0.329,"id":"a6772mh2r2aw","geo_precision":"street"},"type":"Feature","geometry":{"type":"Point","coordinates":[-97.714795,30.358445]}},{"properties":{"lic#":13685,"name":"LA QUE SABE ED CLINIC LTD.","city":"AUSTIN","st":"TX","zip":"78763","selected address":"PO BOX 50447","geo_score":0.329,"id":"a6772me8myn0","geo_precision":"street"},"type":"Feature","geometry":{"type":"Point","coordinates":[-97.714795,30.358445]}},{"properties":{"lic#":62667,"name":"AUSTIN TRAVIS COUNTY MHMR","city":"AUSTIN","st":"TX","zip":"78764","selected address":"PO BOX 3548","geo_score":0.333,"id":"a6772mf089mo","geo_precision":"street"},"type":"Feature","geometry":{"type":"Point","coordinates":[-97.714795,30.358445]}},{"properties":{"lic#":18869,"name":"AIDS SERVICES OF AUSTIN","city":"AUSTIN","st":"TX","zip":"78765","selected address":"3625 MANCHACA RD\rSUITE 202","geo_score":0.675,"id":"a6772mrwz1mg","geo_precision":"range"},"type":"Feature","geometry":{"type":"Point","coordinates":[-97.783443,30.237484]}},{"properties":{"lic#":10303,"name":"STEVE D. HOLIFIELD","city":"AUSTIN","st":"TX","zip":"78765","selected address":"PO BOX 49051","geo_score":0.329,"id":"a6772mftwia4","geo_precision":"street"},"type":"Feature","geometry":{"type":"Point","coordinates":[-97.714795,30.358445]}},{"properties":{"lic#":18823,"name":"TEXAS YOUTH COMMISSION","city":"AUSTIN","st":"TX","zip":"78765","selected address":"P O BOX 4260","geo_score":0.333,"id":"a6772mk3ki2d","geo_precision":"street"},"type":"Feature","geometry":{"type":"Point","coordinates":[-97.714795,30.358445]}},{"properties":{"lic#":15367,"name":"TRAVIS COUNTY SHERIFF'S DEPARTMENT","city":"AUSTIN","st":"TX","zip":"78767","selected address":"1000 SAN ANTNOIO ST","geo_score":0.756,"id":"a6772mk3owyq","geo_precision":"range"},"type":"Feature","geometry":{"type":"Point","coordinates":[-97.745977,30.273076]}},{"properties":{"lic#":62879,"name":"AUSTIN CHILDREN'S SHELTER","city":"AUSTIN","st":"TX","zip":"78768","selected address":"PO BOX 684213","geo_score":0.325,"id":"a6772mq7ethm","geo_precision":"street"},"type":"Feature","geometry":{"type":"Point","coordinates":[-97.714795,30.358445]}},{"properties":{"lic#":13883,"name":"Unnown","city":"AUSTIN","st":"TX","zip":"78785","selected address":"1000 BERRYWOOD DRIVE","geo_score":0.805,"id":"a6772mp8hem1","geo_precision":"range"},"type":"Feature","geometry":{"type":"Point","coordinates":[-97.666246,30.380901]}},{"properties":{"lic#":9096,"name":"UNIVERSITY OF TEXAS SCHOOL OF NURSING","city":"AUSTIN","st":"TX","zip":"78799","selected address":"1700 RED RIVER","geo_score":0.659,"id":"a6772mrp737g","geo_precision":"range"},"type":"Feature","geometry":{"type":"Point","coordinates":[-97.786277,30.226079]}},{"properties":{"lic#":17131,"name":"TX YOUTH COMMISSION","city":"GIDDINGS","st":"TX","zip":"78942","selected address":"P.O. BOX 600","geo_score":0.286,"id":"a6772mehrlf3","geo_precision":"street"},"type":"Feature","geometry":{"type":"Point","coordinates":[-97.03389,29.95073]}},{"properties":{"lic#":13392,"name":"TTUHSC","city":"ODESSA","st":"TX","zip":"79763","selected address":"DEPT. OF INTERNAL MEDICINE\r701 WEST 5TH STREET","geo_score":0.586,"id":"a6772mqynxyj","geo_precision":"street"},"type":"Feature","geometry":{"type":"Point","coordinates":[-102.373775,31.846173]}},{"properties":{"lic#":10077,"name":"GLADYS E. CURLEE, LPC","city":"PFLUGERVILLE","st":"TX","zip":"78691-1427","selected address":"C.A.R.E. COUNSELING\rP O BOX 1427","geo_score":0.429,"id":"a6772mtovucu","geo_precision":"street"},"type":"Feature","geometry":{"type":"Point","coordinates":[-98.246561,30.727314]}},{"properties":{"lic#":14284,"name":"DONALD E. JONES","city":"AUSTIN","st":"TX","zip":"78701-1707","selected address":"711 W. 14TH ST.","geo_score":0.633,"id":"a6772mh4zuyq","geo_precision":"street"},"type":"Feature","geometry":{"type":"Point","coordinates":[-97.741193,30.276344]}},{"properties":{"lic#":15235,"name":"SELF EMPLOYED ART THERAPIST","city":"AUSTIN","st":"TX","zip":"78703-1829","selected address":"1707 W 31ST","geo_score":0.735,"id":"a6772mrd029y","geo_precision":"range"},"type":"Feature","geometry":{"type":"Point","coordinates":[-97.754199,30.303388]}},{"properties":{"lic#":13631,"name":"FELICIA CORREA, LPC","city":"AUSTIN","st":"TX","zip":"78703-4787","selected address":"1717 WEST 6TH STREET #345","geo_score":0.707,"id":"a6772mhpd9rz","geo_precision":"range"},"type":"Feature","geometry":{"type":"Point","coordinates":[-97.745612,30.268854]}},{"properties":{"lic#":6853,"name":"AUSTIN ISD","city":"AUSTIN","st":"TX","zip":"78703-5300","selected address":"1111 WEST 6TH SREET\rSUITE A-300","geo_score":0.683,"id":"a6772ms1gmqk","geo_precision":"range"},"type":"Feature","geometry":{"type":"Point","coordinates":[-97.755743,30.272257]}},{"properties":{"lic#":13142,"name":"DAY GLO (AUSTIN TRAVIS COUNTY MHMR)","city":"AUSTIN","st":"TX","zip":"78704-5124","selected address":"2700 S. IH35 STE. 200","geo_score":0.554,"id":"a6772me50ee9","geo_precision":"street"},"type":"Feature","geometry":{"type":"Point","coordinates":[-97.742032,30.248165]}},{"properties":{"lic#":2301,"name":"CICADA RECOVERY SERVICES","city":"AUSTIN","st":"TX","zip":"78704-6373","selected address":"3004 S 1ST ST","geo_score":0.902,"id":"a6772mhabw75","geo_precision":"range"},"type":"Feature","geometry":{"type":"Point","coordinates":[-97.76395,30.235273]}},{"properties":{"lic#":2397,"name":"ST. EDWARDS UNIVERSITY","city":"AUSTIN","st":"TX","zip":"78704-6489","selected address":"3001 SOUTH CONGRESS AVENUE","geo_score":0.805,"id":"a6772mixufo2","geo_precision":"street"},"type":"Feature","geometry":{"type":"Point","coordinates":[-97.748652,30.252273]}},{"properties":{"lic#":18856,"name":"ST. EDWARDS UNIVERSITY","city":"AUSTIN","st":"TX","zip":"78704-6489","selected address":"3001 SOUTH CONGRESS AVE.","geo_score":0.805,"id":"a6772mtgj3ql","geo_precision":"street"},"type":"Feature","geometry":{"type":"Point","coordinates":[-97.748652,30.252273]}},{"properties":{"lic#":14671,"name":"TRAVIS COUNTY","city":"AUSTIN","st":"TX","zip":"78708-2203","selected address":"P.O. BOX 82203","geo_score":0.286,"id":"a6772mg4nhnz","geo_precision":"street"},"type":"Feature","geometry":{"type":"Point","coordinates":[-97.714795,30.358445]}},{"properties":{"lic#":17833,"name":"RESOUCES FOR LIVING","city":"AUSTIN","st":"TX","zip":"78709-1929","selected address":"PO BOX 91929","geo_score":0.329,"id":"a6772mixacjr","geo_precision":"street"},"type":"Feature","geometry":{"type":"Point","coordinates":[-97.714795,30.358445]}},{"properties":{"lic#":61076,"name":"RESOURCES FOR LIVING","city":"AUSTIN","st":"TX","zip":"78709-1929","selected address":"MONTEREY OAKS BLVD","geo_score":0.714,"id":"a6772mp7ybcz","geo_precision":"street"},"type":"Feature","geometry":{"type":"Point","coordinates":[-97.839261,30.231596]}},{"properties":{"lic#":19178,"name":"RESOURCES FOR LIVING","city":"AUSTIN","st":"TX","zip":"78709-1929","selected address":"PO BOX 91929","geo_score":0.329,"id":"a6772mita7eo","geo_precision":"street"},"type":"Feature","geometry":{"type":"Point","coordinates":[-97.714795,30.358445]}},{"properties":{"lic#":19218,"name":"RESOURCES FOR LIVING","city":"AUSTIN","st":"TX","zip":"78709-1929","selected address":"P.O. BOX 91929","geo_score":0.286,"id":"a6772mmh6qgw","geo_precision":"street"},"type":"Feature","geometry":{"type":"Point","coordinates":[-97.714795,30.358445]}},{"properties":{"lic#":12879,"name":"RESOURCES FOR LIVING","city":"AUSTIN","st":"TX","zip":"78709-1929","selected address":"44007 MONTEREY OAKS BLVD.\rSUITE 150","geo_score":0.393,"id":"a6772mm6exs7","geo_precision":"street"},"type":"Feature","geometry":{"type":"Point","coordinates":[-97.742032,30.248165]}},{"properties":{"lic#":6726,"name":"TEXAS DEPT OF PROTECTIVE &amp; REGULATORY SE","city":"AUSTIN","st":"TX","zip":"78714-9030","selected address":"PO BOX 149030 E-558","geo_score":0.314,"id":"a6772mfe9a5q","geo_precision":"street"},"type":"Feature","geometry":{"type":"Point","coordinates":[-97.714795,30.358445]}},{"properties":{"lic#":8018,"name":"TEXAS DEPT. OF HUMAN SERVICES","city":"AUSTIN","st":"TX","zip":"78714-9030","selected address":"701 WEST 51ST STREET\rP.O. BOX 149030","geo_score":0.286,"id":"a6772msaqjml","geo_precision":"street"},"type":"Feature","geometry":{"type":"Point","coordinates":[-97.722423,30.315496]}},{"properties":{"lic#":17714,"name":"KATHRYN M. PETRO, M.A., LPC","city":"AUSTIN","st":"TX","zip":"78720-2245","selected address":"P.O. BOX 202245","geo_score":0.286,"id":"a6772mohvo61","geo_precision":"street"},"type":"Feature","geometry":{"type":"Point","coordinates":[-97.714795,30.358445]}},{"properties":{"lic#":235,"name":"JOB COUNSELORS OF AUSTIN","city":"AUSTIN","st":"TX","zip":"78731-1632","selected address":"3737 EXECUTIVE DR STE 101","geo_score":0.897,"id":"a6772mgowlct","geo_precision":"range"},"type":"Feature","geometry":{"type":"Point","coordinates":[-97.749601,30.362701]}},{"properties":{"lic#":9879,"name":"MICHAEL S. BISHOP, PHD, PA","city":"AUSTIN","st":"TX","zip":"78746-6458","selected address":"4201 BEE CAVE ROAD\rSUITE C-213","geo_score":0.486,"id":"a6772mrldsk9","geo_precision":"street"},"type":"Feature","geometry":{"type":"Point","coordinates":[-97.836048,30.288414]}},{"properties":{"lic#":18780,"name":"MARY DUNLAP, LPC","city":"AUSTIN","st":"TX","zip":"78756-3319","selected address":"4402 BURNET ROAD","geo_score":1.0,"id":"a6772msy3bv0","geo_precision":"range"},"type":"Feature","geometry":{"type":"Point","coordinates":[-97.74237,30.314164]}},{"properties":{"lic#":5050,"name":"PAUL LAWERENCE. SANFORD II, ED.S.","city":"AUSTIN","st":"TX","zip":"78758-4247","selected address":"1101 PRAIRIE DOVE CIRCLE","geo_score":0.805,"id":"a6772mrqny0d","geo_precision":"street"},"type":"Feature","geometry":{"type":"Point","coordinates":[-97.705542,30.386909]}},{"properties":{"lic#":10782,"name":"TEXAS YOUTH COMMISSION","city":"AUSTIN","st":"TX","zip":"78758-5517","selected address":"4900 N. LAMAR BLVD. #202","geo_score":0.541,"id":"a6772mqvedv6","geo_precision":"range"},"type":"Feature","geometry":{"type":"Point","coordinates":[-97.755691,30.267964]}},{"properties":{"lic#":11290,"name":"DIANA SUE BRIDGMAN M.S.","city":"AUSTIN","st":"TX","zip":"78759-0000","selected address":"11110 OAK KNOLL DR","geo_score":0.912,"id":"a6772mpf5yaz","geo_precision":"range"},"type":"Feature","geometry":{"type":"Point","coordinates":[-97.765265,30.418087]}},{"properties":{"lic#":10042,"name":"Unnown","city":"AUSTIN","st":"TX","zip":"78759-8659","selected address":"4131 SPICEWOOD SPRINGS ROAD\rSUITE E-3","geo_score":0.83,"id":"a6772mnnojgn","geo_precision":"range"},"type":"Feature","geometry":{"type":"Point","coordinates":[-97.755861,30.370951]}},{"properties":{"lic#":13968,"name":"SAFEPLACE","city":"AUSTIN","st":"TX","zip":"78760-9454","selected address":"P.O. BOX 19454","geo_score":0.286,"id":"a6772mo4culy","geo_precision":"street"},"type":"Feature","geometry":{"type":"Point","coordinates":[-97.714795,30.358445]}},{"properties":{"lic#":10939,"name":"AUSTIN TRAVIS COUNTY MHMR","city":"AUSTIN","st":"TX","zip":"78764-3548","selected address":"PO BOX 3548","geo_score":0.333,"id":"a6772mm3pdw0","geo_precision":"street"},"type":"Feature","geometry":{"type":"Point","coordinates":[-97.714795,30.358445]}},{"properties":{"lic#":10685,"name":"AUSTIN-TRAVIS MHMR","city":"AUSTIN","st":"TX","zip":"78764-3548","selected address":"P.O. BOX 3548\r1430 COLLIER ST.","geo_score":0.286,"id":"a6772mf1yesz","geo_precision":"street"},"type":"Feature","geometry":{"type":"Point","coordinates":[-97.717484,30.332725]}},{"properties":{"lic#":11255,"name":"CYNTHIA ANN LLANES","city":"AUSTIN","st":"TX","zip":"78765-4188","selected address":"PO BOX 4188","geo_score":0.333,"id":"a6772mssrm3a","geo_precision":"street"},"type":"Feature","geometry":{"type":"Point","coordinates":[-97.714795,30.358445]}},{"properties":{"lic#":2027,"name":"SELF","city":"AUSTIN","st":"TX","zip":"78766-1042","selected address":"PO BOX 10042","geo_score":0.329,"id":"a6772mrqkviw","geo_precision":"street"},"type":"Feature","geometry":{"type":"Point","coordinates":[-97.714795,30.358445]}},{"properties":{"lic#":9258,"name":"UTMB/TDCJ MANAGED HEALTH CARE","city":"RUSK","st":"TX","zip":"78785-0999","selected address":"POBX OFFICE BOX 999","geo_score":0.339,"id":"a6772mk2mazg","geo_precision":"street"},"type":"Feature","geometry":{"type":"Point","coordinates":[-97.714795,30.358445]}}],"is_temporal":false,"author":{"url":"","metadata":"","contact_name":"","contact_address":"","source":"","contact_phone":""},"source":"","pagination":{"sort":null,"start":0,"total":661,"limit":1000000},"state":"complete","tags":"austin,lpc,texastherapists","published":"2014-08-13T09:28:05-04:00","id":108069}