{"type":"FeatureCollection","data_type":"Dataset","url_type":null,"permissions":[{"permissions":{"download":true,"view":true},"group_id":"everyone"}],"classification":null,"title":"cmr","count":216,"stream_id":108547,"contributor":{"url":"http://geocommons.com/users/3995","name":"amazon"},"data_attributes":null,"calculation_params":null,"icon_link":null,"link":"http://geocommons.com/overlays/108547.json","extent":[-67.81,-31.7719,-34.8553,2.81972],"geometry_types":["point"],"unique_name":null,"name":"cmr","feature_count":216,"description":"","next_feature":null,"is_raster":false,"short_classification":"Y","stats":{"sales":{"max":3126801.82,"mean":79601.0719907407,"variance":111758298480.16,"stdev":334302.704865156,"min":564.68,"median":14281.92}},"features":[{"properties":{"city":"GUARULHOS","sales":3126801.82,"geo_score":1.0,"country":"Brazil","id":"a684ef5gxdey","geo_precision":"zip"},"type":"Feature","geometry":{"type":"Point","coordinates":[-46.53333333,-23.46277778]}},{"properties":{"city":"SAO PAULO","sales":2689046.26,"geo_score":1.0,"country":"Brazil","id":"a684ef69xxeb","geo_precision":"zip"},"type":"Feature","geometry":{"type":"Point","coordinates":[-46.63611111,-23.5475]}},{"properties":{"city":"MANAUS","sales":2597023.62,"geo_score":1.0,"country":"Brazil","id":"a684efb8vufo","geo_precision":"zip"},"type":"Feature","geometry":{"type":"Point","coordinates":[-60.025,-3.101944444]}},{"properties":{"city":"BRASILIA","sales":705468.13,"geo_score":1.0,"country":"Brazil","id":"a684ef2ue0fy","geo_precision":"zip"},"type":"Feature","geometry":{"type":"Point","coordinates":[-47.92972,-15.77972]}},{"properties":{"city":"BOA VISTA","sales":382352.34,"geo_score":1.0,"country":"Brazil","id":"a684efbc1cv1","geo_precision":"zip"},"type":"Feature","geometry":{"type":"Point","coordinates":[-60.67333333,2.819722222]}},{"properties":{"city":"RECIFE","sales":376105.0,"geo_score":1.0,"country":"Brazil","id":"a684efb0b4h3","geo_precision":"zip"},"type":"Feature","geometry":{"type":"Point","coordinates":[-34.88111111,-8.053888889]}},{"properties":{"city":"CAXIAS DO SUL","sales":274396.26,"geo_score":1.0,"country":"Brazil","id":"a684ef55zz8o","geo_precision":"zip"},"type":"Feature","geometry":{"type":"Point","coordinates":[-51.17944444,-29.16805556]}},{"properties":{"city":"SALTINHO","sales":265436.4,"geo_score":1.0,"country":"Brazil","id":"a684ef3yf40u","geo_precision":"zip"},"type":"Feature","geometry":{"type":"Point","coordinates":[-47.7266784579439,-22.8627452149533]}},{"properties":{"city":"RIO DE JANEIRO","sales":261457.95,"geo_score":1.0,"country":"Brazil","id":"a684efh6hnm4","geo_precision":"zip"},"type":"Feature","geometry":{"type":"Point","coordinates":[-43.2075,-22.90277778]}},{"properties":{"city":"SAO JOSE","sales":239520.88,"geo_score":1.0,"country":"Brazil","id":"a684ef5w9xt6","geo_precision":"zip"},"type":"Feature","geometry":{"type":"Point","coordinates":[-48.6584126097561,-27.5797747804878]}},{"properties":{"city":"SAO BERNARDO DO CAMPO","sales":192025.48,"geo_score":1.0,"country":"Brazil","id":"a684ef269vpv","geo_precision":"zip"},"type":"Feature","geometry":{"type":"Point","coordinates":[-46.565,-23.69388889]}},{"properties":{"city":"CAMPINAS","sales":184407.56,"geo_score":1.0,"country":"Brazil","id":"a684ef5h8qgw","geo_precision":"zip"},"type":"Feature","geometry":{"type":"Point","coordinates":[-47.06083333,-22.90555556]}},{"properties":{"city":"ANANINDEUA","sales":170732.05,"geo_score":1.0,"country":"Brazil","id":"a684efef0j70","geo_precision":"zip"},"type":"Feature","geometry":{"type":"Point","coordinates":[-48.37222222,-1.365555556]}},{"properties":{"city":"TERESINA","sales":166567.18,"geo_score":1.0,"country":"Brazil","id":"a684efguy5kc","geo_precision":"zip"},"type":"Feature","geometry":{"type":"Point","coordinates":[-42.80194444,-5.089166667]}},{"properties":{"city":"SANTO ANDRE","sales":166203.83,"geo_score":1.0,"country":"Brazil","id":"a684effu8j7g","geo_precision":"zip"},"type":"Feature","geometry":{"type":"Point","coordinates":[-46.53833333,-23.66388889]}},{"properties":{"city":"RIBEIRAO PRETO","sales":165844.61,"geo_score":1.0,"country":"Brazil","id":"a684ef7gzlod","geo_precision":"zip"},"type":"Feature","geometry":{"type":"Point","coordinates":[-47.81027778,-21.1775]}},{"properties":{"city":"CAMPO GRANDE","sales":162777.61,"geo_score":1.0,"country":"Brazil","id":"a684efhszexj","geo_precision":"zip"},"type":"Feature","geometry":{"type":"Point","coordinates":[-54.64638889,-20.44277778]}},{"properties":{"city":"PORTO VELHO","sales":162109.69,"geo_score":1.0,"country":"Brazil","id":"a684ef6z8d99","geo_precision":"zip"},"type":"Feature","geometry":{"type":"Point","coordinates":[-63.90388889,-8.761944444]}},{"properties":{"city":"JOINVILLE","sales":161967.29,"geo_score":1.0,"country":"Brazil","id":"a684ef92q40g","geo_precision":"zip"},"type":"Feature","geometry":{"type":"Point","coordinates":[-48.84555556,-26.30444444]}},{"properties":{"city":"CURITIBA","sales":156068.64,"geo_score":1.0,"country":"Brazil","id":"a684efhm1js9","geo_precision":"zip"},"type":"Feature","geometry":{"type":"Point","coordinates":[-49.27305556,-25.42777778]}},{"properties":{"city":"FORTALEZA","sales":155539.07,"geo_score":1.0,"country":"Brazil","id":"a684efajz7mw","geo_precision":"zip"},"type":"Feature","geometry":{"type":"Point","coordinates":[-38.54305556,-3.717222222]}},{"properties":{"city":"BELO HORIZONTE","sales":145326.68,"geo_score":1.0,"country":"Brazil","id":"a684ef225260","geo_precision":"zip"},"type":"Feature","geometry":{"type":"Point","coordinates":[-43.93777778,-19.92083333]}},{"properties":{"city":"LONDRINA","sales":144395.47,"geo_score":1.0,"country":"Brazil","id":"a684eff59w86","geo_precision":"zip"},"type":"Feature","geometry":{"type":"Point","coordinates":[-51.16277778,-23.31027778]}},{"properties":{"city":"SANTOS","sales":140983.71,"geo_score":1.0,"country":"Brazil","id":"a684efffbwau","geo_precision":"zip"},"type":"Feature","geometry":{"type":"Point","coordinates":[-46.2705495,-23.8566263351064]}},{"properties":{"city":"CUBATAO","sales":134112.31,"geo_score":1.0,"country":"Brazil","id":"a684ef2w91s8","geo_precision":"zip"},"type":"Feature","geometry":{"type":"Point","coordinates":[-46.42527778,-23.895]}},{"properties":{"city":"GOIANIA","sales":123247.4,"geo_score":1.0,"country":"Brazil","id":"a684ef8whfjt","geo_precision":"zip"},"type":"Feature","geometry":{"type":"Point","coordinates":[-49.25388889,-16.67861111]}},{"properties":{"city":"FLORIANOPOLIS","sales":116439.02,"geo_score":1.0,"country":"Brazil","id":"a684effltz9w","geo_precision":"zip"},"type":"Feature","geometry":{"type":"Point","coordinates":[-48.54916667,-27.59666667]}},{"properties":{"city":"SAO BERNARDO DO","sales":112784.09,"geo_score":0.96,"country":"Brazil","id":"a684ef6rsuir","geo_precision":"zip"},"type":"Feature","geometry":{"type":"Point","coordinates":[-46.565,-23.69388889]}},{"properties":{"city":"BURITIS","sales":111631.26,"geo_score":0.929,"country":"Brazil","id":"a684efgxb6ju","geo_precision":"zip"},"type":"Feature","geometry":{"type":"Point","coordinates":[-48.56777778,-20.55722222]}},{"properties":{"city":"CRAVINHOS","sales":97588.42,"geo_score":1.0,"country":"Brazil","id":"a684efftaala","geo_precision":"zip"},"type":"Feature","geometry":{"type":"Point","coordinates":[-47.72944444,-21.34027778]}},{"properties":{"city":"PORTO ALEGRE","sales":85555.28,"geo_score":1.0,"country":"Brazil","id":"a684ef28ra3k","geo_precision":"zip"},"type":"Feature","geometry":{"type":"Point","coordinates":[-51.23,-30.03305556]}},{"properties":{"city":"ANGRA DOS REIS","sales":79018.26,"geo_score":1.0,"country":"Brazil","id":"a684efac8wxb","geo_precision":"zip"},"type":"Feature","geometry":{"type":"Point","coordinates":[-44.31805556,-23.00666667]}},{"properties":{"city":"MARILIA","sales":73761.33,"geo_score":1.0,"country":"Brazil","id":"a684efc9lhqw","geo_precision":"zip"},"type":"Feature","geometry":{"type":"Point","coordinates":[-49.94583333,-22.21388889]}},{"properties":{"city":"OSASCO","sales":73495.34,"geo_score":1.0,"country":"Brazil","id":"a684ef35gc1b","geo_precision":"zip"},"type":"Feature","geometry":{"type":"Point","coordinates":[-46.79166667,-23.5325]}},{"properties":{"city":"ITABORAI","sales":70791.6,"geo_score":1.0,"country":"Brazil","id":"a684efbs90bc","geo_precision":"zip"},"type":"Feature","geometry":{"type":"Point","coordinates":[-42.85944444,-22.74444444]}},{"properties":{"city":"DUQUE DE CAXIAS","sales":70401.32,"geo_score":1.0,"country":"Brazil","id":"a684efgwv6yr","geo_precision":"zip"},"type":"Feature","geometry":{"type":"Point","coordinates":[-43.31166667,-22.78555556]}},{"properties":{"city":"SAO LUIS","sales":69935.37,"geo_score":1.0,"country":"Brazil","id":"a684efdiafdm","geo_precision":"zip"},"type":"Feature","geometry":{"type":"Point","coordinates":[-44.30277778,-2.529722222]}},{"properties":{"city":"PONTAL","sales":69192.17,"geo_score":1.0,"country":"Brazil","id":"a684ef7w0r1q","geo_precision":"zip"},"type":"Feature","geometry":{"type":"Point","coordinates":[-48.03722222,-21.0225]}},{"properties":{"city":"DIADEMA","sales":69181.01,"geo_score":1.0,"country":"Brazil","id":"a684effeuwu1","geo_precision":"zip"},"type":"Feature","geometry":{"type":"Point","coordinates":[-46.62277778,-23.68611111]}},{"properties":{"city":"JABOATAO DOS GU","sales":69090.72,"geo_score":0.945,"country":"Brazil","id":"a684ef5jzz6l","geo_precision":"zip"},"type":"Feature","geometry":{"type":"Point","coordinates":[-35.00138889,-8.180277778]}},{"properties":{"city":"MACAPA","sales":68160.7,"geo_score":1.0,"country":"Brazil","id":"a684ef78bh6o","geo_precision":"zip"},"type":"Feature","geometry":{"type":"Point","coordinates":[-51.06638889,0.038888889]}},{"properties":{"city":"PELOTAS","sales":62902.98,"geo_score":1.0,"country":"Brazil","id":"a684ef1vu6ke","geo_precision":"zip"},"type":"Feature","geometry":{"type":"Point","coordinates":[-52.3425,-31.77194444]}},{"properties":{"city":"CRICIUMA","sales":59191.1,"geo_score":1.0,"country":"Brazil","id":"a684efakrd7e","geo_precision":"zip"},"type":"Feature","geometry":{"type":"Point","coordinates":[-49.36972222,-28.6775]}},{"properties":{"city":"TABOAO DA SERRA","sales":55823.55,"geo_score":0.912,"country":"Brazil","id":"a684efcjra39","geo_precision":"zip"},"type":"Feature","geometry":{"type":"Point","coordinates":[-40.30777778,-20.12861111]}},{"properties":{"city":"MARITUBA","sales":54761.94,"geo_score":1.0,"country":"Brazil","id":"a684ef8lzctj","geo_precision":"zip"},"type":"Feature","geometry":{"type":"Point","coordinates":[-48.3142025753425,-1.37399310958904]}},{"properties":{"city":"IMPERATRIZ","sales":54344.27,"geo_score":1.0,"country":"Brazil","id":"a684ef9lg06o","geo_precision":"zip"},"type":"Feature","geometry":{"type":"Point","coordinates":[-47.5382044359861,-5.38666527681661]}},{"properties":{"city":"COLOMBO","sales":53439.36,"geo_score":1.0,"country":"Brazil","id":"a684ef4cz8u8","geo_precision":"zip"},"type":"Feature","geometry":{"type":"Point","coordinates":[-49.22416667,-25.29166667]}},{"properties":{"city":"SAO JOSE DOS CAMPOS","sales":52380.93,"geo_score":1.0,"country":"Brazil","id":"a684ef9kokbh","geo_precision":"zip"},"type":"Feature","geometry":{"type":"Point","coordinates":[-45.88694444,-23.17944444]}},{"properties":{"city":"OLINDA","sales":52288.4,"geo_score":1.0,"country":"Brazil","id":"a684ef29jy30","geo_precision":"zip"},"type":"Feature","geometry":{"type":"Point","coordinates":[-34.85527778,-8.008888889]}},{"properties":{"city":"ITAPEVA","sales":50209.13,"geo_score":0.98,"country":"Brazil","id":"a684efer3brk","geo_precision":"zip"},"type":"Feature","geometry":{"type":"Point","coordinates":[-46.93416667,-23.54888889]}},{"properties":{"city":"JAU","sales":49771.44,"geo_score":1.0,"country":"Brazil","id":"a684ef6q8kre","geo_precision":"zip"},"type":"Feature","geometry":{"type":"Point","coordinates":[-48.55777778,-22.29638889]}},{"properties":{"city":"MESQUITA","sales":49511.35,"geo_score":0.911,"country":"Brazil","id":"a684efdrnbfp","geo_precision":"zip"},"type":"Feature","geometry":{"type":"Point","coordinates":[-39.3025,-15.56305556]}},{"properties":{"city":"BARUERI","sales":48056.95,"geo_score":1.0,"country":"Brazil","id":"a684efaatd4y","geo_precision":"zip"},"type":"Feature","geometry":{"type":"Point","coordinates":[-46.87611111,-23.51055556]}},{"properties":{"city":"FRANCA","sales":47021.53,"geo_score":1.0,"country":"Brazil","id":"a684efbru75w","geo_precision":"zip"},"type":"Feature","geometry":{"type":"Point","coordinates":[-47.40083333,-20.53861111]}},{"properties":{"city":"BAURU","sales":45534.58,"geo_score":1.0,"country":"Brazil","id":"a684ef2tk7xq","geo_precision":"zip"},"type":"Feature","geometry":{"type":"Point","coordinates":[-49.06055556,-22.31472222]}},{"properties":{"city":"CANOAS","sales":44545.36,"geo_score":1.0,"country":"Brazil","id":"a684efed1nq3","geo_precision":"zip"},"type":"Feature","geometry":{"type":"Point","coordinates":[-51.18361111,-29.91777778]}},{"properties":{"city":"SAO CAETANO DO SUL","sales":42458.65,"geo_score":1.0,"country":"Brazil","id":"a684efgexgc1","geo_precision":"zip"},"type":"Feature","geometry":{"type":"Point","coordinates":[-46.562406137931,-23.6242925862069]}},{"properties":{"city":"BARCARENA","sales":40520.08,"geo_score":1.0,"country":"Brazil","id":"a684ef2ljbll","geo_precision":"zip"},"type":"Feature","geometry":{"type":"Point","coordinates":[-48.6324803636364,-1.54655920909091]}},{"properties":{"city":"BARRA MANSA","sales":39542.08,"geo_score":0.9,"country":"Brazil","id":"a684efhp7sw3","geo_precision":"zip"},"type":"Feature","geometry":{"type":"Point","coordinates":[-60.025,-3.101944444]}},{"properties":{"city":"SOROCABA","sales":36986.23,"geo_score":1.0,"country":"Brazil","id":"a684ef6x95u2","geo_precision":"zip"},"type":"Feature","geometry":{"type":"Point","coordinates":[-47.45805556,-23.50166667]}},{"properties":{"city":"MOCOCA","sales":34125.12,"geo_score":1.0,"country":"Brazil","id":"a684efefxyge","geo_precision":"zip"},"type":"Feature","geometry":{"type":"Point","coordinates":[-47.0130540282353,-21.4425276941177]}},{"properties":{"city":"ITU","sales":33577.44,"geo_score":1.0,"country":"Brazil","id":"a684efarf52m","geo_precision":"zip"},"type":"Feature","geometry":{"type":"Point","coordinates":[-47.29916667,-23.26416667]}},{"properties":{"city":"SALVADOR","sales":31145.97,"geo_score":1.0,"country":"Brazil","id":"a684ef284pkb","geo_precision":"zip"},"type":"Feature","geometry":{"type":"Point","coordinates":[-38.51083333,-12.97111111]}},{"properties":{"city":"RIO VERDE","sales":30315.16,"geo_score":1.0,"country":"Brazil","id":"a684effglmz5","geo_precision":"zip"},"type":"Feature","geometry":{"type":"Point","coordinates":[-51.0421464470742,-17.7188781255753]}},{"properties":{"city":"CUIABA","sales":29171.52,"geo_score":1.0,"country":"Brazil","id":"a684ef8td4wg","geo_precision":"zip"},"type":"Feature","geometry":{"type":"Point","coordinates":[-56.09666667,-15.59611111]}},{"properties":{"city":"JACAREI","sales":28911.16,"geo_score":1.0,"country":"Brazil","id":"a684ef5j2ebh","geo_precision":"zip"},"type":"Feature","geometry":{"type":"Point","coordinates":[-45.96583333,-23.30527778]}},{"properties":{"city":"NOVO HAMBURGO","sales":28281.31,"geo_score":1.0,"country":"Brazil","id":"a684efeeysmo","geo_precision":"zip"},"type":"Feature","geometry":{"type":"Point","coordinates":[-51.13055556,-29.67833333]}},{"properties":{"city":"SAO ROQUE","sales":27173.29,"geo_score":1.0,"country":"Brazil","id":"a684efa4husw","geo_precision":"zip"},"type":"Feature","geometry":{"type":"Point","coordinates":[-47.1128027475248,-23.5401104059406]}},{"properties":{"city":"PALMAS","sales":26897.85,"geo_score":1.0,"country":"Brazil","id":"a684ef6m888e","geo_precision":"zip"},"type":"Feature","geometry":{"type":"Point","coordinates":[-48.36027778,-10.21277778]}},{"properties":{"city":"BLUMENAU","sales":26878.88,"geo_score":1.0,"country":"Brazil","id":"a684efcrehcl","geo_precision":"zip"},"type":"Feature","geometry":{"type":"Point","coordinates":[-49.06611111,-26.91944444]}},{"properties":{"city":"SIDEROPOLIS","sales":26830.35,"geo_score":1.0,"country":"Brazil","id":"a684ef2h6wyj","geo_precision":"zip"},"type":"Feature","geometry":{"type":"Point","coordinates":[-49.5363924155844,-28.5630344480519]}},{"properties":{"city":"ITATIBA","sales":26804.8,"geo_score":0.964,"country":"Brazil","id":"a684ef3dpz0q","geo_precision":"zip"},"type":"Feature","geometry":{"type":"Point","coordinates":[-56.2317594591592,-5.86017607117118]}},{"properties":{"city":"FERRAZ DE VASCONCELOS","sales":26635.34,"geo_score":1.0,"country":"Brazil","id":"a684ef2pr13v","geo_precision":"zip"},"type":"Feature","geometry":{"type":"Point","coordinates":[-46.36861111,-23.54083333]}},{"properties":{"city":"MOJI DAS CRUZES","sales":26094.32,"geo_score":1.0,"country":"Brazil","id":"a684efdq97sy","geo_precision":"zip"},"type":"Feature","geometry":{"type":"Point","coordinates":[-46.18833333,-23.52277778]}},{"properties":{"city":"ARAUCARIA","sales":24588.82,"geo_score":1.0,"country":"Brazil","id":"a684ef60o49t","geo_precision":"zip"},"type":"Feature","geometry":{"type":"Point","coordinates":[-49.41027778,-25.59305556]}},{"properties":{"city":"PAULINIA","sales":24202.26,"geo_score":1.0,"country":"Brazil","id":"a684ef9mjm8p","geo_precision":"zip"},"type":"Feature","geometry":{"type":"Point","coordinates":[-47.15416667,-22.76111111]}},{"properties":{"city":"APARECIDA DE GOIANIA","sales":24149.15,"geo_score":0.913,"country":"Brazil","id":"a684ef2nwtu9","geo_precision":"zip"},"type":"Feature","geometry":{"type":"Point","coordinates":[-49.25388889,-16.67861111]}},{"properties":{"city":"JABOTICABAL","sales":23465.82,"geo_score":1.0,"country":"Brazil","id":"a684efgl6i3z","geo_precision":"zip"},"type":"Feature","geometry":{"type":"Point","coordinates":[-48.32222222,-21.25472222]}},{"properties":{"city":"SAO JOAO DE MERITI","sales":23315.17,"geo_score":1.0,"country":"Brazil","id":"a684ef8idltl","geo_precision":"zip"},"type":"Feature","geometry":{"type":"Point","coordinates":[-43.37222222,-22.80388889]}},{"properties":{"city":"BARRETOS","sales":22674.32,"geo_score":1.0,"country":"Brazil","id":"a684ef9mlxi6","geo_precision":"zip"},"type":"Feature","geometry":{"type":"Point","coordinates":[-48.56777778,-20.55722222]}},{"properties":{"city":"PIRAJUBA","sales":21715.39,"geo_score":1.0,"country":"Brazil","id":"a684efgytac8","geo_precision":"zip"},"type":"Feature","geometry":{"type":"Point","coordinates":[-48.7030555358851,-19.9407341435407]}},{"properties":{"city":"NOVA LIMA","sales":20920.05,"geo_score":1.0,"country":"Brazil","id":"a684efc1xa0k","geo_precision":"zip"},"type":"Feature","geometry":{"type":"Point","coordinates":[-43.84666667,-19.98555556]}},{"properties":{"city":"RIO BRANCO","sales":20635.79,"geo_score":1.0,"country":"Brazil","id":"a684efcbhupt","geo_precision":"zip"},"type":"Feature","geometry":{"type":"Point","coordinates":[-67.81,-9.974722222]}},{"properties":{"city":"CHAPECO","sales":20383.35,"geo_score":1.0,"country":"Brazil","id":"a684effq8g0w","geo_precision":"zip"},"type":"Feature","geometry":{"type":"Point","coordinates":[-52.61833333,-27.09638889]}},{"properties":{"city":"ESTRELA","sales":20295.13,"geo_score":1.0,"country":"Brazil","id":"a684efh0hp2g","geo_precision":"zip"},"type":"Feature","geometry":{"type":"Point","coordinates":[-51.9371751492537,-29.5122010149254]}},{"properties":{"city":"NOVA IGUACU","sales":20166.31,"geo_score":1.0,"country":"Brazil","id":"a684ef89dr5k","geo_precision":"zip"},"type":"Feature","geometry":{"type":"Point","coordinates":[-43.45111111,-22.75916667]}},{"properties":{"city":"SAO JOSE DO RIO PRETO","sales":20014.03,"geo_score":1.0,"country":"Brazil","id":"a684efe3i570","geo_precision":"zip"},"type":"Feature","geometry":{"type":"Point","coordinates":[-49.37944444,-20.81972222]}},{"properties":{"city":"GRAJAU","sales":19996.65,"geo_score":0.918,"country":"Brazil","id":"a684ef3ht25u","geo_precision":"zip"},"type":"Feature","geometry":{"type":"Point","coordinates":[-46.25638889,-23.99305556]}},{"properties":{"city":"ARACATUBA","sales":19283.59,"geo_score":1.0,"country":"Brazil","id":"a684ef4olryy","geo_precision":"zip"},"type":"Feature","geometry":{"type":"Point","coordinates":[-50.43277778,-21.20888889]}},{"properties":{"city":"IJUI","sales":19267.57,"geo_score":1.0,"country":"Brazil","id":"a684ef47se6c","geo_precision":"zip"},"type":"Feature","geometry":{"type":"Point","coordinates":[-53.8742889838449,-28.3532469014539]}},{"properties":{"city":"CACERES","sales":18521.48,"geo_score":1.0,"country":"Brazil","id":"a684ef434wn2","geo_precision":"zip"},"type":"Feature","geometry":{"type":"Point","coordinates":[-57.7108186759928,-16.4226257612816]}},{"properties":{"city":"CONTAGEM","sales":18313.13,"geo_score":1.0,"country":"Brazil","id":"a684ef7vhkv6","geo_precision":"zip"},"type":"Feature","geometry":{"type":"Point","coordinates":[-44.05361111,-19.93166667]}},{"properties":{"city":"DOURADOS","sales":18093.76,"geo_score":1.0,"country":"Brazil","id":"a684ef5dcafs","geo_precision":"zip"},"type":"Feature","geometry":{"type":"Point","coordinates":[-54.80555556,-22.22111111]}},{"properties":{"city":"GUARUJA","sales":17797.9,"geo_score":1.0,"country":"Brazil","id":"a684efau8cgf","geo_precision":"zip"},"type":"Feature","geometry":{"type":"Point","coordinates":[-46.25638889,-23.99305556]}},{"properties":{"city":"MARABA","sales":17348.9,"geo_score":1.0,"country":"Brazil","id":"a684efbnp3ry","geo_precision":"zip"},"type":"Feature","geometry":{"type":"Point","coordinates":[-50.0641383589251,-5.62104131477926]}},{"properties":{"city":"JABOATAO DOS GUARARAPES","sales":17339.29,"geo_score":0.912,"country":"Brazil","id":"a684ef28a2fd","geo_precision":"zip"},"type":"Feature","geometry":{"type":"Point","coordinates":[-35.00138889,-8.180277778]}},{"properties":{"city":"MACEIO","sales":17327.65,"geo_score":1.0,"country":"Brazil","id":"a684effzuyf4","geo_precision":"zip"},"type":"Feature","geometry":{"type":"Point","coordinates":[-35.73527778,-9.665833333]}},{"properties":{"city":"FRUTAL","sales":17063.28,"geo_score":1.0,"country":"Brazil","id":"a684ef3k20xz","geo_precision":"zip"},"type":"Feature","geometry":{"type":"Point","coordinates":[-48.9562961216,-19.9781034944]}},{"properties":{"city":"AMAMBAI","sales":17007.05,"geo_score":1.0,"country":"Brazil","id":"a684ef9uvpsq","geo_precision":"zip"},"type":"Feature","geometry":{"type":"Point","coordinates":[-54.9578956852941,-23.1271005970588]}},{"properties":{"city":"GRAVATAI","sales":16759.48,"geo_score":1.0,"country":"Brazil","id":"a684ef2abweo","geo_precision":"zip"},"type":"Feature","geometry":{"type":"Point","coordinates":[-50.99194444,-29.94444444]}},{"properties":{"city":"AMERICANA","sales":16535.54,"geo_score":1.0,"country":"Brazil","id":"a684ef676zep","geo_precision":"zip"},"type":"Feature","geometry":{"type":"Point","coordinates":[-47.33138889,-22.73916667]}},{"properties":{"city":"ESTEIO","sales":16416.27,"geo_score":1.0,"country":"Brazil","id":"a684ef4f30t0","geo_precision":"zip"},"type":"Feature","geometry":{"type":"Point","coordinates":[-51.17916667,-29.86138889]}},{"properties":{"city":"CACAPAVA","sales":16026.99,"geo_score":1.0,"country":"Brazil","id":"a684ef1zpequ","geo_precision":"zip"},"type":"Feature","geometry":{"type":"Point","coordinates":[-45.70694444,-23.10083333]}},{"properties":{"city":"NATAL","sales":15268.45,"geo_score":1.0,"country":"Brazil","id":"a684ef9o0dxs","geo_precision":"zip"},"type":"Feature","geometry":{"type":"Point","coordinates":[-35.20944444,-5.795]}},{"properties":{"city":"VARZEA GRANDE","sales":14879.89,"geo_score":1.0,"country":"Brazil","id":"a684efgvemfl","geo_precision":"zip"},"type":"Feature","geometry":{"type":"Point","coordinates":[-56.1325,-15.64666667]}},{"properties":{"city":"VOTUPORANGA","sales":14346.26,"geo_score":1.0,"country":"Brazil","id":"a684efc0b0sa","geo_precision":"zip"},"type":"Feature","geometry":{"type":"Point","coordinates":[-50.0126568017241,-20.4801016853448]}},{"properties":{"city":"NOVA EUROPA","sales":14320.2,"geo_score":1.0,"country":"Brazil","id":"a684efdvcyro","geo_precision":"zip"},"type":"Feature","geometry":{"type":"Point","coordinates":[-48.5688002038217,-21.7921407515924]}},{"properties":{"city":"SAO JOSE DO RIO","sales":14281.92,"geo_score":0.958,"country":"Brazil","id":"a684ef3u3qy5","geo_precision":"zip"},"type":"Feature","geometry":{"type":"Point","coordinates":[-49.37944444,-20.81972222]}},{"properties":{"city":"CARAPICUIBA","sales":13788.9,"geo_score":1.0,"country":"Brazil","id":"a684efecvwcq","geo_precision":"zip"},"type":"Feature","geometry":{"type":"Point","coordinates":[-46.83555556,-23.5225]}},{"properties":{"city":"COTIA","sales":13428.84,"geo_score":1.0,"country":"Brazil","id":"a684ef4ijhl1","geo_precision":"zip"},"type":"Feature","geometry":{"type":"Point","coordinates":[-46.91916667,-23.60388889]}},{"properties":{"city":"TUBARAO","sales":13324.34,"geo_score":1.0,"country":"Brazil","id":"a684ef6a0hjb","geo_precision":"zip"},"type":"Feature","geometry":{"type":"Point","coordinates":[-49.0365284093265,-28.492586626943]}},{"properties":{"city":"VOLTA REDONDA","sales":12675.05,"geo_score":1.0,"country":"Brazil","id":"a684efcd0vyp","geo_precision":"zip"},"type":"Feature","geometry":{"type":"Point","coordinates":[-44.10416667,-22.52305556]}},{"properties":{"city":"BRAGANCA PAULIS","sales":12537.8,"geo_score":0.982,"country":"Brazil","id":"a684efgy86to","geo_precision":"zip"},"type":"Feature","geometry":{"type":"Point","coordinates":[-46.54194444,-22.95194444]}},{"properties":{"city":"SANTAREM","sales":11911.81,"geo_score":1.0,"country":"Brazil","id":"a684efhrrvak","geo_precision":"zip"},"type":"Feature","geometry":{"type":"Point","coordinates":[-54.8640010905234,-3.05511911739745]}},{"properties":{"city":"POSSE","sales":11454.91,"geo_score":1.0,"country":"Brazil","id":"a684efg5a5h0","geo_precision":"zip"},"type":"Feature","geometry":{"type":"Point","coordinates":[-46.4696372460317,-14.2451463392857]}},{"properties":{"city":"POTIRENDABA","sales":11452.1,"geo_score":1.0,"country":"Brazil","id":"a684efexwbgg","geo_precision":"zip"},"type":"Feature","geometry":{"type":"Point","coordinates":[-49.3980802096775,-21.1073747956989]}},{"properties":{"city":"LEME","sales":11179.79,"geo_score":1.0,"country":"Brazil","id":"a684effflbtd","geo_precision":"zip"},"type":"Feature","geometry":{"type":"Point","coordinates":[-47.39027778,-22.18555556]}},{"properties":{"city":"ORLANDIA","sales":11018.7,"geo_score":1.0,"country":"Brazil","id":"a684efgcyapm","geo_precision":"zip"},"type":"Feature","geometry":{"type":"Point","coordinates":[-47.88666667,-20.72027778]}},{"properties":{"city":"SAO GONCALO","sales":10960.08,"geo_score":1.0,"country":"Brazil","id":"a684efgwtld0","geo_precision":"zip"},"type":"Feature","geometry":{"type":"Point","coordinates":[-43.0411198841463,-22.8155521890244]}},{"properties":{"city":"FORTALEZA DOS VALOS","sales":10897.82,"geo_score":0.933,"country":"Brazil","id":"a684efbw1zx8","geo_precision":"zip"},"type":"Feature","geometry":{"type":"Point","coordinates":[-38.54305556,-3.717222222]}},{"properties":{"city":"ITAJAI","sales":10751.54,"geo_score":1.0,"country":"Brazil","id":"a684efdu64vr","geo_precision":"zip"},"type":"Feature","geometry":{"type":"Point","coordinates":[-48.66194444,-26.90777778]}},{"properties":{"city":"BOM JESUS","sales":10546.71,"geo_score":0.939,"country":"Brazil","id":"a684efckq6oj","geo_precision":"zip"},"type":"Feature","geometry":{"type":"Point","coordinates":[-43.2962432233677,-13.2085301030928]}},{"properties":{"city":"NAVIRAI","sales":10544.19,"geo_score":1.0,"country":"Brazil","id":"a684ef563zlu","geo_precision":"zip"},"type":"Feature","geometry":{"type":"Point","coordinates":[-54.19055556,-23.065]}},{"properties":{"city":"UBERLANDIA","sales":10508.17,"geo_score":1.0,"country":"Brazil","id":"a684efbx8z5a","geo_precision":"zip"},"type":"Feature","geometry":{"type":"Point","coordinates":[-48.27722222,-18.91861111]}},{"properties":{"city":"SAO JOAQUIM","sales":10066.33,"geo_score":1.0,"country":"Brazil","id":"a684ef52g51z","geo_precision":"zip"},"type":"Feature","geometry":{"type":"Point","coordinates":[-49.9979475536231,-28.3018084275362]}},{"properties":{"city":"NATIVIDADE","sales":9995.09,"geo_score":1.0,"country":"Brazil","id":"a684efgep38k","geo_precision":"zip"},"type":"Feature","geometry":{"type":"Point","coordinates":[-41.9379942887029,-21.0308245313808]}},{"properties":{"city":"GAROPABA","sales":9772.37,"geo_score":1.0,"country":"Brazil","id":"a684ef8hn723","geo_precision":"zip"},"type":"Feature","geometry":{"type":"Point","coordinates":[-48.6532075772358,-28.039949097561]}},{"properties":{"city":"VARGEM GRANDE D","sales":9328.71,"geo_score":0.879,"country":"Brazil","id":"a684efdwarnm","geo_precision":"zip"},"type":"Feature","geometry":{"type":"Point","coordinates":[-40.2727895892857,-5.90847566396104]}},{"properties":{"city":"ORIENTE","sales":9255.28,"geo_score":1.0,"country":"Brazil","id":"a684eff6rxxo","geo_precision":"zip"},"type":"Feature","geometry":{"type":"Point","coordinates":[-50.0967638629032,-22.1500502419355]}},{"properties":{"city":"PETROPOLIS","sales":8783.62,"geo_score":1.0,"country":"Brazil","id":"a684efdtyjmy","geo_precision":"zip"},"type":"Feature","geometry":{"type":"Point","coordinates":[-43.17861111,-22.505]}},{"properties":{"city":"CONCHAS","sales":8538.54,"geo_score":1.0,"country":"Brazil","id":"a684efakubgu","geo_precision":"zip"},"type":"Feature","geometry":{"type":"Point","coordinates":[-48.01055556,-23.01527778]}},{"properties":{"city":"SETE LAGOAS","sales":8418.51,"geo_score":1.0,"country":"Brazil","id":"a684ef3yn1ai","geo_precision":"zip"},"type":"Feature","geometry":{"type":"Point","coordinates":[-44.24666667,-19.46583333]}},{"properties":{"city":"PITANGUEIRAS","sales":8037.42,"geo_score":1.0,"country":"Brazil","id":"a684ef6m8cz3","geo_precision":"zip"},"type":"Feature","geometry":{"type":"Point","coordinates":[-48.2619677593985,-21.0139493082707]}},{"properties":{"city":"MIRASSOL","sales":7913.74,"geo_score":1.0,"country":"Brazil","id":"a684ef4izeao","geo_precision":"zip"},"type":"Feature","geometry":{"type":"Point","coordinates":[-49.5087897985611,-20.8415806258993]}},{"properties":{"city":"PONTES E LACERDA","sales":7835.95,"geo_score":1.0,"country":"Brazil","id":"a684ef1xepni","geo_precision":"zip"},"type":"Feature","geometry":{"type":"Point","coordinates":[-59.3340333249552,-15.3614117019749]}},{"properties":{"city":"RIO CLARO","sales":7670.62,"geo_score":1.0,"country":"Brazil","id":"a684ef9ijq1x","geo_precision":"zip"},"type":"Feature","geometry":{"type":"Point","coordinates":[-47.56138889,-22.41138889]}},{"properties":{"city":"ITAI","sales":7642.65,"geo_score":0.929,"country":"Brazil","id":"a684efbtvo3l","geo_precision":"zip"},"type":"Feature","geometry":{"type":"Point","coordinates":[-47.29916667,-23.26416667]}},{"properties":{"city":"BELEM","sales":7559.83,"geo_score":1.0,"country":"Brazil","id":"a684ef1mbji9","geo_precision":"zip"},"type":"Feature","geometry":{"type":"Point","coordinates":[-48.50444444,-1.455833333]}},{"properties":{"city":"OLIMPIA","sales":7252.68,"geo_score":1.0,"country":"Brazil","id":"a684ef70ot98","geo_precision":"zip"},"type":"Feature","geometry":{"type":"Point","coordinates":[-48.91472222,-20.73722222]}},{"properties":{"city":"PARNAMIRIM","sales":7106.47,"geo_score":1.0,"country":"Brazil","id":"a684ef92vao6","geo_precision":"zip"},"type":"Feature","geometry":{"type":"Point","coordinates":[-35.26277778,-5.915555556]}},{"properties":{"city":"PEDRO LEOPOLDO","sales":6278.68,"geo_score":1.0,"country":"Brazil","id":"a684efa9jiay","geo_precision":"zip"},"type":"Feature","geometry":{"type":"Point","coordinates":[-44.04305556,-19.61805556]}},{"properties":{"city":"VALINHOS","sales":6166.85,"geo_score":1.0,"country":"Brazil","id":"a684ef9x0rk6","geo_precision":"zip"},"type":"Feature","geometry":{"type":"Point","coordinates":[-46.99583333,-22.97055556]}},{"properties":{"city":"JAGUARIUNA","sales":6102.45,"geo_score":1.0,"country":"Brazil","id":"a684ef81msne","geo_precision":"zip"},"type":"Feature","geometry":{"type":"Point","coordinates":[-46.98583333,-22.70555556]}},{"properties":{"city":"JALES","sales":6034.33,"geo_score":1.0,"country":"Brazil","id":"a684ef4b1odn","geo_precision":"zip"},"type":"Feature","geometry":{"type":"Point","coordinates":[-50.54583333,-20.26888889]}},{"properties":{"city":"ITAPEVI","sales":5752.13,"geo_score":1.0,"country":"Brazil","id":"a684ef72si23","geo_precision":"zip"},"type":"Feature","geometry":{"type":"Point","coordinates":[-46.93416667,-23.54888889]}},{"properties":{"city":"MAGE","sales":5353.17,"geo_score":1.0,"country":"Brazil","id":"a684ef56zp6y","geo_precision":"zip"},"type":"Feature","geometry":{"type":"Point","coordinates":[-43.1205557533333,-22.63489622]}},{"properties":{"city":"RIO BONITO","sales":5249.77,"geo_score":1.0,"country":"Brazil","id":"a684ef8dcwcs","geo_precision":"zip"},"type":"Feature","geometry":{"type":"Point","coordinates":[-42.6191584285714,-22.7438959314286]}},{"properties":{"city":"LUIS EDUARDO MAGALHAES","sales":5122.6,"geo_score":0.871,"country":"Brazil","id":"a684efdcyumc","geo_precision":"zip"},"type":"Feature","geometry":{"type":"Point","coordinates":[-45.6753874904891,-19.8419004035326]}},{"properties":{"city":"CATANDUVA","sales":5059.37,"geo_score":1.0,"country":"Brazil","id":"a684ef2pyyd3","geo_precision":"zip"},"type":"Feature","geometry":{"type":"Point","coordinates":[-48.97277778,-21.13777778]}},{"properties":{"city":"JACUNDA","sales":4899.78,"geo_score":1.0,"country":"Brazil","id":"a684efcl8ssm","geo_precision":"zip"},"type":"Feature","geometry":{"type":"Point","coordinates":[-49.2228388375,-4.56883223125]}},{"properties":{"city":"GOIANESIA DO PARA","sales":4434.97,"geo_score":0.876,"country":"Brazil","id":"a684ef6c74bu","geo_precision":"zip"},"type":"Feature","geometry":{"type":"Point","coordinates":[-40.2727895892857,-5.90847566396104]}},{"properties":{"city":"PEDRA PRETA","sales":4384.3,"geo_score":0.914,"country":"Brazil","id":"a684efbibxv9","geo_precision":"zip"},"type":"Feature","geometry":{"type":"Point","coordinates":[-41.3805433308271,-4.42512158646617]}},{"properties":{"city":"ALTO HORIZONTE","sales":4261.14,"geo_score":0.956,"country":"Brazil","id":"a684ef7ybr77","geo_precision":"zip"},"type":"Feature","geometry":{"type":"Point","coordinates":[-38.4833333,-4.1]}},{"properties":{"city":"LIMEIRA","sales":4217.91,"geo_score":1.0,"country":"Brazil","id":"a684efcb5r0d","geo_precision":"zip"},"type":"Feature","geometry":{"type":"Point","coordinates":[-47.40166667,-22.56472222]}},{"properties":{"city":"TIMBAUBA","sales":4216.09,"geo_score":1.0,"country":"Brazil","id":"a684ef9kay0n","geo_precision":"zip"},"type":"Feature","geometry":{"type":"Point","coordinates":[-35.3562498046875,-7.5319403125]}},{"properties":{"city":"GURUPI","sales":4155.9,"geo_score":1.0,"country":"Brazil","id":"a684ef73ngrb","geo_precision":"zip"},"type":"Feature","geometry":{"type":"Point","coordinates":[-49.06861111,-11.72916667]}},{"properties":{"city":"MOGI GUACU","sales":4153.19,"geo_score":0.873,"country":"Brazil","id":"a684ef4l4yo6","geo_precision":"zip"},"type":"Feature","geometry":{"type":"Point","coordinates":[-38.65305556,-3.736111111]}},{"properties":{"city":"POUSO ALEGRE","sales":4124.5,"geo_score":1.0,"country":"Brazil","id":"a684ef31fy45","geo_precision":"zip"},"type":"Feature","geometry":{"type":"Point","coordinates":[-45.93638889,-22.23]}},{"properties":{"city":"TUCURUI","sales":3883.56,"geo_score":1.0,"country":"Brazil","id":"a684ef4kv3or","geo_precision":"zip"},"type":"Feature","geometry":{"type":"Point","coordinates":[-49.6725,-3.766111111]}},{"properties":{"city":"TIMON","sales":3679.92,"geo_score":1.0,"country":"Brazil","id":"a684ef6bc8tz","geo_precision":"zip"},"type":"Feature","geometry":{"type":"Point","coordinates":[-42.83666667,-5.094166667]}},{"properties":{"city":"GUARACI","sales":3634.45,"geo_score":0.875,"country":"Brazil","id":"a684efdmg1y2","geo_precision":"zip"},"type":"Feature","geometry":{"type":"Point","coordinates":[-46.74055556,-23.36416667]}},{"properties":{"city":"BEBEDOURO","sales":3517.79,"geo_score":1.0,"country":"Brazil","id":"a684ef9cov7r","geo_precision":"zip"},"type":"Feature","geometry":{"type":"Point","coordinates":[-48.5379872901786,-20.9454608303571]}},{"properties":{"city":"PAULISTA","sales":3516.64,"geo_score":1.0,"country":"Brazil","id":"a684efdid84i","geo_precision":"zip"},"type":"Feature","geometry":{"type":"Point","coordinates":[-34.87305556,-7.940833333]}},{"properties":{"city":"SAO SIMAO","sales":3382.58,"geo_score":0.893,"country":"Brazil","id":"a684efg578b9","geo_precision":"zip"},"type":"Feature","geometry":{"type":"Point","coordinates":[-36.9103956541353,-7.61708967669173]}},{"properties":{"city":"NITEROI","sales":3211.64,"geo_score":1.0,"country":"Brazil","id":"a684efc4znwc","geo_precision":"zip"},"type":"Feature","geometry":{"type":"Point","coordinates":[-43.10361111,-22.88333333]}},{"properties":{"city":"VESPASIANO","sales":3193.48,"geo_score":1.0,"country":"Brazil","id":"a684ef6z6ypt","geo_precision":"zip"},"type":"Feature","geometry":{"type":"Point","coordinates":[-43.92333333,-19.69194444]}},{"properties":{"city":"OURINHOS","sales":3095.84,"geo_score":1.0,"country":"Brazil","id":"a684ef65hwkf","geo_precision":"zip"},"type":"Feature","geometry":{"type":"Point","coordinates":[-49.87055556,-22.97888889]}},{"properties":{"city":"PENAPOLIS","sales":3047.45,"geo_score":1.0,"country":"Brazil","id":"a684ef2zanjy","geo_precision":"zip"},"type":"Feature","geometry":{"type":"Point","coordinates":[-50.0775,-21.41972222]}},{"properties":{"city":"FATIMA DO SUL","sales":2835.09,"geo_score":0.896,"country":"Brazil","id":"a684ef4bdcfj","geo_precision":"zip"},"type":"Feature","geometry":{"type":"Point","coordinates":[-40.2727895892857,-5.90847566396104]}},{"properties":{"city":"TARUMA","sales":2713.02,"geo_score":1.0,"country":"Brazil","id":"a684ef6kozvg","geo_precision":"zip"},"type":"Feature","geometry":{"type":"Point","coordinates":[-50.57722222,-22.74666667]}},{"properties":{"city":"TIJUCAS","sales":2707.44,"geo_score":1.0,"country":"Brazil","id":"a684efhyuvxl","geo_precision":"zip"},"type":"Feature","geometry":{"type":"Point","coordinates":[-48.63361111,-27.24138889]}},{"properties":{"city":"APUCARANA","sales":2625.82,"geo_score":1.0,"country":"Brazil","id":"a684ef2dx39r","geo_precision":"zip"},"type":"Feature","geometry":{"type":"Point","coordinates":[-51.46083333,-23.55083333]}},{"properties":{"city":"COXIM","sales":2549.0,"geo_score":1.0,"country":"Brazil","id":"a684ef4zzt7h","geo_precision":"zip"},"type":"Feature","geometry":{"type":"Point","coordinates":[-54.76,-18.50666667]}},{"properties":{"city":"PALHOCA","sales":2359.77,"geo_score":1.0,"country":"Brazil","id":"a684eff8stz4","geo_precision":"zip"},"type":"Feature","geometry":{"type":"Point","coordinates":[-48.66777778,-27.64527778]}},{"properties":{"city":"PORTO REAL","sales":2283.66,"geo_score":0.889,"country":"Brazil","id":"a684ef43kmcw","geo_precision":"zip"},"type":"Feature","geometry":{"type":"Point","coordinates":[-44.6612326004119,-23.171033369722]}},{"properties":{"city":"DIVINOPOLIS","sales":2245.92,"geo_score":1.0,"country":"Brazil","id":"a684effzsv24","geo_precision":"zip"},"type":"Feature","geometry":{"type":"Point","coordinates":[-44.88388889,-20.13888889]}},{"properties":{"city":"NOVA MUTUM","sales":2183.72,"geo_score":0.937,"country":"Brazil","id":"a684efgqzllm","geo_precision":"zip"},"type":"Feature","geometry":{"type":"Point","coordinates":[-41.4483520243902,-19.9267710623306]}},{"properties":{"city":"V. B. SANTISSIMA TRINDADE","sales":2112.57,"geo_score":0.914,"country":"Brazil","id":"a684ef6xa9g8","geo_precision":"zip"},"type":"Feature","geometry":{"type":"Point","coordinates":[-49.48888889,-16.64944444]}},{"properties":{"city":"FORMOSA","sales":2081.75,"geo_score":1.0,"country":"Brazil","id":"a684ef6rmd7f","geo_precision":"zip"},"type":"Feature","geometry":{"type":"Point","coordinates":[-47.33444444,-15.53722222]}},{"properties":{"city":"PORTO FERREIRA","sales":2062.25,"geo_score":1.0,"country":"Brazil","id":"a684ef8hr875","geo_precision":"zip"},"type":"Feature","geometry":{"type":"Point","coordinates":[-47.47916667,-21.85388889]}},{"properties":{"city":"VITORIA DE SANTO ANTAO","sales":2038.65,"geo_score":0.91,"country":"Brazil","id":"a684ef79h416","geo_precision":"zip"},"type":"Feature","geometry":{"type":"Point","coordinates":[-46.53833333,-23.66388889]}},{"properties":{"city":"SANTA FE DO SUL","sales":2030.32,"geo_score":0.893,"country":"Brazil","id":"a684efcpi7e7","geo_precision":"zip"},"type":"Feature","geometry":{"type":"Point","coordinates":[-40.2727895892857,-5.90847566396104]}},{"properties":{"city":"ASSIS","sales":2029.37,"geo_score":1.0,"country":"Brazil","id":"a684ef4hfd31","geo_precision":"zip"},"type":"Feature","geometry":{"type":"Point","coordinates":[-50.41222222,-22.66166667]}},{"properties":{"city":"JATAI","sales":1858.54,"geo_score":1.0,"country":"Brazil","id":"a684efh8ssiy","geo_precision":"zip"},"type":"Feature","geometry":{"type":"Point","coordinates":[-51.71444444,-17.88138889]}},{"properties":{"city":"TERRA RICA","sales":1858.26,"geo_score":1.0,"country":"Brazil","id":"a684efa176kg","geo_precision":"zip"},"type":"Feature","geometry":{"type":"Point","coordinates":[-52.6845733409091,-22.7327198920454]}},{"properties":{"city":"ANGELICA","sales":1849.59,"geo_score":1.0,"country":"Brazil","id":"a684efgtviip","geo_precision":"zip"},"type":"Feature","geometry":{"type":"Point","coordinates":[-53.8666837958333,-22.0277996166667]}},{"properties":{"city":"ITAGUAI","sales":1794.85,"geo_score":1.0,"country":"Brazil","id":"a684ef2kymcm","geo_precision":"zip"},"type":"Feature","geometry":{"type":"Point","coordinates":[-43.77527778,-22.85222222]}},{"properties":{"city":"SANTANA DO DESERTO","sales":1687.99,"geo_score":0.92,"country":"Brazil","id":"a684ef3tm3d6","geo_precision":"zip"},"type":"Feature","geometry":{"type":"Point","coordinates":[-46.53833333,-23.66388889]}},{"properties":{"city":"ITAUNA","sales":1681.78,"geo_score":1.0,"country":"Brazil","id":"a684ef1z0p5j","geo_precision":"zip"},"type":"Feature","geometry":{"type":"Point","coordinates":[-44.57638889,-20.07527778]}},{"properties":{"city":"SANTA ROSA DE VITERBO","sales":1534.23,"geo_score":0.929,"country":"Brazil","id":"a684efdv1rtz","geo_precision":"zip"},"type":"Feature","geometry":{"type":"Point","coordinates":[-54.4802725487805,-27.8256571178862]}},{"properties":{"city":"CAMPO BOM","sales":1522.55,"geo_score":1.0,"country":"Brazil","id":"a684ef7qxeju","geo_precision":"zip"},"type":"Feature","geometry":{"type":"Point","coordinates":[-51.0505436129032,-29.6671643225806]}},{"properties":{"city":"MONTE AZUL PAULISTA","sales":1508.97,"geo_score":0.924,"country":"Brazil","id":"a684ef818gi2","geo_precision":"zip"},"type":"Feature","geometry":{"type":"Point","coordinates":[-34.87305556,-7.940833333]}},{"properties":{"city":"ARARAQUARA","sales":1457.36,"geo_score":1.0,"country":"Brazil","id":"a684efdmn081","geo_precision":"zip"},"type":"Feature","geometry":{"type":"Point","coordinates":[-48.2011118365019,-21.8276284030418]}},{"properties":{"city":"MATAO","sales":1431.66,"geo_score":1.0,"country":"Brazil","id":"a684eff2bp2c","geo_precision":"zip"},"type":"Feature","geometry":{"type":"Point","coordinates":[-48.36583333,-21.60333333]}},{"properties":{"city":"NOVA ANDRADINA","sales":1407.59,"geo_score":0.956,"country":"Brazil","id":"a684efa4kcf1","geo_precision":"zip"},"type":"Feature","geometry":{"type":"Point","coordinates":[-51.3156656480687,-20.8654510472103]}},{"properties":{"city":"EMBU","sales":1380.37,"geo_score":1.0,"country":"Brazil","id":"a684ef8rapt7","geo_precision":"zip"},"type":"Feature","geometry":{"type":"Point","coordinates":[-46.85222222,-23.64888889]}},{"properties":{"city":"PIRACICABA","sales":1353.36,"geo_score":1.0,"country":"Brazil","id":"a684ef9wg44b","geo_precision":"zip"},"type":"Feature","geometry":{"type":"Point","coordinates":[-47.64916667,-22.72527778]}},{"properties":{"city":"MARACAI","sales":1325.18,"geo_score":0.959,"country":"Brazil","id":"a684ef4xa2kc","geo_precision":"zip"},"type":"Feature","geometry":{"type":"Point","coordinates":[-42.81861111,-22.91944444]}},{"properties":{"city":"GENERAL SALGADO","sales":1295.17,"geo_score":0.929,"country":"Brazil","id":"a684ef6bw412","geo_precision":"zip"},"type":"Feature","geometry":{"type":"Point","coordinates":[-37.4678253818182,-11.0744799454545]}},{"properties":{"city":"PORTO NACIONAL","sales":1240.38,"geo_score":1.0,"country":"Brazil","id":"a684ef4v34vw","geo_precision":"zip"},"type":"Feature","geometry":{"type":"Point","coordinates":[-48.4744310359355,-10.5282556245353]}},{"properties":{"city":"RIBEIRAO PIRES","sales":1141.3,"geo_score":0.967,"country":"Brazil","id":"a684ef9g3i4b","geo_precision":"zip"},"type":"Feature","geometry":{"type":"Point","coordinates":[-47.81027778,-21.1775]}},{"properties":{"city":"IGARAPAVA","sales":1127.37,"geo_score":1.0,"country":"Brazil","id":"a684ef5daucp","geo_precision":"zip"},"type":"Feature","geometry":{"type":"Point","coordinates":[-47.74694444,-20.03833333]}},{"properties":{"city":"LARANJAL PAULISTA","sales":1100.31,"geo_score":0.929,"country":"Brazil","id":"a684efe5bb4o","geo_precision":"zip"},"type":"Feature","geometry":{"type":"Point","coordinates":[-34.87305556,-7.940833333]}},{"properties":{"city":"TANGUA","sales":1086.26,"geo_score":1.0,"country":"Brazil","id":"a684efgj9uhe","geo_precision":"zip"},"type":"Feature","geometry":{"type":"Point","coordinates":[-42.71416667,-22.73027778]}},{"properties":{"city":"JUNDIAI","sales":1083.15,"geo_score":1.0,"country":"Brazil","id":"a684efdsr8vo","geo_precision":"zip"},"type":"Feature","geometry":{"type":"Point","coordinates":[-46.88416667,-23.18638889]}},{"properties":{"city":"SALTO GRANDE","sales":1041.12,"geo_score":0.922,"country":"Brazil","id":"a684efbons1u","geo_precision":"zip"},"type":"Feature","geometry":{"type":"Point","coordinates":[-47.28694444,-23.20083333]}},{"properties":{"city":"SANTA CRUZ DA CONCEICAO","sales":1031.13,"geo_score":0.936,"country":"Brazil","id":"a684efeelg0s","geo_precision":"zip"},"type":"Feature","geometry":{"type":"Point","coordinates":[-52.42583333,-29.7175]}},{"properties":{"city":"VITORIA DA CONQ","sales":1023.81,"geo_score":0.934,"country":"Brazil","id":"a684ef73cxqd","geo_precision":"zip"},"type":"Feature","geometry":{"type":"Point","coordinates":[-40.33777778,-20.31944444]}},{"properties":{"city":"BOTUCATU","sales":952.21,"geo_score":1.0,"country":"Brazil","id":"a684efhfsf08","geo_precision":"zip"},"type":"Feature","geometry":{"type":"Point","coordinates":[-48.445,-22.88583333]}},{"properties":{"city":"TRES LAGOAS","sales":871.01,"geo_score":1.0,"country":"Brazil","id":"a684ef1v745t","geo_precision":"zip"},"type":"Feature","geometry":{"type":"Point","coordinates":[-51.67833333,-20.75111111]}},{"properties":{"city":"SAO JOAQUIM DA BARRA","sales":832.08,"geo_score":0.882,"country":"Brazil","id":"a684ef3d1zwv","geo_precision":"zip"},"type":"Feature","geometry":{"type":"Point","coordinates":[-49.06055556,-22.31472222]}},{"properties":{"city":"SAO JOAO DA BARRA","sales":770.61,"geo_score":0.888,"country":"Brazil","id":"a684ef9ra0bc","geo_precision":"zip"},"type":"Feature","geometry":{"type":"Point","coordinates":[-49.06055556,-22.31472222]}},{"properties":{"city":"ITUPEVA","sales":755.14,"geo_score":0.959,"country":"Brazil","id":"a684efhcscje","geo_precision":"zip"},"type":"Feature","geometry":{"type":"Point","coordinates":[-46.93416667,-23.54888889]}},{"properties":{"city":"CASA BRANCA","sales":732.58,"geo_score":0.871,"country":"Brazil","id":"a684ef7br45l","geo_precision":"zip"},"type":"Feature","geometry":{"type":"Point","coordinates":[-50.2413222953216,-15.8027742368421]}},{"properties":{"city":"AURIFLAMA","sales":587.18,"geo_score":1.0,"country":"Brazil","id":"a684efd2ks48","geo_precision":"zip"},"type":"Feature","geometry":{"type":"Point","coordinates":[-50.593681016129,-20.6216229516129]}},{"properties":{"city":"TATUI","sales":564.68,"geo_score":1.0,"country":"Brazil","id":"a684efg41c12","geo_precision":"zip"},"type":"Feature","geometry":{"type":"Point","coordinates":[-47.85694444,-23.35555556]}}],"is_temporal":false,"author":{"url":"","metadata":"","contact_name":"","contact_address":"","source":"","contact_phone":""},"source":"","pagination":{"sort":null,"start":0,"total":216,"limit":1000000},"state":"complete","tags":"","published":"2014-08-13T10:11:34-04:00","id":108547}