{"type":"FeatureCollection","data_type":"Dataset","url_type":null,"permissions":[{"permissions":{"download":true,"view":true},"group_id":"everyone"}],"classification":null,"title":"Boulder and Colorado Crime Calls","count":51,"stream_id":108594,"contributor":{"url":"http://geocommons.com/users/25343","name":"mulfordc"},"data_attributes":null,"calculation_params":null,"icon_link":null,"link":"http://geocommons.com/overlays/108594.json","extent":[0.0,0.0,0.0,0.0],"geometry_types":null,"unique_name":null,"name":"Boulder and Colorado Crime Calls","feature_count":51,"description":"","next_feature":null,"is_raster":false,"short_classification":"Y","stats":{},"features":[{"properties":{"column_4":"*Call type*","city":"*Case no*.[1]","geo_score":0.0,"id":"a64u1xre7mo1","geo_precision":"unmatched","column_2":"*Date/time*","state":"Police[2]","column_3":"*Location*"},"type":"Feature","geometry":null},{"properties":{"column_4":"Traffic stop","city":"10 05977","geo_score":0.0,"id":"a64u1y1iniiu","geo_precision":"unmatched","column_2":"5/13/2010 6:33:17","state":"File a police report\n   \n   - File a report online\n   - Report a financial crime","column_3":"COTTONWOOD GROVE"},"type":"Feature","geometry":null},{"properties":{"column_4":"Theft","city":"10 05978","geo_score":0.0,"id":"a64u1xs8oy57","geo_precision":"unmatched","column_2":"5/13/2010 8:00:47","state":"Request a copy of a report","column_3":"1400 block of 18TH ST"},"type":"Feature","geometry":null},{"properties":{"column_4":"Theft","city":"10 05979","geo_score":0.0,"id":"a64u1y3s1sow","geo_precision":"unmatched","column_2":"5/13/2010 8:42:28","state":"File a complaint or commendation","column_3":"1900 block of WALNUT ST"},"type":"Feature","geometry":null},{"properties":{"column_4":"Welfare check","city":"10 05980","geo_score":0.0,"id":"a64u1xv8h6ld","geo_precision":"unmatched","column_2":"5/13/2010 7:31:23","state":"Apply for a job\n   \n   - Benefits\n   - Brochures\n   - Current openings\n   - Internships\n   - Job Interest Card","column_3":"4800 block of THUNDERBIRD DR"},"type":"Feature","geometry":null},{"properties":{"column_4":"Found property","city":"10 05981","geo_score":0.0,"id":"a64u1y1anmqk","geo_precision":"unmatched","column_2":"5/13/2010 9:16:09","state":"Access press and public info\n   \n   - Annual reports\n   - Badge\n   - Blotters\n   - Call logs\n   - Crime statistics\n   - History\n   - Memorial\n   - PIO\n   - Press releases\n      - 2011 Press Releases\n      - 2010 Press Releases\n   - Spotlight\n   - Suspect gallery\n   - Tweets\n   - Video/audio\n   - Volunteer Services","column_3":"1805 33RD"},"type":"Feature","geometry":null},{"properties":{"column_4":"Theft","city":"10 05982","geo_score":0.0,"id":"a64u1xx2c7ta","geo_precision":"unmatched","column_2":"5/13/2010 9:43:26","state":"See sex offender registry","column_3":"1600 block of 30TH ST"},"type":"Feature","geometry":null},{"properties":{"column_4":"Shoplifter","city":"10 05983","geo_score":0.0,"id":"a64u1xve4dgl","geo_precision":"unmatched","column_2":"5/13/2010 10:01:42","state":"View crime maps","column_3":"2500 block of ARAPAHOE AV"},"type":"Feature","geometry":null},{"properties":{"column_4":"Threats","city":"10 05984","geo_score":0.0,"id":"a64u1xt6h6pv","geo_precision":"unmatched","column_2":"5/13/2010 10:08:36","state":"Claim property","column_3":"2900 block of SHADOW CREEK DR"},"type":"Feature","geometry":null},{"properties":{"column_4":"Pedestrian contact","city":"10 05985","geo_score":0.0,"id":"a64u1y19y40u","geo_precision":"unmatched","column_2":"5/13/2010 11:41:55","state":"Get fingerprinted","column_3":"13/ARAP"},"type":"Feature","geometry":null},{"properties":{"column_4":"Property damage accident","city":"10 05986","geo_score":0.0,"id":"a64u1xw0km8e","geo_precision":"unmatched","column_2":"5/13/2010 12:47:59","state":"Ask to ride along with an officer","column_3":"23RD ST&amp;CANYON BLVD"},"type":"Feature","geometry":null},{"properties":{"column_4":"Theft","city":"10 05987","geo_score":0.0,"id":"a64u1y6njd37","geo_precision":"unmatched","column_2":"5/13/2010 12:07:54","state":"Staff an event","column_3":"6400 block of ODELL PL"},"type":"Feature","geometry":null},{"properties":{"column_4":"Traffic stop","city":"10 05988","geo_score":0.0,"id":"a64u1xufgbep","geo_precision":"unmatched","column_2":"5/13/2010 12:48:25","state":"Reach victim advocates","column_3":"18/ARAP"},"type":"Feature","geometry":null},{"properties":{"column_4":"Lobby walk-in","city":"10 05989","geo_score":0.0,"id":"a64u1xtqvdtf","geo_precision":"unmatched","column_2":"5/13/2010 12:44:44","state":"Look up laws and municipal codes","column_3":"13TH ST&amp;PEARL ST"},"type":"Feature","geometry":null},{"properties":{"column_4":"Theft","city":"10 05990","geo_score":0.0,"id":"a64u1xr76enf","geo_precision":"unmatched","column_2":"5/13/2010 13:39:13","state":"Help prevent crime, stay safe","column_3":"2000 block of CANYON BLVD"},"type":"Feature","geometry":null},{"properties":{"column_4":"Traffic scofflaw","city":"10 05991","geo_score":0.0,"id":"a64u1y5gicau","geo_precision":"unmatched","column_2":"5/13/2010 13:23:41","state":"Find animal control info","column_3":"900 block of SPRUCE"},"type":"Feature","geometry":null},{"properties":{"column_4":"Theft","city":"10 05992","geo_score":0.0,"id":"a64u1xylrj4n","geo_precision":"unmatched","column_2":"5/13/2010 13:40:49","state":"--","column_3":"3400 block of TABLE MESA DR"},"type":"Feature","geometry":null},{"properties":{"column_4":"Drunk person","city":"10 05993","geo_score":0.0,"id":"a64u1xsqfx2a","geo_precision":"unmatched","column_2":"5/13/2010 13:09:46","state":"--","column_3":"900 block of 28TH ST"},"type":"Feature","geometry":null},{"properties":{"column_4":"Traffic stop","city":"10 05994","geo_score":0.0,"id":"a64u1y5l31a6","geo_precision":"unmatched","column_2":"5/13/2010 14:01:16","state":"--","column_3":"29TH/BLINE"},"type":"Feature","geometry":null},{"properties":{"column_4":"Narcotics violation","city":"10 05995","geo_score":0.0,"id":"a64u1xrayi78","geo_precision":"unmatched","column_2":"5/13/2010 14:47:01","state":"--","column_3":"1500 block of GREENBRIAR BLVD"},"type":"Feature","geometry":null},{"properties":{"column_4":"Theft","city":"10 05996","geo_score":0.0,"id":"a64u1xzs9v41","geo_precision":"unmatched","column_2":"5/13/2010 15:31:11","state":"--","column_3":"2100 block of 13TH ST"},"type":"Feature","geometry":null},{"properties":{"column_4":"Criminal mischief","city":"10 05997","geo_score":0.0,"id":"a64u1xsk4jy8","geo_precision":"unmatched","column_2":"5/13/2010 16:05:05","state":"--","column_3":"1000 block of ARAPAHOE AV"},"type":"Feature","geometry":null},{"properties":{"column_4":"Trespassing","city":"10 05998","geo_score":0.0,"id":"a64u1y5t4ybl","geo_precision":"unmatched","column_2":"5/13/2010 15:23:40","state":"--","column_3":"2500 block of ARAPAHOE AV"},"type":"Feature","geometry":null},{"properties":{"column_4":"Theft","city":"10 05999","geo_score":0.0,"id":"a64u1xrmebt5","geo_precision":"unmatched","column_2":"5/13/2010 15:33:31","state":"--","column_3":"1000 block of ARAPAHOE AV"},"type":"Feature","geometry":null},{"properties":{"column_4":"Property damage accident","city":"10 06000","geo_score":0.0,"id":"a64u1xw0nc34","geo_precision":"unmatched","column_2":"5/13/2010 17:26:31","state":"--","column_3":"S BROADWAY&amp;HANOVER AV"},"type":"Feature","geometry":null},{"properties":{"column_4":"Fraud","city":"10 06001","geo_score":0.0,"id":"a64u1y4ehi3d","geo_precision":"unmatched","column_2":"5/13/2010 17:57:54","state":"--","column_3":"4700 block of VALMONT RD"},"type":"Feature","geometry":null},{"properties":{"column_4":"Welfare check","city":"10 06002","geo_score":0.0,"id":"a64u1y2ox4y0","geo_precision":"unmatched","column_2":"5/13/2010 18:23:44","state":"--","column_3":"28TH ST&amp;BASELINE RD"},"type":"Feature","geometry":null},{"properties":{"column_4":"Trespassing","city":"10 06003","geo_score":0.0,"id":"a64u1y1ssl3t","geo_precision":"unmatched","column_2":"5/13/2010 19:39:04","state":"--","column_3":"28TH ST&amp;BASELINE RD"},"type":"Feature","geometry":null},{"properties":{"column_4":"Mental subject","city":"10 06004","geo_score":0.0,"id":"a64u1xztk0tr","geo_precision":"unmatched","column_2":"5/13/2010 19:38:33","state":"--","column_3":"600 block of MANHATTAN PL"},"type":"Feature","geometry":null},{"properties":{"column_4":"Hit and run accident","city":"10 06005","geo_score":0.0,"id":"a64u1xwddd7v","geo_precision":"unmatched","column_2":"5/13/2010 20:11:06","state":"--","column_3":"27TH WAY&amp;BASELINE RD"},"type":"Feature","geometry":null},{"properties":{"column_4":"Threats","city":"10 06006","geo_score":0.0,"id":"a64u1xvms1qk","geo_precision":"unmatched","column_2":"5/13/2010 20:02:41","state":"--","column_3":"1300 block of 30TH ST"},"type":"Feature","geometry":null},{"properties":{"column_4":"Drunk person","city":"10 06007","geo_score":0.0,"id":"a64u1y5z6bkd","geo_precision":"unmatched","column_2":"5/13/2010 20:20:44","state":"--","column_3":"29TH ST&amp;BASELINE RD"},"type":"Feature","geometry":null},{"properties":{"column_4":"Disturbance","city":"10 06008","geo_score":0.0,"id":"a64u1xwf8kk0","geo_precision":"unmatched","column_2":"5/13/2010 20:38:42","state":"--","column_3":"1900 block of 28TH ST"},"type":"Feature","geometry":null},{"properties":{"column_4":"Drunk person","city":"10 06009","geo_score":0.0,"id":"a64u1xymobex","geo_precision":"unmatched","column_2":"5/13/2010 20:47:49","state":"--","column_3":"2900 block of PEARL ST"},"type":"Feature","geometry":null},{"properties":{"column_4":"Emergency medical call","city":"10 06010","geo_score":0.0,"id":"a64u1xsqgd15","geo_precision":"unmatched","column_2":"5/13/2010 19:51:23","state":"--","column_3":"33 SOUTH BOULDER CIR"},"type":"Feature","geometry":null},{"properties":{"column_4":"Disturbance","city":"10 06011","geo_score":0.0,"id":"a64u1xzf6mqa","geo_precision":"unmatched","column_2":"5/13/2010 21:55:29","state":"--","column_3":"2900 block of IRIS AV"},"type":"Feature","geometry":null},{"properties":{"column_4":"Burglary","city":"10 06012","geo_score":0.0,"id":"a64u1y5isux9","geo_precision":"unmatched","column_2":"5/13/2010 21:22:23","state":"--","column_3":"2800 block of 19TH ST"},"type":"Feature","geometry":null},{"properties":{"column_4":"Property damage accident","city":"10 06013","geo_score":0.0,"id":"a64u1y5nf2jl","geo_precision":"unmatched","column_2":"5/13/2010 23:32:27","state":"--","column_3":"CANYON BLVD&amp;FOLSOM ST"},"type":"Feature","geometry":null},{"properties":{"column_4":"Assault","city":"10 06014","geo_score":0.0,"id":"a64u1y78sptt","geo_precision":"unmatched","column_2":"5/13/2010 23:37:33","state":"--","column_3":"4500 block of BROADWAY"},"type":"Feature","geometry":null},{"properties":{"column_4":"Criminal mischief","city":"10 06015","geo_score":0.0,"id":"a64u1y3sn882","geo_precision":"unmatched","column_2":"5/14/2010 0:09:07","state":"--","column_3":"2900 block of COLORADO AV"},"type":"Feature","geometry":null},{"properties":{"column_4":"Hit and run accident","city":"10 06016","geo_score":0.0,"id":"a64u1xv43z1a","geo_precision":"unmatched","column_2":"5/14/2010 0:40:16","state":"--","column_3":"1000 block of PEARL ST"},"type":"Feature","geometry":null},{"properties":{"column_4":"Driving under the influence","city":"10 06017","geo_score":0.0,"id":"a64u1xspdx1h","geo_precision":"unmatched","column_2":"5/14/2010 0:36:48","state":"--","column_3":"13TH ST&amp;SPRUCE ST"},"type":"Feature","geometry":null},{"properties":{"column_4":"Drunk person","city":"10 06018","geo_score":0.0,"id":"a64u1xy5mwbr","geo_precision":"unmatched","column_2":"5/14/2010 1:16:26","state":"--","column_3":"15/PEARL"},"type":"Feature","geometry":null},{"properties":{"column_4":"Driving under the influence","city":"10 06019","geo_score":0.0,"id":"a64u1xt5yiu8","geo_precision":"unmatched","column_2":"5/14/2010 1:24:38","state":"--","column_3":"ARAPAHOE AV&amp;BROADWAY"},"type":"Feature","geometry":null},{"properties":{"column_4":"Domestic disturbance","city":"10 06020","geo_score":0.0,"id":"a64u1xx9pp0s","geo_precision":"unmatched","column_2":"5/14/2010 2:27:16","state":"--","column_3":"17TH ST&amp;MARINE ST"},"type":"Feature","geometry":null},{"properties":{"column_4":"Drunk person","city":"10 06021","geo_score":0.0,"id":"a64u1xqsubcn","geo_precision":"unmatched","column_2":"5/14/2010 3:11:47","state":"--","column_3":"2900 block of BASELINE RD"},"type":"Feature","geometry":null},{"properties":{"column_4":"Disturbance","city":"10 06022","geo_score":0.0,"id":"a64u1y5c239p","geo_precision":"unmatched","column_2":"5/14/2010 3:32:38","state":"--","column_3":"900 block of 14TH ST"},"type":"Feature","geometry":null},{"properties":{"column_4":"Property damage accident","city":"10 06023","geo_score":0.0,"id":"a64u1xxswevj","geo_precision":"unmatched","column_2":"5/14/2010 6:01:05","state":"--","column_3":"30TH ST&amp;E AURORA AV"},"type":"Feature","geometry":null},{"properties":{"column_4":null,"city":null,"id":"a64u1xw0jrtm","column_2":null,"state":"--","column_3":null},"type":"Feature","geometry":null},{"properties":{"column_4":null,"city":"[1] http://www.bouldercolorado.gov/index.php?option=com_content&amp;view=article&amp;id=13135:call-G5-G4-may-13-2010&amp;catid=703:police-call-log&amp;Itemid=4306","geo_score":0.0,"id":"a64u1xxjykiz","geo_precision":"unmatched","column_2":null,"state":null,"column_3":null},"type":"Feature","geometry":null},{"properties":{"column_4":null,"city":"[2] http://www.bouldercolorado.gov/index.php?option=com_content&amp;view=article&amp;id=13135:call-log-may-13-2010&amp;catid=703:police-call-log&amp;Itemid=4306","geo_score":0.0,"id":"a64u1y4shauc","geo_precision":"unmatched","column_2":null,"state":null,"column_3":null},"type":"Feature","geometry":null}],"is_temporal":false,"author":{"url":"","metadata":"","contact_name":"","contact_address":"","source":"","contact_phone":""},"source":"","pagination":{"sort":null,"start":0,"total":51,"limit":1000000},"state":"complete","tags":"","published":"2014-08-13T10:15:15-04:00","id":108594}