{"type":"FeatureCollection","data_type":"Dataset","url_type":null,"permissions":[{"permissions":{"download":true,"view":true},"group_id":"everyone"}],"classification":null,"title":"GeoPlanning","count":48,"stream_id":109278,"contributor":{"url":"http://geocommons.com/users/25473","name":"panzagut"},"data_attributes":null,"calculation_params":null,"icon_link":null,"link":"http://geocommons.com/overlays/109278.json","extent":[-105.289,39.9731,-105.193,40.0737],"geometry_types":null,"unique_name":null,"name":"GeoPlanning","feature_count":48,"description":"Crime in Boulder Colorado","next_feature":null,"is_raster":false,"short_classification":"Y","stats":{},"features":[{"properties":{"city":"Boulder","*location*":"COTTONWOOD GROVE","*call type*":"Traffic stop","geo_score":0.6,"*case no*.[1]":"10 05977","id":"a64ubod67rd0","geo_precision":"street","state":"Colorado","*date/time*":"5/13/2010 6:33:17"},"type":"Feature","geometry":{"type":"Point","coordinates":[-105.192601,40.066676]}},{"properties":{"city":"Boulder","*location*":"1400 block of 18TH ST","*call type*":"Theft","geo_score":0.565,"*case no*.[1]":"10 05978","id":"a64ubog1162l","geo_precision":"range","state":"Colorado","*date/time*":"5/13/2010 8:00:47"},"type":"Feature","geometry":{"type":"Point","coordinates":[-105.271654,40.013605]}},{"properties":{"city":"Boulder","*location*":"1900 block of WALNUT ST","*call type*":"Theft","geo_score":0.668,"*case no*.[1]":"10 05979","id":"a64ubogu52km","geo_precision":"range","state":"Colorado","*date/time*":"5/13/2010 8:42:28"},"type":"Feature","geometry":{"type":"Point","coordinates":[-105.270437,40.018769]}},{"properties":{"city":"Boulder","*location*":"4800 block of THUNDERBIRD DR","*call type*":"Welfare check","geo_score":0.702,"*case no*.[1]":"10 05980","id":"a64uboh6a7t5","geo_precision":"range","state":"Colorado","*date/time*":"5/13/2010 7:31:23"},"type":"Feature","geometry":{"type":"Point","coordinates":[-105.234159,39.995674]}},{"properties":{"city":"Boulder","*location*":"1805 33RD","*call type*":"Found property","geo_score":0.498,"*case no*.[1]":"10 05981","id":"a64ubol9mm7c","geo_precision":"street","state":"Colorado","*date/time*":"5/13/2010 9:16:09"},"type":"Feature","geometry":{"type":"Point","coordinates":[-105.253983,39.989796]}},{"properties":{"city":"Boulder","*location*":"1600 block of 30TH ST","*call type*":"Theft","geo_score":0.468,"*case no*.[1]":"10 05982","id":"a64ubobgz059","geo_precision":"street","state":"Colorado","*date/time*":"5/13/2010 9:43:26"},"type":"Feature","geometry":{"type":"Point","coordinates":[-105.255711,39.99767]}},{"properties":{"city":"Boulder","*location*":"2500 block of ARAPAHOE AV","*call type*":"Shoplifter","geo_score":0.667,"*case no*.[1]":"10 05983","id":"a64ubombzpv8","geo_precision":"range","state":"Colorado","*date/time*":"5/13/2010 10:01:42"},"type":"Feature","geometry":{"type":"Point","coordinates":[-105.262121,40.014557]}},{"properties":{"city":"Boulder","*location*":"2900 block of SHADOW CREEK DR","*call type*":"Threats","geo_score":0.702,"*case no*.[1]":"10 05984","id":"a64ubohi225z","geo_precision":"range","state":"Colorado","*date/time*":"5/13/2010 10:08:36"},"type":"Feature","geometry":{"type":"Point","coordinates":[-105.255096,40.010273]}},{"properties":{"city":"Boulder","*location*":"13/ARAP","*call type*":"Pedestrian contact","geo_score":0.857,"*case no*.[1]":"10 05985","id":"a64ubofca3ep","geo_precision":"city","state":"Colorado","*date/time*":"5/13/2010 11:41:55"},"type":"Feature","geometry":{"type":"Point","coordinates":[-105.250597,39.975263]}},{"properties":{"city":"Boulder","*location*":"23RD ST&amp;CANYON BLVD","*call type*":"Property damage accident","geo_score":0.429,"*case no*.[1]":"10 05986","id":"a64ubolci0oj","geo_precision":"street","state":"Colorado","*date/time*":"5/13/2010 12:47:59"},"type":"Feature","geometry":{"type":"Point","coordinates":[-105.257435,39.976559]}},{"properties":{"city":"Boulder","*location*":"6400 block of ODELL PL","*call type*":"Theft","geo_score":0.659,"*case no*.[1]":"10 05987","id":"a64ubomdhd1l","geo_precision":"range","state":"Colorado","*date/time*":"5/13/2010 12:07:54"},"type":"Feature","geometry":{"type":"Point","coordinates":[-105.20383,40.073693]}},{"properties":{"city":"Boulder","*location*":"18/ARAP","*call type*":"Traffic stop","geo_score":0.857,"*case no*.[1]":"10 05988","id":"a64uboldtm6s","geo_precision":"city","state":"Colorado","*date/time*":"5/13/2010 12:48:25"},"type":"Feature","geometry":{"type":"Point","coordinates":[-105.250597,39.975263]}},{"properties":{"city":"Boulder","*location*":"13TH ST&amp;PEARL ST","*call type*":"Lobby walk-in","geo_score":0.571,"*case no*.[1]":"10 05989","id":"a64ubolbcsgp","geo_precision":"street","state":"Colorado","*date/time*":"5/13/2010 12:44:44"},"type":"Feature","geometry":{"type":"Point","coordinates":[-105.276162,39.999097]}},{"properties":{"city":"Boulder","*location*":"2000 block of CANYON BLVD","*call type*":"Theft","geo_score":0.501,"*case no*.[1]":"10 05990","id":"a64uboid0rks","geo_precision":"street","state":"Colorado","*date/time*":"5/13/2010 13:39:13"},"type":"Feature","geometry":{"type":"Point","coordinates":[-105.257435,39.976559]}},{"properties":{"city":"Boulder","*location*":"900 block of SPRUCE","*call type*":"Traffic scofflaw","geo_score":0.602,"*case no*.[1]":"10 05991","id":"a64ubohmln7z","geo_precision":"range","state":"Colorado","*date/time*":"5/13/2010 13:23:41"},"type":"Feature","geometry":{"type":"Point","coordinates":[-105.284082,40.018122]}},{"properties":{"city":"Boulder","*location*":"3400 block of TABLE MESA DR","*call type*":"Theft","geo_score":0.789,"*case no*.[1]":"10 05992","id":"a64ubogdgszi","geo_precision":"range","state":"Colorado","*date/time*":"5/13/2010 13:40:49"},"type":"Feature","geometry":{"type":"Point","coordinates":[-105.251925,39.984169]}},{"properties":{"city":"Boulder","*location*":"900 block of 28TH ST","*call type*":"Drunk person","geo_score":0.468,"*case no*.[1]":"10 05993","id":"a64ubokqkq21","geo_precision":"street","state":"Colorado","*date/time*":"5/13/2010 13:09:46"},"type":"Feature","geometry":{"type":"Point","coordinates":[-105.258728,39.997558]}},{"properties":{"city":"Boulder","*location*":"29TH/BLINE","*call type*":"Traffic stop","geo_score":0.571,"*case no*.[1]":"10 05994","id":"a64ubohv9zbd","geo_precision":"street","state":"Colorado","*date/time*":"5/13/2010 14:01:16"},"type":"Feature","geometry":{"type":"Point","coordinates":[-105.259113,39.994057]}},{"properties":{"city":"Boulder","*location*":"1500 block of GREENBRIAR BLVD","*call type*":"Narcotics violation","geo_score":0.805,"*case no*.[1]":"10 05995","id":"a64uboasq1nx","geo_precision":"range","state":"Colorado","*date/time*":"5/13/2010 14:47:01"},"type":"Feature","geometry":{"type":"Point","coordinates":[-105.241312,39.973111]}},{"properties":{"city":"Boulder","*location*":"2100 block of 13TH ST","*call type*":"Theft","geo_score":0.565,"*case no*.[1]":"10 05996","id":"a64uboehwbjw","geo_precision":"range","state":"Colorado","*date/time*":"5/13/2010 15:31:11"},"type":"Feature","geometry":{"type":"Point","coordinates":[-105.279006,40.019179]}},{"properties":{"city":"Boulder","*location*":"1000 block of ARAPAHOE AV","*call type*":"Criminal mischief","geo_score":0.667,"*case no*.[1]":"10 05997","id":"a64ubonduxey","geo_precision":"range","state":"Colorado","*date/time*":"5/13/2010 16:05:05"},"type":"Feature","geometry":{"type":"Point","coordinates":[-105.281607,40.013533]}},{"properties":{"city":"Boulder","*location*":"2500 block of ARAPAHOE AV","*call type*":"Trespassing","geo_score":0.667,"*case no*.[1]":"10 05998","id":"a64ubodbrqmi","geo_precision":"range","state":"Colorado","*date/time*":"5/13/2010 15:23:40"},"type":"Feature","geometry":{"type":"Point","coordinates":[-105.262121,40.014557]}},{"properties":{"city":"Boulder","*location*":"1000 block of ARAPAHOE AV","*call type*":"Theft","geo_score":0.667,"*case no*.[1]":"10 05999","id":"a64ubomox1jy","geo_precision":"range","state":"Colorado","*date/time*":"5/13/2010 15:33:31"},"type":"Feature","geometry":{"type":"Point","coordinates":[-105.281607,40.013533]}},{"properties":{"city":"Boulder","*location*":"S BROADWAY&amp;HANOVER AV","*call type*":"Property damage accident","geo_score":0.779,"*case no*.[1]":"10 06000","id":"a64ubo9pnlli","geo_precision":"street","state":"Colorado","*date/time*":"5/13/2010 17:26:31"},"type":"Feature","geometry":{"type":"Point","coordinates":[-105.249775,39.98553]}},{"properties":{"city":"Boulder","*location*":"4700 block of VALMONT RD","*call type*":"Fraud","geo_score":0.677,"*case no*.[1]":"10 06001","id":"a64ubodzh8d8","geo_precision":"range","state":"Colorado","*date/time*":"5/13/2010 17:57:54"},"type":"Feature","geometry":{"type":"Point","coordinates":[-105.243131,40.029224]}},{"properties":{"city":"Boulder","*location*":"28TH ST&amp;BASELINE RD","*call type*":"Welfare check","geo_score":0.714,"*case no*.[1]":"10 06002","id":"a64ubog8mdnc","geo_precision":"street","state":"Colorado","*date/time*":"5/13/2010 18:23:44"},"type":"Feature","geometry":{"type":"Point","coordinates":[-105.259532,39.994682]}},{"properties":{"city":"Boulder","*location*":"28TH ST&amp;BASELINE RD","*call type*":"Trespassing","geo_score":0.714,"*case no*.[1]":"10 06003","id":"a64ubof8utk7","geo_precision":"street","state":"Colorado","*date/time*":"5/13/2010 19:39:04"},"type":"Feature","geometry":{"type":"Point","coordinates":[-105.259532,39.994682]}},{"properties":{"city":"Boulder","*location*":"600 block of MANHATTAN PL","*call type*":"Mental subject","geo_score":0.691,"*case no*.[1]":"10 06004","id":"a64uboiir9y8","geo_precision":"range","state":"Colorado","*date/time*":"5/13/2010 19:38:33"},"type":"Feature","geometry":{"type":"Point","coordinates":[-105.230116,39.998476]}},{"properties":{"city":"Boulder","*location*":"27TH WAY&amp;BASELINE RD","*call type*":"Hit and run accident","geo_score":0.735,"*case no*.[1]":"10 06005","id":"a64ubonfurnm","geo_precision":"street","state":"Colorado","*date/time*":"5/13/2010 20:11:06"},"type":"Feature","geometry":{"type":"Point","coordinates":[-105.259945,39.999047]}},{"properties":{"city":"Boulder","*location*":"1300 block of 30TH ST","*call type*":"Threats","geo_score":0.468,"*case no*.[1]":"10 06006","id":"a64uboloowaj","geo_precision":"street","state":"Colorado","*date/time*":"5/13/2010 20:02:41"},"type":"Feature","geometry":{"type":"Point","coordinates":[-105.255711,39.99767]}},{"properties":{"city":"Boulder","*location*":"29TH ST&amp;BASELINE RD","*call type*":"Drunk person","geo_score":0.714,"*case no*.[1]":"10 06007","id":"a64ubodznr3c","geo_precision":"street","state":"Colorado","*date/time*":"5/13/2010 20:20:44"},"type":"Feature","geometry":{"type":"Point","coordinates":[-105.259113,39.994057]}},{"properties":{"city":"Boulder","*location*":"1900 block of 28TH ST","*call type*":"Disturbance","geo_score":0.468,"*case no*.[1]":"10 06008","id":"a64ubokkkzyd","geo_precision":"street","state":"Colorado","*date/time*":"5/13/2010 20:38:42"},"type":"Feature","geometry":{"type":"Point","coordinates":[-105.258728,39.997558]}},{"properties":{"city":"Boulder","*location*":"2900 block of PEARL ST","*call type*":"Drunk person","geo_score":0.659,"*case no*.[1]":"10 06009","id":"a64ubobmo7xu","geo_precision":"range","state":"Colorado","*date/time*":"5/13/2010 20:47:49"},"type":"Feature","geometry":{"type":"Point","coordinates":[-105.256221,40.022728]}},{"properties":{"city":"Boulder","*location*":"33 SOUTH BOULDER CIR","*call type*":"Emergency medical call","geo_score":0.805,"*case no*.[1]":"10 06010","id":"a64uboktgpgk","geo_precision":"range","state":"Colorado","*date/time*":"5/13/2010 19:51:23"},"type":"Feature","geometry":{"type":"Point","coordinates":[-105.229172,39.98601]}},{"properties":{"city":"Boulder","*location*":"2900 block of IRIS AV","*call type*":"Disturbance","geo_score":0.625,"*case no*.[1]":"10 06011","id":"a64ubo9mkev6","geo_precision":"range","state":"Colorado","*date/time*":"5/13/2010 21:55:29"},"type":"Feature","geometry":{"type":"Point","coordinates":[-105.256312,40.036457]}},{"properties":{"city":"Boulder","*location*":"2800 block of 19TH ST","*call type*":"Burglary","geo_score":0.565,"*case no*.[1]":"10 06012","id":"a64uboddy0tm","geo_precision":"range","state":"Colorado","*date/time*":"5/13/2010 21:22:23"},"type":"Feature","geometry":{"type":"Point","coordinates":[-105.272625,40.026754]}},{"properties":{"city":"Boulder","*location*":"CANYON BLVD&amp;FOLSOM ST","*call type*":"Property damage accident","geo_score":0.476,"*case no*.[1]":"10 06013","id":"a64ubofr7jtm","geo_precision":"street","state":"Colorado","*date/time*":"5/13/2010 23:32:27"},"type":"Feature","geometry":{"type":"Point","coordinates":[-105.257435,39.976559]}},{"properties":{"city":"Boulder","*location*":"4500 block of BROADWAY","*call type*":"Assault","geo_score":0.532,"*case no*.[1]":"10 06014","id":"a64ubojuvfnt","geo_precision":"street","state":"Colorado","*date/time*":"5/13/2010 23:37:33"},"type":"Feature","geometry":{"type":"Point","coordinates":[-105.239267,39.973939]}},{"properties":{"city":"Boulder","*location*":"2900 block of COLORADO AV","*call type*":"Criminal mischief","geo_score":0.667,"*case no*.[1]":"10 06015","id":"a64ubofq1idx","geo_precision":"range","state":"Colorado","*date/time*":"5/14/2010 0:09:07"},"type":"Feature","geometry":{"type":"Point","coordinates":[-105.255858,40.007853]}},{"properties":{"city":"Boulder","*location*":"1000 block of PEARL ST","*call type*":"Hit and run accident","geo_score":0.659,"*case no*.[1]":"10 06016","id":"a64ubolwe4n4","geo_precision":"range","state":"Colorado","*date/time*":"5/14/2010 0:40:16"},"type":"Feature","geometry":{"type":"Point","coordinates":[-105.284563,40.016963]}},{"properties":{"city":"Boulder","*location*":"13TH ST&amp;SPRUCE ST","*call type*":"Driving under the influence","geo_score":0.571,"*case no*.[1]":"10 06017","id":"a64ubopf9j5o","geo_precision":"street","state":"Colorado","*date/time*":"5/14/2010 0:36:48"},"type":"Feature","geometry":{"type":"Point","coordinates":[-105.276162,39.999097]}},{"properties":{"city":"Boulder","*location*":"15/PEARL","*call type*":"Drunk person","geo_score":0.592,"*case no*.[1]":"10 06018","id":"a64uboj94sx5","geo_precision":"street","state":"Colorado","*date/time*":"5/14/2010 1:16:26"},"type":"Feature","geometry":{"type":"Point","coordinates":[-105.289143,40.015958]}},{"properties":{"city":"Boulder","*location*":"ARAPAHOE AV&amp;BROADWAY","*call type*":"Driving under the influence","geo_score":0.771,"*case no*.[1]":"10 06019","id":"a64uboebzemn","geo_precision":"street","state":"Colorado","*date/time*":"5/14/2010 1:24:38"},"type":"Feature","geometry":{"type":"Point","coordinates":[-105.249775,39.98553]}},{"properties":{"city":"Boulder","*location*":"17TH ST&amp;MARINE ST","*call type*":"Domestic disturbance","geo_score":0.571,"*case no*.[1]":"10 06020","id":"a64uboma7q7u","geo_precision":"street","state":"Colorado","*date/time*":"5/14/2010 2:27:16"},"type":"Feature","geometry":{"type":"Point","coordinates":[-105.271255,39.997236]}},{"properties":{"city":"Boulder","*location*":"2900 block of BASELINE RD","*call type*":"Drunk person","geo_score":0.589,"*case no*.[1]":"10 06021","id":"a64ubohub052","geo_precision":"street","state":"Colorado","*date/time*":"5/14/2010 3:11:47"},"type":"Feature","geometry":{"type":"Point","coordinates":[-105.258334,40.000225]}},{"properties":{"city":"Boulder","*location*":"900 block of 14TH ST","*call type*":"Disturbance","geo_score":0.565,"*case no*.[1]":"10 06022","id":"a64ubopsdafv","geo_precision":"range","state":"Colorado","*date/time*":"5/14/2010 3:32:38"},"type":"Feature","geometry":{"type":"Point","coordinates":[-105.274954,40.003718]}},{"properties":{"city":"Boulder","*location*":"30TH ST&amp;E AURORA AV","*call type*":"Property damage accident","geo_score":0.714,"*case no*.[1]":"10 06023","id":"a64ubonaqlkw","geo_precision":"street","state":"Colorado","*date/time*":"5/14/2010 6:01:05"},"type":"Feature","geometry":{"type":"Point","coordinates":[-105.258669,39.993431]}},{"properties":{"city":null,"*location*":null,"*call type*":null,"*case no*.[1]":"[1] http://www.bouldercolorado.gov/index.php?option=com_content&amp;view=article&amp;id=13135:call-log-may-13-2010&amp;catid=703:police-call-log&amp;Itemid=4306","id":"a64ubok1ilny","state":null,"*date/time*":null},"type":"Feature","geometry":null}],"is_temporal":false,"author":{"url":"","metadata":"","contact_name":"","contact_address":"","source":"","contact_phone":""},"source":"","pagination":{"sort":null,"start":0,"total":48,"limit":1000000},"state":"complete","tags":"crime","published":"2014-08-13T11:24:18-04:00","id":109278}