{"type":"FeatureCollection","data_type":"Dataset","url_type":null,"permissions":[{"permissions":{"download":true,"view":true},"group_id":"everyone"}],"classification":null,"title":"LI recycling rates","count":15,"stream_id":109293,"contributor":{"url":"http://geocommons.com/users/20714","name":"hwong"},"data_attributes":null,"calculation_params":null,"icon_link":null,"link":"http://geocommons.com/overlays/109293.json","extent":[0.0,0.0,0.0,0.0],"geometry_types":null,"unique_name":null,"name":"LI recycling rates","feature_count":15,"description":"","next_feature":null,"is_raster":false,"short_classification":"Y","stats":{},"features":[{"properties":{"li recycling rate":"85 percent","geo_score":0.0,"town":"Southhampton, New York","id":"a6j6ocbjbfec","geo_precision":"unmatched"},"type":"Feature","geometry":null},{"properties":{"li recycling rate":"63 percent","geo_score":0.0,"town":"Shelter Island, New York","id":"a6j6ockfphai","geo_precision":"unmatched"},"type":"Feature","geometry":null},{"properties":{"li recycling rate":"55 percent","geo_score":0.0,"town":"Southold, New York","id":"a6j6oc69rnwk","geo_precision":"unmatched"},"type":"Feature","geometry":null},{"properties":{"li recycling rate":"30 percent","geo_score":0.0,"town":"Brookhaven, New York","id":"a6j6ocfxkhp2","geo_precision":"unmatched"},"type":"Feature","geometry":null},{"properties":{"li recycling rate":"29 percent","geo_score":0.0,"town":"Islip, New York","id":"a6j6ocis4khc","geo_precision":"unmatched"},"type":"Feature","geometry":null},{"properties":{"li recycling rate":"27 percent","geo_score":0.0,"town":"Huntington, New York","id":"a6j6ockenwpe","geo_precision":"unmatched"},"type":"Feature","geometry":null},{"properties":{"li recycling rate":"26 percent","geo_score":0.0,"town":"East Hampton, New York","id":"a6j6ocaa1ain","geo_precision":"unmatched"},"type":"Feature","geometry":null},{"properties":{"li recycling rate":"24 percent","geo_score":0.0,"town":"Smithtown, New York","id":"a6j6ocbifcb7","geo_precision":"unmatched"},"type":"Feature","geometry":null},{"properties":{"li recycling rate":"23 percent","geo_score":0.0,"town":"Hempstead, New York","id":"a6j6ocg5hoan","geo_precision":"unmatched"},"type":"Feature","geometry":null},{"properties":{"li recycling rate":"21 percent","geo_score":0.0,"town":"North Hempstead, New York","id":"a6j6ocgxi7tq","geo_precision":"unmatched"},"type":"Feature","geometry":null},{"properties":{"li recycling rate":"18 percent","geo_score":0.0,"town":"Glen Cove, New York","id":"a6j6ocii5f86","geo_precision":"unmatched"},"type":"Feature","geometry":null},{"properties":{"li recycling rate":"15 percent","geo_score":0.0,"town":"Babylon, New York","id":"a6j6oc7zln5r","geo_precision":"unmatched"},"type":"Feature","geometry":null},{"properties":{"li recycling rate":"13 percent","geo_score":0.0,"town":"Long Beach, New York","id":"a6j6ocbuzgbz","geo_precision":"unmatched"},"type":"Feature","geometry":null},{"properties":{"li recycling rate":"12 percent","geo_score":0.0,"town":"Oyster Bay, New York","id":"a6j6och3vlif","geo_precision":"unmatched"},"type":"Feature","geometry":null},{"properties":{"li recycling rate":"10 percent","geo_score":0.0,"town":"Riverhead, New York","id":"a6j6ocar2c84","geo_precision":"unmatched"},"type":"Feature","geometry":null}],"is_temporal":false,"author":{"url":"","metadata":"","contact_name":"","contact_address":"","source":"","contact_phone":""},"source":"","pagination":{"sort":null,"start":0,"total":15,"limit":1000000},"state":"complete","tags":"","published":"2014-08-13T11:25:05-04:00","id":109293}