{"type":"FeatureCollection","data_type":"Dataset","url_type":null,"permissions":[{"permissions":{"download":true,"view":true},"group_id":"everyone"}],"classification":null,"title":"North Carolina Public Libraries ","count":388,"stream_id":109213,"contributor":{"url":"http://geocommons.com/users/7927","name":"ncelearn"},"data_attributes":null,"calculation_params":null,"icon_link":null,"link":"http://geocommons.com/overlays/109213.json","extent":[-84.032,33.9127,-75.6459,36.5167],"geometry_types":null,"unique_name":null,"name":"North Carolina Public Libraries ","feature_count":388,"description":"Map of North Carolina's public libraries.","next_feature":null,"is_raster":false,"short_classification":"Y","stats":{},"features":[{"properties":{"city":"Graham","website":"http://www.alamancelibraries.org/","zip code":"27253-3301","street address":"211 South Main Street","telephone":"(336) 570-6730","id":"a6crn9q8vkme","library system":"Alamance County Public Libraries","library name":"Graham Public Library","state":"NC"},"type":"Feature","geometry":{"type":"Point","coordinates":[-79.400423,36.067663]}},{"properties":{"city":"Burlington","website":"http://www.alamancelibraries.org/","zip code":"27215-5863","street address":"342 South Spring Street","telephone":"(336) 229-3588","id":"a6crn9tdb2fu","library system":"Alamance County Public Libraries","library name":"May Memorial Library","state":"NC"},"type":"Feature","geometry":{"type":"Point","coordinates":[-79.436571,36.092973]}},{"properties":{"city":"Mebane","website":"http://www.alamancelibraries.org/","zip code":"27302-2601","street address":"101 S. First Street","telephone":"(919) 563-6431","id":"a6crn9q9uwqg","library system":"Alamance County Public Libraries","library name":"Mebane Public Library","state":"NC"},"type":"Feature","geometry":{"type":"Point","coordinates":[-79.271356,36.099643]}},{"properties":{"city":"Burlington","website":"http://www.alamancelibraries.org/","zip code":"27217-1637","street address":"849 Sharpe Road","telephone":"(336) 226-7185","id":"a6crna1cru6o","library system":"Alamance County Public Libraries","library name":"North Park Library / Community Center","state":"NC"},"type":"Feature","geometry":{"type":"Point","coordinates":[-79.430995,36.114846]}},{"properties":{"city":"Graham","website":"http://www.alamancelibraries.org/","zip code":"27253-9161","street address":"6343 Snow Camp Rd","telephone":"(336) 376-9705","id":"a6crna3j0yhg","library system":"Alamance County Public Libraries","library name":"South Annex Library","state":"NC"},"type":"Feature","geometry":{"type":"Point","coordinates":[-79.386395,35.920521]}},{"properties":{"city":"Ahoskie","website":"http://www.arlnc.org/","zip code":"27910-3515","street address":"210 East Church Street","telephone":"(252) 332-5500","id":"a6crn9qss6ka","library system":"Albemarle Regional Library System","library name":"Ahoskie Public Library","state":"NC"},"type":"Feature","geometry":{"type":"Point","coordinates":[-76.987796,36.285356]}},{"properties":{"city":"Murfreesboro","website":"http://www.arlnc.org/","zip code":"27855-0186","street address":"213 East Main Street","telephone":"(252) 398-4494","id":"a6crna4i08cr","library system":"Albemarle Regional Library System","library name":"Elizabeth Sewell Parker Memorial Library","state":"NC"},"type":"Feature","geometry":{"type":"Point","coordinates":[-77.225835,36.436924]}},{"properties":{"city":"Gatesville","website":"http://www.arlnc.org/","zip code":"27938-0193","street address":"115 Court Street","telephone":"(252) 357-0110","id":"a6crn9qbo454","library system":"Albemarle Regional Library System","library name":"Gates County Library","state":"NC"},"type":"Feature","geometry":{"type":"Point","coordinates":[-76.753273,36.403372]}},{"properties":{"city":"Winton","website":"http://www.arlnc.org/","zip code":"27986-0068","street address":"303 West Tryon Street","telephone":"(252) 358-7855","id":"a6crna4yc7m1","library system":"Albemarle Regional Library System","library name":"Hertford County Library","state":"NC"},"type":"Feature","geometry":{"type":"Point","coordinates":[-76.932335,36.395834]}},{"properties":{"city":"Windsor","website":"http://www.arlnc.org/","zip code":"27983-1210","street address":"204 East Dundee Street","telephone":"(252) 794-2244","id":"a6crn9sbh9rn","library system":"Albemarle Regional Library System","library name":"Lawrence Memorial Library","state":"NC"},"type":"Feature","geometry":{"type":"Point","coordinates":[-76.945463,35.997287]}},{"properties":{"city":"Jackson","website":"http://www.arlnc.org/","zip code":"27845-0427","street address":"207 West Jefferson Street","telephone":"(252) 534-3571","id":"a6crn9qc000p","library system":"Albemarle Regional Library System","library name":"Northampton County Memorial Library","state":"NC"},"type":"Feature","geometry":{"type":"Point","coordinates":[-77.421645,36.389729]}},{"properties":{"city":"Aulander","website":"http://www.arlnc.org/","zip code":"27805-0000","street address":"302 Broad Street","telephone":"(252) 345-4461","id":"a6crn9ts337u","library system":"Albemarle Regional Library System","library name":"Sallie H. Jenkins Memorial Library","state":"NC"},"type":"Feature","geometry":{"type":"Point","coordinates":[-77.111718,36.22725]}},{"properties":{"city":"Taylorsville","website":"http://www.alexanderlibrary.org/index.htm","zip code":"28681-2639","street address":"77 First Avenue SW","telephone":"(828) 632-4058","id":"a6crn9uq5he8","library system":"Alexander County Library","library name":"Alexander County Library","state":"NC"},"type":"Feature","geometry":{"type":"Point","coordinates":[-81.175619,35.921019]}},{"properties":{"city":"Hickory","website":"http://www.alexanderlibrary.org/index.htm","zip code":"28601-9303","street address":"45 Rink Dam Rd.","telephone":"(828) 495-8753","id":"a6crn9s73t9z","library system":"Alexander County Library","library name":"Bethlehem Branch Library","state":"NC"},"type":"Feature","geometry":{"type":"Point","coordinates":[-81.307962,35.81547]}},{"properties":{"city":"Newland","website":"http://www.amyregionallibrary.org/index.html","zip code":"28657-0250","street address":"150 Library Place","telephone":"(828) 733-9393","id":"a6crn9w95iuf","library system":"AMY Regional Library System","library name":"Avery County Library","state":"NC"},"type":"Feature","geometry":{"type":"Point","coordinates":[-81.875724,36.161786]}},{"properties":{"city":"Burnsville","website":"http://www.amyregionallibrary.org/index.html","zip code":"28714-0310","street address":"289 Burnsville School Road","telephone":"(828) 682-4476","id":"a6crna2g3815","library system":"AMY Regional Library System","library name":"Avery-Mitchell-Yancey Regional Library","state":"NC"},"type":"Feature","geometry":{"type":"Point","coordinates":[-82.317801,35.91755]}},{"properties":{"city":"Bakersville","website":"http://www.amyregionallibrary.org/index.html","zip code":"28705-0026","street address":"18 North Mitchell Avenue","telephone":"(828) 688-2511","id":"a6crn9zumaum","library system":"AMY Regional Library System","library name":"Mitchell County Library","state":"NC"},"type":"Feature","geometry":{"type":"Point","coordinates":[-82.15816,36.015368]}},{"properties":{"city":"Spruce Pine","website":"http://www.amyregionallibrary.org/index.html","zip code":"28777-2739","street address":"142 Walnut Avenue","telephone":"(828) 765-4673","id":"a6crna230xvc","library system":"AMY Regional Library System","library name":"Spruce Pine Public Library","state":"NC"},"type":"Feature","geometry":{"type":"Point","coordinates":[-82.065652,35.91663]}},{"properties":{"city":"Burnsville","website":"http://www.amyregionallibrary.org/index.html","zip code":"28714-2933","street address":"18 Town Square","telephone":"(828) 682-2600","id":"a6crna31b8et","library system":"AMY Regional Library System","library name":"Yancey County Library","state":"NC"},"type":"Feature","geometry":{"type":"Point","coordinates":[-82.41578,35.285972]}},{"properties":{"city":"West Jefferson","website":"http://www.arlibrary.org/","zip code":"28694-9793","street address":"148 Library Drive","telephone":"(336) 846-2041","id":"a6crna5ilfjx","library system":"Appalachian Regional Library System","library name":"Ashe County Public Library","state":"NC"},"type":"Feature","geometry":{"type":"Point","coordinates":[-81.493357,36.40028]}},{"properties":{"city":"Traphill","website":"http://www.arlibrary.org/","zip code":"28685-0000","street address":"6938 Traphill Rd","telephone":"(336) 957-2534","id":"a6crna0m8peh","library system":"Appalachian Regional Library System","library name":"Traphill Branch Library","state":"NC"},"type":"Feature","geometry":{"type":"Point","coordinates":[-81.055589,36.318617]}},{"properties":{"city":"Boone","website":"http://www.arlibrary.org/","zip code":"28607-3589","street address":"140 Queen Street","telephone":"(828) 264-8784","id":"a6crn9px12f8","library system":"Appalachian Regional Library System","library name":"Watauga County Library","state":"NC"},"type":"Feature","geometry":{"type":"Point","coordinates":[-81.68308,36.2195]}},{"properties":{"city":"Sugar Grove","website":"http://www.arlibrary.org/","zip code":"28679-9553","street address":"1085 Old US Hwy 421","telephone":"(828) 297-5515","id":"a6crna0pxibp","library system":"Appalachian Regional Library System","library name":"Western Watauga Branch Library","state":"NC"},"type":"Feature","geometry":{"type":"Point","coordinates":[-81.780186,36.278589]}},{"properties":{"city":"North Wilkesboro","website":"http://www.arlibrary.org/","zip code":"28659-4199","street address":"215 10th Street","telephone":"(336) 838-2818","id":"a6crn9qhsmmi","library system":"Appalachian Regional Library System","library name":"Wilkes County Library","state":"NC"},"type":"Feature","geometry":{"type":"Point","coordinates":[-81.147866,36.159027]}},{"properties":{"city":"Bath","website":"http://tlc.library.net/BHM/","zip code":"27808-0160","street address":"100 Carteret Street","telephone":"(252) 923-6371","id":"a6crna3x9shj","library system":"BHM Regional Library System","library name":"Bath Community Library","state":"NC"},"type":"Feature","geometry":{"type":"Point","coordinates":[-76.813972,35.477568]}},{"properties":{"city":"Washington","website":"http://tlc.library.net/BHM/","zip code":"27889-4948","street address":"158 North Market Street","telephone":"(252) 946-6401","id":"a6crn9sjf9hn","library system":"BHM Regional Library System","library name":"Beaufort-Hyde-Martin Regional Library","state":"NC"},"type":"Feature","geometry":{"type":"Point","coordinates":[-77.05467,35.542703]}},{"properties":{"city":"Belhaven","website":"http://tlc.library.net/BHM/","zip code":"27810-0041","street address":"333 East Main Street","telephone":"(252) 943-2993","id":"a6crna1vjki4","library system":"BHM Regional Library System","library name":"Belhaven Public Library","state":"NC"},"type":"Feature","geometry":{"type":"Point","coordinates":[-76.618281,35.536063]}},{"properties":{"city":"Aurora","website":"http://tlc.library.net/BHM/","zip code":"27806-0049","street address":"524 Main Street","telephone":"(252) 322-5046","id":"a6crna4yczhc","library system":"BHM Regional Library System","library name":"Hazel W. Guilford Memorial Library","state":"NC"},"type":"Feature","geometry":{"type":"Point","coordinates":[-76.797804,35.304532]}},{"properties":{"city":"Williamston","website":"http://tlc.library.net/BHM/","zip code":"27892-2000","street address":"200 North Smithwick Street","telephone":"(252) 792-7476","id":"a6crn9sd372z","library system":"BHM Regional Library System","library name":"Martin Memorial Library","state":"NC"},"type":"Feature","geometry":{"type":"Point","coordinates":[-77.055859,35.856204]}},{"properties":{"city":"Swan Quarter","website":"http://tlc.library.net/BHM/","zip code":"27885-9363","street address":"20418 US Highway 264","telephone":"(252) 926-8841","id":"a6crn9vg872u","library system":"BHM Regional Library System","library name":"Mattamuskeet Library","state":"NC"},"type":"Feature","geometry":{"type":"Point","coordinates":[-76.246433,35.451351]}},{"properties":{"city":"Ocracoke","website":"http://tlc.library.net/BHM/","zip code":"27960-0067","street address":"225 Back Road","telephone":"(252) 928-4436","id":"a6crna2sec3c","library system":"BHM Regional Library System","library name":"Ocracoke Branch Library","state":"NC"},"type":"Feature","geometry":{"type":"Point","coordinates":[-75.97737,35.112127]}},{"properties":{"city":"Robersonville","website":"http://tlc.library.net/BHM/","zip code":"27871-1060","street address":"119 South Main Street","telephone":"(252) 795-3591","id":"a6crn9wrrvee","library system":"BHM Regional Library System","library name":"Robersonville Library","state":"NC"},"type":"Feature","geometry":{"type":"Point","coordinates":[-77.253414,35.823966]}},{"properties":{"city":"Elizabethtown","website":"http://www2.youseemore.com/bladen/default.asp","zip code":"28337-1419","street address":"111 North Cypress Street","telephone":"(910) 862-6990","id":"a6crna0dkioc","library system":"Bladen County Public Library","library name":"Bladen County Public Library","state":"NC"},"type":"Feature","geometry":{"type":"Point","coordinates":[-78.604113,34.62855]}},{"properties":{"city":"Bladenboro","website":"http://www2.youseemore.com/bladen/default.asp","zip code":"28320-1259","street address":"313 South Main Street","telephone":"(910) 863-4586","id":"a6crn9q243wc","library system":"Bladen County Public Library","library name":"Bridger Memorial Library","state":"NC"},"type":"Feature","geometry":{"type":"Point","coordinates":[-78.793598,34.534282]}},{"properties":{"city":"Clarkton","website":"http://www2.youseemore.com/bladen/default.asp","zip code":"28433-0665","street address":"10413 North College Street","telephone":"(910) 647-3661","id":"a6crn9vdninl","library system":"Bladen County Public Library","library name":"Clarkton Public Library","state":"NC"},"type":"Feature","geometry":{"type":"Point","coordinates":[-78.655347,34.488627]}},{"properties":{"city":"Southport","website":"http://library.brunsco.net/","zip code":"28461-3827","street address":"109 West Moore Street","telephone":"(910) 457-6237","id":"a6crna0jwmkt","library system":"Brunswick County Library","library name":"Brunswick County Library","state":"NC"},"type":"Feature","geometry":{"type":"Point","coordinates":[-78.01942,33.918186]}},{"properties":{"city":"Oak Island","website":"http://library.brunsco.net/","zip code":"28465-8157","street address":"8200 E. Oak Island Drive","telephone":"(910) 278-4283","id":"a6crn9pf3sd8","library system":"Brunswick County Library","library name":"G. V. Barbee, Sr. Library","state":"NC"},"type":"Feature","geometry":{"type":"Point","coordinates":[-78.098884,33.912704]}},{"properties":{"city":"Calabash","website":"http://library.brunsco.net/","zip code":"28467-1929","street address":"1040 Calabash Road","telephone":"(910) 575-0173","id":"a6crn9qh5g0r","library system":"Brunswick County Library","library name":"Hickmans Crossroads Library","state":"NC"},"type":"Feature","geometry":{"type":"Point","coordinates":[-78.610135,33.928862]}},{"properties":{"city":"Leland","website":"http://library.brunsco.net/","zip code":"28451-9805","street address":"487 Village Road","telephone":"(910) 371-9442","id":"a6crn9vzgv3x","library system":"Brunswick County Library","library name":"Leland Library","state":"NC"},"type":"Feature","geometry":{"type":"Point","coordinates":[-78.042583,34.25516]}},{"properties":{"city":"Shallotte","website":"http://library.brunsco.net/","zip code":"28470-4488","street address":"5068 Main Street","telephone":"(910) 754-6578","id":"a6crn9ubi0no","library system":"Brunswick County Library","library name":"Rourk Branch Library","state":"NC"},"type":"Feature","geometry":{"type":"Point","coordinates":[-78.392576,33.967601]}},{"properties":{"city":"Black Mountain","website":"http://www.buncombecounty.org/governing/depts/Library/default.asp","zip code":"28711-3325","street address":"105 N. Dougherty Street","telephone":"(828) 250-4756","id":"a6crn9u02vds","library system":"Buncombe County Public Libraries","library name":"Black Mountain Branch Library","state":"NC"},"type":"Feature","geometry":{"type":"Point","coordinates":[-82.323779,35.617561]}},{"properties":{"city":"Asheville","website":"http://www.buncombecounty.org/governing/depts/Library/default.asp","zip code":"28801-3519","street address":"60 Court Plaza","telephone":"(828) 250-4735","id":"a6crn9ph1rdt","library system":"Buncombe County Public Libraries","library name":"Buncombe County Law Library","state":"NC"},"type":"Feature","geometry":{"type":"Point","coordinates":[-82.548858,35.59561]}},{"properties":{"city":"Asheville","website":"http://www.buncombecounty.org/governing/depts/Library/default.asp","zip code":"28801-2834","street address":"67 Haywood Street","telephone":"(828) 250-4700","id":"a6crn9tzxgeo","library system":"Buncombe County Public Libraries","library name":"Buncombe County Public Libraries","state":"NC"},"type":"Feature","geometry":{"type":"Point","coordinates":[-82.555512,35.596765]}},{"properties":{"city":"Asheville","website":"http://www.buncombecounty.org/governing/depts/Library/default.asp","zip code":"28805-2091","street address":"902 Tunnel Road","telephone":"(828) 250-4738","id":"a6crn9s9nnt6","library system":"Buncombe County Public Libraries","library name":"East Asheville Branch Library","state":"NC"},"type":"Feature","geometry":{"type":"Point","coordinates":[-82.50246,35.587516]}},{"properties":{"city":"Enka","website":"http://www.buncombecounty.org/governing/depts/Library/default.asp","zip code":"28728-1559","street address":"1404 Sandhill Road","telephone":"(828) 250-4758","id":"a6crn9tf98rk","library system":"Buncombe County Public Libraries","library name":"Enka Branch Library","state":"NC"},"type":"Feature","geometry":{"type":"Point","coordinates":[-82.644707,35.541201]}},{"properties":{"city":"Fairview","website":"http://www.buncombecounty.org/governing/depts/Library/default.asp","zip code":"28730-8746","street address":"1 Taylor Road","telephone":"(828) 250-6484","id":"a6crn9zcecc5","library system":"Buncombe County Public Libraries","library name":"Fairview Branch Library","state":"NC"},"type":"Feature","geometry":{"type":"Point","coordinates":[-82.414006,35.524626]}},{"properties":{"city":"Leicester","website":"http://www.buncombecounty.org/governing/depts/Library/default.asp","zip code":"28748-6408","street address":"1561 Alexander Road","telephone":"(828) 250-6480","id":"a6crn9yoexxj","library system":"Buncombe County Public Libraries","library name":"Leicester Branch Library","state":"NC"},"type":"Feature","geometry":{"type":"Point","coordinates":[-82.694,35.656828]}},{"properties":{"city":"Asheville","website":"http://www.buncombecounty.org/governing/depts/Library/default.asp","zip code":"28804-2357","street address":"1230 Merrimon Avenue","telephone":"(828) 250-4752","id":"a6crna0c4k4j","library system":"Buncombe County Public Libraries","library name":"North Asheville Branch Library","state":"NC"},"type":"Feature","geometry":{"type":"Point","coordinates":[-82.563637,35.63584]}},{"properties":{"city":"Asheville","website":"http://www.buncombecounty.org/governing/depts/Library/default.asp","zip code":"28803-1107","street address":"749 Fairview Road","telephone":"(828) 250-4754","id":"a6crn9sux1t7","library system":"Buncombe County Public Libraries","library name":"South Asheville Branch Library","state":"NC"},"type":"Feature","geometry":{"type":"Point","coordinates":[-82.513271,35.564524]}},{"properties":{"city":"Asheville","website":"http://www.buncombecounty.org/governing/depts/Library/default.asp","zip code":"28803-3317","street address":"260 Overlook Road","telephone":"(828) 250-6488","id":"a6crn9xzofxd","library system":"Buncombe County Public Libraries","library name":"South Buncombe - Skyland Library","state":"NC"},"type":"Feature","geometry":{"type":"Point","coordinates":[-82.537835,35.487512]}},{"properties":{"city":"Swannanoa","website":"http://www.buncombecounty.org/governing/depts/Library/default.asp","zip code":"28778-0728","street address":"101 West Charleston Street","telephone":"(828) 250-6486","id":"a6crn9t2zk22","library system":"Buncombe County Public Libraries","library name":"Swannanoa Branch Library","state":"NC"},"type":"Feature","geometry":{"type":"Point","coordinates":[-82.385753,35.609474]}},{"properties":{"city":"Weaverville","website":"http://www.buncombecounty.org/governing/depts/Library/default.asp","zip code":"28787-0633","street address":"41 North Main Street","telephone":"(828) 250-6482","id":"a6crna2a30vx","library system":"Buncombe County Public Libraries","library name":"Weaverville Library","state":"NC"},"type":"Feature","geometry":{"type":"Point","coordinates":[-82.560502,35.699571]}},{"properties":{"city":"Asheville","website":"http://www.buncombecounty.org/governing/depts/Library/default.asp","zip code":"28806-2693","street address":"942 Haywood Road","telephone":"(828) 250-4750","id":"a6crn9zjdkpc","library system":"Buncombe County Public Libraries","library name":"West Asheville Branch Library","state":"NC"},"type":"Feature","geometry":{"type":"Point","coordinates":[-82.601016,35.580985]}},{"properties":{"city":"Morganton","website":"http://www.bcpls.org/","zip code":"28655-3535","street address":"204 South King Street","telephone":"(828) 437-5638","id":"a6crn9x055rx","library system":"Burke County Public Library","library name":"Burke County Public Library","state":"NC"},"type":"Feature","geometry":{"type":"Point","coordinates":[-81.686777,35.74299]}},{"properties":{"city":"Hildebran","website":"http://www.bcpls.org/","zip code":"28637-8305","street address":"201 South Center Street","telephone":"(828) 397-3600","id":"a6crn9rnfjgg","library system":"Burke County Public Library","library name":"C. B. Hildebrand Public Library","state":"NC"},"type":"Feature","geometry":{"type":"Point","coordinates":[-81.423096,35.713789]}},{"properties":{"city":"Valdese","website":"http://www.bcpls.org/","zip code":"28690-2846","street address":"213 St. Germain Avenue, S.E.","telephone":"(828) 874-2421","id":"a6crn9uws5sv","library system":"Burke County Public Library","library name":"Valdese Public Library","state":"NC"},"type":"Feature","geometry":{"type":"Point","coordinates":[-81.557374,35.918794]}},{"properties":{"city":"Concord","website":"http://www.cabarruscounty.us/library/","zip code":"28025-4793","street address":"27 Union Street, North","telephone":"(704) 920-2050","id":"a6crna2wma40","library system":"Cabarrus County Public Library","library name":"Cabarrus County Public Library","state":"NC"},"type":"Feature","geometry":{"type":"Point","coordinates":[-80.582486,35.411547]}},{"properties":{"city":"Harrisburg","website":"http://www.cabarruscounty.us/library/","zip code":"28027-7630","street address":"201 Sims Parkway","telephone":"(704) 920-2080","id":"a6crna0tl2an","library system":"Cabarrus County Public Library","library name":"Harrisburg Library","state":"NC"},"type":"Feature","geometry":{"type":"Point","coordinates":[-80.659842,35.319445]}},{"properties":{"city":"Kannapolis","website":"http://www.cabarruscounty.us/library/","zip code":"28081-3365","street address":"850 Mountain Street","telephone":"(704) 920-1180","id":"a6crna0julq0","library system":"Cabarrus County Public Library","library name":"Kannapolis Branch Library","state":"NC"},"type":"Feature","geometry":{"type":"Point","coordinates":[-80.635465,35.505248]}},{"properties":{"city":"Mount Pleasant","website":"http://www.cabarruscounty.us/library/","zip code":"28124-7686","street address":"8556 Cook Street","telephone":"(704) 436-9955","id":"a6crn9z1kx5x","library system":"Cabarrus County Public Library","library name":"Mt. Pleasant Branch Library","state":"NC"},"type":"Feature","geometry":{"type":"Point","coordinates":[-80.433436,35.403245]}},{"properties":{"city":"Lenoir","website":"http://www.ccpl.us/","zip code":"28645-4454","street address":"120 Hospital Avenue","telephone":"(828) 757-1270","id":"a6crn9x3ylas","library system":"Caldwell County Public Library","library name":"Caldwell County Public Library","state":"NC"},"type":"Feature","geometry":{"type":"Point","coordinates":[-81.524751,35.921991]}},{"properties":{"city":"Granite Falls","website":"http://www.ccpl.us/","zip code":"28630-1910","street address":"24 S Main Street","telephone":"(828) 396-7703","id":"a6crn9siohth","library system":"Caldwell County Public Library","library name":"Granite Falls Branch Library","state":"NC"},"type":"Feature","geometry":{"type":"Point","coordinates":[-81.429772,35.79587]}},{"properties":{"city":"Hudson","website":"http://www.ccpl.us/","zip code":"28638-2401","street address":"530 Central Street","telephone":"(828) 728-4207","id":"a6crn9rtbo9y","library system":"Caldwell County Public Library","library name":"Hudson Branch Library","state":"NC"},"type":"Feature","geometry":{"type":"Point","coordinates":[-81.495482,35.847781]}},{"properties":{"city":"Newton","website":"http://www.catawbacountync.gov/library/","zip code":"28658-3397","street address":"115 West \"C\" Street","telephone":"(828) 465-8664","id":"a6crn9ys93gj","library system":"Catawba County Library","library name":"Catawba County Library","state":"NC"},"type":"Feature","geometry":{"type":"Point","coordinates":[-81.226069,35.651351]}},{"properties":{"city":"Claremont","website":"http://www.catawbacountync.gov/library/","zip code":"28610-1248","street address":"3288 East Main Street","telephone":"(828) 459-9311","id":"a6crn9y8q02d","library system":"Catawba County Library","library name":"Claremont Branch Library","state":"NC"},"type":"Feature","geometry":{"type":"Point","coordinates":[-81.14576,35.715379]}},{"properties":{"city":"Conover","website":"http://www.catawbacountync.gov/library/","zip code":"28613-2155","street address":"101 First Street East","telephone":"(828) 466-5108","id":"a6crna4hfzg2","library system":"Catawba County Library","library name":"Conover Express Branch Library","state":"NC"},"type":"Feature","geometry":{"type":"Point","coordinates":[-81.218429,35.70643]}},{"properties":{"city":"Maiden","website":"http://www.catawbacountync.gov/library/","zip code":"28650-1248","street address":"11 South A Avenue","telephone":"(828) 428-2712","id":"a6crna0aqpbb","library system":"Catawba County Library","library name":"Maiden Branch Library","state":"NC"},"type":"Feature","geometry":{"type":"Point","coordinates":[-81.215281,35.576874]}},{"properties":{"city":"Sherrills Ford","website":"http://www.catawbacountync.gov/library/","zip code":"28673-9801","street address":"8456 Sherrills Ford Road","telephone":"(828) 478-2729","id":"a6crna5bgzbt","library system":"Catawba County Library","library name":"Sherrills Ford Branch Library","state":"NC"},"type":"Feature","geometry":{"type":"Point","coordinates":[-80.986734,35.611682]}},{"properties":{"city":"Hickory","website":"http://www.catawbacountync.gov/library/","zip code":"28602-5401","street address":"2944 Highway 127 South","telephone":"(828) 294-2343","id":"a6crn9ub9ynt","library system":"Catawba County Library","library name":"Southwest Branch Library","state":"NC"},"type":"Feature","geometry":{"type":"Point","coordinates":[-81.351483,35.701296]}},{"properties":{"city":"Hickory","website":"http://www.catawbacountync.gov/library/","zip code":"28601-9700","street address":"3225 Springs Road","telephone":"(828) 256-3030","id":"a6crn9uwtiqp","library system":"Catawba County Library","library name":"St. Stephens Branch Library","state":"NC"},"type":"Feature","geometry":{"type":"Point","coordinates":[-81.273547,35.758368]}},{"properties":{"city":"Chapel Hill","website":"http://chapelhillpubliclibrary.org/","zip code":"27514-3712","street address":"100 Library Drive","telephone":"(919) 968-2777","id":"a6crn9wr2aak","library system":"Chapel Hill Public Library","library name":"Chapel Hill Public Library","state":"NC"},"type":"Feature","geometry":{"type":"Point","coordinates":[-79.036858,35.930106]}},{"properties":{"city":"Pittsboro","website":"http://www.chathamnc.org/Index.aspx?page=126","zip code":"27312-5639","street address":"197 NC Hwy 87 N","telephone":"(919) 545-8084","id":"a6crn9ps45xg","library system":"Chatham County Public Libraries","library name":"Chatham Community Library","state":"NC"},"type":"Feature","geometry":{"type":"Point","coordinates":[-79.186963,35.72355]}},{"properties":{"city":"Goldston","website":"http://www.chathamnc.org/Index.aspx?page=126","zip code":"27252-9323","street address":"9235 Pittsboro-Goldston Rd","telephone":"(919) 898-4522","id":"a6crn9yyo92x","library system":"Chatham County Public Libraries","library name":"Goldston Public Library","state":"NC"},"type":"Feature","geometry":{"type":"Point","coordinates":[-79.329774,35.594501]}},{"properties":{"city":"Siler City","website":"http://www.chathamnc.org/Index.aspx?page=126","zip code":"27344-3123","street address":"500 North 2nd Avenue","telephone":"(919) 742-2016","id":"a6crn9wewlvs","library system":"Chatham County Public Libraries","library name":"Wren Memorial Library","state":"NC"},"type":"Feature","geometry":{"type":"Point","coordinates":[-79.464697,35.727273]}},{"properties":{"city":"Shelby","website":"http://www.ccml.org/index.html","zip code":"28151-1120","street address":"104 Howie Drive","telephone":"(704) 487-9069","id":"a6crn9pthwfd","library system":"Cleveland County Memorial Library","library name":"Cleveland County Memorial Library","state":"NC"},"type":"Feature","geometry":{"type":"Point","coordinates":[-81.038237,35.293454]}},{"properties":{"city":"Lawndale","website":"http://www.ccml.org/index.html","zip code":"28090-9462","street address":"112 Piedmont Drive","telephone":"(704) 538-7005","id":"a6crn9vjtwi2","library system":"Cleveland County Memorial Library","library name":"Spangler Branch Library","state":"NC"},"type":"Feature","geometry":{"type":"Point","coordinates":[-81.554276,35.421338]}},{"properties":{"city":"Chadbourn","website":"http://www.columbusco.org/dotnetnuke_2/library/LibraryHome/tabid/404/Default.aspx","zip code":"28431-1839","street address":"301 North Wilson Street","telephone":"(910) 654-3322","id":"a6crna0igh9q","library system":"Columbus County Public Library","library name":"Chadbourn Community Library","state":"NC"},"type":"Feature","geometry":{"type":"Point","coordinates":[-78.82495,34.324607]}},{"properties":{"city":"Whiteville","website":"http://www.columbusco.org/dotnetnuke_2/library/LibraryHome/tabid/404/Default.aspx","zip code":"28472-3198","street address":"407 North Powell Boulevard","telephone":"(910) 642-3116","id":"a6crn9xjjhnt","library system":"Columbus County Public Library","library name":"Columbus County Public Library","state":"NC"},"type":"Feature","geometry":{"type":"Point","coordinates":[-78.708165,34.333836]}},{"properties":{"city":"Riegelwood","website":"http://www.columbusco.org/dotnetnuke_2/library/LibraryHome/tabid/404/Default.aspx","zip code":"28456-0027","street address":"103 Church Rd","telephone":"(910) 655-4157","id":"a6crn9x20tdl","library system":"Columbus County Public Library","library name":"East Columbus Branch Library","state":"NC"},"type":"Feature","geometry":{"type":"Point","coordinates":[-78.229207,34.341978]}},{"properties":{"city":"Fair Bluff","website":"http://www.columbusco.org/dotnetnuke_2/library/LibraryHome/tabid/404/Default.aspx","zip code":"28439-0428","street address":"315 Railroad Street","telephone":"(910) 649-7098","id":"a6crn9seaqz0","library system":"Columbus County Public Library","library name":"Fair Bluff Community Library","state":"NC"},"type":"Feature","geometry":{"type":"Point","coordinates":[-79.030424,34.315055]}},{"properties":{"city":"Lake Waccamaw","website":"http://www.columbusco.org/dotnetnuke_2/library/LibraryHome/tabid/404/Default.aspx","zip code":"28450-1931","street address":"301 Flemington Drive","telephone":"(910) 646-4616","id":"a6crna1mvdaw","library system":"Columbus County Public Library","library name":"Rube McCray Memorial Library","state":"NC"},"type":"Feature","geometry":{"type":"Point","coordinates":[-78.523159,34.319316]}},{"properties":{"city":"Tabor City","website":"http://www.columbusco.org/dotnetnuke_2/library/LibraryHome/tabid/404/Default.aspx","zip code":"28463-2005","street address":"1 East Fifth Street","telephone":"(910) 653-3774","id":"a6crn9x370cb","library system":"Columbus County Public Library","library name":"Tabor City Public Library","state":"NC"},"type":"Feature","geometry":{"type":"Point","coordinates":[-78.876542,34.148658]}},{"properties":{"city":"Pine Knoll Shores","website":"http://newbern.cpclib.org/nbccpl/cpcrl.html","zip code":"28512-6122","street address":"320 Salter Path Road","telephone":"(252) 247-4660","id":"a6crna3hbc4o","library system":"CPC Regional Library System","library name":"Bogue Banks Public Library","state":"NC"},"type":"Feature","geometry":{"type":"Point","coordinates":[-76.824433,34.694557]}},{"properties":{"city":"Beaufort","website":"http://newbern.cpclib.org/nbccpl/cpcrl.html","zip code":"28516-1639","street address":"1702 Live Oak St. Suite 100","telephone":"(252) 728-2050","id":"a6crn9z2s8in","library system":"CPC Regional Library System","library name":"Carteret County Public Library","state":"NC"},"type":"Feature","geometry":{"type":"Point","coordinates":[-76.658827,34.715178]}},{"properties":{"city":"Cove City","website":"http://newbern.cpclib.org/nbccpl/cpcrl.html","zip code":"28523-0399","street address":"102 North Main Street","telephone":"(252) 638-6363","id":"a6crn9u02qiv","library system":"CPC Regional Library System","library name":"Cove City - Craven County Public Library","state":"NC"},"type":"Feature","geometry":{"type":"Point","coordinates":[-77.320522,35.186892]}},{"properties":{"city":"Havelock","website":"http://newbern.cpclib.org/nbccpl/cpcrl.html","zip code":"28532-1942","street address":"301 Cunningham Blvd.","telephone":"(252) 447-7509","id":"a6crn9pjouor","library system":"CPC Regional Library System","library name":"Havelock - Craven County Public Library","state":"NC"},"type":"Feature","geometry":{"type":"Point","coordinates":[-76.901865,34.878198]}},{"properties":{"city":"New Bern","website":"http://newbern.cpclib.org/nbccpl/cpcrl.html","zip code":"28560-4098","street address":"400 Johnson Street","telephone":"(252) 638-7800","id":"a6crna2w5oj7","library system":"CPC Regional Library System","library name":"New Bern - Craven County Public Library","state":"NC"},"type":"Feature","geometry":{"type":"Point","coordinates":[-77.03914,35.110883]}},{"properties":{"city":"Newport","website":"http://newbern.cpclib.org/nbccpl/cpcrl.html","zip code":"28570-9530","street address":"210 Howard Boulevard","telephone":"(252) 223-5108","id":"a6crn9t1yzjl","library system":"CPC Regional Library System","library name":"Newport Public Library","state":"NC"},"type":"Feature","geometry":{"type":"Point","coordinates":[-76.864139,34.787591]}},{"properties":{"city":"Bayboro","website":"http://newbern.cpclib.org/nbccpl/cpcrl.html","zip code":"28515-9633","street address":"603 Main Street","telephone":"(252) 745-3515","id":"a6crn9qbjfa4","library system":"CPC Regional Library System","library name":"Pamlico County Library","state":"NC"},"type":"Feature","geometry":{"type":"Point","coordinates":[-76.81378,35.145612]}},{"properties":{"city":"Vanceboro","website":"http://newbern.cpclib.org/nbccpl/cpcrl.html","zip code":"28586-0038","street address":"7931 Main Street","telephone":"(252) 244-0571","id":"a6crna138jgp","library system":"CPC Regional Library System","library name":"Vanceboro - Craven County Public Library","state":"NC"},"type":"Feature","geometry":{"type":"Point","coordinates":[-77.152829,35.300208]}},{"properties":{"city":"Cape Carteret","website":"http://newbern.cpclib.org/nbccpl/cpcrl.html","zip code":"28584-4492","street address":"230 Taylor Notion Rd","telephone":"(252) 393-6500","id":"a6crn9wwt9gx","library system":"CPC Regional Library System","library name":"Western Carteret Library","state":"NC"},"type":"Feature","geometry":{"type":"Point","coordinates":[-77.057545,34.697544]}},{"properties":{"city":"Fayetteville","website":"http://www.cumberland.lib.nc.us/","zip code":"28304-1598","street address":"3711 Village Drive","telephone":"(910) 424-4008","id":"a6crn9vdxq4d","library system":"Cumberland County Public Library &amp; Information Center","library name":"Bordeaux Branch Library","state":"NC"},"type":"Feature","geometry":{"type":"Point","coordinates":[-78.939655,35.027081]}},{"properties":{"city":"Fayetteville","website":"http://www.cumberland.lib.nc.us/","zip code":"28314-1936","street address":"6882 Cliffdale Road","telephone":"(910) 864-3800","id":"a6crn9qxua70","library system":"Cumberland County Public Library &amp; Information Center","library name":"Cliffdale Regional Branch Library","state":"NC"},"type":"Feature","geometry":{"type":"Point","coordinates":[-78.965991,35.059142]}},{"properties":{"city":"Fayetteville","website":"http://www.cumberland.lib.nc.us/","zip code":"28314-1936","street address":"4809 Clinton Road","telephone":"(910) 485-2955","id":"a6crna191xxu","library system":"Cumberland County Public Library &amp; Information Center","library name":"East Regional Branch Library","state":"NC"},"type":"Feature","geometry":{"type":"Point","coordinates":[-78.760793,35.036255]}},{"properties":{"city":"Fayetteville","website":"http://www.cumberland.lib.nc.us/","zip code":"28301-5000","street address":"300 Maiden Lane","telephone":"(910) 483-7727","id":"a6crn9puavgy","library system":"Cumberland County Public Library &amp; Information Center","library name":"Headquarters Library - Cumberland County","state":"NC"},"type":"Feature","geometry":{"type":"Point","coordinates":[-78.880798,35.055014]}},{"properties":{"city":"Hope Mills","website":"http://www.cumberland.lib.nc.us/","zip code":"28348-2266","street address":"3411 Golfview Road","telephone":"(910) 425-8455","id":"a6crna08wwmj","library system":"Cumberland County Public Library &amp; Information Center","library name":"Hope Mills Branch Library","state":"NC"},"type":"Feature","geometry":{"type":"Point","coordinates":[-78.957711,34.976945]}},{"properties":{"city":"Fayetteville","website":"http://www.cumberland.lib.nc.us/","zip code":"28301-5749","street address":"117 Dick Street","telephone":"(910) 321-6600","id":"a6crna31hvvn","library system":"Cumberland County Public Library &amp; Information Center","library name":"Law Library","state":"NC"},"type":"Feature","geometry":{"type":"Point","coordinates":[-78.876973,35.051255]}},{"properties":{"city":"Fayetteville","website":"http://www.cumberland.lib.nc.us/","zip code":"28311-1961","street address":"855 McArthur Road","telephone":"(910) 822-1998","id":"a6crn9zq957y","library system":"Cumberland County Public Library &amp; Information Center","library name":"North Regional Branch Library","state":"NC"},"type":"Feature","geometry":{"type":"Point","coordinates":[-78.8961,35.129415]}},{"properties":{"city":"Spring Lake","website":"http://www.cumberland.lib.nc.us/","zip code":"28390-3340","street address":"101 Laketree Blvd.","telephone":"(910) 497-3650","id":"a6crn9vl06vx","library system":"Cumberland County Public Library &amp; Information Center","library name":"Spring Lake Branch Library","state":"NC"},"type":"Feature","geometry":{"type":"Point","coordinates":[-78.986646,35.182367]}},{"properties":{"city":"Fayetteville","website":"http://www.cumberland.lib.nc.us/","zip code":"28306-3141","street address":"7469 Century Circle","telephone":"(910) 487-0440","id":"a6crn9tyqzfh","library system":"Cumberland County Public Library &amp; Information Center","library name":"West Regional Branch Library","state":"NC"},"type":"Feature","geometry":{"type":"Point","coordinates":[-79.033346,35.011024]}},{"properties":{"city":"Denton","website":"http://www.co.davidson.nc.us/community/DavidsonCountyPublicLibrarySystem.aspx","zip code":"27239-0578","street address":"310 West Salisbury St.","telephone":"(336) 859-2215","id":"a6crn9qvjyig","library system":"Davidson County Public Library","library name":"Denton Public Library","state":"NC"},"type":"Feature","geometry":{"type":"Point","coordinates":[-80.117819,35.63342]}},{"properties":{"city":"Lexington","website":"http://www.co.davidson.nc.us/community/DavidsonCountyPublicLibrarySystem.aspx","zip code":"27292-3239","street address":"602 South Main Street","telephone":"(336) 242-2040","id":"a6crn9vxvuo8","library system":"Davidson County Public Library","library name":"Lexington Public Library","state":"NC"},"type":"Feature","geometry":{"type":"Point","coordinates":[-80.258823,35.819127]}},{"properties":{"city":"Welcome","website":"http://www.co.davidson.nc.us/community/DavidsonCountyPublicLibrarySystem.aspx","zip code":"27374-1749","street address":"559 Critcher Drive","telephone":"(336) 242-2050","id":"a6crn9z1ng4v","library system":"Davidson County Public Library","library name":"North Davidson Branch Library","state":"NC"},"type":"Feature","geometry":{"type":"Point","coordinates":[-80.203546,35.781848]}},{"properties":{"city":"Thomasville","website":"http://www.co.davidson.nc.us/community/DavidsonCountyPublicLibrarySystem.aspx","zip code":"27360-4638","street address":"14 Randolph St.","telephone":"(336) 474-2690","id":"a6crna0bh7a1","library system":"Davidson County Public Library","library name":"Thomasville Public Library","state":"NC"},"type":"Feature","geometry":{"type":"Point","coordinates":[-80.081385,35.882346]}},{"properties":{"city":"Lexington","website":"http://www.co.davidson.nc.us/community/DavidsonCountyPublicLibrarySystem.aspx","zip code":"27295-6006","street address":"246 Tyro School Road","telephone":"(336) 853-4800","id":"a6crna3z1tu0","library system":"Davidson County Public Library","library name":"West Davidson Public Library","state":"NC"},"type":"Feature","geometry":{"type":"Point","coordinates":[-80.376376,35.809337]}},{"properties":{"city":"Cooleemee","website":"http://www.library.daviecounty.org/","zip code":"27014-0000","street address":"7796 NC Hwy 801 South","telephone":"(336) 284-2805","id":"a6crna31e3xh","library system":"Davie County Public Library","library name":"Cooleemee Branch Library","state":"NC"},"type":"Feature","geometry":{"type":"Point","coordinates":[-80.551574,35.813557]}},{"properties":{"city":"Mocksville","website":"http://www.library.daviecounty.org/","zip code":"27028-2115","street address":"371 North Main Street","telephone":"(336) 753-6030","id":"a6crn9y69ucb","library system":"Davie County Public Library","library name":"Davie County Public Library","state":"NC"},"type":"Feature","geometry":{"type":"Point","coordinates":[-80.559657,35.89732]}},{"properties":{"city":"Kenansville","website":"http://www2.youseemore.com/duplin/Default.asp?","zip code":"28349-0930","street address":"107 Bowden Drive","telephone":"(910) 296-2117","id":"a6crn9wadtlh","library system":"Duplin County Library","library name":"Duplin County-Dorothy Wightman Library","state":"NC"},"type":"Feature","geometry":{"type":"Point","coordinates":[-77.964497,34.963229]}},{"properties":{"city":"Faison","website":"http://www2.youseemore.com/duplin/Default.asp?","zip code":"28341-0129","street address":"106 Park Circle","telephone":"(910) 267-0601","id":"a6crn9pssz90","library system":"Duplin County Library","library name":"Faison Branch Library (Emily Hill Library)","state":"NC"},"type":"Feature","geometry":{"type":"Point","coordinates":[-78.139915,35.118118]}},{"properties":{"city":"Magnolia","website":"http://www2.youseemore.com/duplin/Default.asp?","zip code":"28453-0333","street address":"104 West Main Street","telephone":"(910) 289-7056","id":"a6crna0730aa","library system":"Duplin County Library","library name":"Florence Gallier Library","state":"NC"},"type":"Feature","geometry":{"type":"Point","coordinates":[-78.055717,34.896224]}},{"properties":{"city":"Beulaville","website":"http://www2.youseemore.com/duplin/Default.asp?","zip code":"28518-0721","street address":"807 East Broad Street","telephone":"(910) 298-4677","id":"a6crn9u2ga13","library system":"Duplin County Library","library name":"Phillip Leff Memorial Library","state":"NC"},"type":"Feature","geometry":{"type":"Point","coordinates":[-77.765537,34.921228]}},{"properties":{"city":"Rose Hill","website":"http://www2.youseemore.com/duplin/Default.asp?","zip code":"28458-0940","street address":"113 South Walnut St","telephone":"(910) 289-2490","id":"a6crna0qkge1","library system":"Duplin County Library","library name":"Rose Hill Library","state":"NC"},"type":"Feature","geometry":{"type":"Point","coordinates":[-78.021234,34.826574]}},{"properties":{"city":"Warsaw","website":"http://www2.youseemore.com/duplin/Default.asp?","zip code":"28398-1908","street address":"117 E College Street","telephone":"(910) 293-4664","id":"a6crn9uktt84","library system":"Duplin County Library","library name":"Warsaw-Kornegay Public Library","state":"NC"},"type":"Feature","geometry":{"type":"Point","coordinates":[-78.091326,34.999425]}},{"properties":{"city":"Durham","website":"http://www.durhamcountylibrary.org/","zip code":"27704-2308","street address":"3200 Dearborn Drive","telephone":"(919) 560-0210","id":"a6crna0nt80k","library system":"Durham County Library","library name":"Bragtown Community Library","state":"NC"},"type":"Feature","geometry":{"type":"Point","coordinates":[-78.871517,36.037245]}},{"properties":{"city":"Durham","website":"http://www.durhamcountylibrary.org/","zip code":"27703-6746","street address":"211 Lick Creek Lane","telephone":"(919) 560-0203","id":"a6crna0z0chq","library system":"Durham County Library","library name":"East Regional Library","state":"NC"},"type":"Feature","geometry":{"type":"Point","coordinates":[-78.887181,35.926756]}},{"properties":{"city":"Durham","website":"http://www.durhamcountylibrary.org/","zip code":"27702-3414","street address":"300 N Roxboro Street","telephone":"(919) 560-0100","id":"a6crn9tb1r3c","library system":"Durham County Library","library name":"Main Library - Durham County","state":"NC"},"type":"Feature","geometry":{"type":"Point","coordinates":[-78.902649,35.98739]}},{"properties":{"city":"Durham","website":"http://www.durhamcountylibrary.org/","zip code":"27701-4607","street address":"1101 Lawson Street","telephone":"(919) 560-0240","id":"a6crn9xih3ms","library system":"Durham County Library","library name":"McDougald Terrace Community Library","state":"NC"},"type":"Feature","geometry":{"type":"Point","coordinates":[-78.890851,35.974486]}},{"properties":{"city":"Durham","website":"http://www.durhamcountylibrary.org/","zip code":"27712-2223","street address":"221 Milton Rd","telephone":"(919) 560-0231","id":"a6crn9pdw80a","library system":"Durham County Library","library name":"North Regional Library","state":"NC"},"type":"Feature","geometry":{"type":"Point","coordinates":[-78.91312,36.087477]}},{"properties":{"city":"Durham","website":"http://www.durhamcountylibrary.org/","zip code":"27713-2225","street address":"4505 S Alston Ave","telephone":"(919) 560-7409","id":"a6crna01v9uz","library system":"Durham County Library","library name":"South Regional Library","state":"NC"},"type":"Feature","geometry":{"type":"Point","coordinates":[-78.888922,35.903269]}},{"properties":{"city":"Durham","website":"http://www.durhamcountylibrary.org/","zip code":"27707-3531","street address":"3605 Shannon Road","telephone":"(919) 560-8590","id":"a6crn9y9kc4a","library system":"Durham County Library","library name":"Southwest Regional Library","state":"NC"},"type":"Feature","geometry":{"type":"Point","coordinates":[-78.954746,35.959444]}},{"properties":{"city":"Durham","website":"http://www.durhamcountylibrary.org/","zip code":"27707-2369","street address":"1201 Fayetteville Street","telephone":"(919) 560-0270","id":"a6crn9x4i9ma","library system":"Durham County Library","library name":"Stanford L. Warren Branch Library","state":"NC"},"type":"Feature","geometry":{"type":"Point","coordinates":[-78.898944,35.982336]}},{"properties":{"city":"Corolla","website":"http://www2.youseemore.com/earl/Default.asp?","zip code":"27927-0123","street address":"1123 Ocean Trail","telephone":"(252) 453-0496","id":"a6crn9yl1qrx","library system":"East Albemarle Regional Library System","library name":"Corolla Branch Library","state":"NC"},"type":"Feature","geometry":{"type":"Point","coordinates":[-75.800189,36.287385]}},{"properties":{"city":"Barco","website":"http://www2.youseemore.com/earl/Default.asp?","zip code":"27917-9707","street address":"4261 Caratoke Hwy.","telephone":"(252) 453-8345","id":"a6crna4tpjbn","library system":"East Albemarle Regional Library System","library name":"Currituck County Public Library","state":"NC"},"type":"Feature","geometry":{"type":"Point","coordinates":[-75.966917,36.36292]}},{"properties":{"city":"Manteo","website":"http://www2.youseemore.com/earl/Default.asp?","zip code":"27954-1000","street address":"700 North Hwy 64/264","telephone":"(252) 473-2372","id":"a6crna2rw0g5","library system":"East Albemarle Regional Library System","library name":"Dare County Library","state":"NC"},"type":"Feature","geometry":{"type":"Point","coordinates":[-75.67159,35.902316]}},{"properties":{"city":"Hatteras","website":"http://www2.youseemore.com/earl/Default.asp?","zip code":"27943-0309","street address":"57709 Highway 12","telephone":"(252) 986-2385","id":"a6crna2x5gu9","library system":"East Albemarle Regional Library System","library name":"Hatteras Branch Library","state":"NC"},"type":"Feature","geometry":{"type":"Point","coordinates":[-75.672269,35.216083]}},{"properties":{"city":"Kill Devil Hills","website":"http://www2.youseemore.com/earl/Default.asp?","zip code":"27948-8455","street address":"400 Mustian Avenue","telephone":"(252) 441-4331","id":"a6crna1qqzin","library system":"East Albemarle Regional Library System","library name":"Kill Devil Hills Branch Library","state":"NC"},"type":"Feature","geometry":{"type":"Point","coordinates":[-75.660647,36.010208]}},{"properties":{"city":"Moyock","website":"http://www2.youseemore.com/earl/Default.asp?","zip code":"27958-6500","street address":"126 Campus Drive","telephone":"(252) 435-6419","id":"a6crn9tnzmed","library system":"East Albemarle Regional Library System","library name":"Moyock Public Library","state":"NC"},"type":"Feature","geometry":{"type":"Point","coordinates":[-75.645873,35.981328]}},{"properties":{"city":"Elizabeth City","website":"http://www2.youseemore.com/earl/Default.asp?","zip code":"27909-4423","street address":"100 East Colonial Avenue","telephone":"(252) 335-2473","id":"a6crna35ryq7","library system":"East Albemarle Regional Library System","library name":"Pasquotank-Camden Library","state":"NC"},"type":"Feature","geometry":{"type":"Point","coordinates":[-76.223627,36.30096]}},{"properties":{"city":"Tarboro","website":"http://www.edgecombelibrary.org/","zip code":"27886-3818","street address":"909 N. Main Street","telephone":"(252) 823-1141","id":"a6crn9vpfrw2","library system":"Edgecombe County Memorial Library","library name":"Edgecombe County Memorial Library","state":"NC"},"type":"Feature","geometry":{"type":"Point","coordinates":[-77.531329,35.891467]}},{"properties":{"city":"Pinetops","website":"http://www.edgecombelibrary.org/","zip code":"27864-1023","street address":"201 South East 1st Street","telephone":"(252) 827-4621","id":"a6crn9s5vqan","library system":"Edgecombe County Memorial Library","library name":"Pinetops Branch Library","state":"NC"},"type":"Feature","geometry":{"type":"Point","coordinates":[-77.636789,35.791954]}},{"properties":{"city":"Farmville","website":"http://www.farmville-nc.com/departments_library.htm","zip code":"27828-1621","street address":"4276 W. Church Street","telephone":"(252) 753-3355","id":"a6crn9wmzr69","library system":"Farmville Public Library","library name":"Farmville Public Library","state":"NC"},"type":"Feature","geometry":{"type":"Point","coordinates":[-77.587645,35.596892]}},{"properties":{"city":"Cashiers","website":"http://www.fontanalib.org/index.html","zip code":"28717-2194","street address":"249 Frank Allen Road","telephone":"(828) 743-0215","id":"a6crn9wobb4u","library system":"Fontana Regional Library","library name":"Albert Carlton-Cashiers Community Library","state":"NC"},"type":"Feature","geometry":{"type":"Point","coordinates":[-83.204814,35.05575]}},{"properties":{"city":"Highlands","website":"http://www.fontanalib.org/index.html","zip code":"28741-0000","street address":"554 Main Street","telephone":"(828) 526-3031","id":"a6crn9v7rbn5","library system":"Fontana Regional Library","library name":"Hudson Library","state":"NC"},"type":"Feature","geometry":{"type":"Point","coordinates":[-83.19561,35.052025]}},{"properties":{"city":"Sylva","website":"http://www.fontanalib.org/index.html","zip code":"28779-3098","street address":"755 West Main Street","telephone":"(828) 586-2016","id":"a6crn9uosmcy","library system":"Fontana Regional Library","library name":"Jackson County Public Library","state":"NC"},"type":"Feature","geometry":{"type":"Point","coordinates":[-83.240066,35.372423]}},{"properties":{"city":"Franklin","website":"http://www.fontanalib.org/index.html","zip code":"28734-0061","street address":"149 Siler Farm Road","telephone":"(828) 524-3600","id":"a6crn9yim1ts","library system":"Fontana Regional Library","library name":"Macon County Public Library","state":"NC"},"type":"Feature","geometry":{"type":"Point","coordinates":[-83.391147,35.163754]}},{"properties":{"city":"Bryson City","website":"http://www.fontanalib.org/index.html","zip code":"28713-5667","street address":"33 Fryemont Street","telephone":"(828) 488-3030","id":"a6crn9sis6b2","library system":"Fontana Regional Library","library name":"Marianna Black Library","state":"NC"},"type":"Feature","geometry":{"type":"Point","coordinates":[-83.444713,35.426049]}},{"properties":{"city":"Topton","website":"http://www.fontanalib.org/index.html","zip code":"28781-7002","street address":"128 Nantahala School Road","telephone":"(828) 321-3020","id":"a6crna0sjc5r","library system":"Fontana Regional Library","library name":"Nantahala Community Library","state":"NC"},"type":"Feature","geometry":{"type":"Point","coordinates":[-83.63411,35.253011]}},{"properties":{"city":"Winston-Salem","website":"http://www.forsyth.cc/library/","zip code":"27105-3023","street address":"4915 Lansing Drive","telephone":"(336) 703-2910","id":"a6crn9trye6l","library system":"Forsyth County Public Library","library name":"Carver School Road Branch Library","state":"NC"},"type":"Feature","geometry":{"type":"Point","coordinates":[-80.213777,36.150974]}},{"properties":{"city":"Winston-Salem","website":"http://www.forsyth.cc/library/","zip code":"27101-2755","street address":"660 West Fifth Street","telephone":"(336) 703-3011","id":"a6crna4t65s5","library system":"Forsyth County Public Library","library name":"Central Library - Forsyth County","state":"NC"},"type":"Feature","geometry":{"type":"Point","coordinates":[-80.251445,36.099111]}},{"properties":{"city":"Clemmons","website":"http://www.forsyth.cc/library/","zip code":"27012-8726","street address":"3554 Clemmons Road","telephone":"(336) 703-2920","id":"a6crn9ub75kf","library system":"Forsyth County Public Library","library name":"Clemmons Branch Library","state":"NC"},"type":"Feature","geometry":{"type":"Point","coordinates":[-80.37724,36.021867]}},{"properties":{"city":"Kernersville","website":"http://www.forsyth.cc/library/","zip code":"27284-2939","street address":"130 East Mountain Street","telephone":"(336) 703-2930","id":"a6crn9s1vju1","library system":"Forsyth County Public Library","library name":"Kernersville Branch Library","state":"NC"},"type":"Feature","geometry":{"type":"Point","coordinates":[-80.072816,36.119591]}},{"properties":{"city":"Lewisville","website":"http://www.forsyth.cc/library/","zip code":"27023-7610","street address":"6490 Shallowford Road","telephone":"(336) 703-2940","id":"a6crn9sxxpdn","library system":"Forsyth County Public Library","library name":"Lewisville Branch Library","state":"NC"},"type":"Feature","geometry":{"type":"Point","coordinates":[-80.419681,36.097034]}},{"properties":{"city":"Winston-Salem","website":"http://www.forsyth.cc/library/","zip code":"27101-4215","street address":"1110 East Seventh Street","telephone":"(336) 703-2950","id":"a6crn9ww6xy0","library system":"Forsyth County Public Library","library name":"Malloy / Jordan East Winston Heritage Center","state":"NC"},"type":"Feature","geometry":{"type":"Point","coordinates":[-80.233088,36.102127]}},{"properties":{"city":"Winston-Salem","website":"http://www.forsyth.cc/library/","zip code":"27106-3897","street address":"2839 Fairlawn Drive","telephone":"(336) 703-2960","id":"a6crn9ym2vdj","library system":"Forsyth County Public Library","library name":"Reynolda Manor Branch Library","state":"NC"},"type":"Feature","geometry":{"type":"Point","coordinates":[-80.300927,36.140527]}},{"properties":{"city":"Rural Hall","website":"http://www.forsyth.cc/library/","zip code":"27045-9324","street address":"7125 Broad Street","telephone":"(336) 703-2970","id":"a6crn9ucav4g","library system":"Forsyth County Public Library","library name":"Rural Hall Branch Library","state":"NC"},"type":"Feature","geometry":{"type":"Point","coordinates":[-80.28678,36.225665]}},{"properties":{"city":"Winston-Salem","website":"http://www.forsyth.cc/library/","zip code":"27107-1596","street address":"2100 Reynolds Park Road","telephone":"(336) 788-6563","id":"a6crn9w3idcl","library system":"Forsyth County Public Library","library name":"Salvation Army Boys &amp; Girls Club Library","state":"NC"},"type":"Feature","geometry":{"type":"Point","coordinates":[-80.211281,36.088181]}},{"properties":{"city":"Winston-Salem","website":"http://www.forsyth.cc/library/","zip code":"27127-3870","street address":"3185 Buchanan Street","telephone":"(336) 703-2980","id":"a6crn9qmjsbb","library system":"Forsyth County Public Library","library name":"Southside Branch Library","state":"NC"},"type":"Feature","geometry":{"type":"Point","coordinates":[-80.254663,36.054369]}},{"properties":{"city":"Walkertown","website":"http://www.forsyth.cc/library/","zip code":"27051-9324","street address":"2969 Main Street","telephone":"(336) 703-2990","id":"a6crna402a63","library system":"Forsyth County Public Library","library name":"Walkertown Branch Library","state":"NC"},"type":"Feature","geometry":{"type":"Point","coordinates":[-80.151605,36.170708]}},{"properties":{"city":"Winston-Salem","website":"http://www.forsyth.cc/library/","zip code":"27101-2913","street address":"1031 Highland Ave","telephone":"(336) 722-0597","id":"a6crn9rgu3jv","library system":"Forsyth County Public Library","library name":"YWCA Best Choice Center","state":"NC"},"type":"Feature","geometry":{"type":"Point","coordinates":[-80.233156,36.107108]}},{"properties":{"city":"Bunn","website":"http://fcnclibrary.wordpress.com/","zip code":"27508-0213","street address":"610 Main Street","telephone":"(919) 496-6764","id":"a6crn9w25bfa","library system":"Franklin County Library","library name":"Bunn Branch Library","state":"NC"},"type":"Feature","geometry":{"type":"Point","coordinates":[-78.246195,35.953936]}},{"properties":{"city":"Louisburg","website":"http://fcnclibrary.wordpress.com/","zip code":"27549-2199","street address":"906 North Main Street","telephone":"(919) 496-2111","id":"a6crna2ll959","library system":"Franklin County Library","library name":"Franklin County Library","state":"NC"},"type":"Feature","geometry":{"type":"Point","coordinates":[-78.296602,36.110014]}},{"properties":{"city":"Franklinton","website":"http://fcnclibrary.wordpress.com/","zip code":"27525-1329","street address":"9 West Mason Street","telephone":"(919) 494-2736","id":"a6crn9x2x81q","library system":"Franklin County Library","library name":"Franklinton Public Library","state":"NC"},"type":"Feature","geometry":{"type":"Point","coordinates":[-78.456972,36.103595]}},{"properties":{"city":"Youngsville","website":"http://fcnclibrary.wordpress.com/","zip code":"27596-7610","street address":"218 US 1A Hwy South","telephone":"(919) 556-1612","id":"a6crn9u28hf3","library system":"Franklin County Library","library name":"Youngsville Branch Library","state":"NC"},"type":"Feature","geometry":{"type":"Point","coordinates":[-78.510756,36.023132]}},{"properties":{"city":"Belmont","website":"http://www.glrl.lib.nc.us/","zip code":"28012-3635","street address":"125 Central Avenue","telephone":"(704) 825-5426","id":"a6crn9z98h1j","library system":"Gaston-Lincoln Regional Library System","library name":"Belmont Branch Library","state":"NC"},"type":"Feature","geometry":{"type":"Point","coordinates":[-81.042189,35.24296]}},{"properties":{"city":"Bessemer City","website":"http://www.glrl.lib.nc.us/","zip code":"28016-2331","street address":"207 North 12th Street","telephone":"(704) 629-3321","id":"a6crna2ym3x4","library system":"Gaston-Lincoln Regional Library System","library name":"Bessemer City Library","state":"NC"},"type":"Feature","geometry":{"type":"Point","coordinates":[-81.283614,35.285821]}},{"properties":{"city":"Lincolnton","website":"http://www.glrl.lib.nc.us/","zip code":"28092-2651","street address":"306 West Main Street","telephone":"(704) 735-8044","id":"a6crn9ycqdnj","library system":"Gaston-Lincoln Regional Library System","library name":"Charles R. Jonas Library","state":"NC"},"type":"Feature","geometry":{"type":"Point","coordinates":[-81.259947,35.470353]}},{"properties":{"city":"Cherryville","website":"http://www.glrl.lib.nc.us/","zip code":"28021-3416","street address":"605 East Main Street","telephone":"(704) 435-6767","id":"a6crn9xcq9fg","library system":"Gaston-Lincoln Regional Library System","library name":"Cherryville Branch Library","state":"NC"},"type":"Feature","geometry":{"type":"Point","coordinates":[-81.373966,35.380672]}},{"properties":{"city":"Dallas","website":"http://www.glrl.lib.nc.us/","zip code":"28034-2013","street address":"105 South Holland Street","telephone":"(704) 922-3621","id":"a6crn9qff6y3","library system":"Gaston-Lincoln Regional Library System","library name":"Dallas Branch Library","state":"NC"},"type":"Feature","geometry":{"type":"Point","coordinates":[-81.17729,35.315425]}},{"properties":{"city":"Gastonia","website":"http://www.glrl.lib.nc.us/","zip code":"28052-1709","street address":"913 Pryor Street","telephone":"(704) 868-8046","id":"a6crn9yrlgfg","library system":"Gaston-Lincoln Regional Library System","library name":"Ferguson Branch Library - Erwin Center","state":"NC"},"type":"Feature","geometry":{"type":"Point","coordinates":[-81.192354,35.272889]}},{"properties":{"city":"Denver","website":"http://www.glrl.lib.nc.us/","zip code":"28037-9229","street address":"7837 Fairfield Forest Rd.","telephone":"(704) 483-3589","id":"a6crna4oenk3","library system":"Gaston-Lincoln Regional Library System","library name":"Florence Soule Shanklin Branch Library","state":"NC"},"type":"Feature","geometry":{"type":"Point","coordinates":[-80.980565,35.507975]}},{"properties":{"city":"Gastonia","website":"http://www.glrl.lib.nc.us/","zip code":"28054-5156","street address":"1555 East Garrison Boulevard","telephone":"(704) 868-2164","id":"a6crn9ywwwqn","library system":"Gaston-Lincoln Regional Library System","library name":"Gaston County Public Library","state":"NC"},"type":"Feature","geometry":{"type":"Point","coordinates":[-81.156777,35.252836]}},{"properties":{"city":"Lowell","website":"http://www.glrl.lib.nc.us/","zip code":"28098-1564","street address":"203 McAdenville Road","telephone":"(704) 824-1266","id":"a6crn9ro8hyl","library system":"Gaston-Lincoln Regional Library System","library name":"Lowell Branch Library","state":"NC"},"type":"Feature","geometry":{"type":"Point","coordinates":[-81.098587,35.267251]}},{"properties":{"city":"Mount Holly","website":"http://www.glrl.lib.nc.us/","zip code":"28120-1603","street address":"245 West Catawba Avenue","telephone":"(704) 827-3581","id":"a6crn9w1yhct","library system":"Gaston-Lincoln Regional Library System","library name":"Mt. Holly Branch Library","state":"NC"},"type":"Feature","geometry":{"type":"Point","coordinates":[-81.019832,35.295988]}},{"properties":{"city":"Stanley","website":"http://www.glrl.lib.nc.us/","zip code":"28164-1817","street address":"205 Peterson Street","telephone":"(704) 263-4166","id":"a6crn9v0napu","library system":"Gaston-Lincoln Regional Library System","library name":"Stanley Branch Library","state":"NC"},"type":"Feature","geometry":{"type":"Point","coordinates":[-81.094692,35.360985]}},{"properties":{"city":"Gastonia","website":"http://www.glrl.lib.nc.us/","zip code":"28056-8129","street address":"5800 Union Road","telephone":"(704) 852-4073","id":"a6crn9rfl62r","library system":"Gaston-Lincoln Regional Library System","library name":"Union Road Branch Library","state":"NC"},"type":"Feature","geometry":{"type":"Point","coordinates":[-81.13224,35.179003]}},{"properties":{"city":"Vale","website":"http://www.glrl.lib.nc.us/","zip code":"28168-8434","street address":"5545 West N.C. Hwy. 27","telephone":"(704) 276-9946","id":"a6crna32hfnj","library system":"Gaston-Lincoln Regional Library System","library name":"West Lincoln Branch Library","state":"NC"},"type":"Feature","geometry":{"type":"Point","coordinates":[-80.426267,35.401536]}},{"properties":{"city":"Oxford","website":"http://www.granville.lib.nc.us/","zip code":"27565-0339","street address":"1211 Hwy 158","telephone":"(919) 693-1231","id":"a6crn9yeptf1","library system":"Granville County Library System","library name":"Berea Branch Library","state":"NC"},"type":"Feature","geometry":{"type":"Point","coordinates":[-78.737213,36.314195]}},{"properties":{"city":"Oxford","website":"http://www.granville.lib.nc.us/","zip code":"27565-0339","street address":"210 Main Street","telephone":"(919) 693-1121","id":"a6crna1tx2c5","library system":"Granville County Library System","library name":"Granville County Library System","state":"NC"},"type":"Feature","geometry":{"type":"Point","coordinates":[-78.586968,36.309641]}},{"properties":{"city":"Creedmoor","website":"http://www.granville.lib.nc.us/","zip code":"27522-7381","street address":"1547 South Campus Drive","telephone":"(919) 528-1752","id":"a6crn9whsygg","library system":"Granville County Library System","library name":"South Branch Library","state":"NC"},"type":"Feature","geometry":{"type":"Point","coordinates":[-78.16745,36.433146]}},{"properties":{"city":"Stovall","website":"http://www.granville.lib.nc.us/","zip code":"27582-0000","street address":"101 US Highway 15 North","telephone":"(919) 693-5722","id":"a6crn9tkucsx","library system":"Granville County Library System","library name":"Stovall Branch Library","state":"NC"},"type":"Feature","geometry":{"type":"Point","coordinates":[-78.568391,36.451043]}},{"properties":{"city":"Greensboro","website":"http://www.greensboro-nc.gov/departments/Library/","zip code":"27408-4602","street address":"1530 Benjamin Parkway","telephone":"(336) 373-7540","id":"a6crna1kv7ae","library system":"Greensboro Public Library","library name":"Blanche Benjamin Branch Library","state":"NC"},"type":"Feature","geometry":{"type":"Point","coordinates":[-79.831144,36.102964]}},{"properties":{"city":"Greensboro","website":"http://www.greensboro-nc.gov/departments/Library/","zip code":"27403-3329","street address":"1901 West Florida Street","telephone":"(336) 297-5000","id":"a6crn9x72yt2","library system":"Greensboro Public Library","library name":"Glenwood Branch Library","state":"NC"},"type":"Feature","geometry":{"type":"Point","coordinates":[-79.821153,36.052287]}},{"properties":{"city":"Greensboro","website":"http://www.greensboro-nc.gov/departments/Library/","zip code":"27402-3178","street address":"219 North Church Street","telephone":"(336) 373-2474","id":"a6crn9ve5maz","library system":"Greensboro Public Library","library name":"Guilford -- Greensboro Public Library","state":"NC"},"type":"Feature","geometry":{"type":"Point","coordinates":[-79.78669,36.074318]}},{"properties":{"city":"Greensboro","website":"http://www.greensboro-nc.gov/departments/Library/","zip code":"27407-7623","street address":"2301 West Vandalia Road","telephone":"(336) 373-2925","id":"a6crn9w6xkav","library system":"Greensboro Public Library","library name":"Hemphill Branch Library","state":"NC"},"type":"Feature","geometry":{"type":"Point","coordinates":[-79.846856,36.019839]}},{"properties":{"city":"Greensboro","website":"http://www.greensboro-nc.gov/departments/Library/","zip code":"27410-2044","street address":"1420 Price Park Road","telephone":"(336) 373-2923","id":"a6crna2798gp","library system":"Greensboro Public Library","library name":"Kathleen Clay Edwards Family Branch","state":"NC"},"type":"Feature","geometry":{"type":"Point","coordinates":[-79.879548,36.107172]}},{"properties":{"city":"Greensboro","website":"http://www.greensboro-nc.gov/departments/Library/","zip code":"27405-5357","street address":"2509 Phillips Avenue","telephone":"(336) 373-5810","id":"a6crn9syvbxd","library system":"Greensboro Public Library","library name":"McGirt-Horton Branch Library","state":"NC"},"type":"Feature","geometry":{"type":"Point","coordinates":[-79.745139,36.095022]}},{"properties":{"city":"Greensboro","website":"http://www.greensboro-nc.gov/departments/Library/","zip code":"27406-2199","street address":"900 South Benbow Road","telephone":"(336) 373-5838","id":"a6crn9t04bvz","library system":"Greensboro Public Library","library name":"Vance H. Chavis Lifelong Learning Center","state":"NC"},"type":"Feature","geometry":{"type":"Point","coordinates":[-79.771127,36.064363]}},{"properties":{"city":"Enfield","website":"http://www.halifaxnc.com/library.cfm","zip code":"27823-0000","street address":"103 South Railroad St.","telephone":"(252) 445-5203","id":"a6crn9thstuu","library system":"Halifax County Library","library name":"Enfield Library","state":"NC"},"type":"Feature","geometry":{"type":"Point","coordinates":[-77.666894,36.180395]}},{"properties":{"city":"Halifax","website":"http://www.halifaxnc.com/library.cfm","zip code":"27839-0097","street address":"33 Granville Street","telephone":"(252) 583-3631","id":"a6crn9w3grg4","library system":"Halifax County Library","library name":"Halifax County Library","state":"NC"},"type":"Feature","geometry":{"type":"Point","coordinates":[-77.589156,36.327259]}},{"properties":{"city":"Littleton","website":"http://www.halifaxnc.com/library.cfm","zip code":"27850-0455","street address":"127 West South Main Street","telephone":"(252) 586-3608","id":"a6crn9uzmdzw","library system":"Halifax County Library","library name":"Littleton Public Library (WC Jones Memorial)","state":"NC"},"type":"Feature","geometry":{"type":"Point","coordinates":[-77.912969,36.434207]}},{"properties":{"city":"Scotland Neck","website":"http://www.halifaxnc.com/library.cfm","zip code":"27874-0126","street address":"1600 Main Street","telephone":"(252) 826-5578","id":"a6crn9sfdaf4","library system":"Halifax County Library","library name":"Scotland Neck Memorial Library","state":"NC"},"type":"Feature","geometry":{"type":"Point","coordinates":[-77.420127,36.136161]}},{"properties":{"city":"Weldon","website":"http://www.halifaxnc.com/library.cfm","zip code":"27890-1504","street address":"6 West First Street","telephone":"(252) 536-3837","id":"a6crn9zghdsy","library system":"Halifax County Library","library name":"Weldon Memorial Library","state":"NC"},"type":"Feature","geometry":{"type":"Point","coordinates":[-77.596181,36.428433]}},{"properties":{"city":"Bunnlevel","website":"http://www.harnett.org/library/","zip code":"28323-8522","street address":"914 Anderson Creek School Road","telephone":"(910) 814-4012","id":"a6crna4l3rxd","library system":"Harnett County Public Library","library name":"Anderson Creek Public Library","state":"NC"},"type":"Feature","geometry":{"type":"Point","coordinates":[-78.916106,35.282794]}},{"properties":{"city":"Angier","website":"http://www.harnett.org/library/","zip code":"27501-0442","street address":"28 North Raleigh Street","telephone":"(919) 639-4413","id":"a6crna5iub41","library system":"Harnett County Public Library","library name":"Angier Public Library","state":"NC"},"type":"Feature","geometry":{"type":"Point","coordinates":[-78.740775,35.509243]}},{"properties":{"city":"Coats","website":"http://www.harnett.org/library/","zip code":"27521-9397","street address":"243 South McKinley Street","telephone":"(910) 230-1944","id":"a6crna0pa0gq","library system":"Harnett County Public Library","library name":"Coats Public Library","state":"NC"},"type":"Feature","geometry":{"type":"Point","coordinates":[-78.672185,35.403839]}},{"properties":{"city":"Dunn","website":"http://www.harnett.org/library/","zip code":"28334-5304","street address":"110 East Divine Street","telephone":"(910) 892-2899","id":"a6crn9s5k37j","library system":"Harnett County Public Library","library name":"Dunn Public Library","state":"NC"},"type":"Feature","geometry":{"type":"Point","coordinates":[-78.609755,35.305441]}},{"properties":{"city":"Erwin","website":"http://www.harnett.org/library/","zip code":"28339-2029","street address":"110 West F Street","telephone":"(910) 897-5780","id":"a6crn9pszeax","library system":"Harnett County Public Library","library name":"Erwin Public Library","state":"NC"},"type":"Feature","geometry":{"type":"Point","coordinates":[-78.676121,35.325919]}},{"properties":{"city":"Lillington","website":"http://www.harnett.org/library/","zip code":"27546-1149","street address":"601 S. Main Street","telephone":"(910) 893-3446","id":"a6crna324rx4","library system":"Harnett County Public Library","library name":"Harnett County Public Library","state":"NC"},"type":"Feature","geometry":{"type":"Point","coordinates":[-78.732658,35.419212]}},{"properties":{"city":"Canton","website":"http://www.haywoodlibrary.org/","zip code":"28716-4532","street address":"11 Pennsylvania Avenue","telephone":"(828) 648-2924","id":"a6crna3eo9wl","library system":"Haywood County Public Library","library name":"Canton Branch Library","state":"NC"},"type":"Feature","geometry":{"type":"Point","coordinates":[-82.835156,35.529615]}},{"properties":{"city":"Clyde","website":"http://www.haywoodlibrary.org/","zip code":"28721-9319","street address":"190 Fines Creek Road","telephone":"(828) 627-0416","id":"a6crna5nvufx","library system":"Haywood County Public Library","library name":"Fines Creek Branch Library","state":"NC"},"type":"Feature","geometry":{"type":"Point","coordinates":[-82.954242,35.681346]}},{"properties":{"city":"Waynesville","website":"http://www.haywoodlibrary.org/","zip code":"28786-4398","street address":"678 South Haywood Street","telephone":"(828) 452-5169","id":"a6crn9pssvsj","library system":"Haywood County Public Library","library name":"Haywood County Public Library","state":"NC"},"type":"Feature","geometry":{"type":"Point","coordinates":[-82.991287,35.487204]}},{"properties":{"city":"Maggie Valley","website":"http://www.haywoodlibrary.org/","zip code":"28751-6404","street address":"3987 Soco Road","telephone":"(828) 926-0461","id":"a6crn9x70esh","library system":"Haywood County Public Library","library name":"Maggie Valley Library","state":"NC"},"type":"Feature","geometry":{"type":"Point","coordinates":[-83.094683,35.517814]}},{"properties":{"city":"Edneyville","website":"http://www.henderson.lib.nc.us/","zip code":"28792-8373","street address":"2 Firehouse Lane","telephone":"(828) 685-0110","id":"a6crna5ni3jk","library system":"Henderson County Public Library","library name":"Edneyville Branch Library","state":"NC"},"type":"Feature","geometry":{"type":"Point","coordinates":[-82.346263,35.389026]}},{"properties":{"city":"Etowah","website":"http://www.henderson.lib.nc.us/","zip code":"28729-9784","street address":"101 Brickyard Road","telephone":"(828) 891-6577","id":"a6crn9vaol0s","library system":"Henderson County Public Library","library name":"Etowah Branch Library","state":"NC"},"type":"Feature","geometry":{"type":"Point","coordinates":[-82.594967,35.319331]}},{"properties":{"city":"Fletcher","website":"http://www.henderson.lib.nc.us/","zip code":"28732-8257","street address":"120 Library Road","telephone":"(828) 687-1218","id":"a6crn9u9j2un","library system":"Henderson County Public Library","library name":"Fletcher Branch Library","state":"NC"},"type":"Feature","geometry":{"type":"Point","coordinates":[-82.502896,35.434964]}},{"properties":{"city":"Tuxedo","website":"http://www.henderson.lib.nc.us/","zip code":"28784-0158","street address":"50 Green River Road","telephone":"(828) 697-4969","id":"a6crn9yfiif3","library system":"Henderson County Public Library","library name":"Green River Branch Library","state":"NC"},"type":"Feature","geometry":{"type":"Point","coordinates":[-82.406927,35.257393]}},{"properties":{"city":"Hendersonville","website":"http://www.henderson.lib.nc.us/","zip code":"28739-4300","street address":"301 North Washington Street","telephone":"(828) 697-4725","id":"a6crn9zhhaw0","library system":"Henderson County Public Library","library name":"Henderson County Public Library","state":"NC"},"type":"Feature","geometry":{"type":"Point","coordinates":[-82.462404,35.315194]}},{"properties":{"city":"Mills River","website":"http://www.henderson.lib.nc.us/","zip code":"28759-5736","street address":"4683 Boylston Hwy.","telephone":"(828) 890-1850","id":"a6crna3m4wfi","library system":"Henderson County Public Library","library name":"Mills River Branch Library","state":"NC"},"type":"Feature","geometry":{"type":"Point","coordinates":[-79.545431,36.516712]}},{"properties":{"city":"Hickory","website":"http://www.hickorygov.com/department/?fDD=12-0","zip code":"28601-5126","street address":"375 3rd Street, Northeast","telephone":"(828) 304-0500","id":"a6crn9w9o5yb","library system":"Hickory Public Library","library name":"Patrick Beaver Memorial Library","state":"NC"},"type":"Feature","geometry":{"type":"Point","coordinates":[-81.333186,35.734235]}},{"properties":{"city":"Hickory","website":"http://www.hickorygov.com/department/?fDD=12-0","zip code":"28602-3507","street address":"706 First Street SW","telephone":"(828) 345-6037","id":"a6crn9pgb4yi","library system":"Hickory Public Library","library name":"Ridgeview Branch Library","state":"NC"},"type":"Feature","geometry":{"type":"Point","coordinates":[-81.339288,35.723784]}},{"properties":{"city":"High Point","website":"http://www.highpointpubliclibrary.com/","zip code":"27261-2530","street address":"901 N Main Street","telephone":"(336) 883-3631","id":"a6crn9sgnrz9","library system":"High Point Public Library","library name":"High Point Public Library","state":"NC"},"type":"Feature","geometry":{"type":"Point","coordinates":[-80.107697,35.647339]}},{"properties":{"city":"Chapel Hill","website":"http://www.co.orange.nc.us/library/hyconeechee.asp","zip code":"27516-7935","street address":"900 Fayetteville Road","telephone":"(919) 969-3006","id":"a6crn9x3yyh1","library system":"Hyconeechee Regional Library System","library name":"Carrboro Branch Library","state":"NC"},"type":"Feature","geometry":{"type":"Point","coordinates":[-79.100688,35.929647]}},{"properties":{"city":"Carrboro","website":"http://www.co.orange.nc.us/library/hyconeechee.asp","zip code":"27510-2016","street address":"100 North Greensboro Street","telephone":"(919) 918-7387","id":"a6crn9sf3ixz","library system":"Hyconeechee Regional Library System","library name":"Carrboro Cybrary","state":"NC"},"type":"Feature","geometry":{"type":"Point","coordinates":[-79.072271,35.910303]}},{"properties":{"city":"Hillsborough","website":"http://www.co.orange.nc.us/library/hyconeechee.asp","zip code":"27278-8935","street address":"5800 Hwy 86 North","telephone":"(919) 732-9211","id":"a6crn9xgpu3i","library system":"Hyconeechee Regional Library System","library name":"Cedar Grove Branch Library","state":"NC"},"type":"Feature","geometry":{"type":"Point","coordinates":[-79.117885,36.128552]}},{"properties":{"city":"Yanceyville","website":"http://www.co.orange.nc.us/library/hyconeechee.asp","zip code":"27379-8293","street address":"161 Main Street East","telephone":"(336) 694-6241","id":"a6crn9t89w8o","library system":"Hyconeechee Regional Library System","library name":"Gunn Memorial Public Library","state":"NC"},"type":"Feature","geometry":{"type":"Point","coordinates":[-79.33303,36.403921]}},{"properties":{"city":"Hillsborough","website":"http://www.co.orange.nc.us/library/hyconeechee.asp","zip code":"27278-2547","street address":"137 W. Margaret Lane","telephone":"(919) 644-3011","id":"a6crn9sk6c5j","library system":"Hyconeechee Regional Library System","library name":"Hyconeechee Regional Library","state":"NC"},"type":"Feature","geometry":{"type":"Point","coordinates":[-79.102432,36.07445]}},{"properties":{"city":"Hillsborough","website":"http://www.co.orange.nc.us/library/hyconeechee.asp","zip code":"27278-8181","street address":"300 West Margaret Lane","telephone":"(919) 644-3011","id":"a6crna5kplmm","library system":"Hyconeechee Regional Library System","library name":"Orange County Public Library","state":"NC"},"type":"Feature","geometry":{"type":"Point","coordinates":[-79.105524,36.074372]}},{"properties":{"city":"Roxboro","website":"http://www.co.orange.nc.us/library/hyconeechee.asp","zip code":"27573-5525","street address":"319 South Main Street","telephone":"(336) 597-7881","id":"a6crna5j2aer","library system":"Hyconeechee Regional Library System","library name":"Person County Public Library","state":"NC"},"type":"Feature","geometry":{"type":"Point","coordinates":[-78.985039,36.391807]}},{"properties":{"city":"Harmony","website":"http://www.iredell.lib.nc.us/","zip code":"28634-9436","street address":"3393 Harmony Highway","telephone":"(704) 546-7086","id":"a6crna32kigi","library system":"Iredell County Library","library name":"Harmony Branch Library","state":"NC"},"type":"Feature","geometry":{"type":"Point","coordinates":[-80.77158,35.95943]}},{"properties":{"city":"Statesville","website":"http://www.iredell.lib.nc.us/","zip code":"28687-1810","street address":"201 North Tradd Street","telephone":"(704) 878-3090","id":"a6crn9wsfeq9","library system":"Iredell County Library","library name":"Iredell County Library","state":"NC"},"type":"Feature","geometry":{"type":"Point","coordinates":[-80.887112,35.787756]}},{"properties":{"city":"Troutman","website":"http://www.iredell.lib.nc.us/","zip code":"28166-8606","street address":"215 W Church St","telephone":"(704) 528-2682","id":"a6crn9sbi9tx","library system":"Iredell County Library","library name":"J Hoyt Hyes Memorial Troutman Branch Library","state":"NC"},"type":"Feature","geometry":{"type":"Point","coordinates":[-80.890786,35.700878]}},{"properties":{"city":"Clayton","website":"http://www.pljcs.org/","zip code":"27520-2400","street address":"100 South Church Street","telephone":"(919) 553-5542","id":"a6crna3ualma","library system":"Public Library of Johnston County and Smithfield","library name":"Hocutt Ellington Memorial Library","state":"NC"},"type":"Feature","geometry":{"type":"Point","coordinates":[-78.458787,35.652299]}},{"properties":{"city":"Four Oaks","website":"http://www.pljcs.org/","zip code":"27524-0000","street address":"206 East Hatcher St","telephone":"(919) 963-6013","id":"a6crn9ur6qyk","library system":"Public Library of Johnston County and Smithfield","library name":"James Bryan Creech Library","state":"NC"},"type":"Feature","geometry":{"type":"Point","coordinates":[-78.431037,35.449904]}},{"properties":{"city":"Smithfield","website":"http://www.pljcs.org/","zip code":"27577-3919","street address":"305 Market Street","telephone":"(919) 934-8146","id":"a6crna1y2twc","library system":"Public Library of Johnston County and Smithfield","library name":"Johnston -- Public Library Of Johnston County &amp; Smithfield","state":"NC"},"type":"Feature","geometry":{"type":"Point","coordinates":[-78.345959,35.511184]}},{"properties":{"city":"Kenly","website":"http://www.pljcs.org/","zip code":"27542-0519","street address":"205 Edgerton Street","telephone":"(919) 284-4217","id":"a6crn9qpcuhq","library system":"Public Library of Johnston County and Smithfield","library name":"Kenly Public Library","state":"NC"},"type":"Feature","geometry":{"type":"Point","coordinates":[-78.12431,35.592309]}},{"properties":{"city":"Benson","website":"http://www.pljcs.org/","zip code":"27504-1457","street address":"100 West Main Street","telephone":"(919) 894-3724","id":"a6crna57kh6c","library system":"Public Library of Johnston County and Smithfield","library name":"Mary Duncan Public Library","state":"NC"},"type":"Feature","geometry":{"type":"Point","coordinates":[-78.547964,35.381429]}},{"properties":{"city":"Princeton","website":"http://www.pljcs.org/","zip code":"27569-0038","street address":"101 Dr. Donnie H. Jones, Jr. Boulevard E.","telephone":"(919) 936-9996","id":"a6crna27l2ra","library system":"Public Library of Johnston County and Smithfield","library name":"Princeton Public Library","state":"NC"},"type":"Feature","geometry":{"type":"Point","coordinates":[-78.599319,35.611258]}},{"properties":{"city":"Selma","website":"http://www.pljcs.org/","zip code":"27576-2524","street address":"301 N Pollock Street","telephone":"(919) 965-8613","id":"a6crn9sh3qsk","library system":"Public Library of Johnston County and Smithfield","library name":"Selma Public Library","state":"NC"},"type":"Feature","geometry":{"type":"Point","coordinates":[-78.283105,35.53799]}},{"properties":{"city":"Kings Mountain","website":"http://www.mauneylibrary.org/","zip code":"28086-3414","street address":"100 South Piedmont Avenue","telephone":"(704) 739-2371","id":"a6crn9q7le0v","library system":"Mauney Memorial Library","library name":"Kings Mountain -- Jacob S. Mauney Memorial Library","state":"NC"},"type":"Feature","geometry":{"type":"Point","coordinates":[-81.342382,35.240887]}},{"properties":{"city":"Broadway","website":"http://www.leecountync.gov/Departments/LibraryMain.aspx","zip code":"27505-9725","street address":"206 South Main Street","telephone":"(919) 258-6513","id":"a6crn9til8o7","library system":"Lee County Library","library name":"Broadway Branch Library","state":"NC"},"type":"Feature","geometry":{"type":"Point","coordinates":[-79.052211,35.455186]}},{"properties":{"city":"Sanford","website":"http://www.leecountync.gov/Departments/LibraryMain.aspx","zip code":"27330-5921","street address":"309 West Main Street","telephone":"(919) 776-3141","id":"a6crn9to7cuu","library system":"Lee County Library","library name":"Jonesboro Branch Library","state":"NC"},"type":"Feature","geometry":{"type":"Point","coordinates":[-79.153992,35.455891]}},{"properties":{"city":"Sanford","website":"http://www.leecountync.gov/Departments/LibraryMain.aspx","zip code":"27330-4399","street address":"107 Hawkins Avenue","telephone":"(919) 718-4665","id":"a6crna164z0g","library system":"Lee County Library","library name":"Lee County Library","state":"NC"},"type":"Feature","geometry":{"type":"Point","coordinates":[-79.177519,35.481768]}},{"properties":{"city":"Hot Springs","website":"http://www.madisoncountylibrary.org/","zip code":"28743-0175","street address":"88 Bridge Street","telephone":"(828) 622-3584","id":"a6crn9ymdok9","library system":"Madison County Public Library","library name":"Hot Springs Branch Library","state":"NC"},"type":"Feature","geometry":{"type":"Point","coordinates":[-82.829709,35.891698]}},{"properties":{"city":"Marshall","website":"http://www.madisoncountylibrary.org/","zip code":"28753-6901","street address":"1335 North Main Street","telephone":"(828) 649-3741","id":"a6crna5ihw7x","library system":"Madison County Public Library","library name":"Madison County Public Library","state":"NC"},"type":"Feature","geometry":{"type":"Point","coordinates":[-82.548613,35.827112]}},{"properties":{"city":"Mars Hill","website":"http://www.madisoncountylibrary.org/","zip code":"28754-0028","street address":"25 Library Street","telephone":"(828) 689-5183","id":"a6crna3ktgqo","library system":"Madison County Public Library","library name":"Mars Hill Branch Library","state":"NC"},"type":"Feature","geometry":{"type":"Point","coordinates":[-82.502229,35.43508]}},{"properties":{"city":"Marion","website":"http://www.mcdowellpubliclibrary.org/","zip code":"28752-3941","street address":"21 S. Main Street","telephone":null,"id":"a6crna11nhs4","library system":"McDowell County Public Library","library name":"McDowell County Law Library","state":"NC"},"type":"Feature","geometry":{"type":"Point","coordinates":[-81.992244,35.698662]}},{"properties":{"city":"Marion","website":"http://www.mcdowellpubliclibrary.org/","zip code":"28752-3999","street address":"90 West Court Street","telephone":"(828) 652-3858","id":"a6crn9u1m82x","library system":"McDowell County Public Library","library name":"McDowell County Public Library","state":"NC"},"type":"Feature","geometry":{"type":"Point","coordinates":[-82.010383,35.683578]}},{"properties":{"city":"Old Fort","website":"http://www.mcdowellpubliclibrary.org/","zip code":"28762-6805","street address":"65 East Mitchell Street","telephone":"(828) 668-7111","id":"a6crn9vqoote","library system":"McDowell County Public Library","library name":"Old Fort Branch Library","state":"NC"},"type":"Feature","geometry":{"type":"Point","coordinates":[-82.180046,35.62629]}},{"properties":{"city":"Charlotte","website":"http://www.cmlibrary.org/","zip code":"28202-2176","street address":"310 North Tryon Street","telephone":"(704) 416-0600","id":"a6crna06c4c5","library system":"Charlotte Mecklenburg Library","library name":"Central Library - Mecklenburg County","state":"NC"},"type":"Feature","geometry":{"type":"Point","coordinates":[-80.840748,35.228848]}},{"properties":{"city":"Cornelius","website":"http://www.cmlibrary.org/","zip code":"28031-0746","street address":"21105 Catawba Avenue","telephone":"(704) 416-3800","id":"a6crna3qt176","library system":"Charlotte Mecklenburg Library","library name":"Cornelius Branch Library","state":"NC"},"type":"Feature","geometry":{"type":"Point","coordinates":[-80.864325,35.483085]}},{"properties":{"city":"Davidson","website":"http://www.cmlibrary.org/","zip code":"28036-8096","street address":"119 South Main Street","telephone":"(704) 416-4000","id":"a6crna1nspic","library system":"Charlotte Mecklenburg Library","library name":"Davidson Branch Library","state":"NC"},"type":"Feature","geometry":{"type":"Point","coordinates":[-80.84871,35.498681]}},{"properties":{"city":"Charlotte","website":"http://www.cmlibrary.org/","zip code":"28208-3892","street address":"1230 Alleghany Street","telephone":"(704) 416-4200","id":"a6crn9qnas39","library system":"Charlotte Mecklenburg Library","library name":"Freedom Regional Library","state":"NC"},"type":"Feature","geometry":{"type":"Point","coordinates":[-80.889021,35.23761]}},{"properties":{"city":"Charlotte","website":"http://www.cmlibrary.org/","zip code":"28202-2514","street address":"300 East Seventh Street","telephone":"(704) 973-2780","id":"a6crn9wolgeg","library system":"Charlotte Mecklenburg Library","library name":"ImaginOn: the Joe &amp; Joan Martin Center","state":"NC"},"type":"Feature","geometry":{"type":"Point","coordinates":[-80.8376,35.227636]}},{"properties":{"city":"Matthews","website":"http://www.cmlibrary.org/","zip code":"28105-5316","street address":"230 Matthews Station St","telephone":"(704) 416-5000","id":"a6crn9y67oo6","library system":"Charlotte Mecklenburg Library","library name":"Matthews Branch Library","state":"NC"},"type":"Feature","geometry":{"type":"Point","coordinates":[-80.71858,35.116374]}},{"properties":{"city":"Charlotte","website":"http://www.cmlibrary.org/","zip code":"28227-9355","street address":"6840 Matthews-Mint Hill Road","telephone":"(704) 416-5200","id":"a6crn9s85gbp","library system":"Charlotte Mecklenburg Library","library name":"Mint Hill Branch Library","state":"NC"},"type":"Feature","geometry":{"type":"Point","coordinates":[-80.659397,35.172038]}},{"properties":{"city":"Charlotte","website":"http://www.cmlibrary.org/","zip code":"28211-3584","street address":"7015 Morrison Boulevard","telephone":"(704) 416-5400","id":"a6crn9xgh8zo","library system":"Charlotte Mecklenburg Library","library name":"Morrison Regional Library","state":"NC"},"type":"Feature","geometry":{"type":"Point","coordinates":[-80.822884,35.151108]}},{"properties":{"city":"Charlotte","website":"http://www.cmlibrary.org/","zip code":"28214-2200","street address":"4420 Hoyt Galvin Way","telephone":"(704) 416-5600","id":"a6crna30gmnn","library system":"Charlotte Mecklenburg Library","library name":"Mountain Island Library","state":"NC"},"type":"Feature","geometry":{"type":"Point","coordinates":[-80.960684,35.335202]}},{"properties":{"city":"Charlotte","website":"http://www.cmlibrary.org/","zip code":"28207-2199","street address":"1361 Queens Road","telephone":"(704) 416-5800","id":"a6crn9xbse6k","library system":"Charlotte Mecklenburg Library","library name":"Myers Park Branch Library","state":"NC"},"type":"Feature","geometry":{"type":"Point","coordinates":[-80.827734,35.196158]}},{"properties":{"city":"Huntersville","website":"http://www.cmlibrary.org/","zip code":"28078-4953","street address":"16500 Holly Crest Lane","telephone":"(704) 416-6000","id":"a6crn9qfgwdz","library system":"Charlotte Mecklenburg Library","library name":"North County Regional Library","state":"NC"},"type":"Feature","geometry":{"type":"Point","coordinates":[-80.863838,35.439918]}},{"properties":{"city":"Charlotte","website":"http://www.cmlibrary.org/","zip code":"28209-2608","street address":"101 Scaleybark Road","telephone":"(704) 416-6400","id":"a6crn9xah6ym","library system":"Charlotte Mecklenburg Library","library name":"Scaleybark Branch Library","state":"NC"},"type":"Feature","geometry":{"type":"Point","coordinates":[-80.875624,35.188818]}},{"properties":{"city":"Charlotte","website":"http://www.cmlibrary.org/","zip code":"28277-2527","street address":"5801 Rea Road","telephone":"(704) 416-6600","id":"a6crn9taxm4h","library system":"Charlotte Mecklenburg Library","library name":"South County Regional Library","state":"NC"},"type":"Feature","geometry":{"type":"Point","coordinates":[-80.81188,35.087489]}},{"properties":{"city":"Charlotte","website":"http://www.cmlibrary.org/","zip code":"28273-3114","street address":"13620 Steele Creek Road","telephone":"(704) 416-6800","id":"a6crna3dju4g","library system":"Charlotte Mecklenburg Library","library name":"Steele Creek Branch Library","state":"NC"},"type":"Feature","geometry":{"type":"Point","coordinates":[-80.987913,35.109151]}},{"properties":{"city":"Charlotte","website":"http://www.cmlibrary.org/","zip code":"28206-2064","street address":"4045 N. Tryon St.","telephone":"(704) 416-7000","id":"a6crn9xel4pi","library system":"Charlotte Mecklenburg Library","library name":"Sugar Creek Branch Library","state":"NC"},"type":"Feature","geometry":{"type":"Point","coordinates":[-80.834536,35.233253]}},{"properties":{"city":"Charlotte","website":"http://www.cmlibrary.org/","zip code":"28262-3473","street address":"301 East W.T. Harris Boulevard","telephone":"(704) 416-7200","id":"a6crn9z2i66w","library system":"Charlotte Mecklenburg Library","library name":"University City Regional Library","state":"NC"},"type":"Feature","geometry":{"type":"Point","coordinates":[-80.734653,35.301184]}},{"properties":{"city":"Charlotte","website":"http://www.cmlibrary.org/","zip code":"28208-6104","street address":"2157 West Boulevard","telephone":"(704) 416-7400","id":"a6crn9vs5whu","library system":"Charlotte Mecklenburg Library","library name":"West Boulevard Branch Library","state":"NC"},"type":"Feature","geometry":{"type":"Point","coordinates":[-80.896538,35.211627]}},{"properties":{"city":"Mooresville","website":"http://ci.mooresville.nc.us/portal/library","zip code":"28115-3277","street address":"304 South Main Street","telephone":"(704) 664-2927","id":"a6crna2zq57n","library system":"Mooresville Public Library","library name":"Mooresville Public Library","state":"NC"},"type":"Feature","geometry":{"type":"Point","coordinates":[-80.817048,35.579055]}},{"properties":{"city":"Andrews","website":"http://www.youseemore.com/nantahala/","zip code":"28901-0700","street address":"871 Main Street","telephone":"(828) 321-5956","id":"a6crn9x87fc2","library system":"Nantahala Regional Library System","library name":"Andrews Public Library","state":"NC"},"type":"Feature","geometry":{"type":"Point","coordinates":[-83.824924,35.201097]}},{"properties":{"city":"Robbinsville","website":"http://www.youseemore.com/nantahala/","zip code":"28771-0517","street address":"80 Knight Street","telephone":"(828) 479-8796","id":"a6crn9zhk3hu","library system":"Nantahala Regional Library System","library name":"Graham County Public Library","state":"NC"},"type":"Feature","geometry":{"type":"Point","coordinates":[-83.810775,35.326659]}},{"properties":{"city":"Hayesville","website":"http://www.youseemore.com/nantahala/","zip code":"28904-0900","street address":"26 Anderson Street","telephone":"(828) 389-8401","id":"a6crn9ru2ktc","library system":"Nantahala Regional Library System","library name":"Moss Memorial Library","state":"NC"},"type":"Feature","geometry":{"type":"Point","coordinates":[-83.816828,35.046731]}},{"properties":{"city":"Murphy","website":"http://www.youseemore.com/nantahala/","zip code":"28906-3096","street address":"9 Blumenthal Street","telephone":"(828) 837-2417","id":"a6crn9uxzoyr","library system":"Nantahala Regional Library System","library name":"Murphy Public Library","state":"NC"},"type":"Feature","geometry":{"type":"Point","coordinates":[-84.031973,35.086392]}},{"properties":{"city":"Murphy","website":"http://www.youseemore.com/nantahala/","zip code":"28906-3096","street address":"11 Blumenthal Street","telephone":"(828) 837-2025","id":"a6crna5121me","library system":"Nantahala Regional Library System","library name":"Nantahala Regional Library","state":"NC"},"type":"Feature","geometry":{"type":"Point","coordinates":[-84.031973,35.086392]}},{"properties":{"city":"Rocky Mount","website":"http://www.braswell-library.org/","zip code":"27804-4805","street address":"727 North Grace Street","telephone":"(252) 442-1951","id":"a6crn9un9q94","library system":"Braswell Memorial Library","library name":"Nash -- Braswell Memorial Public Library","state":"NC"},"type":"Feature","geometry":{"type":"Point","coordinates":[-77.797276,35.949799]}},{"properties":{"city":"Nashville","website":"http://www.townofnashville.com/library.html","zip code":"27856-1328","street address":"114 W. Church St.","telephone":"(252) 459-2106","id":"a6crna4gzxz5","library system":"Nashville Public Library","library name":"Nashville -- Harold D Cooley Library","state":"NC"},"type":"Feature","geometry":{"type":"Point","coordinates":[-77.966257,35.973175]}},{"properties":{"city":"Trenton","website":"http://www.neuselibrary.org/Neuse_Regional_Library/Neuse_Regional_Library.html","zip code":"28585-9802","street address":"4889 Highway 41 West","telephone":"(910) 324-5061","id":"a6crn9rf3q7e","library system":"Neuse Regional Library System","library name":"Comfort Branch Library","state":"NC"},"type":"Feature","geometry":{"type":"Point","coordinates":[-77.458662,35.041667]}},{"properties":{"city":"Snow Hill","website":"http://www.neuselibrary.org/Neuse_Regional_Library/Neuse_Regional_Library.html","zip code":"28580-1331","street address":"229 Kingold Boulevard, Suite G","telephone":"(252) 747-3437","id":"a6crn9utsbk6","library system":"Neuse Regional Library System","library name":"Greene County Library","state":"NC"},"type":"Feature","geometry":{"type":"Point","coordinates":[-77.681614,35.450646]}},{"properties":{"city":"Kinston","website":"http://www.neuselibrary.org/Neuse_Regional_Library/Neuse_Regional_Library.html","zip code":"28501-4399","street address":"510 North Queen Street","telephone":"(252) 527-7066","id":"a6crn9yxl13a","library system":"Neuse Regional Library System","library name":"Kinston-Lenoir County Public Library","state":"NC"},"type":"Feature","geometry":{"type":"Point","coordinates":[-77.58109,35.265209]}},{"properties":{"city":"La Grange","website":"http://www.neuselibrary.org/Neuse_Regional_Library/Neuse_Regional_Library.html","zip code":"28551-1713","street address":"119 East Washington Street","telephone":"(252) 566-3722","id":"a6crn9wtclmx","library system":"Neuse Regional Library System","library name":"La Grange Branch Library","state":"NC"},"type":"Feature","geometry":{"type":"Point","coordinates":[-77.788427,35.30497]}},{"properties":{"city":"Maysville","website":"http://www.neuselibrary.org/Neuse_Regional_Library/Neuse_Regional_Library.html","zip code":"28555-0205","street address":"605 Seventh Street","telephone":"(910) 743-3796","id":"a6crna1yjb37","library system":"Neuse Regional Library System","library name":"Maysville Branch Library","state":"NC"},"type":"Feature","geometry":{"type":"Point","coordinates":[-77.23154,34.902699]}},{"properties":{"city":"Pink Hill","website":"http://www.neuselibrary.org/Neuse_Regional_Library/Neuse_Regional_Library.html","zip code":"28572-0498","street address":"114 West Broadway Street","telephone":"(252) 568-3631","id":"a6crn9so08wz","library system":"Neuse Regional Library System","library name":"Pink Hill Branch Library","state":"NC"},"type":"Feature","geometry":{"type":"Point","coordinates":[-77.745082,35.055072]}},{"properties":{"city":"Pollocksville","website":"http://www.neuselibrary.org/Neuse_Regional_Library/Neuse_Regional_Library.html","zip code":"28573-0006","street address":"415 Green Hill Street","telephone":"(252) 224-5011","id":"a6crn9yaa5d7","library system":"Neuse Regional Library System","library name":"Pollocksville Public Library","state":"NC"},"type":"Feature","geometry":{"type":"Point","coordinates":[-77.223956,35.005265]}},{"properties":{"city":"Trenton","website":"http://www.neuselibrary.org/Neuse_Regional_Library/Neuse_Regional_Library.html","zip code":"28585-0005","street address":"204 Lakeview Drive","telephone":"(252) 448-4261","id":"a6crna114l4y","library system":"Neuse Regional Library System","library name":"Trenton Branch Library","state":"NC"},"type":"Feature","geometry":{"type":"Point","coordinates":[-77.354189,35.062502]}},{"properties":{"city":"Carolina Beach","website":"http://www.nhcgov.com/Library/Pages/default.aspx","zip code":"28428-5129","street address":"300 Cape Fear Boulevard","telephone":"(910) 798-6380","id":"a6crn9x3hkof","library system":"New Hanover County Public Library","library name":"Carolina Beach Library","state":"NC"},"type":"Feature","geometry":{"type":"Point","coordinates":[-77.89611,34.034048]}},{"properties":{"city":"Wilmington","website":"http://www.nhcgov.com/Library/Pages/default.aspx","zip code":"28401-4087","street address":"310 Princess Street","telephone":"(910) 798-6306","id":"a6crna0er56a","library system":"New Hanover County Public Library","library name":"Law Library","state":"NC"},"type":"Feature","geometry":{"type":"Point","coordinates":[-77.946059,34.236683]}},{"properties":{"city":"Wilmington","website":"http://www.nhcgov.com/Library/Pages/default.aspx","zip code":"28412-2207","street address":"5155 South College Road","telephone":"(910) 798-6390","id":"a6crna4rhcky","library system":"New Hanover County Public Library","library name":"Myrtle Grove Branch Library","state":"NC"},"type":"Feature","geometry":{"type":"Point","coordinates":[-77.892318,34.146171]}},{"properties":{"city":"Wilmington","website":"http://www.nhcgov.com/Library/Pages/default.aspx","zip code":"28401-3942","street address":"201 Chestnut Street","telephone":"(910) 798-6300","id":"a6crn9yzg22p","library system":"New Hanover County Public Library","library name":"New Hanover County Public Library","state":"NC"},"type":"Feature","geometry":{"type":"Point","coordinates":[-77.947685,34.237645]}},{"properties":{"city":"Wilmington","website":"http://www.nhcgov.com/Library/Pages/default.aspx","zip code":"28405-3637","street address":"1241 Military Cutoff Road","telephone":"(910) 798-6370","id":"a6crn9y7fozy","library system":"New Hanover County Public Library","library name":"Northeast Regional Library","state":"NC"},"type":"Feature","geometry":{"type":"Point","coordinates":[-77.828929,34.233163]}},{"properties":{"city":"Sparta","website":"http://www.nwrl.org/","zip code":"28675-8894","street address":"122 North Main Street","telephone":"(336) 372-5573","id":"a6crna3nu2zg","library system":"Northwestern Regional Library System","library name":"Alleghany County Public Library","state":"NC"},"type":"Feature","geometry":{"type":"Point","coordinates":[-81.121517,36.506097]}},{"properties":{"city":"Boonville","website":"http://www.nwrl.org/","zip code":"27011-0000","street address":"121 West Main Street","telephone":"(336) 367-7737","id":"a6crn9ztsfnv","library system":"Northwestern Regional Library System","library name":"Boonville Community Public Library","state":"NC"},"type":"Feature","geometry":{"type":"Point","coordinates":[-80.708803,36.232765]}},{"properties":{"city":"Pilot Mountain","website":"http://www.nwrl.org/","zip code":"27041-1366","street address":"319 West Main Street","telephone":"(336) 368-2370","id":"a6crna1f9v47","library system":"Northwestern Regional Library System","library name":"Charles H. Stone Memorial Library","state":"NC"},"type":"Feature","geometry":{"type":"Point","coordinates":[-80.470092,36.386557]}},{"properties":{"city":"Danbury","website":"http://www.nwrl.org/","zip code":"27016-0218","street address":"1104 Main Street","telephone":"(336) 593-2419","id":"a6crn9vl25ux","library system":"Northwestern Regional Library System","library name":"Danbury Public Library","state":"NC"},"type":"Feature","geometry":{"type":"Point","coordinates":[-80.219358,36.412359]}},{"properties":{"city":"Dobson","website":"http://www.nwrl.org/","zip code":"27017-0237","street address":"113 South Crutchfield","telephone":"(336) 386-8208","id":"a6crna2crgjl","library system":"Northwestern Regional Library System","library name":"Dobson Community Library","state":"NC"},"type":"Feature","geometry":{"type":"Point","coordinates":[-80.72363,36.39516]}},{"properties":{"city":"East Bend","website":"http://www.nwrl.org/","zip code":"27018-0069","street address":"332 West Main Street","telephone":"(336) 699-3890","id":"a6crn9x9f15e","library system":"Northwestern Regional Library System","library name":"East Bend Public Library","state":"NC"},"type":"Feature","geometry":{"type":"Point","coordinates":[-80.501067,36.217145]}},{"properties":{"city":"Elkin","website":"http://www.nwrl.org/","zip code":"28621-3398","street address":"111 North Front Street","telephone":"(336) 835-5586","id":"a6crna59t6az","library system":"Northwestern Regional Library System","library name":"Elkin Public Library","state":"NC"},"type":"Feature","geometry":{"type":"Point","coordinates":[-80.854049,36.243754]}},{"properties":{"city":"Jonesville","website":"http://www.nwrl.org/","zip code":"28642-2125","street address":"150 West Main Street","telephone":"(336) 835-7604","id":"a6crn9ye0688","library system":"Northwestern Regional Library System","library name":"Jonesville Public Library","state":"NC"},"type":"Feature","geometry":{"type":"Point","coordinates":[-80.84343,36.234126]}},{"properties":{"city":"King","website":"http://www.nwrl.org/","zip code":"27021-0451","street address":"101 Pilot View Drive","telephone":"(336) 983-3868","id":"a6crn9xr2dpn","library system":"Northwestern Regional Library System","library name":"King Public Library","state":"NC"},"type":"Feature","geometry":{"type":"Point","coordinates":[-80.364243,36.283542]}},{"properties":{"city":"Lowgap","website":"http://www.nwrl.org/","zip code":"27024-7124","street address":"5210 West Pine Street","telephone":"(336) 352-3000","id":"a6crn9z63jjz","library system":"Northwestern Regional Library System","library name":"Lowgap Public Library","state":"NC"},"type":"Feature","geometry":{"type":"Point","coordinates":[-80.801824,36.489827]}},{"properties":{"city":"Mount Airy","website":"http://www.nwrl.org/","zip code":"27030-4797","street address":"145 Rockford Street","telephone":"(336) 789-5108","id":"a6crn9qfwe4j","library system":"Northwestern Regional Library System","library name":"Mount Airy Public Library","state":"NC"},"type":"Feature","geometry":{"type":"Point","coordinates":[-80.607393,36.498581]}},{"properties":{"city":"Walnut Cove","website":"http://www.nwrl.org/","zip code":"27052-0706","street address":"106 West Fifth Street","telephone":"(336) 591-7496","id":"a6crn9tngzdg","library system":"Northwestern Regional Library System","library name":"Walnut Cove Public Library","state":"NC"},"type":"Feature","geometry":{"type":"Point","coordinates":[-80.141272,36.298184]}},{"properties":{"city":"Yadkinville","website":"http://www.nwrl.org/","zip code":"27055-0607","street address":"233 East Main Street","telephone":"(336) 679-8792","id":"a6crn9xazl9y","library system":"Northwestern Regional Library System","library name":"Yadkin County Public Library","state":"NC"},"type":"Feature","geometry":{"type":"Point","coordinates":[-80.652954,36.134893]}},{"properties":{"city":"Jacksonville","website":"http://www.onslowcountync.gov/library/","zip code":"28540-5197","street address":"58 Doris Avenue, East","telephone":"(910) 455-7350","id":"a6crn9sec75n","library system":"Onslow County Public Library","library name":"Onslow County Public Library","state":"NC"},"type":"Feature","geometry":{"type":"Point","coordinates":[-77.429643,34.777839]}},{"properties":{"city":"Richlands","website":"http://www.onslowcountync.gov/library/","zip code":"28574-0086","street address":"299 S Wilmington Street","telephone":"(910) 324-5321","id":"a6crn9wu0qok","library system":"Onslow County Public Library","library name":"Richlands Public Library","state":"NC"},"type":"Feature","geometry":{"type":"Point","coordinates":[-77.544694,34.902032]}},{"properties":{"city":"Sneads Ferry","website":"http://www.onslowcountync.gov/library/","zip code":"28460-0308","street address":"242 Sneads Ferry Road","telephone":"(910) 327-6471","id":"a6crn9q3b1k9","library system":"Onslow County Public Library","library name":"Sneads Ferry Branch Library","state":"NC"},"type":"Feature","geometry":{"type":"Point","coordinates":[-77.395614,34.552194]}},{"properties":{"city":"Swansboro","website":"http://www.onslowcountync.gov/library/","zip code":"28584-0548","street address":"1460 W Corbett Avenue","telephone":"(910) 326-4888","id":"a6crna3o4dpv","library system":"Onslow County Public Library","library name":"Swansboro Branch Library","state":"NC"},"type":"Feature","geometry":{"type":"Point","coordinates":[-77.159757,34.70635]}},{"properties":{"city":"Hampstead","website":"http://www.youseemore.com/PenderPL/","zip code":"28443-3597","street address":"75 Library Drive","telephone":"(910) 270-4603","id":"a6crn9qgw62m","library system":"Pender County Public Library","library name":"Hampstead Branch Library","state":"NC"},"type":"Feature","geometry":{"type":"Point","coordinates":[-77.647197,34.419335]}},{"properties":{"city":"Burgaw","website":"http://www.youseemore.com/PenderPL/","zip code":"28425-0879","street address":"103 S Cowan Street","telephone":"(910) 259-6558","id":"a6crna2466da","library system":"Pender County Public Library","library name":"Pender County Public Library","state":"NC"},"type":"Feature","geometry":{"type":"Point","coordinates":[-77.923884,34.551965]}},{"properties":{"city":"Hertford","website":"http://www.pettigrewlibraries.org/","zip code":"27944-1306","street address":"110 West Academy Street","telephone":"(252) 426-5319","id":"a6crn9tz8f43","library system":"Pettigrew Regional Library System","library name":"Perquimans County Library","state":"NC"},"type":"Feature","geometry":{"type":"Point","coordinates":[-76.470243,36.188853]}},{"properties":{"city":"Plymouth","website":"http://www.pettigrewlibraries.org/","zip code":"27962-0906","street address":"201 East Third Street","telephone":"(252) 793-2875","id":"a6crn9w8ks16","library system":"Pettigrew Regional Library System","library name":"Pettigrew Regional Library","state":"NC"},"type":"Feature","geometry":{"type":"Point","coordinates":[-76.748155,35.865463]}},{"properties":{"city":"Edenton","website":"http://www.pettigrewlibraries.org/","zip code":"27932-1854","street address":"106 W Water Street","telephone":"(252) 482-4112","id":"a6crn9vstned","library system":"Pettigrew Regional Library System","library name":"Shepard-Pruden Memorial Library","state":"NC"},"type":"Feature","geometry":{"type":"Point","coordinates":[-76.610454,36.057232]}},{"properties":{"city":"Columbia","website":"http://www.pettigrewlibraries.org/","zip code":"27925-0540","street address":"414 Main Street","telephone":"(252) 796-3771","id":"a6crn9wcy3wy","library system":"Pettigrew Regional Library System","library name":"Tyrrell County Library","state":"NC"},"type":"Feature","geometry":{"type":"Point","coordinates":[-76.252192,35.917741]}},{"properties":{"city":"Plymouth","website":"http://www.pettigrewlibraries.org/","zip code":"27962-0786","street address":"201 E Third Streeet","telephone":"(252) 793-2113","id":"a6crn9qgenx6","library system":"Pettigrew Regional Library System","library name":"Washington County Library","state":"NC"},"type":"Feature","geometry":{"type":"Point","coordinates":[-76.748155,35.865463]}},{"properties":{"city":"Bethel","website":"http://www.sheppardlibrary.org/","zip code":"27812-1170","street address":"201 Ives Street","telephone":"(252) 825-0782","id":"a6crn9wguw12","library system":"Sheppard Memorial Library","library name":"Blount Library","state":"NC"},"type":"Feature","geometry":{"type":"Point","coordinates":[-77.375138,35.808255]}},{"properties":{"city":"Greenville","website":"http://www.sheppardlibrary.org/","zip code":"27834-3016","street address":"618 West 14th Avenue","telephone":"(252) 329-4583","id":"a6crn9u334jz","library system":"Sheppard Memorial Library","library name":"Carver Branch Library","state":"NC"},"type":"Feature","geometry":{"type":"Point","coordinates":[-77.387112,35.61179]}},{"properties":{"city":"Greenville","website":"http://www.sheppardlibrary.org/","zip code":"27858-4845","street address":"2000 Cedar Lane","telephone":"(252) 329-4582","id":"a6crn9pa5i5w","library system":"Sheppard Memorial Library","library name":"East Branch Library","state":"NC"},"type":"Feature","geometry":{"type":"Point","coordinates":[-77.342708,35.595416]}},{"properties":{"city":"Greenville","website":"http://www.sheppardlibrary.org/","zip code":"27858-2398","street address":"530 South Evans Street","telephone":"(252) 329-4580","id":"a6crn9zatqac","library system":"Sheppard Memorial Library","library name":"Pitt -- Sheppard Memorial Library","state":"NC"},"type":"Feature","geometry":{"type":"Point","coordinates":[-77.373288,35.610148]}},{"properties":{"city":"Winterville","website":"http://www.sheppardlibrary.org/","zip code":"28590-0395","street address":"2613 Railroad Street","telephone":"(252) 756-1786","id":"a6crna2gkunj","library system":"Sheppard Memorial Library","library name":"Winterville Public Library","state":"NC"},"type":"Feature","geometry":{"type":"Point","coordinates":[-77.402703,35.526867]}},{"properties":{"city":"Columbus","website":"http://publib.polknc.org/","zip code":"28722-7497","street address":"1289 West Mills Street","telephone":"(828) 894-8721","id":"a6crn9x94oc2","library system":"Polk County Public Library","library name":"Polk County Public Library","state":"NC"},"type":"Feature","geometry":{"type":"Point","coordinates":[-82.205677,35.245413]}},{"properties":{"city":"Saluda","website":"http://publib.polknc.org/","zip code":"28773-9769","street address":"44 West Main St.","telephone":"(828) 749-2117","id":"a6crn9qre2fx","library system":"Polk County Public Library","library name":"Saluda Branch Library","state":"NC"},"type":"Feature","geometry":{"type":"Point","coordinates":[-82.345333,35.235817]}},{"properties":{"city":"Archdale","website":"http://www.randolphlibrary.org/","zip code":"27263-3361","street address":"10433 South Main Street","telephone":"(336) 431-3811","id":"a6crn9wqsfsu","library system":"Randolph County Public Library","library name":"Archdale Public Library","state":"NC"},"type":"Feature","geometry":{"type":"Point","coordinates":[-79.938909,35.893563]}},{"properties":{"city":"Asheboro","website":"http://www.randolphlibrary.org/","zip code":"27203-5593","street address":"201 Worth Street","telephone":"(336) 318-6800","id":"a6crn9p9fse6","library system":"Randolph County Public Library","library name":"Asheboro Public Library","state":"NC"},"type":"Feature","geometry":{"type":"Point","coordinates":[-79.81186,35.705824]}},{"properties":{"city":"Franklinville","website":"http://www.randolphlibrary.org/","zip code":"27248-0280","street address":"111 Sumner Place","telephone":"(336) 824-4020","id":"a6crn9to0g2l","library system":"Randolph County Public Library","library name":"John W. Clark Public Library","state":"NC"},"type":"Feature","geometry":{"type":"Point","coordinates":[-79.694349,35.744012]}},{"properties":{"city":"Liberty","website":"http://www.randolphlibrary.org/","zip code":"27298-1006","street address":"239 South Fayetteville Street","telephone":"(336) 622-4605","id":"a6crna1xo7l1","library system":"Randolph County Public Library","library name":"Liberty Public Library","state":"NC"},"type":"Feature","geometry":{"type":"Point","coordinates":[-79.570241,35.849769]}},{"properties":{"city":"Ramseur","website":"http://www.randolphlibrary.org/","zip code":"27316-0546","street address":"1512 South Main Street","telephone":"(336) 824-2232","id":"a6crn9pbqwnn","library system":"Randolph County Public Library","library name":"Ramseur Public Library","state":"NC"},"type":"Feature","geometry":{"type":"Point","coordinates":[-79.654546,35.733243]}},{"properties":{"city":"Randleman","website":"http://www.randolphlibrary.org/","zip code":"27317-2220","street address":"122 Commerce Square","telephone":"(336) 498-3141","id":"a6crn9vrsdua","library system":"Randolph County Public Library","library name":"Randleman Public Library","state":"NC"},"type":"Feature","geometry":{"type":"Point","coordinates":[-79.803668,35.817655]}},{"properties":{"city":"Seagrove","website":"http://www.randolphlibrary.org/","zip code":"27341-0258","street address":"530 Seagrove Plank Road","telephone":"(336) 873-7521","id":"a6crn9yrjf70","library system":"Randolph County Public Library","library name":"Seagrove Public Library","state":"NC"},"type":"Feature","geometry":{"type":"Point","coordinates":[-79.775739,35.563791]}},{"properties":{"city":"Roanoke Rapids","website":"http://www.youseemore.com/RoanokeRapids/","zip code":"27870-1917","street address":"319 Roanoke Avenue","telephone":"(252) 533-2890","id":"a6crn9uuy4as","library system":"Roanoke Rapids Public Library","library name":"Roanoke Rapids Public Library","state":"NC"},"type":"Feature","geometry":{"type":"Point","coordinates":[-77.651386,36.46752]}},{"properties":{"city":"Maxton","website":"http://www.robesoncountylibrary.org/","zip code":"28364-1722","street address":"210 N Florence Street","telephone":"(910) 844-3884","id":"a6crn9yzfcxa","library system":"Robeson County Public Library","library name":"Gilbert Patterson Memorial Library","state":"NC"},"type":"Feature","geometry":{"type":"Point","coordinates":[-79.349462,34.739578]}},{"properties":{"city":"Fairmont","website":"http://www.robesoncountylibrary.org/","zip code":"28340-1902","street address":"106 South Main Street","telephone":"(910) 628-9331","id":"a6crn9zg7864","library system":"Robeson County Public Library","library name":"Hector Maclean Public Library","state":"NC"},"type":"Feature","geometry":{"type":"Point","coordinates":[-79.114454,34.492457]}},{"properties":{"city":"Pembroke","website":"http://www.robesoncountylibrary.org/","zip code":"28372-9640","street address":"413 Blaine Street","telephone":"(910) 521-1554","id":"a6crn9zs6v0a","library system":"Robeson County Public Library","library name":"Pembroke Public Library","state":"NC"},"type":"Feature","geometry":{"type":"Point","coordinates":[-79.192238,34.6774]}},{"properties":{"city":"Lumberton","website":"http://www.robesoncountylibrary.org/","zip code":"28359-0988","street address":"101 North Chestnut Street","telephone":"(910) 738-4859","id":"a6crn9wshqbl","library system":"Robeson County Public Library","library name":"Robeson County Public Library","state":"NC"},"type":"Feature","geometry":{"type":"Point","coordinates":[-79.007795,34.617145]}},{"properties":{"city":"Rowland","website":"http://www.robesoncountylibrary.org/","zip code":"28383-0010","street address":"113 E Main Street","telephone":"(910) 422-3996","id":"a6crn9xfj91l","library system":"Robeson County Public Library","library name":"Rowland Public Library","state":"NC"},"type":"Feature","geometry":{"type":"Point","coordinates":[-79.290213,34.536131]}},{"properties":{"city":"Saint Pauls","website":"http://www.robesoncountylibrary.org/","zip code":"28384-1611","street address":"223 W Broad Street","telephone":"(910) 865-4002","id":"a6crn9xkjigl","library system":"Robeson County Public Library","library name":"St. Pauls Public Library","state":"NC"},"type":"Feature","geometry":{"type":"Point","coordinates":[-78.972783,34.806821]}},{"properties":{"city":"Eden","website":"http://www.rcpl.org/","zip code":"27288-5298","street address":"598 S Pierce Street","telephone":"(336) 623-3168","id":"a6crn9px6yno","library system":"Rockingham County Public Library","library name":"Eden Branch Library","state":"NC"},"type":"Feature","geometry":{"type":"Point","coordinates":[-79.736714,36.494076]}},{"properties":{"city":"Madison","website":"http://www.rcpl.org/","zip code":"27025-1967","street address":"140 E Murphy Street","telephone":"(336) 548-6553","id":"a6crn9zwskoj","library system":"Rockingham County Public Library","library name":"Madison Branch Library","state":"NC"},"type":"Feature","geometry":{"type":"Point","coordinates":[-79.959095,36.387535]}},{"properties":{"city":"Mayodan","website":"http://www.rcpl.org/","zip code":"27027-2141","street address":"101 N Tenth Avenue","telephone":"(336) 548-6951","id":"a6crn9vavmau","library system":"Rockingham County Public Library","library name":"Mayodan Branch Library","state":"NC"},"type":"Feature","geometry":{"type":"Point","coordinates":[-79.976387,36.41495]}},{"properties":{"city":"Reidsville","website":"http://www.rcpl.org/","zip code":"27320-3892","street address":"204 West Morehead Street","telephone":"(336) 349-8476","id":"a6crn9pvg3ga","library system":"Rockingham County Public Library","library name":"Reidsville Branch Library","state":"NC"},"type":"Feature","geometry":{"type":"Point","coordinates":[-79.66442,36.361585]}},{"properties":{"city":"Eden","website":"http://www.rcpl.org/","zip code":"27288-4997","street address":"527 Boone Road","telephone":"(336) 627-1106","id":"a6crn9zh2w5i","library system":"Rockingham County Public Library","library name":"Rockingham County Public Library","state":"NC"},"type":"Feature","geometry":{"type":"Point","coordinates":[-79.761501,36.495647]}},{"properties":{"city":"Stoneville","website":"http://www.rcpl.org/","zip code":"27048-0020","street address":"201 East Main Street","telephone":"(336) 573-9040","id":"a6crna1n18m7","library system":"Rockingham County Public Library","library name":"Stoneville Branch Library","state":"NC"},"type":"Feature","geometry":{"type":"Point","coordinates":[-79.906187,36.46664]}},{"properties":{"city":"Rockwell","website":"http://www.rowancountync.gov/GOVERNMENT/Departments/RowanPublicLibrary/tabid/145/Default.aspx","zip code":"28138-0548","street address":"110 Broad Street","telephone":"(704) 216-7838","id":"a6crn9zgoaza","library system":"Rowan Public Library","library name":"East Branch Library","state":"NC"},"type":"Feature","geometry":{"type":"Point","coordinates":[-80.406602,35.5512]}},{"properties":{"city":"Salisbury","website":"http://www.rowancountync.gov/GOVERNMENT/Departments/RowanPublicLibrary/tabid/145/Default.aspx","zip code":"28145-4039","street address":"201 W Fisher Street","telephone":"(704) 216-8228","id":"a6crna15t7vt","library system":"Rowan Public Library","library name":"Rowan Public Library","state":"NC"},"type":"Feature","geometry":{"type":"Point","coordinates":[-80.47213,35.667458]}},{"properties":{"city":"China Grove","website":"http://www.rowancountync.gov/GOVERNMENT/Departments/RowanPublicLibrary/tabid/145/Default.aspx","zip code":"28023-9594","street address":"920 Kimball Road","telephone":"(704) 216-7727","id":"a6crn9t50gil","library system":"Rowan Public Library","library name":"South Rowan Regional Library","state":"NC"},"type":"Feature","geometry":{"type":"Point","coordinates":[-80.6071,35.572546]}},{"properties":{"city":"Henrietta","website":"http://www.rutherfordcountylibrary.org/","zip code":"28076-0000","street address":"141 North Main Street, Suite 110","telephone":"(828) 657-5278","id":"a6crn9spkdah","library system":"Rutherford County Library","library name":"Haynes Public Library","state":"NC"},"type":"Feature","geometry":{"type":"Point","coordinates":[-81.791569,35.268713]}},{"properties":{"city":"Lake Lure","website":"http://www.rutherfordcountylibrary.org/","zip code":"28746-9316","street address":"150 Bills Creek Road","telephone":"(828) 625-0456","id":"a6crn9uyd4yz","library system":"Rutherford County Library","library name":"Mountains Branch Library","state":"NC"},"type":"Feature","geometry":{"type":"Point","coordinates":[-82.162566,35.425323]}},{"properties":{"city":"Spindale","website":"http://www.rutherfordcountylibrary.org/","zip code":"28160-2207","street address":"255 Callahan Koon Road","telephone":"(828) 287-6115","id":"a6crn9tr87sb","library system":"Rutherford County Library","library name":"Rutherford County Library","state":"NC"},"type":"Feature","geometry":{"type":"Point","coordinates":[-81.910723,35.347871]}},{"properties":{"city":"Newton Grove","website":"http://sites.google.com/site/sampsonclintonpubliclibrary/","zip code":"28366-0188","street address":"302 West Weeksdale Street","telephone":"(910) 594-1260","id":"a6crn9r2bzrp","library system":"Sampson-Clinton Public Library System","library name":"Bryan Memorial Library","state":"NC"},"type":"Feature","geometry":{"type":"Point","coordinates":[-78.355264,35.242735]}},{"properties":{"city":"Clinton","website":"http://sites.google.com/site/sampsonclintonpubliclibrary/","zip code":"28328-4111","street address":"217 Graham Street","telephone":"(910) 592-4153","id":"a6crn9sdmtdy","library system":"Sampson-Clinton Public Library System","library name":"J.C. Holliday Library","state":"NC"},"type":"Feature","geometry":{"type":"Point","coordinates":[-78.322191,34.997615]}},{"properties":{"city":"Garland","website":"http://sites.google.com/site/sampsonclintonpubliclibrary/","zip code":"28441-0426","street address":"144 South Church Avenue","telephone":"(910) 529-2441","id":"a6crn9ztpk1b","library system":"Sampson-Clinton Public Library System","library name":"Miriam Lamb Memorial Library","state":"NC"},"type":"Feature","geometry":{"type":"Point","coordinates":[-78.390901,34.789014]}},{"properties":{"city":"Roseboro","website":"http://sites.google.com/site/sampsonclintonpubliclibrary/","zip code":"28382-2066","street address":"300 West Roseboro Street","telephone":"(910) 525-5436","id":"a6crna0l5s68","library system":"Sampson-Clinton Public Library System","library name":"Roseboro Public Library","state":"NC"},"type":"Feature","geometry":{"type":"Point","coordinates":[-78.512706,34.952142]}},{"properties":{"city":"Biscoe","website":"http://www.srls.info/index.html","zip code":"27209-9801","street address":"307 Page Street","telephone":"(910) 428-2551","id":"a6crna2b1z78","library system":"Sandhill Regional Library System","library name":"Allen Library","state":"NC"},"type":"Feature","geometry":{"type":"Point","coordinates":[-79.780431,35.361889]}},{"properties":{"city":"Candor","website":"http://www.srls.info/index.html","zip code":"27229-8017","street address":"138 S School Street","telephone":"(910) 974-4033","id":"a6crn9t9o6z7","library system":"Sandhill Regional Library System","library name":"Currie Memorial Library","state":"NC"},"type":"Feature","geometry":{"type":"Point","coordinates":[-79.74665,35.29079]}},{"properties":{"city":"Hamlet","website":"http://www.srls.info/index.html","zip code":"28345-3300","street address":"302 Main Street","telephone":"(910) 582-3477","id":"a6crn9qxf66f","library system":"Sandhill Regional Library System","library name":"Hamlet Public Library","state":"NC"},"type":"Feature","geometry":{"type":"Point","coordinates":[-79.703709,34.885674]}},{"properties":{"city":"Wadesboro","website":"http://www.srls.info/index.html","zip code":"28170-2773","street address":"120 South Greene Street","telephone":"(704) 694-5177","id":"a6crn9shcodn","library system":"Sandhill Regional Library System","library name":"Hampton B. Allen Library","state":"NC"},"type":"Feature","geometry":{"type":"Point","coordinates":[-80.07699,34.965291]}},{"properties":{"city":"Raeford","website":"http://www.srls.info/index.html","zip code":"28376-2696","street address":"334 North Main Street","telephone":"(910) 875-2502","id":"a6crna3p3nv7","library system":"Sandhill Regional Library System","library name":"Hoke County Public Library","state":"NC"},"type":"Feature","geometry":{"type":"Point","coordinates":[-79.224035,34.984247]}},{"properties":{"city":"Ellerbe","website":"http://www.srls.info/index.html","zip code":"28338-0499","street address":"279 2nd Street","telephone":"(910) 652-6130","id":"a6crn9rdakn0","library system":"Sandhill Regional Library System","library name":"Kemp Sugg Memorial Library","state":"NC"},"type":"Feature","geometry":{"type":"Point","coordinates":[-79.762504,35.072572]}},{"properties":{"city":"Rockingham","website":"http://www.srls.info/index.html","zip code":"28379-3607","street address":"412 East Franklin Street","telephone":"(910) 895-6337","id":"a6crn9yjl7gs","library system":"Sandhill Regional Library System","library name":"Leath Memorial Library","state":"NC"},"type":"Feature","geometry":{"type":"Point","coordinates":[-79.770753,34.938535]}},{"properties":{"city":"Troy","website":"http://www.srls.info/index.html","zip code":"27371-2999","street address":"215  West Main Street","telephone":"(910) 572-1311","id":"a6crn9v3nd5h","library system":"Sandhill Regional Library System","library name":"Montgomery County Library","state":"NC"},"type":"Feature","geometry":{"type":"Point","coordinates":[-79.895247,35.358638]}},{"properties":{"city":"Carthage","website":"http://www.srls.info/index.html","zip code":"28327-0400","street address":"101 Saunders Street","telephone":"(910) 947-5335","id":"a6crna2c9hca","library system":"Sandhill Regional Library System","library name":"Moore County Library","state":"NC"},"type":"Feature","geometry":{"type":"Point","coordinates":[-79.418036,35.344876]}},{"properties":{"city":"Mount Gilead","website":"http://www.srls.info/index.html","zip code":"27306-0067","street address":"110 West Allenton Street","telephone":"(910) 439-6651","id":"a6crn9umja7y","library system":"Sandhill Regional Library System","library name":"Mount Gilead Branch Library","state":"NC"},"type":"Feature","geometry":{"type":"Point","coordinates":[-80.0057,35.213467]}},{"properties":{"city":"Aberdeen","website":"http://www.srls.info/index.html","zip code":"28315-2706","street address":"100 S Poplar Street","telephone":"(910) 944-1200","id":"a6crna49x06m","library system":"Sandhill Regional Library System","library name":"Page Memorial Library","state":"NC"},"type":"Feature","geometry":{"type":"Point","coordinates":[-79.429032,35.131131]}},{"properties":{"city":"Pinebluff","website":"http://www.srls.info/index.html","zip code":"28373-0758","street address":"305 East Baltimore Avenue","telephone":"(910) 281-3004","id":"a6crna1rib8o","library system":"Sandhill Regional Library System","library name":"Pinebluff Public Library","state":"NC"},"type":"Feature","geometry":{"type":"Point","coordinates":[-79.468328,35.108867]}},{"properties":{"city":"Robbins","website":"http://www.srls.info/index.html","zip code":"27325-0161","street address":"161 East Magnolia Drive","telephone":"(910) 948-4000","id":"a6crn9q83g8o","library system":"Sandhill Regional Library System","library name":"Robbins Area Library","state":"NC"},"type":"Feature","geometry":{"type":"Point","coordinates":[-79.58666,35.431675]}},{"properties":{"city":"Star","website":"http://www.srls.info/index.html","zip code":"27356-9999","street address":"222 South Main Street","telephone":"(910) 428-2338","id":"a6crn9xxx73f","library system":"Sandhill Regional Library System","library name":"Star Branch Library","state":"NC"},"type":"Feature","geometry":{"type":"Point","coordinates":[-79.784122,35.400749]}},{"properties":{"city":"Vass","website":"http://www.srls.info/index.html","zip code":"28394-8919","street address":"128 Seaboard Street","telephone":"(910) 245-2200","id":"a6crna4kcwen","library system":"Sandhill Regional Library System","library name":"Vass Area Library","state":"NC"},"type":"Feature","geometry":{"type":"Point","coordinates":[-79.281568,35.256163]}},{"properties":{"city":"Laurinburg","website":"http://www.scotlandcolibrary.com/","zip code":"28353-3720","street address":"312 West Church Street","telephone":"(910) 276-0563","id":"a6crna4qxfl0","library system":"Scotland County Memorial Library","library name":"Scotland County Memorial Library","state":"NC"},"type":"Feature","geometry":{"type":"Point","coordinates":[-79.465199,34.774997]}},{"properties":{"city":"Southern Pines","website":"http://www.sppl.net/Library/","zip code":"28387-4819","street address":"170 West Connecticut Avenue","telephone":"(910) 692-8235","id":"a6crn9ybbc1i","library system":"Southern Pines Public Library","library name":"Southern Pines Public Library","state":"NC"},"type":"Feature","geometry":{"type":"Point","coordinates":[-79.389478,35.175537]}},{"properties":{"city":"Badin","website":"http://www.stanlycountylibrary.org/index.html","zip code":"28009-0372","street address":"62 Pine Street","telephone":"(704) 422-3218","id":"a6crna14afg8","library system":"Stanly County Public Library","library name":"Badin Branch Library","state":"NC"},"type":"Feature","geometry":{"type":"Point","coordinates":[-80.110638,35.405919]}},{"properties":{"city":"Locust","website":"http://www.stanlycountylibrary.org/index.html","zip code":"28097-9774","street address":"213 Town Centre Drive","telephone":"(704) 888-0103","id":"a6crn9ru3chb","library system":"Stanly County Public Library","library name":"Locust Branch Library","state":"NC"},"type":"Feature","geometry":{"type":"Point","coordinates":[-80.643104,35.327652]}},{"properties":{"city":"Norwood","website":"http://www.stanlycountylibrary.org/index.html","zip code":"28128-0828","street address":"207 Pee Dee Avenue","telephone":"(704) 474-3625","id":"a6crn9xhxrc4","library system":"Stanly County Public Library","library name":"Norwood Branch Library","state":"NC"},"type":"Feature","geometry":{"type":"Point","coordinates":[-80.119169,35.225661]}},{"properties":{"city":"Oakboro","website":"http://www.stanlycountylibrary.org/index.html","zip code":"28129-0236","street address":"214 South Main Street","telephone":"(704) 485-4310","id":"a6crn9yiv82q","library system":"Stanly County Public Library","library name":"Oakboro Branch Library","state":"NC"},"type":"Feature","geometry":{"type":"Point","coordinates":[-80.324399,35.22241]}},{"properties":{"city":"Albemarle","website":"http://www.stanlycountylibrary.org/index.html","zip code":"28001-4993","street address":"133 East Main Street","telephone":"(704) 986-3765","id":"a6crn9s4wujm","library system":"Stanly County Public Library","library name":"Stanly County Public Library","state":"NC"},"type":"Feature","geometry":{"type":"Point","coordinates":[-80.197639,35.350321]}},{"properties":{"city":"Brevard","website":"http://www.transylvania.lib.nc.us/","zip code":"28712-3704","street address":"212 South Gaston Street","telephone":"(828) 884-3151","id":"a6crna4dmaxv","library system":"Transylvania County Library","library name":"Transylvania County Library","state":"NC"},"type":"Feature","geometry":{"type":"Point","coordinates":[-82.73494,35.23051]}},{"properties":{"city":"Marshville","website":"http://www.union.lib.nc.us/","zip code":"28103-1242","street address":"414 Hasty Street","telephone":"(704) 624-2828","id":"a6crna3c670f","library system":"Union County Public Library","library name":"Lois Morgan Edwards Memorial Library","state":"NC"},"type":"Feature","geometry":{"type":"Point","coordinates":[-80.364148,34.990448]}},{"properties":{"city":"Monroe","website":"http://www.union.lib.nc.us/","zip code":"28112-4844","street address":"316 East Windsor Street","telephone":"(704) 283-8184","id":"a6crna4kzubi","library system":"Union County Public Library","library name":"Union County Public Library","state":"NC"},"type":"Feature","geometry":{"type":"Point","coordinates":[-80.547281,34.981402]}},{"properties":{"city":"Indian Trail","website":"http://www.union.lib.nc.us/","zip code":"28079-9646","street address":"123 Unionville - Indian Trail Road","telephone":"(704) 821-7475","id":"a6crna041ll9","library system":"Union County Public Library","library name":"Union West Regional Library","state":"NC"},"type":"Feature","geometry":{"type":"Point","coordinates":[-80.666838,35.078582]}},{"properties":{"city":"Waxhaw","website":"http://www.union.lib.nc.us/","zip code":"28173-9339","street address":"509 S Providence Street","telephone":"(704) 843-3131","id":"a6crn9qh4xas","library system":"Union County Public Library","library name":"Waxhaw Library","state":"NC"},"type":"Feature","geometry":{"type":"Point","coordinates":[-80.741434,34.92224]}},{"properties":{"city":"Henderson","website":"http://www.perrylibrary.org/","zip code":"27536-4211","street address":"205 Breckenridge Street","telephone":"(252) 438-3316","id":"a6crna1k6orj","library system":"H. Leslie Perry Memorial Library","library name":"Vance -- H. Leslie Perry Memorial Library","state":"NC"},"type":"Feature","geometry":{"type":"Point","coordinates":[-78.40424,36.327104]}},{"properties":{"city":"Raleigh","website":"http://www.wakegov.com/libraries/default.htm","zip code":"27606-2427","street address":"1420 Athens Drive","telephone":"(919) 233-4000","id":"a6crna2nechf","library system":"Wake County Public Libraries","library name":"Athens Drive Community Library","state":"NC"},"type":"Feature","geometry":{"type":"Point","coordinates":[-78.711599,35.770372]}},{"properties":{"city":"Raleigh","website":"http://www.wakegov.com/libraries/default.htm","zip code":"27605-1650","street address":"1930 Clark Avenue","telephone":"(919) 856-6710","id":"a6crn9uikpey","library system":"Wake County Public Libraries","library name":"Cameron Village Regional Library","state":"NC"},"type":"Feature","geometry":{"type":"Point","coordinates":[-78.656721,35.789075]}},{"properties":{"city":"Cary","website":"http://www.wakegov.com/libraries/default.htm","zip code":"27511-3399","street address":"310 South Academy Street","telephone":"(919) 460-3350","id":"a6crna1xgrph","library system":"Wake County Public Libraries","library name":"Cary Library","state":"NC"},"type":"Feature","geometry":{"type":"Point","coordinates":[-78.781236,35.784314]}},{"properties":{"city":"Raleigh","website":"http://www.wakegov.com/libraries/default.htm","zip code":"27612-2583","street address":"5800 Duraleigh Road","telephone":"(919) 881-1344","id":"a6crn9yk9bmd","library system":"Wake County Public Libraries","library name":"Duraleigh Road Library","state":"NC"},"type":"Feature","geometry":{"type":"Point","coordinates":[-78.712349,35.856646]}},{"properties":{"city":"Knightdale","website":"http://www.wakegov.com/libraries/default.htm","zip code":"27545-7655","street address":"946 Steeple Square Court","telephone":"(919) 217-5300","id":"a6crna400878","library system":"Wake County Public Libraries","library name":"East Regional Library","state":"NC"},"type":"Feature","geometry":{"type":"Point","coordinates":[-78.487378,35.802488]}},{"properties":{"city":"Apex","website":"http://www.wakegov.com/libraries/default.htm","zip code":"27502-6407","street address":"2100 Shepherd's Vineyard Drive","telephone":"(919) 387-2100","id":"a6crn9zr7auw","library system":"Wake County Public Libraries","library name":"Eva Perry Regional Library","state":"NC"},"type":"Feature","geometry":{"type":"Point","coordinates":[-78.823977,35.74408]}},{"properties":{"city":"Raleigh","website":"http://www.wakegov.com/libraries/default.htm","zip code":"27602-1739","street address":"336 Fayetteville Street","telephone":"(919) 856-6690","id":"a6crn9usowcj","library system":"Wake County Public Libraries","library name":"Express Library Fayettevile Street","state":"NC"},"type":"Feature","geometry":{"type":"Point","coordinates":[-78.641461,35.768989]}},{"properties":{"city":"Fuquay-Varina","website":"http://www.wakegov.com/libraries/default.htm","zip code":"27526-2210","street address":"133 South Fuquay Avenue","telephone":"(919) 557-2788","id":"a6crna564wts","library system":"Wake County Public Libraries","library name":"Fuquay-Varina Library","state":"NC"},"type":"Feature","geometry":{"type":"Point","coordinates":[-78.798265,35.581967]}},{"properties":{"city":"Raleigh","website":"http://www.wakegov.com/libraries/default.htm","zip code":"27604-2741","street address":"4101 Green Road","telephone":"(919) 790-3200","id":"a6crn9vara9q","library system":"Wake County Public Libraries","library name":"Green Road Library","state":"NC"},"type":"Feature","geometry":{"type":"Point","coordinates":[-78.591588,35.838627]}},{"properties":{"city":"Holly Springs","website":"http://www.wakegov.com/libraries/default.htm","zip code":"27540-8519","street address":"300 W. Ballentine Street","telephone":"(919) 577-1660","id":"a6crn9xylv3l","library system":"Wake County Public Libraries","library name":"Holly Springs Library","state":"NC"},"type":"Feature","geometry":{"type":"Point","coordinates":[-78.834584,35.649868]}},{"properties":{"city":"Raleigh","website":"http://www.wakegov.com/libraries/default.htm","zip code":"27613-1713","street address":"5105 Country Trail","telephone":"(919) 571-6661","id":"a6crn9xo2yey","library system":"Wake County Public Libraries","library name":"Leesville Community Library","state":"NC"},"type":"Feature","geometry":{"type":"Point","coordinates":[-78.721319,35.886856]}},{"properties":{"city":"Raleigh","website":"http://www.wakegov.com/libraries/default.htm","zip code":"27615-4922","street address":"7009 Harps Mill Rd.","telephone":"(919) 870-4000","id":"a6crna1osxq1","library system":"Wake County Public Libraries","library name":"North Regional Library","state":"NC"},"type":"Feature","geometry":{"type":"Point","coordinates":[-78.62811,35.879753]}},{"properties":{"city":"Raleigh","website":"http://www.wakegov.com/libraries/default.htm","zip code":"27610-2913","street address":"4016 Carya Drive","telephone":"(919) 250-1196","id":"a6crn9shw3nv","library system":"Wake County Public Libraries","library name":"Olivia Raney Local History Library","state":"NC"},"type":"Feature","geometry":{"type":"Point","coordinates":[-78.568595,35.770087]}},{"properties":{"city":"Raleigh","website":"http://www.wakegov.com/libraries/default.htm","zip code":"27610-2552","street address":"1313 New Bern Avenue","telephone":"(919) 856-5720","id":"a6crn9sfwl52","library system":"Wake County Public Libraries","library name":"Richard B. Harrison Library","state":"NC"},"type":"Feature","geometry":{"type":"Point","coordinates":[-78.618749,35.779776]}},{"properties":{"city":"Garner","website":"http://www.wakegov.com/libraries/default.htm","zip code":"27529-3673","street address":"908 7th Avenue","telephone":"(919) 662-2250","id":"a6crna5ji1yg","library system":"Wake County Public Libraries","library name":"Southeast Regional Library","state":"NC"},"type":"Feature","geometry":{"type":"Point","coordinates":[-78.623983,35.706923]}},{"properties":{"city":"Raleigh","website":"http://www.wakegov.com/libraries/default.htm","zip code":"27610-4968","street address":"1601-14 Cross Link Road","telephone":"(919) 856-6598","id":"a6crna5j7yd9","library system":"Wake County Public Libraries","library name":"Southgate Library","state":"NC"},"type":"Feature","geometry":{"type":"Point","coordinates":[-78.615274,35.753617]}},{"properties":{"city":"Raleigh","website":"http://www.wakegov.com/libraries/default.htm","zip code":"27610-2913","street address":"4020 Carya Drive","telephone":"(919) 250-1200","id":"a6crn9sz3gj0","library system":"Wake County Public Libraries","library name":"Wake County Public Libraries","state":"NC"},"type":"Feature","geometry":{"type":"Point","coordinates":[-78.568636,35.770116]}},{"properties":{"city":"Wake Forest","website":"http://www.wakegov.com/libraries/default.htm","zip code":"27587-2926","street address":"400 E Holding Avenue","telephone":"(919) 554-8498","id":"a6crn9ubgdrx","library system":"Wake County Public Libraries","library name":"Wake Forest Library","state":"NC"},"type":"Feature","geometry":{"type":"Point","coordinates":[-78.509804,35.969882]}},{"properties":{"city":"Wendell","website":"http://www.wakegov.com/libraries/default.htm","zip code":"27591-8884","street address":"207 South Hollybrook Road","telephone":"(919) 365-2600","id":"a6crn9yh4obp","library system":"Wake County Public Libraries","library name":"Wendell Branch Library","state":"NC"},"type":"Feature","geometry":{"type":"Point","coordinates":[-78.366381,35.779676]}},{"properties":{"city":"Cary","website":"http://www.wakegov.com/libraries/default.htm","zip code":"27519-9357","street address":"4000 Louis Stephens Drive","telephone":"(919) 463-8500","id":"a6crn9qslzee","library system":"Wake County Public Libraries","library name":"West Regional Library","state":"NC"},"type":"Feature","geometry":{"type":"Point","coordinates":[-78.863306,35.810679]}},{"properties":{"city":"Zebulon","website":"http://www.wakegov.com/libraries/default.htm","zip code":"27597-2819","street address":"1000 Dogwood Drive","telephone":"(919) 404-3610","id":"a6crna1iioyi","library system":"Wake County Public Libraries","library name":"Zebulon Branch Library","state":"NC"},"type":"Feature","geometry":{"type":"Point","coordinates":[-78.294626,35.531784]}},{"properties":{"city":"Warrenton","website":"http://www.wcplnc.org/","zip code":"27589-1929","street address":"119 S. Front Street","telephone":"(252) 257-4990","id":"a6crna13f9ho","library system":"Warren County Memorial Library","library name":"Warren County Memorial Library","state":"NC"},"type":"Feature","geometry":{"type":"Point","coordinates":[-78.155785,36.399612]}},{"properties":{"city":"Washington","website":"http://www.ci.washington.nc.us/departments/library/library.aspx","zip code":"27889-4847","street address":"122 Van Norden Street","telephone":"(252) 946-4300","id":"a6crn9zfzm6v","library system":"George H. &amp; Laura E. Brown Library","library name":"Washington -- George H. &amp; Laura E. Brown Library","state":"NC"},"type":"Feature","geometry":{"type":"Point","coordinates":[-77.059442,35.544438]}},{"properties":{"city":"Fremont","website":"http://www.wcpl.org/","zip code":"27830-8892","street address":"202 N. Goldsboro Street","telephone":"(919) 242-5442","id":"a6crn9uehpks","library system":"Wayne County Public Library","library name":"Fremont Public Library","state":"NC"},"type":"Feature","geometry":{"type":"Point","coordinates":[-77.974246,35.54514]}},{"properties":{"city":"Pikeville","website":"http://www.wcpl.org/","zip code":"27863-9504","street address":"107 W Main Stree","telephone":"(919) 242-6446","id":"a6crn9xme3z6","library system":"Wayne County Public Library","library name":"Pikeville Public Library","state":"NC"},"type":"Feature","geometry":{"type":"Point","coordinates":[-77.985287,35.496791]}},{"properties":{"city":"Mount Olive","website":"http://www.wcpl.org/","zip code":"28365-1611","street address":"111 N Chestnut Street","telephone":"(919) 705-1891","id":"a6crna0huam0","library system":"Wayne County Public Library","library name":"Steele Memorial Library","state":"NC"},"type":"Feature","geometry":{"type":"Point","coordinates":[-78.068121,35.196277]}},{"properties":{"city":"Goldsboro","website":"http://www.wcpl.org/","zip code":"27530-3850","street address":"1001 East Ash Street","telephone":"(919) 735-1824","id":"a6crn9tw3pnf","library system":"Wayne County Public Library","library name":"Wayne County Public Library","state":"NC"},"type":"Feature","geometry":{"type":"Point","coordinates":[-77.981438,35.38162]}},{"properties":{"city":"Black Creek","website":"http://wilsoncountypubliclibrary.sirsi.net/rooms/portal/page/Sirsi_HOME","zip code":"27813-0000","street address":"103 Central Avenue","telephone":"(252) 237-3715","id":"a6crna0cfmxr","library system":"Wilson County Public Library","library name":"Black Creek Branch Library","state":"NC"},"type":"Feature","geometry":{"type":"Point","coordinates":[-77.93488,35.635089]}},{"properties":{"city":"Stantonsburg","website":"http://wilsoncountypubliclibrary.sirsi.net/rooms/portal/page/Sirsi_HOME","zip code":"27883-9503","street address":"114 S Main Street","telephone":"(252) 238-3758","id":"a6crn9pbcf4b","library system":"Wilson County Public Library","library name":"Crocker Branch Library","state":"NC"},"type":"Feature","geometry":{"type":"Point","coordinates":[-77.824225,35.606396]}},{"properties":{"city":"Wilson","website":"http://wilsoncountypubliclibrary.sirsi.net/rooms/portal/page/Sirsi_HOME","zip code":"27893-6436","street address":"1006-C Ward Boulevard","telephone":"(252) 237-2627","id":"a6crna27y5zu","library system":"Wilson County Public Library","library name":"East Branch Library","state":"NC"},"type":"Feature","geometry":{"type":"Point","coordinates":[-77.934023,35.717754]}},{"properties":{"city":"Elm City","website":"http://wilsoncountypubliclibrary.sirsi.net/rooms/portal/page/Sirsi_HOME","zip code":"27822-0717","street address":"114 N Railroad Street","telephone":"(252) 236-4269","id":"a6crn9rq6uui","library system":"Wilson County Public Library","library name":"Elm City Branch Library","state":"NC"},"type":"Feature","geometry":{"type":"Point","coordinates":[-77.863044,35.803902]}},{"properties":{"city":"Lucama","website":"http://wilsoncountypubliclibrary.sirsi.net/rooms/portal/page/Sirsi_HOME","zip code":"27851-0000","street address":"103 East Spring Street","telephone":"(252) 239-0046","id":"a6crn9tjui8x","library system":"Wilson County Public Library","library name":"Lucama Branch Library","state":"NC"},"type":"Feature","geometry":{"type":"Point","coordinates":[-78.009158,35.644266]}},{"properties":{"city":"Wilson","website":"http://wilsoncountypubliclibrary.sirsi.net/rooms/portal/page/Sirsi_HOME","zip code":"27893-3801","street address":"249 Nash Street West","telephone":"(252) 237-5355","id":"a6crn9qvlh3w","library system":"Wilson County Public Library","library name":"Wilson County Public Library","state":"NC"},"type":"Feature","geometry":{"type":"Point","coordinates":[-77.918645,35.735468]}}],"is_temporal":false,"author":{"url":"","metadata":"","contact_name":"","contact_address":"","source":"","contact_phone":""},"source":"","pagination":{"sort":null,"start":0,"total":388,"limit":1000000},"state":"complete","tags":"","published":"2011-04-18T19:33:58Z","id":109213}