{"type":"FeatureCollection","data_type":"Dataset","url_type":null,"permissions":[{"permissions":{"download":true,"view":true},"group_id":"everyone"}],"classification":null,"title":"Chester County Public Schools. Pennsylvania, 2000","count":96,"stream_id":10937,"contributor":{"url":"http://geocommons.com/users/955","name":"williambenjaminiv"},"data_attributes":null,"calculation_params":null,"icon_link":null,"link":"http://geocommons.com/overlays/10937.json","extent":[2467820.0,157852.0,2621470.0,329822.0],"geometry_types":["point"],"unique_name":null,"name":"Chester County Public Schools. Pennsylvania, 2000","feature_count":96,"description":"Public Schools in Chester County with their names in the attribute files. ","next_feature":null,"is_raster":false,"short_classification":"Y","stats":{"FIPS":{"max":42029,"mean":39402.1875,"variance":104591655.059211,"stdev":10227.0061630572,"min":0,"median":42029}},"features":[{"properties":{"NAME":"Avon Grove Elementary School","DISTRICT":"Avon Grove School District","id":"a67w7xrztum0","FIPS":42029},"type":"Feature","geometry":{"type":"Point","coordinates":[2514842.33097157,184967.105002509]}},{"properties":{"NAME":"Avon Grove High School","DISTRICT":"Avon Grove School District","id":"a67w7xsl9sv7","FIPS":42029},"type":"Feature","geometry":{"type":"Point","coordinates":[2511659.22530482,181809.855895393]}},{"properties":{"NAME":"Barkley School","DISTRICT":"Phoenixville School District","id":"a67w7xv7e9rk","FIPS":42029},"type":"Feature","geometry":{"type":"Point","coordinates":[2592514.96601021,297145.062116432]}},{"properties":{"NAME":"Beaumont Elementary School","DISTRICT":"T.E. School District","id":"a67w7xmu2s61","FIPS":42029},"type":"Feature","geometry":{"type":"Point","coordinates":[2618589.26301403,259969.765903991]}},{"properties":{"NAME":"Beaver Creek Elementary School","DISTRICT":"Downingtown School District","id":"a67w7xuuo3ih","FIPS":42029},"type":"Feature","geometry":{"type":"Point","coordinates":[2536988.81572959,250157.784245442]}},{"properties":{"NAME":"Bradford Heights Elementary School","DISTRICT":"Downingtown School District","id":"a67w7xwoqv6b","FIPS":42029},"type":"Feature","geometry":{"type":"Point","coordinates":[2539928.37469746,245719.876274718]}},{"properties":{"NAME":"Brandywine Wallace Elementary School","DISTRICT":"Downingtown School District","id":"a67w7xrzct4o","FIPS":42029},"type":"Feature","geometry":{"type":"Point","coordinates":[2526982.21759986,263555.232336009]}},{"properties":{"NAME":"Caln Elementary School","DISTRICT":"Coatesville Area School District","id":"a67w7xz3nwxo","FIPS":42029},"type":"Feature","geometry":{"type":"Point","coordinates":[2528735.53558054,247824.211426883]}},{"properties":{"NAME":"Carl O Benner Elementary School","DISTRICT":"Coatesville Area School District","id":"a67w7y0l6qlg","FIPS":42029},"type":"Feature","geometry":{"type":"Point","coordinates":[2510880.94605315,243266.161703073]}},{"properties":{"NAME":"Chadds Ford  Elementary School","DISTRICT":"Unionville-Chadds Ford Dist.","id":"a67w7xw6ghlm","FIPS":42029},"type":"Feature","geometry":{"type":"Point","coordinates":[2572020.23290297,204111.767163883]}},{"properties":{"NAME":"Charles F. Patton Middle School","DISTRICT":"Unionville-Chadds Ford Dist.","id":"a67w7xssws2s","FIPS":42029},"type":"Feature","geometry":{"type":"Point","coordinates":[2538122.70684499,207886.727866132]}},{"properties":{"NAME":"Charlestown Elementary School","DISTRICT":"Great Valley School District","id":"a67w7xyshifi","FIPS":42029},"type":"Feature","geometry":{"type":"Point","coordinates":[2585352.82169984,279519.761632882]}},{"properties":{"NAME":"Coatesville Area Intermediate High School","DISTRICT":"Coatesville Area School District","id":"a67w7xo2w1tb","FIPS":42029},"type":"Feature","geometry":{"type":"Point","coordinates":[2515490.88124355,246067.280215276]}},{"properties":{"NAME":"Coatesville Area Senior High School","DISTRICT":"Coatesville Area School District","id":"a67w7y0v098q","FIPS":42029},"type":"Feature","geometry":{"type":"Point","coordinates":[2515799.66848524,245506.587657178]}},{"properties":{"NAME":"Conestoga High School","DISTRICT":"T.E. School District","id":"a67w7xyuzusm","FIPS":42029},"type":"Feature","geometry":{"type":"Point","coordinates":[2611569.76508345,268604.534237939]}},{"properties":{"NAME":"Devon Elementary School","DISTRICT":"T.E. School District","id":"a67w7xxwe8kf","FIPS":42029},"type":"Feature","geometry":{"type":"Point","coordinates":[2619765.64290482,264681.227653616]}},{"properties":{"NAME":"Downingtown East High School","DISTRICT":"","id":"a67w7xyka0ud","FIPS":0},"type":"Feature","geometry":{"type":"Point","coordinates":[2553404.81829819,264716.955272734]}},{"properties":{"NAME":"Downingtown High School 9th Grade Ctr","DISTRICT":"","id":"a67w7xt4ovpe","FIPS":0},"type":"Feature","geometry":{"type":"Point","coordinates":[2538734.99797688,252743.501412583]}},{"properties":{"NAME":"Downingtown Middle School","DISTRICT":"Downingtown School District","id":"a67w7xzte5vg","FIPS":42029},"type":"Feature","geometry":{"type":"Point","coordinates":[2537357.62585977,254077.595219385]}},{"properties":{"NAME":"Downingtown West High School","DISTRICT":"Downingtown School District","id":"a67w7xufxhqs","FIPS":42029},"type":"Feature","geometry":{"type":"Point","coordinates":[2537553.38329266,253665.74623397]}},{"properties":{"NAME":"East Bradford Elementary School","DISTRICT":"West Chester School District","id":"a67w7xp71hnj","FIPS":42029},"type":"Feature","geometry":{"type":"Point","coordinates":[2559450.93671153,238777.614378053]}},{"properties":{"NAME":"East Coventry Elementary School","DISTRICT":"Owen J. Roberts School District","id":"a67w7xwuo3ve","FIPS":42029},"type":"Feature","geometry":{"type":"Point","coordinates":[2567113.16704834,326585.283640047]}},{"properties":{"NAME":"East Fallowfield Elementary School","DISTRICT":"Coatesville Area School District","id":"a67w7xnektyh","FIPS":42029},"type":"Feature","geometry":{"type":"Point","coordinates":[2511881.99809675,230484.098222638]}},{"properties":{"NAME":"East Goshen Elementary School","DISTRICT":"West Chester School District","id":"a67w7xu3z7tj","FIPS":42029},"type":"Feature","geometry":{"type":"Point","coordinates":[2586354.88855859,248045.922047854]}},{"properties":{"NAME":"East Pikeland Elementary School","DISTRICT":"Phoenixville School District","id":"a67w7xp1jx3f","FIPS":42029},"type":"Feature","geometry":{"type":"Point","coordinates":[2577631.1113381,300623.533482516]}},{"properties":{"NAME":"East Ward Elementary School","DISTRICT":"Downingtown School District","id":"a67w7xy43plq","FIPS":42029},"type":"Feature","geometry":{"type":"Point","coordinates":[2544001.86277263,253487.02480121]}},{"properties":{"NAME":"Elk Ridge Elementary School","DISTRICT":"Oxford Area School District","id":"a67w7xpdk1ae","FIPS":42029},"type":"Feature","geometry":{"type":"Point","coordinates":[2470144.51673638,168503.061882628]}},{"properties":{"NAME":"Exton Elementary School","DISTRICT":"West Chester School District","id":"a67w7xygipmx","FIPS":42029},"type":"Feature","geometry":{"type":"Point","coordinates":[2564583.95091335,258566.36307661]}},{"properties":{"NAME":"Fern Hill Elementary School","DISTRICT":"West Chester School District","id":"a67w7xob8mg9","FIPS":42029},"type":"Feature","geometry":{"type":"Point","coordinates":[2574649.29008315,241312.568197319]}},{"properties":{"NAME":"Fred S. Engle Middle School","DISTRICT":"Avon Grove School District","id":"a67w7xxzjc3n","FIPS":42029},"type":"Feature","geometry":{"type":"Point","coordinates":[2512362.05841575,181096.527447804]}},{"properties":{"NAME":"French Creek Elementary School","DISTRICT":"Owen J. Roberts School District","id":"a67w7xvylov5","FIPS":42029},"type":"Feature","geometry":{"type":"Point","coordinates":[2544856.53054348,309694.384289965]}},{"properties":{"NAME":"Friendship Elementary School","DISTRICT":"Coatesville Area School District","id":"a67w7y2p9zhz","FIPS":42029},"type":"Feature","geometry":{"type":"Point","coordinates":[2516862.6297423,253800.09998866]}},{"properties":{"NAME":"Fugett Middle School","DISTRICT":"West Chester School District","id":"a67w7xpnr74k","FIPS":42029},"type":"Feature","geometry":{"type":"Point","coordinates":[2580492.61827862,243266.590885463]}},{"properties":{"NAME":"General Wayne Middle School","DISTRICT":"Great Valley School District","id":"a67w7y1fyd0n","FIPS":42029},"type":"Feature","geometry":{"type":"Point","coordinates":[2600328.98266694,261925.645863015]}},{"properties":{"NAME":"Glen Acres Elementary School","DISTRICT":"West Chester School District","id":"a67w7y0x7c2f","FIPS":42029},"type":"Feature","geometry":{"type":"Point","coordinates":[2580660.55148705,238790.231040119]}},{"properties":{"NAME":"Gordon Middle School","DISTRICT":"Coatesville Area School District","id":"a67w7y0f2jdi","FIPS":42029},"type":"Feature","geometry":{"type":"Point","coordinates":[2509742.72086229,242351.51619666]}},{"properties":{"NAME":"Great Valley High School","DISTRICT":"Great Valley School District","id":"a67w7xyx5fsa","FIPS":42029},"type":"Feature","geometry":{"type":"Point","coordinates":[2579334.71911466,271132.724379319]}},{"properties":{"NAME":"Greenwood Elementary School","DISTRICT":"Kennet School District","id":"a67w7y1qxe1o","FIPS":42029},"type":"Feature","geometry":{"type":"Point","coordinates":[2553207.31259014,200371.241856784]}},{"properties":{"NAME":"Hillendale Elementary School","DISTRICT":"Unionville-Chadds Ford Dist.","id":"a67w7y0v0fpx","FIPS":42029},"type":"Feature","geometry":{"type":"Point","coordinates":[2561441.65606719,199112.457827203]}},{"properties":{"NAME":"Hillsdale Elementary School","DISTRICT":"West Chester School District","id":"a67w7xvjilq1","FIPS":42029},"type":"Feature","geometry":{"type":"Point","coordinates":[2566246.93701047,233470.843329756]}},{"properties":{"NAME":"Hillside Elementary School","DISTRICT":"T.E. School District","id":"a67w7xsbrdch","FIPS":42029},"type":"Feature","geometry":{"type":"Point","coordinates":[2610546.00560766,271846.391760108]}},{"properties":{"NAME":"Honey Brook Elementary School","DISTRICT":"","id":"a67w7xql17nz","FIPS":0},"type":"Feature","geometry":{"type":"Point","coordinates":[2480606.26533342,280566.884511231]}},{"properties":{"NAME":"Hopewell Elementary School","DISTRICT":"","id":"a67w7xqpfvir","FIPS":0},"type":"Feature","geometry":{"type":"Point","coordinates":[2467858.24827641,167777.298802798]}},{"properties":{"NAME":"Jordan Bank Elementary School","DISTRICT":"Oxford Area School District","id":"a67w7y0xtbjq","FIPS":42029},"type":"Feature","geometry":{"type":"Point","coordinates":[2467823.91508822,168112.016689055]}},{"properties":{"NAME":"K.D. Markley Elementary School","DISTRICT":"Great Valley School District","id":"a67w7xwc90lp","FIPS":42029},"type":"Feature","geometry":{"type":"Point","coordinates":[2582156.97505481,266071.914274445]}},{"properties":{"NAME":"Kemblesville Elementary School","DISTRICT":"Avon Grove School District","id":"a67w7xt6vbez","FIPS":42029},"type":"Feature","geometry":{"type":"Point","coordinates":[2509360.7696968,157851.678144486]}},{"properties":{"NAME":"Kennett High School","DISTRICT":"Kennet School District","id":"a67w7xujbfnz","FIPS":42029},"type":"Feature","geometry":{"type":"Point","coordinates":[2541643.01970275,190686.082384489]}},{"properties":{"NAME":"Kennett Middle School","DISTRICT":"Kennet School District","id":"a67w7xqnrxcd","FIPS":42029},"type":"Feature","geometry":{"type":"Point","coordinates":[2541812.21362496,190582.38288378]}},{"properties":{"NAME":"Kindergarden Center","DISTRICT":"Phoenixville School District","id":"a67w7xrmn533","FIPS":42029},"type":"Feature","geometry":{"type":"Point","coordinates":[2593894.06624179,299121.003595527]}},{"properties":{"NAME":"Kings Highway Elementary School","DISTRICT":"Coatesville Area School District","id":"a67w7xx3ciew","FIPS":42029},"type":"Feature","geometry":{"type":"Point","coordinates":[2491558.62827256,252866.389353374]}},{"properties":{"NAME":"Lionville Elementary School","DISTRICT":"Downingtown School District","id":"a67w7xp52bec","FIPS":42029},"type":"Feature","geometry":{"type":"Point","coordinates":[2552608.03498931,264764.458407179]}},{"properties":{"NAME":"Lionville Middle School","DISTRICT":"Downingtown School District","id":"a67w7y0b6etd","FIPS":42029},"type":"Feature","geometry":{"type":"Point","coordinates":[2553468.78893671,267155.457857088]}},{"properties":{"NAME":"Mary C. Howse Elementary School","DISTRICT":"West Chester School District","id":"a67w7y1l9xn7","FIPS":42029},"type":"Feature","geometry":{"type":"Point","coordinates":[2558382.42129743,250996.372672296]}},{"properties":{"NAME":"Mary D Lang Elementary School","DISTRICT":"Kennet School District","id":"a67w7xr91zsz","FIPS":42029},"type":"Feature","geometry":{"type":"Point","coordinates":[2540691.94055795,192221.98530008]}},{"properties":{"NAME":"New Eagle Elementary School","DISTRICT":"T.E. School District","id":"a67w7y20hu9j","FIPS":42029},"type":"Feature","geometry":{"type":"Point","coordinates":[2621472.32447083,276833.751465185]}},{"properties":{"NAME":"New Garden Elementary (Kindergarden Center)","DISTRICT":"Kennet School District","id":"a67w7xoafz3f","FIPS":42029},"type":"Feature","geometry":{"type":"Point","coordinates":[2531106.34239262,178453.640847635]}},{"properties":{"NAME":"New Garden Elementary School","DISTRICT":"Kennet School District","id":"a67w7xvn53uk","FIPS":42029},"type":"Feature","geometry":{"type":"Point","coordinates":[2531433.80194712,180116.047631597]}},{"properties":{"NAME":"North Brandywine Middle School","DISTRICT":"Coatesville Area School District","id":"a67w7y0eq3ol","FIPS":42029},"type":"Feature","geometry":{"type":"Point","coordinates":[2516665.69350352,252859.861914607]}},{"properties":{"NAME":"North Coventry Elementary School","DISTRICT":"Owen J. Roberts School District","id":"a67w7y0gt5uk","FIPS":42029},"type":"Feature","geometry":{"type":"Point","coordinates":[2553872.65413072,329821.679478507]}},{"properties":{"NAME":"Nottingham Elementary School","DISTRICT":"Oxford Area School District","id":"a67w7xnnyiwp","FIPS":42029},"type":"Feature","geometry":{"type":"Point","coordinates":[2469334.94792446,167830.311990625]}},{"properties":{"NAME":"Octorara Elementary School","DISTRICT":"Octorara Area School District","id":"a67w7xmw950g","FIPS":42029},"type":"Feature","geometry":{"type":"Point","coordinates":[2475613.46118785,222330.410155511]}},{"properties":{"NAME":"Octorara High School","DISTRICT":"Octorara Area School District","id":"a67w7xuuiu32","FIPS":42029},"type":"Feature","geometry":{"type":"Point","coordinates":[2474447.26915847,221756.963003784]}},{"properties":{"NAME":"Octorara Middle School","DISTRICT":"Octorara Area School District","id":"a67w7xudzux5","FIPS":42029},"type":"Feature","geometry":{"type":"Point","coordinates":[2474267.79256308,221372.814590649]}},{"properties":{"NAME":"Owen J Roberts High School","DISTRICT":"Owen J. Roberts School District","id":"a67w7xo18vy1","FIPS":42029},"type":"Feature","geometry":{"type":"Point","coordinates":[2553342.13402163,314157.448338618]}},{"properties":{"NAME":"Owen J Roberts Middle School","DISTRICT":"Owen J. Roberts School District","id":"a67w7xnlgte5","FIPS":42029},"type":"Feature","geometry":{"type":"Point","coordinates":[2554412.4299789,314220.391274103]}},{"properties":{"NAME":"Oxford Area High School","DISTRICT":"Oxford Area School District","id":"a67w7y22swgq","FIPS":42029},"type":"Feature","geometry":{"type":"Point","coordinates":[2468015.57705798,167466.762784395]}},{"properties":{"NAME":"Paoli Elementary School","DISTRICT":"","id":"a67w7xunrgat","FIPS":0},"type":"Feature","geometry":{"type":"Point","coordinates":[2603423.91590613,267705.204706929]}},{"properties":{"NAME":"Penn London Elementary School","DISTRICT":"Avon Grove School District","id":"a67w7y0p0tch","FIPS":42029},"type":"Feature","geometry":{"type":"Point","coordinates":[2492761.8963359,175214.108708133]}},{"properties":{"NAME":"Penn Wood Elementary School","DISTRICT":"West Chester School District","id":"a67w7xtdcpwg","FIPS":42029},"type":"Feature","geometry":{"type":"Point","coordinates":[2591932.40389743,233822.01756582]}},{"properties":{"NAME":"Penns Grove Middle School","DISTRICT":"Oxford Area School District","id":"a67w7y19mrqb","FIPS":42029},"type":"Feature","geometry":{"type":"Point","coordinates":[2468641.34846516,167193.00763992]}},{"properties":{"NAME":"Phoenixville Area Junior High School","DISTRICT":"Phoenixville School District","id":"a67w7xvd5so9","FIPS":42029},"type":"Feature","geometry":{"type":"Point","coordinates":[2591971.69826055,293673.122641417]}},{"properties":{"NAME":"Phoenixville Area Senior High School","DISTRICT":"Phoenixville School District","id":"a67w7xvr3ae2","FIPS":42029},"type":"Feature","geometry":{"type":"Point","coordinates":[2592210.06874529,293998.002811212]}},{"properties":{"NAME":"Pickering Valley Elementary School","DISTRICT":"Downingtown School District","id":"a67w7y22vpvg","FIPS":42029},"type":"Feature","geometry":{"type":"Point","coordinates":[2545758.73658963,278574.226626037]}},{"properties":{"NAME":"Pierce Middle School","DISTRICT":"West Chester School District","id":"a67w7y16ihir","FIPS":42029},"type":"Feature","geometry":{"type":"Point","coordinates":[2564977.65529699,248902.748024376]}},{"properties":{"NAME":"Rainbow Elementary School","DISTRICT":"Coatesville Area School District","id":"a67w7xvgi5q6","FIPS":42029},"type":"Feature","geometry":{"type":"Point","coordinates":[2499929.12483478,243274.90258338]}},{"properties":{"NAME":"Reeceville Elementary School","DISTRICT":"Coatesville Area School District","id":"a67w7y1bwbp4","FIPS":42029},"type":"Feature","geometry":{"type":"Point","coordinates":[2517177.15606126,252534.548875708]}},{"properties":{"NAME":"Sarah W. Starkweather Elementary School","DISTRICT":"West Chester School District","id":"a67w7xw5ujs1","FIPS":42029},"type":"Feature","geometry":{"type":"Point","coordinates":[2574476.14835893,225303.210780853]}},{"properties":{"NAME":"Schuylkill Elementary School","DISTRICT":"Phoenixville School District","id":"a67w7xvg01zj","FIPS":42029},"type":"Feature","geometry":{"type":"Point","coordinates":[2594230.72941931,291548.304448417]}},{"properties":{"NAME":"Second Avenue Elementary School","DISTRICT":"Phoenixville School District","id":"a67w7xzhrs10","FIPS":42029},"type":"Feature","geometry":{"type":"Point","coordinates":[2595482.10067558,298466.757659215]}},{"properties":{"NAME":"Shamona Creek Elementary School","DISTRICT":"Downingtown School District","id":"a67w7xruproz","FIPS":42029},"type":"Feature","geometry":{"type":"Point","coordinates":[2541870.65037103,270597.271135207]}},{"properties":{"NAME":"South Brandywine Middle School","DISTRICT":"Coatesville Area School District","id":"a67w7xzow3pc","FIPS":42029},"type":"Feature","geometry":{"type":"Point","coordinates":[2503015.35762575,231300.88505618]}},{"properties":{"NAME":"Spring City Elementary School","DISTRICT":"","id":"a67w7xq0gsx1","FIPS":0},"type":"Feature","geometry":{"type":"Point","coordinates":[2583035.18090142,312772.622753245]}},{"properties":{"NAME":"Stetson Middle School","DISTRICT":"West Chester School District","id":"a67w7xy9zico","FIPS":42029},"type":"Feature","geometry":{"type":"Point","coordinates":[2574925.61311886,224514.772614908]}},{"properties":{"NAME":"Sugartown Elementary School","DISTRICT":"Great Valley School District","id":"a67w7xtiwrb8","FIPS":42029},"type":"Feature","geometry":{"type":"Point","coordinates":[2593284.96525001,257346.604627269]}},{"properties":{"NAME":"Tredyffrin Easttown Middle School","DISTRICT":"T.E. School District","id":"a67w7xmx19et","FIPS":42029},"type":"Feature","geometry":{"type":"Point","coordinates":[2613035.66562701,268581.618659653]}},{"properties":{"NAME":"Unionville Elementary School","DISTRICT":"Unionville-Chadds Ford Dist.","id":"a67w7y0a9htp","FIPS":42029},"type":"Feature","geometry":{"type":"Point","coordinates":[2535620.7228882,210914.94556051]}},{"properties":{"NAME":"Unionville High School","DISTRICT":"Unionville-Chadds Ford Dist.","id":"a67w7xx0tk4e","FIPS":42029},"type":"Feature","geometry":{"type":"Point","coordinates":[2538187.56210851,206944.100449879]}},{"properties":{"NAME":"Uwchlan Hills Elementary School","DISTRICT":"Downingtown School District","id":"a67w7xq740g4","FIPS":42029},"type":"Feature","geometry":{"type":"Point","coordinates":[2548013.45534755,261860.925936101]}},{"properties":{"NAME":"Valley Forge Elementary School","DISTRICT":"T.E. School District","id":"a67w7y0dsbpv","FIPS":42029},"type":"Feature","geometry":{"type":"Point","coordinates":[2615745.9100242,279600.883872797]}},{"properties":{"NAME":"Valley Forge Middle School","DISTRICT":"T.E. School District","id":"a67w7xrs6h6j","FIPS":42029},"type":"Feature","geometry":{"type":"Point","coordinates":[2614188.04196574,278474.060361687]}},{"properties":{"NAME":"Vincent Elementary School","DISTRICT":"Owen J. Roberts School District","id":"a67w7xta9ldi","FIPS":42029},"type":"Feature","geometry":{"type":"Point","coordinates":[2568271.1899058,310785.799114643]}},{"properties":{"NAME":"Warwick Elementary School","DISTRICT":"Owen J. Roberts School District","id":"a67w7y0gcev2","FIPS":42029},"type":"Feature","geometry":{"type":"Point","coordinates":[2533795.63360698,312316.157021077]}},{"properties":{"NAME":"West Bradford Elementary School","DISTRICT":"Downingtown School District","id":"a67w7xym52xd","FIPS":42029},"type":"Feature","geometry":{"type":"Point","coordinates":[2531105.9964139,239016.040272634]}},{"properties":{"NAME":"West Chester East High School","DISTRICT":"West Chester School District","id":"a67w7xomvmoc","FIPS":42029},"type":"Feature","geometry":{"type":"Point","coordinates":[2580707.46134662,242836.454013915]}},{"properties":{"NAME":"West Chester Henderson High School","DISTRICT":"West Chester School District","id":"a67w7xyqo6s3","FIPS":42029},"type":"Feature","geometry":{"type":"Point","coordinates":[2571317.42868885,238539.605280602]}},{"properties":{"NAME":"Westtown-Thornbury  Elementary School","DISTRICT":"West Chester School District","id":"a67w7xv2xgjb","FIPS":42029},"type":"Feature","geometry":{"type":"Point","coordinates":[2583645.6031639,226580.400494343]}}],"is_temporal":false,"author":{"url":"http://www.pasda.psu.edu","metadata":"http://www.pasda.psu.edu/uci/FullMetadataDisplay.aspx?file=chestercountypublicschools.xml","contact_name":"","contact_address":"","source":"Pennsylvania Spatial Data Access(PASDA)","contact_phone":""},"source":"http://www.pasda.psu.edu","pagination":{"sort":null,"start":0,"total":96,"limit":1000000},"state":"complete","tags":"education,infrastructure","published":"2000-01-01T12:00:00Z","id":10937}