{"type":"FeatureCollection","data_attributes":null,"calculation_params":null,"title":"TeamHealth Providers By State","count":51,"icon_link":null,"extent":[-157.531,21.1098,-69.3977,61.385],"geometry_types":["point"],"unique_name":null,"feature_count":51,"link":"http://geocommons.com/overlays/10963.json","next_feature":null,"features":[{"properties":{"latitude":61.385,"longitude":-152.2683,"id":"a6b52cw6bbvs","state":"AK","data":1332},"type":"Feature","geometry":{"type":"Point","coordinates":[-152.2683,61.385]}},{"properties":{"latitude":32.799,"longitude":-86.8073,"id":"a6b52cr75bnm","state":"AL","data":7395},"type":"Feature","geometry":{"type":"Point","coordinates":[-86.8073,32.799]}},{"properties":{"latitude":34.9513,"longitude":-92.3809,"id":"a6b52cj9dvgq","state":"AR","data":4404},"type":"Feature","geometry":{"type":"Point","coordinates":[-92.3809,34.9513]}},{"properties":{"latitude":33.7712,"longitude":-111.3877,"id":"a6b52ciivepz","state":"AZ","data":11277},"type":"Feature","geometry":{"type":"Point","coordinates":[-111.3877,33.7712]}},{"properties":{"latitude":36.17,"longitude":-119.7462,"id":"a6b52cskxtof","state":"CA","data":70991},"type":"Feature","geometry":{"type":"Point","coordinates":[-119.7462,36.17]}},{"properties":{"latitude":39.0646,"longitude":-105.3272,"id":"a6b52cquzein","state":"CO","data":10725},"type":"Feature","geometry":{"type":"Point","coordinates":[-105.3272,39.0646]}},{"properties":{"latitude":41.5834,"longitude":-72.7622,"id":"a6b52ct5ugn1","state":"CT","data":9392},"type":"Feature","geometry":{"type":"Point","coordinates":[-72.7622,41.5834]}},{"properties":{"latitude":38.8964,"longitude":-77.0262,"id":"a6b52cu9ol0a","state":"DC","data":2779},"type":"Feature","geometry":{"type":"Point","coordinates":[-77.0262,38.8964]}},{"properties":{"latitude":39.3498,"longitude":-75.5148,"id":"a6b52cohlvql","state":"DE","data":1771},"type":"Feature","geometry":{"type":"Point","coordinates":[-75.5148,39.3498]}},{"properties":{"latitude":27.8333,"longitude":-81.717,"id":"a6b52co8j1rd","state":"FL","data":35162},"type":"Feature","geometry":{"type":"Point","coordinates":[-81.717,27.8333]}},{"properties":{"latitude":32.9866,"longitude":-83.6487,"id":"a6b52cw5wu4g","state":"GA","data":15974},"type":"Feature","geometry":{"type":"Point","coordinates":[-83.6487,32.9866]}},{"properties":{"latitude":21.1098,"longitude":-157.5311,"id":"a6b52cqmxk4y","state":"HI","data":2892},"type":"Feature","geometry":{"type":"Point","coordinates":[-157.5311,21.1098]}},{"properties":{"latitude":42.0046,"longitude":-93.214,"id":"a6b52cpp6x85","state":"IA","data":4781},"type":"Feature","geometry":{"type":"Point","coordinates":[-93.214,42.0046]}},{"properties":{"latitude":44.2394,"longitude":-114.5103,"id":"a6b52currcfq","state":"ID","data":2379},"type":"Feature","geometry":{"type":"Point","coordinates":[-114.5103,44.2394]}},{"properties":{"latitude":40.3363,"longitude":-89.0022,"id":"a6b52chnquug","state":"IL","data":25096},"type":"Feature","geometry":{"type":"Point","coordinates":[-89.0022,40.3363]}},{"properties":{"latitude":39.8647,"longitude":-86.2604,"id":"a6b52cmrpr7l","state":"IN","data":10785},"type":"Feature","geometry":{"type":"Point","coordinates":[-86.2604,39.8647]}},{"properties":{"latitude":38.5111,"longitude":-96.8005,"id":"a6b52cw6zjmq","state":"KS","data":4885},"type":"Feature","geometry":{"type":"Point","coordinates":[-96.8005,38.5111]}},{"properties":{"latitude":37.669,"longitude":-84.6514,"id":"a6b52cka0fe9","state":"KY","data":7415},"type":"Feature","geometry":{"type":"Point","coordinates":[-84.6514,37.669]}},{"properties":{"latitude":31.1801,"longitude":-91.8749,"id":"a6b52cj54b2f","state":"LA","data":7689},"type":"Feature","geometry":{"type":"Point","coordinates":[-91.8749,31.1801]}},{"properties":{"latitude":42.2373,"longitude":-71.5314,"id":"a6b52cwhp978","state":"MA","data":20271},"type":"Feature","geometry":{"type":"Point","coordinates":[-71.5314,42.2373]}},{"properties":{"latitude":39.0724,"longitude":-76.7902,"id":"a6b52cou2p3z","state":"MD","data":16204},"type":"Feature","geometry":{"type":"Point","coordinates":[-76.7902,39.0724]}},{"properties":{"latitude":44.6074,"longitude":-69.3977,"id":"a6b52cmk9vbp","state":"ME","data":3222},"type":"Feature","geometry":{"type":"Point","coordinates":[-69.3977,44.6074]}},{"properties":{"latitude":43.3504,"longitude":-84.5603,"id":"a6b52ckmy55v","state":"MI","data":18258},"type":"Feature","geometry":{"type":"Point","coordinates":[-84.5603,43.3504]}},{"properties":{"latitude":45.7326,"longitude":-93.9196,"id":"a6b52csn0hgm","state":"MN","data":12048},"type":"Feature","geometry":{"type":"Point","coordinates":[-93.9196,45.7326]}},{"properties":{"latitude":38.4623,"longitude":-92.302,"id":"a6b52cqvvnli","state":"MO","data":10559},"type":"Feature","geometry":{"type":"Point","coordinates":[-92.302,38.4623]}},{"properties":{"latitude":32.7673,"longitude":-89.6812,"id":"a6b52cwume50","state":"MS","data":4047},"type":"Feature","geometry":{"type":"Point","coordinates":[-89.6812,32.7673]}},{"properties":{"latitude":46.9048,"longitude":-110.3261,"id":"a6b52chh9rry","state":"MT","data":2007},"type":"Feature","geometry":{"type":"Point","coordinates":[-110.3261,46.9048]}},{"properties":{"latitude":35.6411,"longitude":-79.8431,"id":"a6b52cov7cu6","state":"NC","data":18239},"type":"Feature","geometry":{"type":"Point","coordinates":[-79.8431,35.6411]}},{"properties":{"latitude":47.5362,"longitude":-99.793,"id":"a6b52cpmp7c5","state":"ND","data":1158},"type":"Feature","geometry":{"type":"Point","coordinates":[-99.793,47.5362]}},{"properties":{"latitude":41.1289,"longitude":-98.2883,"id":"a6b52cu1zaeq","state":"NE","data":3307},"type":"Feature","geometry":{"type":"Point","coordinates":[-98.2883,41.1289]}},{"properties":{"latitude":43.4108,"longitude":-71.5653,"id":"a6b52cmfxw27","state":"NH","data":3082},"type":"Feature","geometry":{"type":"Point","coordinates":[-71.5653,43.4108]}},{"properties":{"latitude":40.314,"longitude":-74.5089,"id":"a6b52ctqsu0q","state":"NJ","data":19853},"type":"Feature","geometry":{"type":"Point","coordinates":[-74.5089,40.314]}},{"properties":{"latitude":34.8375,"longitude":-106.2371,"id":"a6b52cmdsmd6","state":"NM","data":3746},"type":"Feature","geometry":{"type":"Point","coordinates":[-106.2371,34.8375]}},{"properties":{"latitude":38.4199,"longitude":-117.1219,"id":"a6b52cmo5ofs","state":"NV","data":4082},"type":"Feature","geometry":{"type":"Point","coordinates":[-117.1219,38.4199]}},{"properties":{"latitude":42.1497,"longitude":-74.9384,"id":"a6b52cqohvx1","state":"NY","data":47814},"type":"Feature","geometry":{"type":"Point","coordinates":[-74.9384,42.1497]}},{"properties":{"latitude":40.3736,"longitude":-82.7755,"id":"a6b52cu5re50","state":"OH","data":23060},"type":"Feature","geometry":{"type":"Point","coordinates":[-82.7755,40.3736]}},{"properties":{"latitude":35.5376,"longitude":-96.9247,"id":"a6b52co1zaw3","state":"OK","data":5094},"type":"Feature","geometry":{"type":"Point","coordinates":[-96.9247,35.5376]}},{"properties":{"latitude":44.5672,"longitude":-122.1269,"id":"a6b52cwkd6ax","state":"OR","data":8706},"type":"Feature","geometry":{"type":"Point","coordinates":[-122.1269,44.5672]}},{"properties":{"latitude":40.5773,"longitude":-77.264,"id":"a6b52cgw5uja","state":"PA","data":28828},"type":"Feature","geometry":{"type":"Point","coordinates":[-77.264,40.5773]}},{"properties":{"latitude":41.6772,"longitude":-71.5101,"id":"a6b52cnsgr9n","state":"RI","data":2750},"type":"Feature","geometry":{"type":"Point","coordinates":[-71.5101,41.6772]}},{"properties":{"latitude":33.8191,"longitude":-80.9066,"id":"a6b52cmw0pe4","state":"SC","data":7844},"type":"Feature","geometry":{"type":"Point","coordinates":[-80.9066,33.8191]}},{"properties":{"latitude":44.2853,"longitude":-99.4632,"id":"a6b52cvdv6vy","state":"SD","data":1451},"type":"Feature","geometry":{"type":"Point","coordinates":[-99.4632,44.2853]}},{"properties":{"latitude":35.7449,"longitude":-86.7489,"id":"a6b52ctijlv3","state":"TN","data":12491},"type":"Feature","geometry":{"type":"Point","coordinates":[-86.7489,35.7449]}},{"properties":{"latitude":31.106,"longitude":-97.6475,"id":"a6b52cvb55oo","state":"TX","data":37511},"type":"Feature","geometry":{"type":"Point","coordinates":[-97.6475,31.106]}},{"properties":{"latitude":40.1135,"longitude":-111.8535,"id":"a6b52chl4et1","state":"UT","data":4377},"type":"Feature","geometry":{"type":"Point","coordinates":[-111.8535,40.1135]}},{"properties":{"latitude":37.768,"longitude":-78.2057,"id":"a6b52cvv6ltf","state":"VA","data":16358},"type":"Feature","geometry":{"type":"Point","coordinates":[-78.2057,37.768]}},{"properties":{"latitude":44.0407,"longitude":-72.7093,"id":"a6b52cki8t9d","state":"VT","data":1739},"type":"Feature","geometry":{"type":"Point","coordinates":[-72.7093,44.0407]}},{"properties":{"latitude":47.3917,"longitude":-121.5708,"id":"a6b52cnqx92h","state":"WA","data":14279},"type":"Feature","geometry":{"type":"Point","coordinates":[-121.5708,47.3917]}},{"properties":{"latitude":44.2563,"longitude":-89.6385,"id":"a6b52cnsf6dq","state":"WI","data":11524},"type":"Feature","geometry":{"type":"Point","coordinates":[-89.6385,44.2563]}},{"properties":{"latitude":38.468,"longitude":-80.9696,"id":"a6b52ctqnjk3","state":"WV","data":3126},"type":"Feature","geometry":{"type":"Point","coordinates":[-80.9696,38.468]}},{"properties":{"latitude":42.7475,"longitude":-107.2085,"id":"a6b52clv0u91","state":"WY","data":934},"type":"Feature","geometry":{"type":"Point","coordinates":[-107.2085,42.7475]}}],"is_raster":false,"name":"TeamHealth Providers By State","state":"complete","short_classification":"Y","published":"2014-08-31T12:55:14-04:00","description":"","stats":{"latitude":{"max":61.385,"mean":39.4657274509804,"variance":36.7624769248314,"stdev":6.0632068185764,"median":39.8647,"min":21.1098},"longitude":{"max":-69.3977,"mean":-93.3482176470589,"variance":371.856430787882,"stdev":19.2835793043688,"median":-89.6385,"min":-157.5311},"data":{"max":70991,"mean":11864.568627451,"variance":175717352.570196,"stdev":13255.842205239,"median":7689,"min":934}},"is_temporal":false,"pagination":{"sort":null,"start":0,"limit":1000000,"total":51},"author":{"metadata":"","contact_name":"","url":"","contact_address":"","contact_phone":"","source":""},"source":"","data_type":"Dataset","url_type":null,"permissions":[{"group_id":"everyone","permissions":{"download":true,"view":true}}],"classification":null,"tags":"","id":10963,"stream_id":10963,"contributor":{"name":"joshuaboyd","url":"http://geocommons.com/users/5509"}}