{"type":"FeatureCollection","data_type":"Dataset","url_type":null,"permissions":[{"permissions":{"download":true,"view":true},"group_id":"everyone"}],"classification":null,"title":"Starbucks in Chicago","count":146,"stream_id":109691,"contributor":{"url":"http://geocommons.com/users/2712","name":"dianamaps"},"data_attributes":null,"calculation_params":null,"icon_link":null,"link":"http://geocommons.com/overlays/109691.json","extent":[-87.8081,41.7661,-87.5863,42.0195],"geometry_types":null,"unique_name":null,"name":"Starbucks in Chicago","feature_count":146,"description":"","next_feature":null,"is_raster":false,"short_classification":"Y","stats":{},"features":[{"properties":{"city":"Chicago","zip":"60601","geo_score":0.805,"id":"a62gkqlxgpn3","geo_precision":"range","address":"10 S Riverside Plaza","state":"IL"},"type":"Feature","geometry":{"type":"Point","coordinates":[-87.638852,41.881783]}},{"properties":{"city":"Chicago","zip":"60606","geo_score":0.619,"id":"a62gkqmbt8zi","geo_precision":"street","address":"100 S. Wacker Drive","state":"IL"},"type":"Feature","geometry":{"type":"Point","coordinates":[-87.636749,41.881264]}},{"properties":{"city":"Chicago","zip":"60611","geo_score":0.947,"id":"a62gkq78y13m","geo_precision":"range","address":"111 East Chestnut","state":"IL"},"type":"Feature","geometry":{"type":"Point","coordinates":[-87.625062,41.898373]}},{"properties":{"city":"Chicago","zip":"60602","geo_score":1.0,"id":"a62gkqbd3at4","geo_precision":"range","address":"111 W Washington St","state":"IL"},"type":"Feature","geometry":{"type":"Point","coordinates":[-87.631249,41.88321]}},{"properties":{"city":"Chicago","zip":"60614","geo_score":1.0,"id":"a62gkqip4zjt","geo_precision":"range","address":"1700 West Diversey Parkway","state":"IL"},"type":"Feature","geometry":{"type":"Point","coordinates":[-87.670825,41.932373]}},{"properties":{"city":"Chicago","zip":"60613","geo_score":0.607,"id":"a62gkqh9a72e","geo_precision":"street","address":"1900 W. Montrose Avenue","state":"IL"},"type":"Feature","geometry":{"type":"Point","coordinates":[-87.646231,41.961988]}},{"properties":{"city":"Chicago","zip":"60601","geo_score":1.0,"id":"a62gkqjcnbdk","geo_precision":"range","address":"202 N Michigan Ave","state":"IL"},"type":"Feature","geometry":{"type":"Point","coordinates":[-87.624511,41.885775]}},{"properties":{"city":"Chicago","zip":"60606","geo_score":0.625,"id":"a62gkqkr4j1h","geo_precision":"street","address":"200 W. Adams","state":"IL"},"type":"Feature","geometry":{"type":"Point","coordinates":[-87.629352,41.879438]}},{"properties":{"city":"Chicago","zip":"60606","geo_score":0.607,"id":"a62gkqffox3b","geo_precision":"street","address":"209 W. Jackson","state":"IL"},"type":"Feature","geometry":{"type":"Point","coordinates":[-87.633729,41.878119]}},{"properties":{"city":"Chicago","zip":"60606","geo_score":0.786,"id":"a62gkqjkmbg1","geo_precision":"street","address":"25 E Washington Blvd","state":"IL"},"type":"Feature","geometry":{"type":"Point","coordinates":[-87.638161,41.88319]}},{"properties":{"city":"Chicago","zip":"60602","geo_score":1.0,"id":"a62gkqfaxnm4","geo_precision":"range","address":"30 N LaSalle St.","state":"IL"},"type":"Feature","geometry":{"type":"Point","coordinates":[-87.632379,41.88258]}},{"properties":{"city":"Chicago","zip":"60606","geo_score":0.941,"id":"a62gkqa5xtwb","geo_precision":"range","address":"303 West Madison","state":"IL"},"type":"Feature","geometry":{"type":"Point","coordinates":[-87.635312,41.881934]}},{"properties":{"city":"Chicago","zip":"60606","geo_score":0.619,"id":"a62gkqmpm0t3","geo_precision":"street","address":"311 S. Wacker Dr.","state":"IL"},"type":"Feature","geometry":{"type":"Point","coordinates":[-87.636749,41.881264]}},{"properties":{"city":"Chicago","zip":"60610","geo_score":0.614,"id":"a62gkq9tzayj","geo_precision":"street","address":"414 N. Orleans","state":"IL"},"type":"Feature","geometry":{"type":"Point","coordinates":[-87.636983,41.889943]}},{"properties":{"city":"Chicago","zip":"60610","geo_score":0.625,"id":"a62gkq9x5b7p","geo_precision":"street","address":"430 N. Clark","state":"IL"},"type":"Feature","geometry":{"type":"Point","coordinates":[-87.631023,41.88751]}},{"properties":{"city":"Chicago","zip":"60611","geo_score":1.0,"id":"a62gkqa1lu3o","geo_precision":"range","address":"444 N Michigan Avenue","state":"IL"},"type":"Feature","geometry":{"type":"Point","coordinates":[-87.624207,41.89037]}},{"properties":{"city":"Chicago","zip":"60632","geo_score":0.902,"id":"a62gkqexxo1r","geo_precision":"range","address":"4701 South Cicero Avenue","state":"IL"},"type":"Feature","geometry":{"type":"Point","coordinates":[-87.743158,41.807622]}},{"properties":{"city":"Chicago","zip":"60604","geo_score":1.0,"id":"a62gkqbo5sbx","geo_precision":"range","address":"55 East Jackson Blvd.","state":"IL"},"type":"Feature","geometry":{"type":"Point","coordinates":[-87.625804,41.878254]}},{"properties":{"city":"Chicago","zip":"60607","geo_score":0.947,"id":"a62gkqk0jkwn","geo_precision":"range","address":"550 W Van Buren","state":"IL"},"type":"Feature","geometry":{"type":"Point","coordinates":[-87.641765,41.876743]}},{"properties":{"city":"Chicago","zip":"60610","geo_score":0.321,"id":"a62gkqkonfif","geo_precision":"street","address":"670 N. Michigan Avenue","state":"IL"},"type":"Feature","geometry":{"type":"Point","coordinates":[-87.624296,41.882118]}},{"properties":{"city":"Chicago","zip":"60602","geo_score":0.614,"id":"a62gkqk31ov7","geo_precision":"street","address":"68 E. Madison","state":"IL"},"type":"Feature","geometry":{"type":"Point","coordinates":[-87.626956,41.882072]}},{"properties":{"city":"Chicago","zip":"60649","geo_score":1.0,"id":"a62gkqkopzeb","geo_precision":"range","address":"7101 South Stony Island Ave.","state":"IL"},"type":"Feature","geometry":{"type":"Point","coordinates":[-87.586327,41.766061]}},{"properties":{"city":"Chicago","zip":"60625","geo_score":1.0,"id":"a62gkqieayi7","geo_precision":"range","address":"4558 North Kedzie Ave.","state":"IL"},"type":"Feature","geometry":{"type":"Point","coordinates":[-87.708327,41.96401]}},{"properties":{"city":"Chicago","zip":"60614","geo_score":0.61,"id":"a62gkqdq8e0d","geo_precision":"street","address":"2475 N. Lincoln","state":"IL"},"type":"Feature","geometry":{"type":"Point","coordinates":[-87.635503,41.916565]}},{"properties":{"city":"Chicago","zip":"60640","geo_score":1.0,"id":"a62gkqc9uhh5","geo_precision":"range","address":"5300 N Clark Street","state":"IL"},"type":"Feature","geometry":{"type":"Point","coordinates":[-87.668349,41.978018]}},{"properties":{"city":"Chicago","zip":"60614","geo_score":0.973,"id":"a62gkq98qj4l","geo_precision":"range","address":"2454 Ashland Ave","state":"IL"},"type":"Feature","geometry":{"type":"Point","coordinates":[-87.668179,41.926131]}},{"properties":{"city":"Chicago","zip":"60606","geo_score":0.619,"id":"a62gkq70em02","geo_precision":"street","address":"227 W. Monroe","state":"IL"},"type":"Feature","geometry":{"type":"Point","coordinates":[-87.633798,41.88066]}},{"properties":{"city":"Chicago","zip":"60604","geo_score":1.0,"id":"a62gkqh3shrk","geo_precision":"range","address":"231 S LaSalle St","state":"IL"},"type":"Feature","geometry":{"type":"Point","coordinates":[-87.632272,41.878693]}},{"properties":{"city":"Chicago","zip":"60618","geo_score":1.0,"id":"a62gkqhpzivd","geo_precision":"range","address":"2159 West Belmont Ave.","state":"IL"},"type":"Feature","geometry":{"type":"Point","coordinates":[-87.68197,41.939524]}},{"properties":{"city":"Chicago","zip":"60707","geo_score":0.477,"id":"a62gkqfcapv7","geo_precision":"street","address":"6451 W. Diversey","state":"IL"},"type":"Feature","geometry":{"type":"Point","coordinates":[-87.7863,41.930984]}},{"properties":{"city":"Chicago","zip":"60613","geo_score":0.947,"id":"a62gkqlchyoe","geo_precision":"range","address":"3845 N Broadway","state":"IL"},"type":"Feature","geometry":{"type":"Point","coordinates":[-87.649645,41.952486]}},{"properties":{"city":"Chicago","zip":"60640","geo_score":0.947,"id":"a62gkqab8p73","geo_precision":"range","address":"4753 North Broadway","state":"IL"},"type":"Feature","geometry":{"type":"Point","coordinates":[-87.659234,41.968202]}},{"properties":{"city":"Chicago","zip":"60609","geo_score":0.625,"id":"a62gkqggucy0","geo_precision":"street","address":"3506 S. State St.","state":"IL"},"type":"Feature","geometry":{"type":"Point","coordinates":[-87.626644,41.831013]}},{"properties":{"city":"Chicago","zip":"60622","geo_score":0.604,"id":"a62gkq6plbwy","geo_precision":"street","address":"1588 N. Milwaukee Ave.","state":"IL"},"type":"Feature","geometry":{"type":"Point","coordinates":[-87.647624,41.89121]}},{"properties":{"city":"Chicago","zip":"60670","geo_score":0.805,"id":"a62gkqlfjxvu","geo_precision":"range","address":"21 S Clark St","state":"IL"},"type":"Feature","geometry":{"type":"Point","coordinates":[-87.630865,41.88133]}},{"properties":{"city":"Chicago","zip":"60610","geo_score":1.0,"id":"a62gkqh267ff","geo_precision":"range","address":"750 North Franklin Street","state":"IL"},"type":"Feature","geometry":{"type":"Point","coordinates":[-87.635681,41.895895]}},{"properties":{"city":"Chicago","zip":"60611","geo_score":1.0,"id":"a62gkqhug48u","geo_precision":"range","address":"42 East Chicago Ave","state":"IL"},"type":"Feature","geometry":{"type":"Point","coordinates":[-87.626785,41.896696]}},{"properties":{"city":"Chicago","zip":"60601","geo_score":1.0,"id":"a62gkqizuvvk","geo_precision":"range","address":"200 East Randolph St","state":"IL"},"type":"Feature","geometry":{"type":"Point","coordinates":[-87.622974,41.884291]}},{"properties":{"city":"Chicago","zip":"60611","geo_score":0.82,"id":"a62gkq6rb0sk","geo_precision":"range","address":"155 E Ontario","state":"IL"},"type":"Feature","geometry":{"type":"Point","coordinates":[-87.623727,41.893344]}},{"properties":{"city":"Chicago","zip":"60657","geo_score":1.0,"id":"a62gkqmgss52","geo_precision":"range","address":"3184 North Clark Street","state":"IL"},"type":"Feature","geometry":{"type":"Point","coordinates":[-87.650366,41.939693]}},{"properties":{"city":"Chicago","zip":"60602","geo_score":1.0,"id":"a62gkqfthgc4","geo_precision":"range","address":"70 W Madison St","state":"IL"},"type":"Feature","geometry":{"type":"Point","coordinates":[-87.630008,41.881987]}},{"properties":{"city":"Chicago","zip":"60614","geo_score":0.805,"id":"a62gkqlzqryr","geo_precision":"street","address":"2525 1/2 N CLARK ST","state":"IL"},"type":"Feature","geometry":{"type":"Point","coordinates":[-87.631682,41.911181]}},{"properties":{"city":"Chicago","zip":"60614","geo_score":0.607,"id":"a62gkqi0etud","geo_precision":"street","address":"2200 N. Clybourn","state":"IL"},"type":"Feature","geometry":{"type":"Point","coordinates":[-87.650736,41.911787]}},{"properties":{"city":"Chicago","zip":"60601","geo_score":1.0,"id":"a62gkqepywha","geo_precision":"range","address":"161 North Clark Street","state":"IL"},"type":"Feature","geometry":{"type":"Point","coordinates":[-87.630948,41.884839]}},{"properties":{"city":"Chicago","zip":"60602","geo_score":1.0,"id":"a62gkqc3ql7d","geo_precision":"range","address":"66 West Washington Street","state":"IL"},"type":"Feature","geometry":{"type":"Point","coordinates":[-87.629932,41.883211]}},{"properties":{"city":"Chicago","zip":"60610","geo_score":1.0,"id":"a62gkqdsj4k2","geo_precision":"range","address":"39 W Division St","state":"IL"},"type":"Feature","geometry":{"type":"Point","coordinates":[-87.630088,41.903921]}},{"properties":{"city":"Chicago","zip":"60605","geo_score":0.61,"id":"a62gkqk1yzr0","geo_precision":"street","address":"555 S. Dearborn","state":"IL"},"type":"Feature","geometry":{"type":"Point","coordinates":[-87.629402,41.881997]}},{"properties":{"city":"Chicago","zip":"60614","geo_score":0.625,"id":"a62gkqjach2s","geo_precision":"street","address":"2063 N. Clark","state":"IL"},"type":"Feature","geometry":{"type":"Point","coordinates":[-87.632854,41.913174]}},{"properties":{"city":"Chicago","zip":"60614","geo_score":1.0,"id":"a62gkqmlod4p","geo_precision":"range","address":"617 W Diversey Pkwy","state":"IL"},"type":"Feature","geometry":{"type":"Point","coordinates":[-87.644251,41.932812]}},{"properties":{"city":"Chicago","zip":"60622","geo_score":1.0,"id":"a62gkqgrcta3","geo_precision":"range","address":"1701 West Division Street","state":"IL"},"type":"Feature","geometry":{"type":"Point","coordinates":[-87.669944,41.903306]}},{"properties":{"city":"Chicago","zip":"60661","geo_score":1.0,"id":"a62gkqa1u7dt","geo_precision":"range","address":"1 N Halsted St","state":"IL"},"type":"Feature","geometry":{"type":"Point","coordinates":[-87.647359,41.881778]}},{"properties":{"city":"Chicago","zip":"60610","geo_score":0.947,"id":"a62gkqjmjyue","geo_precision":"range","address":"424 W Division","state":"IL"},"type":"Feature","geometry":{"type":"Point","coordinates":[-87.638967,41.903783]}},{"properties":{"city":"Chicago","zip":"60607","geo_score":0.902,"id":"a62gkqacg7h8","geo_precision":"range","address":"1340 South Canal Street","state":"IL"},"type":"Feature","geometry":{"type":"Point","coordinates":[-87.639166,41.86472]}},{"properties":{"city":"Chicago","zip":"60614","geo_score":0.932,"id":"a62gkqk9l6p0","geo_precision":"range","address":"959 West Fullerton","state":"IL"},"type":"Feature","geometry":{"type":"Point","coordinates":[-87.65323,41.92538]}},{"properties":{"city":"Chicago","zip":"60611","geo_score":1.0,"id":"a62gkq7pjkai","geo_precision":"range","address":"255 E Grand Ave","state":"IL"},"type":"Feature","geometry":{"type":"Point","coordinates":[-87.621064,41.891788]}},{"properties":{"city":"Chicago","zip":"60626","geo_score":0.482,"id":"a62gkq6wsqsv","geo_precision":"street","address":"1763 W. Howard St.","state":"IL"},"type":"Feature","geometry":{"type":"Point","coordinates":[-87.677633,42.019428]}},{"properties":{"city":"Lincolnwood","zip":"60712","geo_score":0.91,"id":"a62gkqb18h6s","geo_precision":"range","address":"6810 McCormick","state":"IL"},"type":"Feature","geometry":{"type":"Point","coordinates":[-87.711649,42.004802]}},{"properties":{"city":"Chicago","zip":"60660","geo_score":0.61,"id":"a62gkqbmcr87","geo_precision":"street","address":"6009 N. Broadway Street","state":"IL"},"type":"Feature","geometry":{"type":"Point","coordinates":[-87.660092,41.98441]}},{"properties":{"city":"Chicago","zip":"60660","geo_score":0.61,"id":"a62gkqcisj6r","geo_precision":"street","address":"6009 N. Broadway Street","state":"IL"},"type":"Feature","geometry":{"type":"Point","coordinates":[-87.660092,41.98441]}},{"properties":{"city":"Chicago","zip":"60614","geo_score":0.607,"id":"a62gkqapkrjb","geo_precision":"street","address":"2550 N. Clyborn","state":"IL"},"type":"Feature","geometry":{"type":"Point","coordinates":[-87.650736,41.911787]}},{"properties":{"city":"Oak Park","zip":"60302","geo_score":1.0,"id":"a62gkqei5x29","geo_precision":"range","address":"259 Lake St","state":"IL"},"type":"Feature","geometry":{"type":"Point","coordinates":[-87.781983,41.888237]}},{"properties":{"city":"Chicago","zip":"60601","geo_score":0.619,"id":"a62gkqb5a94t","geo_precision":"street","address":"35 E. Wacker Dr","state":"IL"},"type":"Feature","geometry":{"type":"Point","coordinates":[-87.626347,41.886829]}},{"properties":{"city":"Chicago","zip":"60660","geo_score":0.607,"id":"a62gkq945jcs","geo_precision":"street","address":"1070 W. Bryn Mawr Ave.","state":"IL"},"type":"Feature","geometry":{"type":"Point","coordinates":[-87.653705,41.983859]}},{"properties":{"city":"Elmwood Park","zip":"60707","geo_score":0.614,"id":"a62gkqipnmv6","geo_precision":"street","address":"2850 N. Harlem Ave.","state":"IL"},"type":"Feature","geometry":{"type":"Point","coordinates":[-87.805748,41.908903]}},{"properties":{"city":"Chicago","zip":"60610","geo_score":0.625,"id":"a62gkqhpahft","geo_precision":"street","address":"600 N. State Street","state":"IL"},"type":"Feature","geometry":{"type":"Point","coordinates":[-87.627805,41.882042]}},{"properties":{"city":"Forest Park","zip":"60130","geo_score":0.912,"id":"a62gkqmueexy","geo_precision":"range","address":"7231 Madison Ave","state":"IL"},"type":"Feature","geometry":{"type":"Point","coordinates":[-87.806056,41.879625]}},{"properties":{"city":"Chicago","zip":"60707","geo_score":0.489,"id":"a62gkqigryh1","geo_precision":"street","address":"7112 W. North Ave.","state":"IL"},"type":"Feature","geometry":{"type":"Point","coordinates":[-87.785001,41.909147]}},{"properties":{"city":"Chicago","zip":"60610","geo_score":0.973,"id":"a62gkqlrd7x6","geo_precision":"range","address":"106-108 WEST GERMANIA PLACE","state":"IL"},"type":"Feature","geometry":{"type":"Point","coordinates":[-87.631866,41.910425]}},{"properties":{"city":"Chicago","zip":"60615","geo_score":0.633,"id":"a62gkq7f13ct","geo_precision":"street","address":"1500 E. 53rd St","state":"IL"},"type":"Feature","geometry":{"type":"Point","coordinates":[-87.624179,41.798144]}},{"properties":{"city":"Chicago","zip":"60615","geo_score":0.854,"id":"a62gkq99d3al","geo_precision":"range","address":"1174 East 55th Streeet","state":"IL"},"type":"Feature","geometry":{"type":"Point","coordinates":[-87.59722,41.795059]}},{"properties":{"city":"Chicago","zip":"60601","geo_score":1.0,"id":"a62gkq92dmbq","geo_precision":"range","address":"225 N Michigan Ave","state":"IL"},"type":"Feature","geometry":{"type":"Point","coordinates":[-87.624523,41.886012]}},{"properties":{"city":"Chicago","zip":"60611","geo_score":1.0,"id":"a62gkqg7n9dp","geo_precision":"range","address":"505 N Michigan Ave","state":"IL"},"type":"Feature","geometry":{"type":"Point","coordinates":[-87.624218,41.891045]}},{"properties":{"city":"Chicago","zip":"60641","geo_score":1.0,"id":"a62gkqduzdpp","geo_precision":"range","address":"4365 West Irving Park Road","state":"IL"},"type":"Feature","geometry":{"type":"Point","coordinates":[-87.737334,41.953535]}},{"properties":{"city":"Chicago","zip":"60601","geo_score":0.614,"id":"a62gkqdzipf1","geo_precision":"street","address":"180 N. LaSalle St","state":"IL"},"type":"Feature","geometry":{"type":"Point","coordinates":[-87.632435,41.884472]}},{"properties":{"city":"Chicago","zip":"60604","geo_score":0.614,"id":"a62gkqeaugjc","geo_precision":"street","address":"39 S. LaSalle Street","state":"IL"},"type":"Feature","geometry":{"type":"Point","coordinates":[-87.632346,41.881275]}},{"properties":{"city":"Chicago","zip":"60624","geo_score":0.607,"id":"a62gkqdk3n5a","geo_precision":"street","address":"3350 W. Roosevelt Rd.","state":"IL"},"type":"Feature","geometry":{"type":"Point","coordinates":[-87.709323,41.866364]}},{"properties":{"city":"Chicago","zip":"60601","geo_score":1.0,"id":"a62gkq9bkgmz","geo_precision":"range","address":"40 W Lake Street","state":"IL"},"type":"Feature","geometry":{"type":"Point","coordinates":[-87.629216,41.885746]}},{"properties":{"city":"Chicago","zip":"60616","geo_score":1.0,"id":"a62gkqg1gd6g","geo_precision":"range","address":"2301 S Lake Shore Dr","state":"IL"},"type":"Feature","geometry":{"type":"Point","coordinates":[-87.613399,41.852229]}},{"properties":{"city":"Chicago","zip":"60614","geo_score":0.614,"id":"a62gkqh4wyxf","geo_precision":"street","address":"2200 N. Halsted","state":"IL"},"type":"Feature","geometry":{"type":"Point","coordinates":[-87.647988,41.90152]}},{"properties":{"city":"Chicago","zip":"60657","geo_score":0.91,"id":"a62gkq7d6dwi","geo_precision":"range","address":"3045 Greenview","state":"IL"},"type":"Feature","geometry":{"type":"Point","coordinates":[-87.666154,41.937217]}},{"properties":{"city":"Chicago","zip":"60657","geo_score":1.0,"id":"a62gkq9nsayx","geo_precision":"range","address":"3356 NORTH LINCOLN AVENUE","state":"IL"},"type":"Feature","geometry":{"type":"Point","coordinates":[-87.670505,41.942484]}},{"properties":{"city":"Chicago","zip":"60625","geo_score":1.0,"id":"a62gkqlamenp","geo_precision":"range","address":"4553-4557 N Lincoln Ave","state":"IL"},"type":"Feature","geometry":{"type":"Point","coordinates":[-87.6855,41.964102]}},{"properties":{"city":"Chicago","zip":"60647","geo_score":1.0,"id":"a62gkqkw22j8","geo_precision":"range","address":"2577 N Elston Ave","state":"IL"},"type":"Feature","geometry":{"type":"Point","coordinates":[-87.681855,41.928083]}},{"properties":{"city":"Chicago","zip":"60614","geo_score":0.604,"id":"a62gkqah3yda","geo_precision":"street","address":"1245 W. Fullerton Ave.","state":"IL"},"type":"Feature","geometry":{"type":"Point","coordinates":[-87.631346,41.92611]}},{"properties":{"city":"Chicago","zip":"60659","geo_score":0.61,"id":"a62gkqbiancl","geo_precision":"street","address":"6075 N. Lincoln Ave.","state":"IL"},"type":"Feature","geometry":{"type":"Point","coordinates":[-87.695875,41.98358]}},{"properties":{"city":"Chicago","zip":"60613","geo_score":0.61,"id":"a62gkq6hz83r","geo_precision":"street","address":"4015 N. Lincoln Avenue","state":"IL"},"type":"Feature","geometry":{"type":"Point","coordinates":[-87.674095,41.947452]}},{"properties":{"city":"Chicago","zip":"60647","geo_score":0.602,"id":"a62gkq8g6nfu","geo_precision":"street","address":"2543 N. California","state":"IL"},"type":"Feature","geometry":{"type":"Point","coordinates":[-87.697014,41.910728]}},{"properties":{"city":"Chicago","zip":"60602","geo_score":0.625,"id":"a62gkqfjcxx6","geo_precision":"street","address":"111 N. State St.","state":"IL"},"type":"Feature","geometry":{"type":"Point","coordinates":[-87.627853,41.882602]}},{"properties":{"city":"Chicago","zip":"60602","geo_score":0.625,"id":"a62gkqmq9340","geo_precision":"street","address":"111 N. State St.","state":"IL"},"type":"Feature","geometry":{"type":"Point","coordinates":[-87.627853,41.882602]}},{"properties":{"city":"Chicago","zip":"60607","geo_score":0.92,"id":"a62gkq94wzf0","geo_precision":"range","address":"1001A West Madison Avenue","state":"IL"},"type":"Feature","geometry":{"type":"Point","coordinates":[-87.653015,41.881693]}},{"properties":{"city":"Bedford Park","zip":"60638","geo_score":1.0,"id":"a62gkqknyhvk","geo_precision":"range","address":"6520 S Cicero Ave","state":"IL"},"type":"Feature","geometry":{"type":"Point","coordinates":[-87.742141,41.774325]}},{"properties":{"city":"Chicago","zip":"60611","geo_score":0.941,"id":"a62gkql7m02b","geo_precision":"range","address":"30 E Hubbard","state":"IL"},"type":"Feature","geometry":{"type":"Point","coordinates":[-87.62691,41.890082]}},{"properties":{"city":"Chicago","zip":"60616","geo_score":0.633,"id":"a62gkqciqhcl","geo_precision":"street","address":"2301 S. Martin Luther King Dr.","state":"IL"},"type":"Feature","geometry":{"type":"Point","coordinates":[-87.618911,41.850787]}},{"properties":{"city":"Chicago","zip":"60616","geo_score":1.0,"id":"a62gkqdiutzj","geo_precision":"range","address":"2301 S Lake Shore Dr","state":"IL"},"type":"Feature","geometry":{"type":"Point","coordinates":[-87.613399,41.852229]}},{"properties":{"city":"Chicago","zip":"60654","geo_score":0.744,"id":"a62gkqkh62bz","geo_precision":"street","address":"470 MERCHANDISE MART","state":"IL"},"type":"Feature","geometry":{"type":"Point","coordinates":[-87.636291,41.887913]}},{"properties":{"city":"Chicago","zip":"60661","geo_score":0.941,"id":"a62gkqii7mob","geo_precision":"range","address":"139 South Clinton","state":"IL"},"type":"Feature","geometry":{"type":"Point","coordinates":[-87.641138,41.880054]}},{"properties":{"city":"Chicago","zip":"60662","geo_score":0.675,"id":"a62gkqkp6cl1","geo_precision":"range","address":"1001 W North Ave","state":"IL"},"type":"Feature","geometry":{"type":"Point","coordinates":[-87.653106,41.91084]}},{"properties":{"city":"Chicago","zip":"60657","geo_score":0.61,"id":"a62gkqklunlx","geo_precision":"street","address":"3358 N. Broadway","state":"IL"},"type":"Feature","geometry":{"type":"Point","coordinates":[-87.644264,41.934252]}},{"properties":{"city":"Chicago","zip":"60614","geo_score":0.614,"id":"a62gkqgtczsj","geo_precision":"street","address":"2200 N. Halsted","state":"IL"},"type":"Feature","geometry":{"type":"Point","coordinates":[-87.647988,41.90152]}},{"properties":{"city":"Chicago","zip":"60630","geo_score":0.614,"id":"a62gkqilkh2p","geo_precision":"street","address":"4830 N. Pulaski Rd.","state":"IL"},"type":"Feature","geometry":{"type":"Point","coordinates":[-87.727869,41.962531]}},{"properties":{"city":"Chicago","zip":"60625","geo_score":1.0,"id":"a62gkqjun7js","geo_precision":"range","address":"3232 W Foster Avenue","state":"IL"},"type":"Feature","geometry":{"type":"Point","coordinates":[-87.709947,41.975732]}},{"properties":{"city":"North Riverside","zip":"60546","geo_score":1.0,"id":"a62gkqfmtjm0","geo_precision":"range","address":"7501 West Cermak Road","state":"IL"},"type":"Feature","geometry":{"type":"Point","coordinates":[-87.808078,41.850291]}},{"properties":{"city":"Chicago","zip":"60606","geo_score":0.935,"id":"a62gkq7i48m5","geo_precision":"range","address":"150 N Wacker","state":"IL"},"type":"Feature","geometry":{"type":"Point","coordinates":[-87.636826,41.88446]}},{"properties":{"city":"Chicago","zip":"60611","geo_score":1.0,"id":"a62gkqg24qcj","geo_precision":"range","address":"251 East Huron Street","state":"IL"},"type":"Feature","geometry":{"type":"Point","coordinates":[-87.621708,41.895002]}},{"properties":{"city":"Chicago","zip":"60611","geo_score":1.0,"id":"a62gkq6j5flo","geo_precision":"range","address":"932 N Rush Street","state":"IL"},"type":"Feature","geometry":{"type":"Point","coordinates":[-87.62716,41.900006]}},{"properties":{"city":"Oak Park","zip":"60301","geo_score":1.0,"id":"a62gkq8uvlqs","geo_precision":"range","address":"1018 Lake St","state":"IL"},"type":"Feature","geometry":{"type":"Point","coordinates":[-87.800883,41.888656]}},{"properties":{"city":"Oak Park","zip":"60301","geo_score":1.0,"id":"a62gkqmrv9xg","geo_precision":"range","address":"711 Lake St.","state":"IL"},"type":"Feature","geometry":{"type":"Point","coordinates":[-87.792831,41.888583]}},{"properties":{"city":"Chicago","zip":"60610","geo_score":0.976,"id":"a62gkqld5hvd","geo_precision":"range","address":"1229 N Clyborn Ave","state":"IL"},"type":"Feature","geometry":{"type":"Point","coordinates":[-87.640222,41.904315]}},{"properties":{"city":"Chicago","zip":"60611","geo_score":0.614,"id":"a62gkqmwo91c","geo_precision":"street","address":"401 E. Ontario","state":"IL"},"type":"Feature","geometry":{"type":"Point","coordinates":[-87.628115,41.893271]}},{"properties":{"city":"Chicago","zip":"60610","geo_score":0.87,"id":"a62gkq946bbe","geo_precision":"range","address":"200-230 W North Ave","state":"IL"},"type":"Feature","geometry":{"type":"Point","coordinates":[-87.634711,41.911159]}},{"properties":{"city":"Chicago","zip":"60611","geo_score":1.0,"id":"a62gkq8w87dk","geo_precision":"range","address":"600 E Grand Ave","state":"IL"},"type":"Feature","geometry":{"type":"Point","coordinates":[-87.611578,41.891982]}},{"properties":{"city":"River Forest","zip":"60305","geo_score":1.0,"id":"a62gkq70v1ld","geo_precision":"range","address":"7201 Lake Street","state":"IL"},"type":"Feature","geometry":{"type":"Point","coordinates":[-87.805049,41.888574]}},{"properties":{"city":"River Forest","zip":"60305","geo_score":0.619,"id":"a62gkqe7exmf","geo_precision":"street","address":"7601 W. North Avenue","state":"IL"},"type":"Feature","geometry":{"type":"Point","coordinates":[-87.805748,41.908903]}},{"properties":{"city":"Chicago","zip":"60611","geo_score":0.614,"id":"a62gkqiee663","geo_precision":"street","address":"38 E. Ontario St.","state":"IL"},"type":"Feature","geometry":{"type":"Point","coordinates":[-87.628115,41.893271]}},{"properties":{"city":"Chicago","zip":"60622","geo_score":0.619,"id":"a62gkqmrqulv","geo_precision":"street","address":"520 N. Ogden Ave.","state":"IL"},"type":"Feature","geometry":{"type":"Point","coordinates":[-87.665624,41.881899]}},{"properties":{"city":"Chicago","zip":"60626","geo_score":0.927,"id":"a62gkq992vb7","geo_precision":"range","address":"6738 North Sheridan Avenue","state":"IL"},"type":"Feature","geometry":{"type":"Point","coordinates":[-87.660853,42.004674]}},{"properties":{"city":"Chicago","zip":"60605","geo_score":1.0,"id":"a62gkqec7lz5","geo_precision":"range","address":"31 East Roosevelt Road","state":"IL"},"type":"Feature","geometry":{"type":"Point","coordinates":[-87.626117,41.867495]}},{"properties":{"city":"Chicago","zip":"60618","geo_score":0.902,"id":"a62gkqjqyhp0","geo_precision":"range","address":"2023-25 West Roscoe Street","state":null},"type":"Feature","geometry":{"type":"Point","coordinates":[-87.679218,41.943206]}},{"properties":{"city":"Chicago","zip":"60646","geo_score":0.607,"id":"a62gkqawgr6v","geo_precision":"street","address":"4159 W. Peterson","state":"IL"},"type":"Feature","geometry":{"type":"Point","coordinates":[-87.72864,41.990134]}},{"properties":{"city":"Chicago","zip":"60606","geo_score":1.0,"id":"a62gkqb71bcs","geo_precision":"range","address":"233 South Wacker Drive","state":"IL"},"type":"Feature","geometry":{"type":"Point","coordinates":[-87.636681,41.878968]}},{"properties":{"city":"Chicago","zip":"60657","geo_score":0.715,"id":"a62gkq747uv7","geo_precision":"street","address":"1000-1002 West Diversey Ave","state":"IL"},"type":"Feature","geometry":{"type":"Point","coordinates":[-87.636111,41.933159]}},{"properties":{"city":"Chicago","zip":"60607","geo_score":1.0,"id":"a62gkqkew383","geo_precision":"range","address":"1101 South Canal St.","state":"IL"},"type":"Feature","geometry":{"type":"Point","coordinates":[-87.639236,41.868491]}},{"properties":{"city":"Chicago","zip":"60657","geo_score":0.604,"id":"a62gkqf8gf8m","geo_precision":"street","address":"3359 N. Southport","state":"IL"},"type":"Feature","geometry":{"type":"Point","coordinates":[-87.663583,41.932931]}},{"properties":{"city":"Chicago","zip":"60603","geo_score":0.849,"id":"a62gkq6kbb1d","geo_precision":"range","address":"131 South Dearborn","state":"IL"},"type":"Feature","geometry":{"type":"Point","coordinates":[-87.62936,41.879999]}},{"properties":{"city":"Chicago","zip":"60610","geo_score":1.0,"id":"a62gkqim8ogo","geo_precision":"range","address":"828 North State Street","state":"IL"},"type":"Feature","geometry":{"type":"Point","coordinates":[-87.628222,41.89752]}},{"properties":{"city":"Chicago","zip":"60707","geo_score":0.911,"id":"a62gkqiziipk","geo_precision":"range","address":"6525 W Diversey Ave","state":"IL"},"type":"Feature","geometry":{"type":"Point","coordinates":[-87.78865,41.930948]}},{"properties":{"city":"Chicago","zip":"60608","geo_score":0.916,"id":"a62gkqbqffe5","geo_precision":"range","address":"1940 W 33rd St","state":"IL"},"type":"Feature","geometry":{"type":"Point","coordinates":[-87.674136,41.834045]}},{"properties":{"city":"Chicago","zip":"60618","geo_score":1.0,"id":"a62gkq7hty1c","geo_precision":"range","address":"2939 W Addison St","state":"IL"},"type":"Feature","geometry":{"type":"Point","coordinates":[-87.701306,41.94665]}},{"properties":{"city":"Chicago","zip":"60647","geo_score":1.0,"id":"a62gkqaq6nxn","geo_precision":"range","address":"2656 N Elston Ave","state":"IL"},"type":"Feature","geometry":{"type":"Point","coordinates":[-87.683871,41.929582]}},{"properties":{"city":"Chicago","zip":"60605","geo_score":1.0,"id":"a62gkqh0v1qs","geo_precision":"range","address":"1154 S Clark Street","state":"IL"},"type":"Feature","geometry":{"type":"Point","coordinates":[-87.630449,41.868008]}},{"properties":{"city":"Chicago","zip":"60632","geo_score":0.844,"id":"a62gkq8riw4w","geo_precision":"range","address":"4433 S Pulaski","state":"IL"},"type":"Feature","geometry":{"type":"Point","coordinates":[-87.723772,41.812769]}},{"properties":{"city":"Chicago","zip":"60659","geo_score":1.0,"id":"a62gkqkxyr42","geo_precision":"range","address":"2112 W Peterson Ave","state":"IL"},"type":"Feature","geometry":{"type":"Point","coordinates":[-87.682766,41.99062]}},{"properties":{"city":"Cicero,","zip":"60804","geo_score":0.805,"id":"a62gkq8zt6ey","geo_precision":"street","address":"2901 S Cicero Ave","state":"IL"},"type":"Feature","geometry":{"type":"Point","coordinates":[-87.74354,41.822167]}},{"properties":{"city":"Evanston","zip":"60202","geo_score":1.0,"id":"a62gkqhozvpx","geo_precision":"range","address":"2209 W Howard St","state":"IL"},"type":"Feature","geometry":{"type":"Point","coordinates":[-87.704397,42.019233]}},{"properties":{"city":"Chicago","zip":"60607","geo_score":0.619,"id":"a62gkqjxrtfy","geo_precision":"street","address":"1430 W. Taylor St.","state":"IL"},"type":"Feature","geometry":{"type":"Point","coordinates":[-87.637802,41.869709]}},{"properties":{"city":"Chicago","zip":"60601","geo_score":0.607,"id":"a62gkq8ymm6d","geo_precision":"street","address":"151 N. Michigan Ave.","state":"IL"},"type":"Feature","geometry":{"type":"Point","coordinates":[-87.624325,41.883238]}},{"properties":{"city":"Chicago","zip":"60606","geo_score":0.614,"id":"a62gkq6mqjnn","geo_precision":"street","address":"400 W. Madison","state":"IL"},"type":"Feature","geometry":{"type":"Point","coordinates":[-87.633823,41.881945]}},{"properties":{"city":"Chicago","zip":"60604","geo_score":0.607,"id":"a62gkqmnuyol","geo_precision":"street","address":"175 W. Jackson Blvd","state":"IL"},"type":"Feature","geometry":{"type":"Point","coordinates":[-87.627676,41.878176]}},{"properties":{"city":"Chicago","zip":"60661","geo_score":0.614,"id":"a62gkqjsuxhj","geo_precision":"street","address":"40 N. Clinton St.","state":"IL"},"type":"Feature","geometry":{"type":"Point","coordinates":[-87.641193,41.881859]}},{"properties":{"city":"Chicago","zip":"60603","geo_score":0.625,"id":"a62gkqkk900s","geo_precision":"street","address":"105 W. Adams","state":"IL"},"type":"Feature","geometry":{"type":"Point","coordinates":[-87.629352,41.879438]}},{"properties":{"city":"Chicago","zip":"60613","geo_score":1.0,"id":"a62gkqckhtr5","geo_precision":"range","address":"1023-1025 West Addison Street","state":"IL"},"type":"Feature","geometry":{"type":"Point","coordinates":[-87.655565,41.947224]}},{"properties":{"city":"Chicago","zip":"60614","geo_score":0.607,"id":"a62gkq9sigat","geo_precision":"street","address":"1001 W. Armitage","state":"IL"},"type":"Feature","geometry":{"type":"Point","coordinates":[-87.63653,41.918357]}},{"properties":{"city":"Chicago","zip":"60661","geo_score":0.633,"id":"a62gkq79v35w","geo_precision":"street","address":"600 W. Lake St.","state":"IL"},"type":"Feature","geometry":{"type":"Point","coordinates":[-87.629498,41.885745]}},{"properties":{"city":"Chicago","zip":"60645","geo_score":0.365,"id":"a62gkq8vsgfo","geo_precision":"street","address":"2357 W. Howard St.","state":"IL"},"type":"Feature","geometry":{"type":"Point","coordinates":[-87.68163,42.019456]}},{"properties":{"city":"Chicago","zip":"60640","geo_score":0.927,"id":"a62gkqhap3s4","geo_precision":"range","address":"4600 North Magnolia","state":"IL"},"type":"Feature","geometry":{"type":"Point","coordinates":[-87.661022,41.965347]}},{"properties":{"city":"Chicago","zip":"60614","geo_score":0.937,"id":"a62gkqaz4at3","geo_precision":"range","address":"1157 W Wrightwood","state":"IL"},"type":"Feature","geometry":{"type":"Point","coordinates":[-87.657311,41.928941]}}],"is_temporal":false,"author":{"url":"","metadata":"","contact_name":"","contact_address":"","source":"Starbucks.com","contact_phone":""},"source":"","pagination":{"sort":null,"start":0,"total":146,"limit":1000000},"state":"complete","tags":"coffee,restaurants","published":"2014-08-13T11:48:08-04:00","id":109691}