{"type":"FeatureCollection","data_type":"Dataset","url_type":null,"permissions":[{"permissions":{"download":true,"view":true},"group_id":"everyone"}],"classification":null,"title":"Foreclosures-judgement","count":64,"stream_id":109655,"contributor":{"url":"http://geocommons.com/users/19750","name":"seanlahman"},"data_attributes":null,"calculation_params":null,"icon_link":null,"link":"http://geocommons.com/overlays/109655.json","extent":[-77.9438,43.0021,-77.4326,43.2873],"geometry_types":null,"unique_name":null,"name":"Foreclosures-judgement","feature_count":64,"description":"","next_feature":null,"is_raster":false,"short_classification":"Y","stats":{"lat":{"max":43.287269,"variance":0.00231181983389856,"mean":43.166948028125,"stdev":0.0480813876037137,"min":43.002127,"median":43.171432},"long":{"max":-77.432648,"variance":0.00957590974293413,"mean":-77.632675465625,"stdev":0.0978565774127326,"min":-77.9437996,"median":-77.6289972}},"features":[{"properties":{"city":"ROCHESTER","property address":"106 EGLANTINE ROAD GREECE","control no":"2.01E+11","opposite name":"GILL ROSE MARIE","id":"a63e0wqyv4ba","lat":43.219065,"address":"106 EGLANTINE ROAD","long":-77.6443649,"state":"NY","reference 1":"I2010008370","judgment of foreclosure":"Yes","filing date":"7/1/2010"},"type":"Feature","geometry":{"type":"Point","coordinates":[-77.6443649,43.219065]}},{"properties":{"city":"EAST ROCHESTER","property address":"109 WEST FILBERT ST E ROCHESTE","control no":"2.01E+11","opposite name":"GRIFFITH ROSE M","id":"a63e0wivz1p2","lat":43.111043,"address":"109 WEST FILBERT ST","long":-77.4868539,"state":"NY","reference 1":"I2010006532","judgment of foreclosure":"Yes","filing date":"5/24/2010"},"type":"Feature","geometry":{"type":"Point","coordinates":[-77.4868539,43.111043]}},{"properties":{"city":"ROCHESTER","property address":"113 ROYCROFT DRIVE ROCHESTER","control no":"2.01E+11","opposite name":"SPRAGUE PATRICIA C","id":"a63e0wryyl0o","lat":43.181382,"address":"113 ROYCROFT DRIVE","long":-77.595901,"state":"NY","reference 1":"I2010006700","judgment of foreclosure":"Yes","filing date":"5/26/2010"},"type":"Feature","geometry":{"type":"Point","coordinates":[-77.595901,43.181382]}},{"properties":{"city":"ROCHESTER","property address":"1159 NORTH GOODMAN STREET RO","control no":"2.01E+11","opposite name":"BARRY THOMAS J","id":"a63e0wtf4amk","lat":43.175673,"address":"1159 NORTH GOODMAN STREET RO","long":-77.5764186,"state":"NY","reference 1":"I2010006601","judgment of foreclosure":"Yes","filing date":"5/25/2010"},"type":"Feature","geometry":{"type":"Point","coordinates":[-77.5764186,43.175673]}},{"properties":{"city":"HILTON","property address":"124 BROOK STREET PARMA","control no":"2.01E+11","opposite name":"BNEFICIAL HOMEOWNER SERVICE CORPORATION","id":"a63e0wo9ejmb","lat":43.287269,"address":"124 BROOK STREET","long":-77.796666,"state":"NY","reference 1":"I2010006280","judgment of foreclosure":"Yes","filing date":"5/18/2010"},"type":"Feature","geometry":{"type":"Point","coordinates":[-77.796666,43.287269]}},{"properties":{"city":"ROCHESTER","property address":"130-134 WEBSTER AVE ROCHESTER","control no":"2.01E+11","opposite name":"WELLS FAGO BANK NATIONAL ASSOCIATION","id":"a63e0wejc620","lat":43.1653398,"address":"130-134 WEBSTER AVE","long":-77.5799702,"state":"NY","reference 1":"I2010006407","judgment of foreclosure":"Yes","filing date":"5/20/2010"},"type":"Feature","geometry":{"type":"Point","coordinates":[-77.5799702,43.1653398]}},{"properties":{"city":"ROCHESTER","property address":"1452-1460 CLIFFORD AVENUE RO","control no":"2.01E+11","opposite name":"JPMORGAN CHASE BANK NATIONAL ASSOCIATION","id":"a63e0wupdccs","lat":43.1756526,"address":"1452-1460 CLIFFORD AVENUE","long":-77.5831944,"state":"NY","reference 1":"I2010006283","judgment of foreclosure":"Yes","filing date":"5/18/2010"},"type":"Feature","geometry":{"type":"Point","coordinates":[-77.5831944,43.1756526]}},{"properties":{"city":"ROCHESTER","property address":"1578-1586 E MAIN ST ROCHESTER","control no":"2.01E+11","opposite name":"HSBC BANK USA NATIONAL ASSOCIATION","id":"a63e0wu9hdpc","lat":43.1601578,"address":"1578-1586 E MAIN ST","long":-77.5691595,"state":"NY","reference 1":"I2010007625","judgment of foreclosure":"Yes","filing date":"6/16/2010"},"type":"Feature","geometry":{"type":"Point","coordinates":[-77.5691595,43.1601578]}},{"properties":{"city":"ROCHESTER","property address":"172 AUBURN AVENUE GATES","control no":"2.01E+11","opposite name":"GLOMBOSKI SUE CAROL","id":"a63e0whsr7o9","lat":43.176072,"address":"172 AUBURN AVENUE","long":-77.696084,"state":"NY","reference 1":"I2010006699","judgment of foreclosure":"Yes","filing date":"5/26/2010"},"type":"Feature","geometry":{"type":"Point","coordinates":[-77.696084,43.176072]}},{"properties":{"city":"ROCHESTER","property address":"175 HAGUE STREET ROCHESTER(MULT)","control no":"2.01E+11","opposite name":"SERAFINI ALFRED","id":"a63e0wtflt5h","lat":43.153908,"address":"175 HAGUE STREET","long":-77.647318,"state":"NY","reference 1":"I2009011042","judgment of foreclosure":"Yes","filing date":"8/3/2009"},"type":"Feature","geometry":{"type":"Point","coordinates":[-77.647318,43.153908]}},{"properties":{"city":"ROCHESTER","property address":"191 BREMEN STREET ROCHESTER","control no":"2.01E+11","opposite name":"ARCURI DOMENICO","id":"a63e0wm5ffvu","lat":43.188579,"address":"191 BREMEN STREET","long":-77.607705,"state":"NY","reference 1":"I2010006634","judgment of foreclosure":"Yes","filing date":"5/25/2010 + 9/17/2010"},"type":"Feature","geometry":{"type":"Point","coordinates":[-77.607705,43.188579]}},{"properties":{"city":"ROCHESTER","property address":"191-209 JEFFERSON AVENUE ROCH","control no":"2.01E+11","opposite name":"HARDY PROPERTIES INC","id":"a63e0wffrh9z","lat":43.1513619,"address":"191-209 JEFFERSON AVENUE","long":-77.6289972,"state":"NY","reference 1":"I2010008387","judgment of foreclosure":"Yes","filing date":"7/1/2010"},"type":"Feature","geometry":{"type":"Point","coordinates":[-77.6289972,43.1513619]}},{"properties":{"city":"ROCHESTER","property address":"193 MCKINLEY STREET ROCHESTER","control no":"2.01E+11","opposite name":"STEVENSON ROBERT L","id":"a63e0wnc2n0z","lat":43.165307,"address":"193 MCKINLEY STREET","long":-77.557504,"state":"NY","reference 1":"I2009011262","judgment of foreclosure":"Yes","filing date":"8/6/2009"},"type":"Feature","geometry":{"type":"Point","coordinates":[-77.557504,43.165307]}},{"properties":{"city":"ROCHESTER","property address":"194 GRAND AVENUE ROCHESTER","control no":"2.01E+11","opposite name":"WASHINGTON JOSEPH N","id":"a63e0wq7ic9k","lat":43.16491,"address":"194 GRAND AVENUE","long":-77.575806,"state":"NY","reference 1":"I2010002878","judgment of foreclosure":"Yes","filing date":"3/5/2010 + 10/20/2010"},"type":"Feature","geometry":{"type":"Point","coordinates":[-77.575806,43.16491]}},{"properties":{"city":"ROCHESTER","property address":"203 BREMEN STREET ROCHESTER","control no":"2.01E+11","opposite name":"ARCURI DOMENICO","id":"a63e0whlwkgo","lat":43.18876,"address":"203 BREMEN STREET","long":-77.607721,"state":"NY","reference 1":"I2010006358","judgment of foreclosure":"Yes","filing date":"5/19/2010 + 8/25/2010"},"type":"Feature","geometry":{"type":"Point","coordinates":[-77.607721,43.18876]}},{"properties":{"city":"ROCHESTER","property address":"2230-2240 CLIFFORD AVE ROCHEST","control no":"2.01E+11","opposite name":"MIDNIGHT GENE A","id":"a63e0wridm4f","lat":43.1762753,"address":"2230-2240 CLIFFORD AVE","long":-77.5614916,"state":"NY","reference 1":"I2009011041","judgment of foreclosure":"Yes","filing date":"8/3/2009"},"type":"Feature","geometry":{"type":"Point","coordinates":[-77.5614916,43.1762753]}},{"properties":{"city":"ROCHESTER","property address":"24 CLIFFORDALE PRK IRONDEQUOIT","control no":"2.01E+11","opposite name":"RBS CITIZENS NATIONAL ASSOCIATION","id":"a63e0wmgcl27","lat":43.177265,"address":"24 CLIFFORDALE PRK","long":-77.54738,"state":"NY","reference 1":"I2010007211","judgment of foreclosure":"Yes","filing date":"6/8/2010"},"type":"Feature","geometry":{"type":"Point","coordinates":[-77.54738,43.177265]}},{"properties":{"city":"ROCHESTER","property address":"241 RIVER MEADOW DR HENRIETA","control no":"2.01E+11","opposite name":"HARRIS NATIONAL ASSOCIATION","id":"a63e0wfg5nmw","lat":43.0769049,"address":"241 RIVER MEADOW DR","long":-77.698787,"state":"NY","reference 1":"I2010008634","judgment of foreclosure":"Yes","filing date":"7/8/2010"},"type":"Feature","geometry":{"type":"Point","coordinates":[-77.698787,43.0769049]}},{"properties":{"city":"ROCHESTER","property address":"244 LYELL AVENUE ROCHESTER","control no":"2.01E+11","opposite name":"MCCOY ENTERPRISES INC","id":"a63e0wj8hdcs","lat":43.164871,"address":"244 LYELL AVENUE","long":-77.631209,"state":"NY","reference 1":"I2010008285","judgment of foreclosure":"Yes","filing date":"6/30/2010"},"type":"Feature","geometry":{"type":"Point","coordinates":[-77.631209,43.164871]}},{"properties":{"city":"PITTSFORD","property address":"245 AYRAULT ROAD PERINTON","control no":"2.01E+11","opposite name":"FORBES PETER B","id":"a63e0wfp3qp7","lat":43.078424,"address":"245 AYRAULT ROAD","long":-77.467485,"state":"NY","reference 1":"I2010008384","judgment of foreclosure":"Yes","filing date":"7/1/2010"},"type":"Feature","geometry":{"type":"Point","coordinates":[-77.467485,43.078424]}},{"properties":{"city":"ROCHESTER","property address":"245 CURTIS STREET ROCHESTER","control no":"2.01E+11","opposite name":"NYS DEPT OF TAXATION &amp; FINANCE","id":"a63e0wmxnmh4","lat":43.1728809,"address":"245 CURTIS STREET","long":-77.646979,"state":"NY","reference 1":"I2010012099","judgment of foreclosure":"Yes","filing date":"9/17/2010"},"type":"Feature","geometry":{"type":"Point","coordinates":[-77.646979,43.1728809]}},{"properties":{"city":"ROCHESTER","property address":"252-254 LYELL AVENUE ROCHESTER","control no":"2.01E+11","opposite name":"KUNZER LLC","id":"a63e0wrwrdhr","lat":43.1646467,"address":"252-254 LYELL AVENUE","long":-77.6314851,"state":"NY","reference 1":"I2010005455","judgment of foreclosure":"Yes","filing date":"4/30/2010"},"type":"Feature","geometry":{"type":"Point","coordinates":[-77.6314851,43.1646467]}},{"properties":{"city":"BROCKPORT","property address":"2640 LAKE ROAD CLARKSON","control no":"2.01E+11","opposite name":"GARDENSCAPE","id":"a63e0wg2gy20","lat":43.1968382,"address":"2640 LAKE ROAD","long":-77.9437996,"state":"NY","reference 1":"I2010009364","judgment of foreclosure":"Yes","filing date":"7/21/2010"},"type":"Feature","geometry":{"type":"Point","coordinates":[-77.9437996,43.1968382]}},{"properties":{"city":"ROCHESTER","property address":"27 EMERSON STREET ROCHESTER","control no":"2.01E+11","opposite name":"CANNON SHAMEKA","id":"a63e0wln098r","lat":43.173553,"address":"27 EMERSON STREET","long":-77.630028,"state":"NY","reference 1":"I2010008698","judgment of foreclosure":"Yes","filing date":"7/8/2010"},"type":"Feature","geometry":{"type":"Point","coordinates":[-77.630028,43.173553]}},{"properties":{"city":"ROCHESTER","property address":"271-273 CENTRAL PARK ROCHESTER","control no":"2.01E+11","opposite name":"HSBC BANK USA","id":"a63e0weziz0t","lat":43.162085,"address":"271-273 CENTRAL PARK","long":-77.609618,"state":"NY","reference 1":"I2010008292","judgment of foreclosure":"Yes","filing date":"6/30/2010"},"type":"Feature","geometry":{"type":"Point","coordinates":[-77.609618,43.162085]}},{"properties":{"city":"ROCHESTER","property address":"285 BERNICE STREET ROCHESTER","control no":"2.01E+11","opposite name":"DAY CHRISTOPHER P","id":"a63e0wsbtuf1","lat":43.20834,"address":"285 BERNICE STREET","long":-77.643204,"state":"NY","reference 1":"I2010010668","judgment of foreclosure":"Yes","filing date":"8/17/2010"},"type":"Feature","geometry":{"type":"Point","coordinates":[-77.643204,43.20834]}},{"properties":{"city":"ROCHESTER","property address":"3118 E HENRIETTA RD HENRIETTA","control no":"2.01E+11","opposite name":"ABASCIANO FRANK","id":"a63e0wg4l68i","lat":43.058753,"address":"3118 EAST HENRIETTA ROAD","long":-77.612163,"state":"NY","reference 1":"I2010007632","judgment of foreclosure":"Yes","filing date":"6/16/2010"},"type":"Feature","geometry":{"type":"Point","coordinates":[-77.612163,43.058753]}},{"properties":{"city":"ROCHESTER","property address":"33 SWANSEA PARK GREECE","control no":"2.01E+11","opposite name":"GILBOE JAMES J","id":"a63e0wu113gx","lat":43.223199,"address":"33 SWANSEA PARK","long":-77.633308,"state":"NY","reference 1":"I2010010765","judgment of foreclosure":"Yes","filing date":"8/18/2010"},"type":"Feature","geometry":{"type":"Point","coordinates":[-77.633308,43.223199]}},{"properties":{"city":"ROCHESTER","property address":"332-338 ARNETT BLVD ROCHESTER","control no":"2.01E+11","opposite name":"US INCOME PARTNERS LLC","id":"a63e0whqvyje","lat":43.1422427,"address":"332-338 ARNETT BLVD","long":-77.6423903,"state":"NY","reference 1":"I2010008136","judgment of foreclosure":"Yes","filing date":"6/28/2010"},"type":"Feature","geometry":{"type":"Point","coordinates":[-77.6423903,43.1422427]}},{"properties":{"city":"ROCHESTER","property address":"335 SAXTON STREET ROCHESTER","control no":"2.01E+11","opposite name":"AMERICAN MTG ASSOCIATES LLC","id":"a63e0wh83t78","lat":43.161025,"address":"335 SAXTON STREET","long":-77.632629,"state":"NY","reference 1":"I2010006273","judgment of foreclosure":"Yes","filing date":"5/18/2010"},"type":"Feature","geometry":{"type":"Point","coordinates":[-77.632629,43.161025]}},{"properties":{"city":"ROCHESTER","property address":"346-352 FLOWER CITY PARK RO","control no":"2.01E+11","opposite name":"NYS DEPT OF TAXATION &amp; FINANCE","id":"a63e0wpm14zd","lat":43.192722,"address":"346-352 FLOWER CITY PARK","long":-77.6337727,"state":"NY","reference 1":"I2010013321","judgment of foreclosure":"Yes","filing date":"10/13/2010"},"type":"Feature","geometry":{"type":"Point","coordinates":[-77.6337727,43.192722]}},{"properties":{"city":"ROCHESTER","property address":"35 FERNWOOD AVENUE ROCHESTER","control no":"2.01E+11","opposite name":"HILARSKI LISA A","id":"a63e0wo90a82","lat":43.176991,"address":"35 FERNWOOD AVENUE","long":-77.589133,"state":"NY","reference 1":"I2010002979","judgment of foreclosure":"Yes","filing date":"3/9/2010"},"type":"Feature","geometry":{"type":"Point","coordinates":[-77.589133,43.176991]}},{"properties":{"city":"ROCHESTER","property address":"356-358 ARNETT BLVD ROCHESTER","control no":"2.01E+11","opposite name":"STFAD PROPERTIES","id":"a63e0wjbmkhj","lat":43.1422445,"address":"356-358 ARNETT BLVD","long":-77.6429813,"state":"NY","reference 1":"I2009006683","judgment of foreclosure":"Yes","filing date":"5/12/2009"},"type":"Feature","geometry":{"type":"Point","coordinates":[-77.6429813,43.1422445]}},{"properties":{"city":"ROCHESTER","property address":"36 MASSETH STREET ROCHESTER","control no":"2.01E+11","opposite name":"NYS DEPT OF TAXATION &amp; FINANCE","id":"a63e0wnmk4qd","lat":43.161879,"address":"36 MASSETH STREET","long":-77.640037,"state":"NY","reference 1":"I2010006624","judgment of foreclosure":"Yes","filing date":"5/25/2010"},"type":"Feature","geometry":{"type":"Point","coordinates":[-77.640037,43.161879]}},{"properties":{"city":"ROCHESTER","property address":"367 LYELL AVENUE ROCHESTER","control no":"2.01E+11","opposite name":"COCCIA BRUNO J","id":"a63e0whayehy","lat":43.164378,"address":"367 LYELL AVENUE","long":-77.635291,"state":"NY","reference 1":"I2010006414","judgment of foreclosure":"Yes","filing date":"5/20/2010"},"type":"Feature","geometry":{"type":"Point","coordinates":[-77.635291,43.164378]}},{"properties":{"city":"ROCHESTER","property address":"380-380.5 TROUP ST ROCHESTER","control no":"2.01E+11","opposite name":"COMMUNITY DEVELOPMENT OF THE CITY OF ROCHESTER COMMISSIONER","id":"a63e0wnw2itm","lat":43.1502752,"address":"380-380.5 TROUP ST","long":-77.6314257,"state":"NY","reference 1":"I2010006411","judgment of foreclosure":"Yes","filing date":"5/20/2010"},"type":"Feature","geometry":{"type":"Point","coordinates":[-77.6314257,43.1502752]}},{"properties":{"city":"ROCHESTER","property address":"403-405 CHILI AVENUE ROCHESTER","control no":"2.01E+11","opposite name":"RIZZO FRANCES F","id":"a63e0wuizirv","lat":43.1465126,"address":"403-405 CHILI AVENUE","long":-77.6473702,"state":"NY","reference 1":"I2010007208","judgment of foreclosure":"Yes","filing date":"6/8/2010"},"type":"Feature","geometry":{"type":"Point","coordinates":[-77.6473702,43.1465126]}},{"properties":{"city":"ROCHESTER","property address":"409 EAST MORENO DRIVE GREECE","control no":"2.01E+11","opposite name":"BISIG JAMES","id":"a63e0wpwu0sk","lat":43.229798,"address":"409 EAST MORENO DRIVE","long":-77.727219,"state":"NY","reference 1":"I2010008391","judgment of foreclosure":"Yes","filing date":"7/1/2010"},"type":"Feature","geometry":{"type":"Point","coordinates":[-77.727219,43.229798]}},{"properties":{"city":"ROCHESTER","property address":"42 LISBON STREET ROCHESTER","control no":"2.01E+11","opposite name":"CHAVEZ MIGUEL A","id":"a63e0wjt6tj2","lat":43.160278,"address":"42 LISBON STREET","long":-77.64514,"state":"NY","reference 1":"I2010002890","judgment of foreclosure":"Yes","filing date":"3/8/2010"},"type":"Feature","geometry":{"type":"Point","coordinates":[-77.64514,43.160278]}},{"properties":{"city":"ROCHESTER","property address":"428 AMES STREET ROCHESTER","control no":"2.01E+11","opposite name":"LADIGES GUY","id":"a63e0whq1yuv","lat":43.158864,"address":"428 AMES STREET","long":-77.643663,"state":"NY","reference 1":"I2009011168","judgment of foreclosure":"Yes","filing date":"8/5/2009"},"type":"Feature","geometry":{"type":"Point","coordinates":[-77.643663,43.158864]}},{"properties":{"city":"WEBSTER","property address":"44 MOHAWK STREET WEBSTER","control no":"2.01E+11","opposite name":"MERZ LORI M","id":"a63e0wt2s3ke","lat":43.201823,"address":"44 MOHAWK STREET","long":-77.432648,"state":"NY","reference 1":"I2010006491","judgment of foreclosure":"Yes","filing date":"5/21/2010"},"type":"Feature","geometry":{"type":"Point","coordinates":[-77.432648,43.201823]}},{"properties":{"city":"BROCKPORT","property address":"45 SOUTH STREEET SWEDEN","control no":"2.01E+11","opposite name":"NYS DEPT OF TAXATION &amp; FINANCE","id":"a63e0wnoekl9","lat":43.212229,"address":"45 SOUTH STREEET","long":-77.937211,"state":"NY","reference 1":"I2010008518","judgment of foreclosure":"Yes","filing date":"7/6/2010 + 10/7/2010"},"type":"Feature","geometry":{"type":"Point","coordinates":[-77.937211,43.212229]}},{"properties":{"city":"ROCHESTER","property address":"467 WEST BLOOMFIELD RD MENDON","control no":"2.01E+11","opposite name":"VANVOORHIS JAMES","id":"a63e0wrn2ia5","lat":43.027772,"address":"467 WEST BLOOMFIELD RD","long":-77.531047,"state":"NY","reference 1":"I2010006279","judgment of foreclosure":"Yes","filing date":"5/18/2010 + 10/7/2010"},"type":"Feature","geometry":{"type":"Point","coordinates":[-77.531047,43.027772]}},{"properties":{"city":"ROCHESTER","property address":"48 THORPE CRESCENT GREECE","control no":"2.01E+11","opposite name":"RICOTTA WILLIAM G","id":"a63e0wg2jlyi","lat":43.207292,"address":"48 THORPE CRESCENT","long":-77.660899,"state":"NY","reference 1":"I2010008377","judgment of foreclosure":"Yes","filing date":"7/1/2010 + 10/12/2010"},"type":"Feature","geometry":{"type":"Point","coordinates":[-77.660899,43.207292]}},{"properties":{"city":"BROCKPORT","property address":"49 CLINTON STREET SWEDEN","control no":"2.01E+11","opposite name":"CITIBANK SOUTH DAKOTA NATIONAL ASSOCIATION","id":"a63e0wemj5nb","lat":43.216146,"address":"49 CLINTON STREET","long":-77.940884,"state":"NY","reference 1":"I2010009365","judgment of foreclosure":"Yes","filing date":"7/21/2010 + 10/6/2010"},"type":"Feature","geometry":{"type":"Point","coordinates":[-77.940884,43.216146]}},{"properties":{"city":"BROCKPORT","property address":"52 STATE STREET SWEDEN","control no":"2.01E+11","opposite name":"MILLER RICHARD M","id":"a63e0wr9iu5t","lat":43.2142736,"address":"52 STATE STREET","long":-77.9362991,"state":"NY","reference 1":"I2010008376","judgment of foreclosure":"Yes","filing date":"7/1/2010 + 10/7/2010"},"type":"Feature","geometry":{"type":"Point","coordinates":[-77.9362991,43.2142736]}},{"properties":{"city":"WEBSTER","property address":"537 VOSBURG ROAD WEBSTER","control no":"2.01E+11","opposite name":"DENNIS ALETTA I","id":"a63e0wkm01l2","lat":43.242548,"address":"537 VOSBURG ROAD","long":-77.501051,"state":"NY","reference 1":"I2008008065","judgment of foreclosure":"Yes","filing date":"6/9/2008"},"type":"Feature","geometry":{"type":"Point","coordinates":[-77.501051,43.242548]}},{"properties":{"city":"ROCHESTER","property address":"55 HUNTINGTON PARK ROCHESTER","control no":"2.01E+11","opposite name":"STEVENS THEODORE","id":"a63e0wf9zxw6","lat":43.175039,"address":"55 HUNTINGTON PARK","long":-77.623268,"state":"NY","reference 1":"I2010008682","judgment of foreclosure":"Yes","filing date":"7/8/2010 + 10/14/2010"},"type":"Feature","geometry":{"type":"Point","coordinates":[-77.623268,43.175039]}},{"properties":{"city":"ROCHESTER","property address":"551-559 EAST MAIN ST ROCHESTER","control no":"2.01E+11","opposite name":"NYS DEPT OF TAXATION &amp; FINANCE","id":"a63e0wnfyn8y","lat":43.1591232,"address":"551-559 EAST MAIN ST","long":-77.5974754,"state":"NY","reference 1":"I2010013316","judgment of foreclosure":"Yes","filing date":"10/13/2010"},"type":"Feature","geometry":{"type":"Point","coordinates":[-77.5974754,43.1591232]}},{"properties":{"city":"ROCHESTER","property address":"57-61 PARSELLS AVE ROCHESTER","control no":"2.01E+11","opposite name":"NYS DEPT OF TAXATION &amp; FINANCE","id":"a63e0wiuwiem","lat":43.165245,"address":"57-61 PARSELLS AVE","long":-77.578964,"state":"NY","reference 1":"I2010006359","judgment of foreclosure":"Yes","filing date":"5/19/2010"},"type":"Feature","geometry":{"type":"Point","coordinates":[-77.578964,43.165245]}},{"properties":{"city":"ROCHESTER","property address":"577 BAY STREET ROCHESTER","control no":"2.01E+11","opposite name":"SIMMONS TYREA L","id":"a63e0wibd0w7","lat":43.1708209,"address":"577 BAY STREET","long":-77.578164,"state":"NY","reference 1":"I2009006693","judgment of foreclosure":"Yes","filing date":"5/12/2009"},"type":"Feature","geometry":{"type":"Point","coordinates":[-77.578164,43.1708209]}},{"properties":{"city":"ROCHESTER","property address":"61-77 SHERER STREET ROCHESTER","control no":"2.01E+11","opposite name":"NIAGARA THERMAL PRODUCTS LLC","id":"a63e0wjkeq88","lat":43.154338,"address":"61-77 SHERER STREET","long":-77.6498834,"state":"NY","reference 1":"I2009011630","judgment of foreclosure":"Yes","filing date":"8/17/2009"},"type":"Feature","geometry":{"type":"Point","coordinates":[-77.6498834,43.154338]}},{"properties":{"city":"ROCHESTER","property address":"64 BANCROFT DRIVE GREECE","control no":"2.01E+11","opposite name":"MONROE COUNTY DEPT OF SOCIAL SERVICES","id":"a63e0wsolks0","lat":43.234549,"address":"64 BANCROFT DRIVE","long":-77.648818,"state":"NY","reference 1":"I2010006360","judgment of foreclosure":"Yes","filing date":"5/19/2010"},"type":"Feature","geometry":{"type":"Point","coordinates":[-77.648818,43.234549]}},{"properties":{"city":"ROCHESTER","property address":"647 EDGEWOOD AVENUE BRIGHTON","control no":"2.01E+11","opposite name":"CERNUTO SAVERIO","id":"a63e0wetza46","lat":43.106318,"address":"647 EDGEWOOD AVENUE","long":-77.563368,"state":"NY","reference 1":"I2010008585","judgment of foreclosure":"Yes","filing date":"7/7/2010 + 9/10/2010"},"type":"Feature","geometry":{"type":"Point","coordinates":[-77.563368,43.106318]}},{"properties":{"city":"ROCHESTER","property address":"673 GLIDE STREET ROCHESTER","control no":"2.01E+11","opposite name":"TRI-BRENNAN CORPORATION","id":"a63e0wgcmco7","lat":43.164927,"address":"673 GLIDE STREET","long":-77.6542492,"state":"NY","reference 1":"I2010007210","judgment of foreclosure":"Yes","filing date":"6/8/2010"},"type":"Feature","geometry":{"type":"Point","coordinates":[-77.6542492,43.164927]}},{"properties":{"city":"ROCHESTER","property address":"715 AVENUE D ROCHESTER","control no":"2.01E+11","opposite name":"NYS DEPT OF TAXATION &amp; FINANCE","id":"a63e0wi1udxm","lat":43.1807016,"address":"715 AVENUE D","long":-77.6037227,"state":"NY","reference 1":"I2010006346","judgment of foreclosure":"Yes","filing date":"5/19/2010"},"type":"Feature","geometry":{"type":"Point","coordinates":[-77.6037227,43.1807016]}},{"properties":{"city":"ROCHESTER","property address":"775-779 N GOODMAN ST ROCHESTER","control no":"2.01E+11","opposite name":"ESL FEDERAL CREDIT UNION","id":"a63e0wo94geo","lat":43.1682305,"address":"775-779 N GOODMAN ST","long":-77.580285,"state":"NY","reference 1":"I2010007209","judgment of foreclosure":"Yes","filing date":"6/8/2010"},"type":"Feature","geometry":{"type":"Point","coordinates":[-77.580285,43.1682305]}},{"properties":{"city":"ROCHESTER","property address":"778 WINONA BLVD IRONDEQUOIT","control no":"2.01E+11","opposite name":"CITIFINACIAL COMPANY","id":"a63e0wn2tdsu","lat":43.218593,"address":"778 WINONA BLVD","long":-77.6076439,"state":"NY","reference 1":"I2010008367","judgment of foreclosure":"Yes","filing date":"7/1/2010 + 10/14/2010"},"type":"Feature","geometry":{"type":"Point","coordinates":[-77.6076439,43.218593]}},{"properties":{"city":"ROCHESTER","property address":"85 MARIA STREET ROCHESTER","control no":"2.01E+11","opposite name":"DHILLON J PAUL","id":"a63e0wuke2po","lat":43.177672,"address":"85 MARIA STREET","long":-77.606398,"state":"NY","reference 1":"I2010006692","judgment of foreclosure":"Yes","filing date":"5/26/2010"},"type":"Feature","geometry":{"type":"Point","coordinates":[-77.606398,43.177672]}},{"properties":{"city":"ROCHESTER","property address":"852-854 PORTLAND AVE ROCHESTER","control no":"2.01E+11","opposite name":"GROVES PORT INC","id":"a63e0womg1pk","lat":43.181443,"address":"852-854 PORTLAND AVE","long":-77.5870818,"state":"NY","reference 1":"I2010005233","judgment of foreclosure":"Yes","filing date":"4/26/2010"},"type":"Feature","geometry":{"type":"Point","coordinates":[-77.5870818,43.181443]}},{"properties":{"city":"ROCHESTER","property address":"899 RUSH SCOTTSVILLE ROAD RUSH","control no":"2.01E+11","opposite name":"MCKEE MICK","id":"a63e0wggytzj","lat":43.002127,"address":"899 RUSH SCOTTSVILLE ROAD","long":-77.689718,"state":"NY","reference 1":"I2010007932","judgment of foreclosure":"Yes","filing date":"6/22/2010 + 8/11/2010"},"type":"Feature","geometry":{"type":"Point","coordinates":[-77.689718,43.002127]}},{"properties":{"city":"ROCHESTER","property address":"927-933 NORTH CLINTON AVE ROCH","control no":"2.01E+11","opposite name":"CHASE BANK USA NATIONAL ASSOCIATION","id":"a63e0wjdopn8","lat":43.1757649,"address":"927-933 NORTH CLINTON AVE","long":-77.6133441,"state":"NY","reference 1":"I2010008374","judgment of foreclosure":"Yes","filing date":"7/1/2010 + 8/25/2010"},"type":"Feature","geometry":{"type":"Point","coordinates":[-77.6133441,43.1757649]}},{"properties":{"city":"ROCHESTER","property address":"97 HOLIDAY ROAD HENRIETTA","control no":"2.01E+11","opposite name":"MCGOVERN JAMES J","id":"a63e0wosztm9","lat":43.07054,"address":"97 HOLIDAY ROAD","long":-77.601236,"state":"NY","reference 1":"I2010013295","judgment of foreclosure":"Yes","filing date":"10/13/2010"},"type":"Feature","geometry":{"type":"Point","coordinates":[-77.601236,43.07054]}},{"properties":{"city":"ROCHESTER","property address":"99 VILLA STREET ROCHESTER","control no":"2.01E+11","opposite name":"LE SON H","id":"a63e0wjtt831","lat":43.171432,"address":"99 VILLA STREET","long":-77.645918,"state":"NY","reference 1":"I2010007035","judgment of foreclosure":"Yes","filing date":"6/3/2010 + 8/16/2010"},"type":"Feature","geometry":{"type":"Point","coordinates":[-77.645918,43.171432]}}],"is_temporal":false,"author":{"url":"","metadata":"","contact_name":"","contact_address":"","source":"","contact_phone":""},"source":"","pagination":{"sort":null,"start":0,"total":64,"limit":1000000},"state":"complete","tags":"","published":"2014-08-13T11:47:14-04:00","id":109655}