{"type":"FeatureCollection","data_type":"Dataset","url_type":null,"permissions":[{"permissions":{"download":true,"view":true},"group_id":"everyone"}],"classification":null,"title":"PWC HGs - No","count":66,"stream_id":109836,"contributor":{"url":"http://geocommons.com/users/24568","name":"srfr"},"data_attributes":null,"calculation_params":null,"icon_link":null,"link":"http://geocommons.com/overlays/109836.json","extent":[-1.5182,50.8933,-1.2306,50.9952],"geometry_types":null,"unique_name":null,"name":"PWC HGs - No","feature_count":66,"description":"","next_feature":null,"is_raster":false,"short_classification":"Y","stats":{"latitude":{"max":50.9952,"variance":0.000271913722989496,"mean":50.9301206818182,"stdev":0.0164898066389359,"min":50.8933,"median":50.927},"longitude":{"max":-1.2306,"variance":0.00131416718001515,"mean":-1.39670198484848,"stdev":0.0362514438335241,"min":-1.5182,"median":-1.3938}},"features":[{"properties":{"latitude":50.932365,"postcode":"S017 1SW","longitude":-1.394731,"id":"a68odhbulra8","hg":"N"},"type":"Feature","geometry":{"type":"Point","coordinates":[-1.394731,50.932365]}},{"properties":{"latitude":50.915,"postcode":"SO14 6JA","longitude":-1.3982,"id":"a68odhdxl09a","hg":"N"},"type":"Feature","geometry":{"type":"Point","coordinates":[-1.3982,50.915]}},{"properties":{"latitude":50.9174,"postcode":"SO14 6SD","longitude":-1.3978,"id":"a68odh5pst4y","hg":"N"},"type":"Feature","geometry":{"type":"Point","coordinates":[-1.3978,50.9174]}},{"properties":{"latitude":50.9202,"postcode":"SO14 6UG","longitude":-1.3974,"id":"a68odhe4uzhw","hg":"N"},"type":"Feature","geometry":{"type":"Point","coordinates":[-1.3974,50.9202]}},{"properties":{"latitude":50.918,"postcode":"SO15 2LZ","longitude":-1.4106,"id":"a68odgzcz974","hg":"N"},"type":"Feature","geometry":{"type":"Point","coordinates":[-1.4106,50.918]}},{"properties":{"latitude":50.9184,"postcode":"SO15 2TF","longitude":-1.4088,"id":"a68odh0jvjbd","hg":"N"},"type":"Feature","geometry":{"type":"Point","coordinates":[-1.4088,50.9184]}},{"properties":{"latitude":50.9154,"postcode":"SO15 2TR","longitude":-1.4112,"id":"a68odhbi3gcl","hg":"N"},"type":"Feature","geometry":{"type":"Point","coordinates":[-1.4112,50.9154]}},{"properties":{"latitude":50.9213,"postcode":"SO15 3LY","longitude":-1.4336,"id":"a68odh6q1n4o","hg":"N"},"type":"Feature","geometry":{"type":"Point","coordinates":[-1.4336,50.9213]}},{"properties":{"latitude":50.915,"postcode":"SO15 5BP","longitude":-1.4166,"id":"a68odh5iquc6","hg":"N"},"type":"Feature","geometry":{"type":"Point","coordinates":[-1.4166,50.915]}},{"properties":{"latitude":50.9324,"postcode":"SO15 7RX","longitude":-1.4208,"id":"a68odh3b2pya","hg":"N"},"type":"Feature","geometry":{"type":"Point","coordinates":[-1.4208,50.9324]}},{"properties":{"latitude":50.9414,"postcode":"SO16 3UD","longitude":-1.4032,"id":"a68odh2mvkwk","hg":"N"},"type":"Feature","geometry":{"type":"Point","coordinates":[-1.4032,50.9414]}},{"properties":{"latitude":50.9358,"postcode":"SO16 6RN","longitude":-1.4214,"id":"a68odh31nuk4","hg":"N"},"type":"Feature","geometry":{"type":"Point","coordinates":[-1.4214,50.9358]}},{"properties":{"latitude":50.9382,"postcode":"SO16 7NG","longitude":-1.4123,"id":"a68odh630he4","hg":"N"},"type":"Feature","geometry":{"type":"Point","coordinates":[-1.4123,50.9382]}},{"properties":{"latitude":50.938,"postcode":"SO16 7PD","longitude":-1.4017,"id":"a68odh9k3hyp","hg":"N"},"type":"Feature","geometry":{"type":"Point","coordinates":[-1.4017,50.938]}},{"properties":{"latitude":50.9437,"postcode":"SO16 7PQ","longitude":-1.4077,"id":"a68odh6ef8d3","hg":"N"},"type":"Feature","geometry":{"type":"Point","coordinates":[-1.4077,50.9437]}},{"properties":{"latitude":50.937,"postcode":"SO16 7QB","longitude":-1.4075,"id":"a68odh8k693o","hg":"N"},"type":"Feature","geometry":{"type":"Point","coordinates":[-1.4075,50.937]}},{"properties":{"latitude":50.9433,"postcode":"SO16 7QN","longitude":-1.4091,"id":"a68odh3kwroq","hg":"N"},"type":"Feature","geometry":{"type":"Point","coordinates":[-1.4091,50.9433]}},{"properties":{"latitude":50.9248,"postcode":"SO16 9BA","longitude":-1.4656,"id":"a68odhcuihwl","hg":"N"},"type":"Feature","geometry":{"type":"Point","coordinates":[-1.4656,50.9248]}},{"properties":{"latitude":50.9378,"postcode":"SO16 9QB","longitude":-1.4571,"id":"a68odh7xlun2","hg":"N"},"type":"Feature","geometry":{"type":"Point","coordinates":[-1.4571,50.9378]}},{"properties":{"latitude":50.9231,"postcode":"SO17 1DL","longitude":-1.4021,"id":"a68odh7hx2c3","hg":"N"},"type":"Feature","geometry":{"type":"Point","coordinates":[-1.4021,50.9231]}},{"properties":{"latitude":50.9249,"postcode":"SO17 1DX","longitude":-1.3979,"id":"a68odheaws28","hg":"N"},"type":"Feature","geometry":{"type":"Point","coordinates":[-1.3979,50.9249]}},{"properties":{"latitude":50.9249,"postcode":"SO17 1HR","longitude":-1.3964,"id":"a68odh6wyo6z","hg":"N"},"type":"Feature","geometry":{"type":"Point","coordinates":[-1.3964,50.9249]}},{"properties":{"latitude":50.9249,"postcode":"SO17 1HR","longitude":-1.3964,"id":"a68odh7sv2i1","hg":"N"},"type":"Feature","geometry":{"type":"Point","coordinates":[-1.3964,50.9249]}},{"properties":{"latitude":50.9333,"postcode":"SO17 1PQ","longitude":-1.3992,"id":"a68odhbdcvhi","hg":"N"},"type":"Feature","geometry":{"type":"Point","coordinates":[-1.3992,50.9333]}},{"properties":{"latitude":50.926,"postcode":"SO17 1QP","longitude":-1.397,"id":"a68odh0z3b01","hg":"N"},"type":"Feature","geometry":{"type":"Point","coordinates":[-1.397,50.926]}},{"properties":{"latitude":50.9293,"postcode":"SO17 1RS","longitude":-1.3879,"id":"a68odh9r7nu6","hg":"N"},"type":"Feature","geometry":{"type":"Point","coordinates":[-1.3879,50.9293]}},{"properties":{"latitude":50.9306,"postcode":"SO17 1SH","longitude":-1.3919,"id":"a68odh8czgrd","hg":"N"},"type":"Feature","geometry":{"type":"Point","coordinates":[-1.3919,50.9306]}},{"properties":{"latitude":50.9315,"postcode":"SO17 1ST","longitude":-1.3922,"id":"a68odh08owq7","hg":"N"},"type":"Feature","geometry":{"type":"Point","coordinates":[-1.3922,50.9315]}},{"properties":{"latitude":50.9248,"postcode":"SO17 1WH","longitude":-1.3986,"id":"a68odh3rsi5n","hg":"N"},"type":"Feature","geometry":{"type":"Point","coordinates":[-1.3986,50.9248]}},{"properties":{"latitude":50.9265,"postcode":"SO17 2FH","longitude":-1.3869,"id":"a68odh4sw242","hg":"N"},"type":"Feature","geometry":{"type":"Point","coordinates":[-1.3869,50.9265]}},{"properties":{"latitude":50.9236,"postcode":"SO17 2FY","longitude":-1.3945,"id":"a68odhea0w3z","hg":"N"},"type":"Feature","geometry":{"type":"Point","coordinates":[-1.3945,50.9236]}},{"properties":{"latitude":50.9236,"postcode":"SO17 2FY","longitude":-1.3945,"id":"a68odhe0ggio","hg":"N"},"type":"Feature","geometry":{"type":"Point","coordinates":[-1.3945,50.9236]}},{"properties":{"latitude":50.9236,"postcode":"SO17 2FY","longitude":-1.3945,"id":"a68odhcw7ln4","hg":"N"},"type":"Feature","geometry":{"type":"Point","coordinates":[-1.3945,50.9236]}},{"properties":{"latitude":50.9236,"postcode":"SO17 2FY","longitude":-1.3945,"id":"a68odh0j03ug","hg":"N"},"type":"Feature","geometry":{"type":"Point","coordinates":[-1.3945,50.9236]}},{"properties":{"latitude":50.9258,"postcode":"SO17 2GN","longitude":-1.3906,"id":"a68odh1pgcl5","hg":"N"},"type":"Feature","geometry":{"type":"Point","coordinates":[-1.3906,50.9258]}},{"properties":{"latitude":50.9231,"postcode":"SO17 2GW","longitude":-1.3928,"id":"a68odh212gya","hg":"N"},"type":"Feature","geometry":{"type":"Point","coordinates":[-1.3928,50.9231]}},{"properties":{"latitude":50.9227,"postcode":"SO17 2HA","longitude":-1.3937,"id":"a68odhbp20os","hg":"N"},"type":"Feature","geometry":{"type":"Point","coordinates":[-1.3937,50.9227]}},{"properties":{"latitude":50.9234,"postcode":"SO17 2HE","longitude":-1.3938,"id":"a68odhenn3ve","hg":"N"},"type":"Feature","geometry":{"type":"Point","coordinates":[-1.3938,50.9234]}},{"properties":{"latitude":50.924,"postcode":"SO17 2HF","longitude":-1.3929,"id":"a68odh6td9j8","hg":"N"},"type":"Feature","geometry":{"type":"Point","coordinates":[-1.3929,50.924]}},{"properties":{"latitude":50.9223,"postcode":"SO17 2HP","longitude":-1.3908,"id":"a68odh9xjc19","hg":"N"},"type":"Feature","geometry":{"type":"Point","coordinates":[-1.3908,50.9223]}},{"properties":{"latitude":50.9223,"postcode":"SO17 2HP","longitude":-1.3908,"id":"a68odh69skuj","hg":"N"},"type":"Feature","geometry":{"type":"Point","coordinates":[-1.3908,50.9223]}},{"properties":{"latitude":50.9223,"postcode":"SO17 2HP","longitude":-1.3908,"id":"a68odhdbvn1e","hg":"N"},"type":"Feature","geometry":{"type":"Point","coordinates":[-1.3908,50.9223]}},{"properties":{"latitude":50.9241,"postcode":"SO17 2HQ","longitude":-1.3909,"id":"a68odhb9ewx3","hg":"N"},"type":"Feature","geometry":{"type":"Point","coordinates":[-1.3909,50.9241]}},{"properties":{"latitude":50.9276,"postcode":"SO17 2LE","longitude":-1.3871,"id":"a68odh3b0s5s","hg":"N"},"type":"Feature","geometry":{"type":"Point","coordinates":[-1.3871,50.9276]}},{"properties":{"latitude":50.927,"postcode":"SO17 2LJ","longitude":-1.3839,"id":"a68odh93d18g","hg":"N"},"type":"Feature","geometry":{"type":"Point","coordinates":[-1.3839,50.927]}},{"properties":{"latitude":50.9293,"postcode":"SO17 2TH","longitude":-1.3855,"id":"a68odh3dno7v","hg":"N"},"type":"Feature","geometry":{"type":"Point","coordinates":[-1.3855,50.9293]}},{"properties":{"latitude":50.9347,"postcode":"SO17 3AR","longitude":-1.3864,"id":"a68odh8pv9zs","hg":"N"},"type":"Feature","geometry":{"type":"Point","coordinates":[-1.3864,50.9347]}},{"properties":{"latitude":50.9323,"postcode":"SO17 3RN","longitude":-1.3922,"id":"a68odh32boz3","hg":"N"},"type":"Feature","geometry":{"type":"Point","coordinates":[-1.3922,50.9323]}},{"properties":{"latitude":50.9346,"postcode":"SO17 3RZ","longitude":-1.3909,"id":"a68odhc00r56","hg":"N"},"type":"Feature","geometry":{"type":"Point","coordinates":[-1.3909,50.9346]}},{"properties":{"latitude":50.9328,"postcode":"SO17 3SG","longitude":-1.387,"id":"a68odh6jhli2","hg":"N"},"type":"Feature","geometry":{"type":"Point","coordinates":[-1.387,50.9328]}},{"properties":{"latitude":50.9331,"postcode":"SO17 3SH","longitude":-1.3868,"id":"a68odh1ufieo","hg":"N"},"type":"Feature","geometry":{"type":"Point","coordinates":[-1.3868,50.9331]}},{"properties":{"latitude":50.9372,"postcode":"SO17 3TH","longitude":-1.3841,"id":"a68odh737pk8","hg":"N"},"type":"Feature","geometry":{"type":"Point","coordinates":[-1.3841,50.9372]}},{"properties":{"latitude":50.9197,"postcode":"SO18 1GF","longitude":-1.3771,"id":"a68odh1baajy","hg":"N"},"type":"Feature","geometry":{"type":"Point","coordinates":[-1.3771,50.9197]}},{"properties":{"latitude":50.9275,"postcode":"SO18 2BE","longitude":-1.3593,"id":"a68odh9parb5","hg":"N"},"type":"Feature","geometry":{"type":"Point","coordinates":[-1.3593,50.9275]}},{"properties":{"latitude":50.9275,"postcode":"SO18 2BE","longitude":-1.3593,"id":"a68odh895ofp","hg":"N"},"type":"Feature","geometry":{"type":"Point","coordinates":[-1.3593,50.9275]}},{"properties":{"latitude":50.9353,"postcode":"SO18 2DR","longitude":-1.3659,"id":"a68odh4fac4m","hg":"N"},"type":"Feature","geometry":{"type":"Point","coordinates":[-1.3659,50.9353]}},{"properties":{"latitude":50.9353,"postcode":"SO18 2DR","longitude":-1.3659,"id":"a68odgz81taj","hg":"N"},"type":"Feature","geometry":{"type":"Point","coordinates":[-1.3659,50.9353]}},{"properties":{"latitude":50.9277,"postcode":"SO18 3BZ","longitude":-1.3448,"id":"a68odhdmady2","hg":"N"},"type":"Feature","geometry":{"type":"Point","coordinates":[-1.3448,50.9277]}},{"properties":{"latitude":50.9046,"postcode":"SO19 8GX","longitude":-1.347,"id":"a68odh3g42zw","hg":"N"},"type":"Feature","geometry":{"type":"Point","coordinates":[-1.347,50.9046]}},{"properties":{"latitude":50.8933,"postcode":"SO19 9GD","longitude":-1.3748,"id":"a68odh093y7h","hg":"N"},"type":"Feature","geometry":{"type":"Point","coordinates":[-1.3748,50.8933]}},{"properties":{"latitude":50.9599,"postcode":"SO32 1BZ","longitude":-1.2306,"id":"a68odh908mhm","hg":"N"},"type":"Feature","geometry":{"type":"Point","coordinates":[-1.2306,50.9599]}},{"properties":{"latitude":50.9309,"postcode":"SO40 2RH","longitude":-1.5182,"id":"a68odh4dy6zg","hg":"N"},"type":"Feature","geometry":{"type":"Point","coordinates":[-1.5182,50.9309]}},{"properties":{"latitude":50.9136,"postcode":"SO40 8TX","longitude":-1.5039,"id":"a68odh2gyz2o","hg":"N"},"type":"Feature","geometry":{"type":"Point","coordinates":[-1.5039,50.9136]}},{"properties":{"latitude":50.9952,"postcode":"SO51 7JY","longitude":-1.4734,"id":"a68odh3emiwh","hg":"N"},"type":"Feature","geometry":{"type":"Point","coordinates":[-1.4734,50.9952]}},{"properties":{"latitude":50.9905,"postcode":"SO53 2BB","longitude":-1.3689,"id":"a68odh14hzrs","hg":"N"},"type":"Feature","geometry":{"type":"Point","coordinates":[-1.3689,50.9905]}},{"properties":{"latitude":50.9887,"postcode":"SO53 2EL","longitude":-1.3824,"id":"a68odhey8y3a","hg":"N"},"type":"Feature","geometry":{"type":"Point","coordinates":[-1.3824,50.9887]}}],"is_temporal":false,"author":{"url":"","metadata":"","contact_name":"","contact_address":"","source":"","contact_phone":""},"source":"","pagination":{"sort":null,"start":0,"total":66,"limit":1000000},"state":"complete","tags":"","published":"2014-08-13T11:57:58-04:00","id":109836}