{"type":"FeatureCollection","data_type":"Dataset","url_type":null,"permissions":[{"permissions":{"download":true,"view":true},"group_id":"everyone"}],"classification":null,"title":"percent school exemptions","count":468,"stream_id":110330,"contributor":{"url":"http://geocommons.com/users/23937","name":"drewaharris"},"data_attributes":null,"calculation_params":null,"icon_link":null,"link":"http://geocommons.com/overlays/110330.json","extent":[-75.5202,38.9979,-73.9182,41.2128],"geometry_types":["point"],"unique_name":null,"name":"percent school exemptions","feature_count":468,"description":"","next_feature":null,"is_raster":false,"short_classification":"Y","stats":{"%school religious exemptions":{"max":66.67,"mean":6.94130341880342,"variance":48.9191642503523,"stdev":6.99422363456819,"min":3.03,"median":4.88},"total reported students in school":{"max":443,"mean":65.0790598290598,"variance":2733.84170189791,"stdev":52.2861521045287,"min":10,"median":52}},"features":[{"properties":{"mailing_address":"20 Troy Road","city":"Whippany","zipcode":"07981","geo_score":0.805,"%school religious exemptions":21.43,"school_name":"\"SOLNYSHKO\" Day Care Center","total reported students in school":14,"id":"a6etfzhz4thf","geo_precision":"range"},"type":"Feature","geometry":{"type":"Point","coordinates":[-74.390252,40.827642]}},{"properties":{"mailing_address":"43 Oliver Ave.","city":"Pennsville","zipcode":"08070","geo_score":0.854,"%school religious exemptions":3.03,"school_name":"Central Park Elementary School","total reported students in school":33,"id":"a6etfzf1insi","geo_precision":"range"},"type":"Feature","geometry":{"type":"Point","coordinates":[-75.507929,39.662146]}},{"properties":{"mailing_address":"10 Oyster Road","city":"Cape May Court House","zipcode":"08251","geo_score":0.805,"%school religious exemptions":4.55,"school_name":"Cape Christian Academy","total reported students in school":22,"id":"a6etfzhkmc81","geo_precision":"range"},"type":"Feature","geometry":{"type":"Point","coordinates":[-74.845319,39.056407]}},{"properties":{"mailing_address":"715 Amwell Road","city":"Hillsborough","zipcode":"08844","geo_score":0.707,"%school religious exemptions":8.14,"school_name":"Christian Nurturing Center","total reported students in school":86,"id":"a6etfzlkhd5o","geo_precision":"street"},"type":"Feature","geometry":{"type":"Point","coordinates":[-74.719946,40.498019]}},{"properties":{"mailing_address":"1 Spring Street","city":"Harrington Park","zipcode":"07640","geo_score":0.902,"%school religious exemptions":13.33,"school_name":"Parents Day Out","total reported students in school":15,"id":"a6etfzkm51hh","geo_precision":"range"},"type":"Feature","geometry":{"type":"Point","coordinates":[-73.981298,40.986021]}},{"properties":{"mailing_address":"512 S. Pitney Road","city":"Galloway","zipcode":"08205","geo_score":0.333,"%school religious exemptions":7.41,"school_name":"Champion Baptist Christian School","total reported students in school":27,"id":"a6etfzqz4ke0","geo_precision":"street"},"type":"Feature","geometry":{"type":"Point","coordinates":[-74.491653,39.476709]}},{"properties":{"mailing_address":"56 Conoveer Road","city":"Colts Neck","zipcode":"07722","geo_score":0.776,"%school religious exemptions":5.56,"school_name":"Conover Road Primary School","total reported students in school":144,"id":"a6etfzo8y5fp","geo_precision":"range"},"type":"Feature","geometry":{"type":"Point","coordinates":[-74.190956,40.315138]}},{"properties":{"mailing_address":"217 Mountain View Road","city":"Warren","zipcode":"07059","geo_score":0.861,"%school religious exemptions":17.5,"school_name":"Developmental Learning Center - Warren","total reported students in school":40,"id":"a6etfzcm1d1f","geo_precision":"range"},"type":"Feature","geometry":{"type":"Point","coordinates":[-74.517165,40.63765]}},{"properties":{"mailing_address":"18-00 Radburn Rd","city":"Fair Lawn","zipcode":"07410","geo_score":0.732,"%school religious exemptions":4.08,"school_name":"RadburnSchool","total reported students in school":49,"id":"a6etfzn76mte","geo_precision":"range"},"type":"Feature","geometry":{"type":"Point","coordinates":[-74.121943,40.949838]}},{"properties":{"mailing_address":"31 Route 181","city":"Lake Hopatcong,","zipcode":"07849","geo_score":0.769,"%school religious exemptions":3.36,"school_name":"Robert F. Drummond School","total reported students in school":119,"id":"a6etfzh7p4im","geo_precision":"range"},"type":"Feature","geometry":{"type":"Point","coordinates":[-74.603271,40.975879]}},{"properties":{"mailing_address":"264 Jacksonville Road","city":"Lincoln Park","zipcode":"07035","geo_score":0.691,"%school religious exemptions":8.86,"school_name":"Jacksonville Chapel Nursery School","total reported students in school":158,"id":"a6etfzlnykdt","geo_precision":"range"},"type":"Feature","geometry":{"type":"Point","coordinates":[-74.332646,40.948077]}},{"properties":{"mailing_address":"401 Niblick Street","city":"Point Pleasant Beach","zipcode":"08742","geo_score":0.821,"%school religious exemptions":8.2,"school_name":"G. Harold Antrim Elementary School","total reported students in school":122,"id":"a6etfzl1mm5i","geo_precision":"range"},"type":"Feature","geometry":{"type":"Point","coordinates":[-74.046478,40.095331]}},{"properties":{"mailing_address":"101 Drakes Corner Road","city":"Princeton","zipcode":"08540","geo_score":0.868,"%school religious exemptions":3.45,"school_name":"Princeton Academy of the Sacred Heart","total reported students in school":58,"id":"a6etfzp0obxd","geo_precision":"range"},"type":"Feature","geometry":{"type":"Point","coordinates":[-74.699221,40.373773]}},{"properties":{"mailing_address":"336 Lake Avenue","city":"Lyndhurst","zipcode":"07071","geo_score":0.816,"%school religious exemptions":3.39,"school_name":"Jefferson School","total reported students in school":59,"id":"a6etfzr3egb9","geo_precision":"range"},"type":"Feature","geometry":{"type":"Point","coordinates":[-74.120948,40.817366]}},{"properties":{"mailing_address":"298 Main St","city":"Hackettstown","zipcode":"07840","geo_score":0.829,"%school religious exemptions":5.36,"school_name":"Heaven Sent Nursery School","total reported students in school":56,"id":"a6etfzehk8be","geo_precision":"range"},"type":"Feature","geometry":{"type":"Point","coordinates":[-74.824977,40.849739]}},{"properties":{"mailing_address":"7 Hillside Avenue","city":"Milford","zipcode":"08848","geo_score":0.824,"%school religious exemptions":4.35,"school_name":"Milford Public School","total reported students in school":23,"id":"a6etfzp9s2ik","geo_precision":"range"},"type":"Feature","geometry":{"type":"Point","coordinates":[-75.092942,40.568896]}},{"properties":{"mailing_address":"Box 94","city":"Johnsonburg N.J.","zipcode":"07846","geo_score":0.371,"%school religious exemptions":3.28,"school_name":"Frelinghuysen Township School E.S.4","total reported students in school":61,"id":"a6etfzmdw9in","geo_precision":"street"},"type":"Feature","geometry":{"type":"Point","coordinates":[-74.731433,41.087332]}},{"properties":{"mailing_address":"460 Main St.","city":"Chatham","zipcode":"07928","geo_score":0.805,"%school religious exemptions":4.29,"school_name":"Chatham United Methodist Nursery School","total reported students in school":70,"id":"a6etfzmxxwm4","geo_precision":"street"},"type":"Feature","geometry":{"type":"Point","coordinates":[-74.390446,40.743839]}},{"properties":{"mailing_address":"107 Hendrickson Ave","city":"Brick","zipcode":"08724","geo_score":0.74,"%school religious exemptions":3.82,"school_name":"Educational Enrichment Center","total reported students in school":157,"id":"a6etfzc7n5u6","geo_precision":"street"},"type":"Feature","geometry":{"type":"Point","coordinates":[-74.116518,40.083298]}},{"properties":{"mailing_address":"25 Gibbons Circle","city":"New Brunswick","zipcode":"08901","geo_score":0.699,"%school religious exemptions":21.43,"school_name":"Douglass Developmental Disabilities Center. Rutger","total reported students in school":28,"id":"a6etfzi70nd7","geo_precision":"range"},"type":"Feature","geometry":{"type":"Point","coordinates":[-74.432429,40.485288]}},{"properties":{"mailing_address":"One School Road","city":"Newton","zipcode":"07860","geo_score":0.348,"%school religious exemptions":3.37,"school_name":"McKeown Elementary School","total reported students in school":178,"id":"a6etfzcor1gk","geo_precision":"street"},"type":"Feature","geometry":{"type":"Point","coordinates":[-74.783794,41.116713]}},{"properties":{"mailing_address":"350 Prospect Avenue","city":"Oradell","zipcode":"07649","geo_score":0.902,"%school religious exemptions":3.73,"school_name":"Oradell Public School","total reported students in school":241,"id":"a6etfzos98k6","geo_precision":"range"},"type":"Feature","geometry":{"type":"Point","coordinates":[-74.035895,40.953192]}},{"properties":{"mailing_address":"1111 Preakness Ave","city":"Wayne","zipcode":"07470","geo_score":0.816,"%school religious exemptions":6.92,"school_name":"Calvary Christian Academy/Happy Day Learning Cente","total reported students in school":130,"id":"a6etfzdxqeym","geo_precision":"range"},"type":"Feature","geometry":{"type":"Point","coordinates":[-74.223222,40.929906]}},{"properties":{"mailing_address":"1563 Old Freehold Rd.","city":"Toms River","zipcode":"08755","geo_score":0.902,"%school religious exemptions":8.33,"school_name":"The Academy at Grace and Peace","total reported students in school":36,"id":"a6etfzcyluks","geo_precision":"range"},"type":"Feature","geometry":{"type":"Point","coordinates":[-74.201715,40.003893]}},{"properties":{"mailing_address":"PO Box 714","city":"Flagtown","zipcode":"08821","geo_score":0.393,"%school religious exemptions":3.53,"school_name":"Raritan Valley Montessori School","total reported students in school":85,"id":"a6etfzea9zop","geo_precision":"street"},"type":"Feature","geometry":{"type":"Point","coordinates":[-74.461942,40.567225]}},{"properties":{"mailing_address":"230 N. Evergreen Avenue","city":"Woodbury","zipcode":"08096","geo_score":0.395,"%school religious exemptions":10.0,"school_name":"Durand Academy &amp; Community Services. Inc.","total reported students in school":10,"id":"a6etfzlpbgqj","geo_precision":"street"},"type":"Feature","geometry":{"type":"Point","coordinates":[-75.145102,39.833601]}},{"properties":{"mailing_address":"105 North Church Road","city":"Sparta","zipcode":"07871","geo_score":0.831,"%school religious exemptions":4.17,"school_name":"Sussex County Charter School for Technology","total reported students in school":24,"id":"a6etfzfor9ux","geo_precision":"range"},"type":"Feature","geometry":{"type":"Point","coordinates":[-74.650555,41.099234]}},{"properties":{"mailing_address":"120 Main Street","city":"East Brunswick","zipcode":"08816","geo_score":0.828,"%school religious exemptions":3.13,"school_name":"Bowne-Munro Elementary School","total reported students in school":32,"id":"a6etfzk6i6k4","geo_precision":"range"},"type":"Feature","geometry":{"type":"Point","coordinates":[-74.3685,40.413274]}},{"properties":{"mailing_address":"8 Orchard St","city":"Mendham","zipcode":"07945","geo_score":0.805,"%school religious exemptions":3.92,"school_name":"Mendham Cooperative Nursery School","total reported students in school":51,"id":"a6etfzdai7st","geo_precision":"range"},"type":"Feature","geometry":{"type":"Point","coordinates":[-74.598492,40.778116]}},{"properties":{"mailing_address":"155 Kinnelon Rd","city":"Kinnelon","zipcode":"07405","geo_score":0.816,"%school religious exemptions":3.45,"school_name":"The Growing Place Nursery School","total reported students in school":29,"id":"a6etfzmgsr94","geo_precision":"range"},"type":"Feature","geometry":{"type":"Point","coordinates":[-74.383609,40.990058]}},{"properties":{"mailing_address":"58 Riverside Drive","city":"Princeton","zipcode":"08540","geo_score":0.868,"%school religious exemptions":4.76,"school_name":"Riverside Elementary","total reported students in school":63,"id":"a6etfzdslo91","geo_precision":"range"},"type":"Feature","geometry":{"type":"Point","coordinates":[-74.637895,40.354666]}},{"properties":{"mailing_address":"555 South Randolphville Road","city":"Piscataway","zipcode":"08854","geo_score":0.826,"%school religious exemptions":3.13,"school_name":"Lake Nelson Seventh Day Adventist School","total reported students in school":32,"id":"a6etfzgfrj3d","geo_precision":"range"},"type":"Feature","geometry":{"type":"Point","coordinates":[-74.456998,40.542458]}},{"properties":{"mailing_address":"212 Raritan Valley College Drive","city":"Branchburg","zipcode":"08876","geo_score":0.805,"%school religious exemptions":3.39,"school_name":"KinderCare Learning Center","total reported students in school":59,"id":"a6etfzf7wxkl","geo_precision":"range"},"type":"Feature","geometry":{"type":"Point","coordinates":[-74.688783,40.603705]}},{"properties":{"mailing_address":"5 Carnegie Plaza","city":"Cherry Hill","zipcode":"08002","geo_score":0.805,"%school religious exemptions":4.08,"school_name":"The King's Christian School","total reported students in school":49,"id":"a6etfzi5suai","geo_precision":"range"},"type":"Feature","geometry":{"type":"Point","coordinates":[-74.964929,39.91422]}},{"properties":{"mailing_address":"400 Fairview Street","city":"Medford","zipcode":"08055","geo_score":0.774,"%school religious exemptions":3.7,"school_name":"Cranberry Pines Elementary School","total reported students in school":54,"id":"a6etfzcjyf34","geo_precision":"range"},"type":"Feature","geometry":{"type":"Point","coordinates":[-74.848394,39.854433]}},{"properties":{"mailing_address":"55 Sunnymead Road","city":"Hillsborough","zipcode":"08844","geo_score":0.78,"%school religious exemptions":3.08,"school_name":"Sunnymead School","total reported students in school":65,"id":"a6etfzegsrgd","geo_precision":"range"},"type":"Feature","geometry":{"type":"Point","coordinates":[-74.610863,40.532351]}},{"properties":{"mailing_address":"100 Dean Road","city":"Mendham","zipcode":"07945","geo_score":0.805,"%school religious exemptions":3.13,"school_name":"Mountain View School","total reported students in school":96,"id":"a6etfzebuekp","geo_precision":"range"},"type":"Feature","geometry":{"type":"Point","coordinates":[-74.602075,40.782157]}},{"properties":{"mailing_address":"12 Hollywood Ave","city":"Fairfield","zipcode":"07004","geo_score":0.902,"%school religious exemptions":5.88,"school_name":"Banyan School","total reported students in school":17,"id":"a6etfzq5jeb2","geo_precision":"range"},"type":"Feature","geometry":{"type":"Point","coordinates":[-74.314906,40.87624]}},{"properties":{"mailing_address":"3 Plaza Dr","city":"Sewell","zipcode":"08080","geo_score":0.743,"%school religious exemptions":3.13,"school_name":"The Goddard School","total reported students in school":32,"id":"a6etfzer3v8d","geo_precision":"range"},"type":"Feature","geometry":{"type":"Point","coordinates":[-75.077198,39.740469]}},{"properties":{"mailing_address":"16 Simpson Place","city":"Metuchen","zipcode":"08840","geo_score":0.823,"%school religious exemptions":3.98,"school_name":"Moss Elementary School","total reported students in school":201,"id":"a6etfzdwpnku","geo_precision":"range"},"type":"Feature","geometry":{"type":"Point","coordinates":[-74.355366,40.537923]}},{"properties":{"mailing_address":"176 Cooper Ave","city":"Upper Montclair","zipcode":"07043","geo_score":0.902,"%school religious exemptions":4.76,"school_name":"Union Congregational Weekday Nursery School","total reported students in school":168,"id":"a6etfzdydxjy","geo_precision":"range"},"type":"Feature","geometry":{"type":"Point","coordinates":[-74.203927,40.839001]}},{"properties":{"mailing_address":"145 Hillside Ave","city":"Hillside","zipcode":"07205","geo_score":0.902,"%school religious exemptions":5.0,"school_name":"Walter O. Krumbiegel Middle School","total reported students in school":20,"id":"a6etfzdg9swn","geo_precision":"range"},"type":"Feature","geometry":{"type":"Point","coordinates":[-74.222855,40.698627]}},{"properties":{"mailing_address":"585 wyckoff ave","city":"mahwah","zipcode":"07430","geo_score":0.863,"%school religious exemptions":3.28,"school_name":"Young World Day School","total reported students in school":122,"id":"a6etfzef3c27","geo_precision":"range"},"type":"Feature","geometry":{"type":"Point","coordinates":[-74.16268,41.040688]}},{"properties":{"mailing_address":"72 Academy Street","city":"Rockaway","zipcode":"07866","geo_score":0.817,"%school religious exemptions":19.05,"school_name":"Park Lake School","total reported students in school":21,"id":"a6etfzmcl5vo","geo_precision":"range"},"type":"Feature","geometry":{"type":"Point","coordinates":[-74.515616,40.906597]}},{"properties":{"mailing_address":"188 Fries Mill Road Bldg J","city":"Turnersville","zipcode":"08012","geo_score":0.728,"%school religious exemptions":3.03,"school_name":"Ready Set Grow Learning Center","total reported students in school":33,"id":"a6etfzjdiwwb","geo_precision":"range"},"type":"Feature","geometry":{"type":"Point","coordinates":[-75.048114,39.735025]}},{"properties":{"mailing_address":"270 Industrial Way West","city":"Eatontown","zipcode":"07724","geo_score":0.816,"%school religious exemptions":8.7,"school_name":"School for Children","total reported students in school":23,"id":"a6etfzbxblhq","geo_precision":"range"},"type":"Feature","geometry":{"type":"Point","coordinates":[-74.053564,40.275689]}},{"properties":{"mailing_address":"10 Lake Drive","city":"Mountain Lakes","zipcode":"07046","geo_score":0.827,"%school religious exemptions":5.56,"school_name":"Lake Drive School","total reported students in school":36,"id":"a6etfzp5sv7e","geo_precision":"range"},"type":"Feature","geometry":{"type":"Point","coordinates":[-74.439529,40.892491]}},{"properties":{"mailing_address":"2111 Kuser Road","city":"Hamilton Square","zipcode":"08690","geo_score":0.902,"%school religious exemptions":4.26,"school_name":"Faith Christian School","total reported students in school":141,"id":"a6etfzf3cfnc","geo_precision":"range"},"type":"Feature","geometry":{"type":"Point","coordinates":[-74.683318,40.203122]}},{"properties":{"mailing_address":"550 West Park Avenue","city":"Oakhurst","zipcode":"07755","geo_score":0.805,"%school religious exemptions":6.67,"school_name":"Ocean Township High School","total reported students in school":30,"id":"a6etfzrhdumi","geo_precision":"range"},"type":"Feature","geometry":{"type":"Point","coordinates":[-74.030198,40.268418]}},{"properties":{"mailing_address":"126 South Hillside Ave","city":"Succasunna","zipcode":"07876","geo_score":0.78,"%school religious exemptions":6.76,"school_name":"American Christian School","total reported students in school":74,"id":"a6etfzjh468y","geo_precision":"street"},"type":"Feature","geometry":{"type":"Point","coordinates":[-74.658847,40.856356]}},{"properties":{"mailing_address":"211 Washington Avenue","city":"Pitman","zipcode":"08071","geo_score":0.902,"%school religious exemptions":5.08,"school_name":"Elwood Kindle School","total reported students in school":59,"id":"a6etfzj2ltvt","geo_precision":"range"},"type":"Feature","geometry":{"type":"Point","coordinates":[-75.121302,39.727043]}},{"properties":{"mailing_address":"29 Newbury Road","city":"Howell","zipcode":"07731","geo_score":0.805,"%school religious exemptions":3.77,"school_name":"Montessori Enrichment Center","total reported students in school":106,"id":"a6etfzf5jrto","geo_precision":"street"},"type":"Feature","geometry":{"type":"Point","coordinates":[-74.218261,40.148086]}},{"properties":{"mailing_address":"101 Wyndham Farm Boulevard","city":"Stewartsville","zipcode":"08886","geo_score":0.64,"%school religious exemptions":3.45,"school_name":"Greenwich School","total reported students in school":116,"id":"a6etfzc8de1s","geo_precision":"street"},"type":"Feature","geometry":{"type":"Point","coordinates":[-75.130408,40.683589]}},{"properties":{"mailing_address":"40 South Fullerton Avenue","city":"Montclair","zipcode":"07042","geo_score":0.86,"%school religious exemptions":3.68,"school_name":"MMO Programs","total reported students in school":136,"id":"a6etfze6h969","geo_precision":"range"},"type":"Feature","geometry":{"type":"Point","coordinates":[-74.218052,40.812282]}},{"properties":{"mailing_address":"111 Hansom Road","city":"Basking Ridge","zipcode":"07920","geo_score":0.829,"%school religious exemptions":6.15,"school_name":"Mount Prospect School","total reported students in school":179,"id":"a6etfzdwoohk","geo_precision":"range"},"type":"Feature","geometry":{"type":"Point","coordinates":[-74.623821,40.65564]}},{"properties":{"mailing_address":"1101 Springdale Road","city":"Cherry Hill","zipcode":"08003","geo_score":0.805,"%school religious exemptions":3.08,"school_name":"The Pre-School at Temple Emanuel","total reported students in school":65,"id":"a6etfzkykkpm","geo_precision":"range"},"type":"Feature","geometry":{"type":"Point","coordinates":[-74.970558,39.879652]}},{"properties":{"mailing_address":"43 Wertsville Road","city":"Ringoes","zipcode":"08551","geo_score":0.829,"%school religious exemptions":3.43,"school_name":"East Amwell Township E. S.","total reported students in school":175,"id":"a6etfzq5sikx","geo_precision":"range"},"type":"Feature","geometry":{"type":"Point","coordinates":[-74.859786,40.428137]}},{"properties":{"mailing_address":"1040 Plainfield Ave","city":"Plainfield","zipcode":"07060","geo_score":0.814,"%school religious exemptions":4.76,"school_name":"Koinonia Academy","total reported students in school":42,"id":"a6etfzfvbrxe","geo_precision":"range"},"type":"Feature","geometry":{"type":"Point","coordinates":[-74.420795,40.602743]}},{"properties":{"mailing_address":"5 Mead St","city":"South Orange","zipcode":"07079","geo_score":0.902,"%school religious exemptions":3.45,"school_name":"Baird Center Preschool","total reported students in school":29,"id":"a6etfzr63ga9","geo_precision":"range"},"type":"Feature","geometry":{"type":"Point","coordinates":[-74.25765,40.749516]}},{"properties":{"mailing_address":"55 Wyckoff Avenue","city":"Ramsey","zipcode":"07446","geo_score":0.815,"%school religious exemptions":3.08,"school_name":"Redeemer Christian Nursery School","total reported students in school":65,"id":"a6etfzfgr5kr","geo_precision":"range"},"type":"Feature","geometry":{"type":"Point","coordinates":[-74.14702,41.056406]}},{"properties":{"mailing_address":"PO Box 287","city":"Hope New Jersey","zipcode":"07844","geo_score":0.393,"%school religious exemptions":5.26,"school_name":"Pooh's Preschool Too","total reported students in school":38,"id":"a6etfzlr5bt6","geo_precision":"street"},"type":"Feature","geometry":{"type":"Point","coordinates":[-74.675682,40.883348]}},{"properties":{"mailing_address":"525 Oberlin Ave. S.","city":"Lakewood","zipcode":"08701","geo_score":0.343,"%school religious exemptions":5.13,"school_name":"Yeshiva Nesivos Ohr","total reported students in school":39,"id":"a6etfzcsq4yc","geo_precision":"street"},"type":"Feature","geometry":{"type":"Point","coordinates":[-74.182572,40.072115]}},{"properties":{"mailing_address":"1231 Burnet Ave","city":"Union","zipcode":"07083","geo_score":0.902,"%school religious exemptions":4.88,"school_name":"Union Developmental Learning Center","total reported students in school":41,"id":"a6etfzfblzej","geo_precision":"range"},"type":"Feature","geometry":{"type":"Point","coordinates":[-74.284543,40.708285]}},{"properties":{"mailing_address":"35 Jefferson Avenue","city":"Emerson","zipcode":"07630","geo_score":0.902,"%school religious exemptions":3.16,"school_name":"Assumption Academy","total reported students in school":158,"id":"a6etfzg509d5","geo_precision":"range"},"type":"Feature","geometry":{"type":"Point","coordinates":[-74.024588,40.976762]}},{"properties":{"mailing_address":"17 Kent Place Blvd.","city":"Summit","zipcode":"07901","geo_score":0.835,"%school religious exemptions":7.89,"school_name":"Wesley Center PreSchool","total reported students in school":38,"id":"a6etfzdz1inb","geo_precision":"range"},"type":"Feature","geometry":{"type":"Point","coordinates":[-74.362064,40.718076]}},{"properties":{"mailing_address":"190 Lorraine Avenue","city":"Upper Montclair","zipcode":"07043","geo_score":0.902,"%school religious exemptions":3.03,"school_name":"St Cassian School","total reported students in school":66,"id":"a6etfzr1sb5w","geo_precision":"range"},"type":"Feature","geometry":{"type":"Point","coordinates":[-74.204062,40.8416]}},{"properties":{"mailing_address":"71 Mount Hebron Road","city":"Montclair","zipcode":"07043","geo_score":0.868,"%school religious exemptions":7.5,"school_name":"Watchung Cooperative Preschool","total reported students in school":40,"id":"a6etfzfu5q93","geo_precision":"range"},"type":"Feature","geometry":{"type":"Point","coordinates":[-74.200484,40.853479]}},{"properties":{"mailing_address":"65 Pawnee Ave","city":"Rockaway","zipcode":"07866","geo_score":0.817,"%school religious exemptions":7.41,"school_name":"Chabad Early Learning Center","total reported students in school":54,"id":"a6etfzqty3eg","geo_precision":"range"},"type":"Feature","geometry":{"type":"Point","coordinates":[-74.510755,40.920279]}},{"properties":{"mailing_address":"5 Shawnee Trail","city":"Montville","zipcode":"07045","geo_score":0.868,"%school religious exemptions":4.59,"school_name":"William H. Mason, Jr., E.S.","total reported students in school":109,"id":"a6etfzs2nkdv","geo_precision":"range"},"type":"Feature","geometry":{"type":"Point","coordinates":[-74.384614,40.924547]}},{"properties":{"mailing_address":"104 Paradise Rd.","city":"Oak Ridge","zipcode":"07438","geo_score":0.817,"%school religious exemptions":3.03,"school_name":"Paradise Preschool","total reported students in school":33,"id":"a6etfzcv6dga","geo_precision":"range"},"type":"Feature","geometry":{"type":"Point","coordinates":[-74.463628,41.063272]}},{"properties":{"mailing_address":"2900 Klockner Rd.","city":"Hamilton","zipcode":"08690","geo_score":0.861,"%school religious exemptions":16.67,"school_name":"Hamilton East-Steinert High School","total reported students in school":12,"id":"a6etfznocklk","geo_precision":"range"},"type":"Feature","geometry":{"type":"Point","coordinates":[-74.663258,40.215078]}},{"properties":{"mailing_address":"20 High Street","city":"Allentown","zipcode":"08501","geo_score":0.883,"%school religious exemptions":4.17,"school_name":"Little Tree Preschool","total reported students in school":120,"id":"a6etfzjs32v7","geo_precision":"range"},"type":"Feature","geometry":{"type":"Point","coordinates":[-74.585051,40.172719]}},{"properties":{"mailing_address":"40 Davidson Road","city":"Piscataway","zipcode":"08854","geo_score":0.826,"%school religious exemptions":8.82,"school_name":"Pine Grove Nursery School","total reported students in school":34,"id":"a6etfzfcjn2p","geo_precision":"range"},"type":"Feature","geometry":{"type":"Point","coordinates":[-74.457621,40.525541]}},{"properties":{"mailing_address":"2119 Old Mill Rd.","city":"Sea Girt","zipcode":"08750","geo_score":0.902,"%school religious exemptions":10.42,"school_name":"Old Mill School","total reported students in school":48,"id":"a6etfzj6xl6f","geo_precision":"range"},"type":"Feature","geometry":{"type":"Point","coordinates":[-74.053846,40.142714]}},{"properties":{"mailing_address":"52 Finn Road","city":"Hampton","zipcode":"08827","geo_score":0.847,"%school religious exemptions":5.0,"school_name":"First Step Learning Center, Inc.","total reported students in school":20,"id":"a6etfzglkrqa","geo_precision":"range"},"type":"Feature","geometry":{"type":"Point","coordinates":[-74.964423,40.61946]}},{"properties":{"mailing_address":"70 Amboy Road","city":"Morganville","zipcode":"07751","geo_score":0.902,"%school religious exemptions":5.56,"school_name":"Shalom Torah Academy 2","total reported students in school":54,"id":"a6etfzirc0io","geo_precision":"range"},"type":"Feature","geometry":{"type":"Point","coordinates":[-74.287025,40.353895]}},{"properties":{"mailing_address":"1243 Route 94","city":"Blairstown","zipcode":"07825","geo_score":0.522,"%school religious exemptions":56.76,"school_name":"Ridge and Valley Charter School","total reported students in school":37,"id":"a6etfzez08ok","geo_precision":"street"},"type":"Feature","geometry":{"type":"Point","coordinates":[-74.937803,40.975473]}},{"properties":{"mailing_address":"45 East Taunton Road","city":"Atco","zipcode":"08004","geo_score":0.727,"%school religious exemptions":3.7,"school_name":"InQuiring Minds Learning Center","total reported students in school":27,"id":"a6etfzdzb8nb","geo_precision":"range"},"type":"Feature","geometry":{"type":"Point","coordinates":[-74.921839,39.764221]}},{"properties":{"mailing_address":"201 S. Kings Highway","city":"Cherry Hill","zipcode":"08034","geo_score":0.482,"%school religious exemptions":8.33,"school_name":"Bancroft Early Education Program","total reported students in school":24,"id":"a6etfzfok4kw","geo_precision":"street"},"type":"Feature","geometry":{"type":"Point","coordinates":[-74.982649,39.939319]}},{"properties":{"mailing_address":"45 Cardinal Drive","city":"Westfield","zipcode":"07090","geo_score":0.902,"%school religious exemptions":6.25,"school_name":"Crossroads School","total reported students in school":16,"id":"a6etfznck605","geo_precision":"range"},"type":"Feature","geometry":{"type":"Point","coordinates":[-74.328716,40.68002]}},{"properties":{"mailing_address":"340 Speedwell Ave.","city":"Morristown","zipcode":"07960","geo_score":0.823,"%school religious exemptions":6.9,"school_name":"Unity Charter School","total reported students in school":29,"id":"a6etfzi7cutc","geo_precision":"range"},"type":"Feature","geometry":{"type":"Point","coordinates":[-74.482479,40.816722]}},{"properties":{"mailing_address":"400 Route 513","city":"Califon","zipcode":"07830","geo_score":0.652,"%school religious exemptions":7.53,"school_name":"Valley View E. S.","total reported students in school":93,"id":"a6etfzmbgy2o","geo_precision":"range"},"type":"Feature","geometry":{"type":"Point","coordinates":[-74.854102,40.717938]}},{"properties":{"mailing_address":"422 Willow Avenue","city":"Hoboken","zipcode":"07030","geo_score":0.902,"%school religious exemptions":5.26,"school_name":"Mustard Seed School","total reported students in school":76,"id":"a6etfzhv5xzu","geo_precision":"range"},"type":"Feature","geometry":{"type":"Point","coordinates":[-74.033313,40.742079]}},{"properties":{"mailing_address":"557 RT 513","city":"Pittstown","zipcode":"08867","geo_score":0.69,"%school religious exemptions":5.06,"school_name":"Alexandria Middle School","total reported students in school":79,"id":"a6etfziud6it","geo_precision":"range"},"type":"Feature","geometry":{"type":"Point","coordinates":[-75.017684,40.569311]}},{"properties":{"mailing_address":"25 Olcott Avenue","city":"Bernardsville","zipcode":"07924","geo_score":0.902,"%school religious exemptions":5.88,"school_name":"Bernards High School","total reported students in school":17,"id":"a6etfzqjo7it","geo_precision":"range"},"type":"Feature","geometry":{"type":"Point","coordinates":[-74.567553,40.721611]}},{"properties":{"mailing_address":"51 Johnston Drive","city":"Morristown","zipcode":"07960","geo_score":0.634,"%school religious exemptions":3.23,"school_name":"Woodland Avenue E.S.","total reported students in school":124,"id":"a6etfzmun2py","geo_precision":"street"},"type":"Feature","geometry":{"type":"Point","coordinates":[-74.4637,40.783009]}},{"properties":{"mailing_address":"524 Green Pond Road","city":"Rockaway","zipcode":"07866","geo_score":0.817,"%school religious exemptions":4.55,"school_name":"Katharine D. Malone","total reported students in school":44,"id":"a6etfznuj5ii","geo_precision":"range"},"type":"Feature","geometry":{"type":"Point","coordinates":[-74.494974,40.963014]}},{"properties":{"mailing_address":"400 East Main Street","city":"Denville","zipcode":"07834","geo_score":0.902,"%school religious exemptions":3.57,"school_name":"Morris County School of Technology","total reported students in school":28,"id":"a6etfzkjlbhl","geo_precision":"range"},"type":"Feature","geometry":{"type":"Point","coordinates":[-74.479945,40.878935]}},{"properties":{"mailing_address":"200 Main Street","city":"Chatham","zipcode":"07928","geo_score":0.902,"%school religious exemptions":9.23,"school_name":"Sprout House, Inc.","total reported students in school":65,"id":"a6etfzqcbuj0","geo_precision":"range"},"type":"Feature","geometry":{"type":"Point","coordinates":[-74.380417,40.740041]}},{"properties":{"mailing_address":"1-22 Hartley Place","city":"Fair Lawn","zipcode":"07410","geo_score":0.732,"%school religious exemptions":3.92,"school_name":"Lutheran Nursery School of Fairlawn","total reported students in school":51,"id":"a6etfzogcgr0","geo_precision":"range"},"type":"Feature","geometry":{"type":"Point","coordinates":[-74.113221,40.92402]}},{"properties":{"mailing_address":"119 Main Street","city":"Millburn","zipcode":"07041","geo_score":0.902,"%school religious exemptions":3.06,"school_name":"St. Stephen's Preschool","total reported students in school":98,"id":"a6etfzo4v651","geo_precision":"range"},"type":"Feature","geometry":{"type":"Point","coordinates":[-74.306919,40.72124]}},{"properties":{"mailing_address":"271 Roseland Avenue","city":"Essex Fells","zipcode":"07021","geo_score":0.902,"%school religious exemptions":4.13,"school_name":"St. Peter's Nursery School","total reported students in school":121,"id":"a6etfzor6ykv","geo_precision":"range"},"type":"Feature","geometry":{"type":"Point","coordinates":[-74.285666,40.829317]}},{"properties":{"mailing_address":"2501 Spruce Avenue","city":"Egg Harbor","zipcode":"08234","geo_score":0.902,"%school religious exemptions":14.29,"school_name":"Davenport  Elementary School","total reported students in school":28,"id":"a6etfzjx8ep4","geo_precision":"range"},"type":"Feature","geometry":{"type":"Point","coordinates":[-74.578631,39.425118]}},{"properties":{"mailing_address":"37-01 Fari Lawn Ave.","city":"Fair Lawn","zipcode":"07410","geo_score":0.678,"%school religious exemptions":4.88,"school_name":"Thomas A. Edison","total reported students in school":41,"id":"a6etfzs0fpf4","geo_precision":"range"},"type":"Feature","geometry":{"type":"Point","coordinates":[-74.104912,40.943499]}},{"properties":{"mailing_address":"PO Box 240  641 Church Street","city":"Oradell","zipcode":"07649","geo_score":0.609,"%school religious exemptions":3.57,"school_name":"Reformed Church Nursery School","total reported students in school":84,"id":"a6etfzbplw6l","geo_precision":"street"},"type":"Feature","geometry":{"type":"Point","coordinates":[-74.031762,40.953348]}},{"properties":{"mailing_address":"40 Fairview Ave","city":"High Bridge","zipcode":"08829","geo_score":0.902,"%school religious exemptions":3.08,"school_name":"High Bridge Elementary School","total reported students in school":65,"id":"a6etfzgcwih3","geo_precision":"range"},"type":"Feature","geometry":{"type":"Point","coordinates":[-74.894031,40.672396]}},{"properties":{"mailing_address":"18 Lanning Road","city":"Verona","zipcode":"07044","geo_score":0.902,"%school religious exemptions":3.92,"school_name":"Laning Avenue School","total reported students in school":102,"id":"a6etfzcrgu1g","geo_precision":"range"},"type":"Feature","geometry":{"type":"Point","coordinates":[-74.234697,40.830364]}},{"properties":{"mailing_address":"32 Academy Road","city":"Caldwell","zipcode":"07006","geo_score":0.865,"%school religious exemptions":4.52,"school_name":"Grover Cleveland Middle School","total reported students in school":221,"id":"a6etfzlyd4tx","geo_precision":"range"},"type":"Feature","geometry":{"type":"Point","coordinates":[-74.282356,40.842614]}},{"properties":{"mailing_address":"498 Stillwells Corner Rd.","city":"Freehold","zipcode":"07728","geo_score":0.813,"%school religious exemptions":12.5,"school_name":"Barkalow Middle School","total reported students in school":16,"id":"a6etfzelcjyx","geo_precision":"range"},"type":"Feature","geometry":{"type":"Point","coordinates":[-74.299241,40.238524]}},{"properties":{"mailing_address":"179 Newbury Road","city":"Howell","zipcode":"07731","geo_score":0.78,"%school religious exemptions":5.22,"school_name":"Newbury School","total reported students in school":134,"id":"a6etfzg3vzg4","geo_precision":"street"},"type":"Feature","geometry":{"type":"Point","coordinates":[-74.213087,40.156414]}},{"properties":{"mailing_address":"70 Spring Valley Rd","city":"Paramus","zipcode":"07652","geo_score":0.902,"%school religious exemptions":10.0,"school_name":"Bell's Little Learners Preschool","total reported students in school":60,"id":"a6etfzm40hbe","geo_precision":"range"},"type":"Feature","geometry":{"type":"Point","coordinates":[-74.059967,40.922508]}},{"properties":{"mailing_address":"171 Tennent Road","city":"Morganville","zipcode":"07751","geo_score":0.902,"%school religious exemptions":3.16,"school_name":"Marlboro Early Learning Center","total reported students in school":443,"id":"a6etfzc8pmzp","geo_precision":"range"},"type":"Feature","geometry":{"type":"Point","coordinates":[-74.26294,40.369245]}},{"properties":{"mailing_address":"113B S. Hillside Ave.","city":"Succasunna","zipcode":"07876","geo_score":0.468,"%school religious exemptions":3.57,"school_name":"Hillside Nursery School","total reported students in school":84,"id":"a6etfzqjrate","geo_precision":"street"},"type":"Feature","geometry":{"type":"Point","coordinates":[-74.64432,40.864456]}},{"properties":{"mailing_address":"154 Brooklyn Road","city":"Stanhope","zipcode":"07874","geo_score":0.687,"%school religious exemptions":6.9,"school_name":"First Impressions Nursery School","total reported students in school":29,"id":"a6etfzowhevv","geo_precision":"range"},"type":"Feature","geometry":{"type":"Point","coordinates":[-74.670312,40.916726]}},{"properties":{"mailing_address":"624 Page Avenue","city":"Lyndhurst","zipcode":"07071","geo_score":0.816,"%school religious exemptions":5.17,"school_name":"SBJC-Lyndhurst,Valley Brook, Rutherford,Jefferson","total reported students in school":58,"id":"a6etfzkfu2xf","geo_precision":"range"},"type":"Feature","geometry":{"type":"Point","coordinates":[-74.120956,40.803748]}},{"properties":{"mailing_address":"131 East Main Street","city":"Wrightstown","zipcode":"08562","geo_score":0.805,"%school religious exemptions":3.85,"school_name":"Kings Academy","total reported students in school":26,"id":"a6etfzhpgo9r","geo_precision":"range"},"type":"Feature","geometry":{"type":"Point","coordinates":[-74.611395,40.036106]}},{"properties":{"mailing_address":"321 Mine Brook Rd","city":"Bernardsville","zipcode":"07924","geo_score":0.902,"%school religious exemptions":7.14,"school_name":"Robin's Nest Nursery School","total reported students in school":14,"id":"a6etfzpze4fu","geo_precision":"range"},"type":"Feature","geometry":{"type":"Point","coordinates":[-74.591528,40.708274]}},{"properties":{"mailing_address":"51 Brookside Ave.","city":"Cresskill","zipcode":"07626","geo_score":0.902,"%school religious exemptions":4.55,"school_name":"Cresskill Cooperative Preschool","total reported students in school":44,"id":"a6etfzepvyd6","geo_precision":"range"},"type":"Feature","geometry":{"type":"Point","coordinates":[-73.9682,40.943307]}},{"properties":{"mailing_address":"2045 Columbus Road","city":"Burlington","zipcode":"08016","geo_score":0.814,"%school religious exemptions":4.05,"school_name":"Life Center Academy","total reported students in school":74,"id":"a6etfzqf1vzl","geo_precision":"range"},"type":"Feature","geometry":{"type":"Point","coordinates":[-74.805179,40.080207]}},{"properties":{"mailing_address":"37 Newton-Sparta Rd","city":"Newton","zipcode":"07860","geo_score":0.567,"%school religious exemptions":5.71,"school_name":"Redeemer Lutheran Preschool","total reported students in school":70,"id":"a6etfze7pmtj","geo_precision":"street"},"type":"Feature","geometry":{"type":"Point","coordinates":[-74.731839,41.042667]}},{"properties":{"mailing_address":"PO Box 504","city":"Blairstown","zipcode":"07825","geo_score":0.393,"%school religious exemptions":16.67,"school_name":"Children's Center Preschool","total reported students in school":42,"id":"a6etfzfxwel3","geo_precision":"street"},"type":"Feature","geometry":{"type":"Point","coordinates":[-74.675682,40.883348]}},{"properties":{"mailing_address":"148 North Broadway","city":"South Amboy","zipcode":"08879","geo_score":0.767,"%school religious exemptions":3.13,"school_name":"The Children's Center For Learning of South Amboy","total reported students in school":32,"id":"a6etfzdd9xj7","geo_precision":"range"},"type":"Feature","geometry":{"type":"Point","coordinates":[-74.281384,40.485052]}},{"properties":{"mailing_address":"1062 Cherry Hill Rd","city":"Princeton","zipcode":"08540","geo_score":0.868,"%school religious exemptions":44.71,"school_name":"Waldorf School of Princeton","total reported students in school":85,"id":"a6etfzl1pmtz","geo_precision":"range"},"type":"Feature","geometry":{"type":"Point","coordinates":[-74.682538,40.402148]}},{"properties":{"mailing_address":"409 King George Road","city":"Basking Ridge","zipcode":"07920","geo_score":0.829,"%school religious exemptions":3.33,"school_name":"The Blue Kangaroo Day School","total reported students in school":90,"id":"a6etfzjuf3jc","geo_precision":"range"},"type":"Feature","geometry":{"type":"Point","coordinates":[-74.527106,40.653757]}},{"properties":{"mailing_address":"Laura Herbert Drive","city":"Point Pleasant Borough","zipcode":"08742","geo_score":0.743,"%school religious exemptions":4.21,"school_name":"Memorial Middle School","total reported students in school":285,"id":"a6etfzjbr1hs","geo_precision":"street"},"type":"Feature","geometry":{"type":"Point","coordinates":[-74.071704,40.079525]}},{"properties":{"mailing_address":"29 Second Ave","city":"Raritan","zipcode":"08869","geo_score":0.805,"%school religious exemptions":3.77,"school_name":"St. Ann School","total reported students in school":53,"id":"a6etfzeifpbx","geo_precision":"range"},"type":"Feature","geometry":{"type":"Point","coordinates":[-74.635826,40.569044]}},{"properties":{"mailing_address":"51 Unionville Avenue","city":"Sussex","zipcode":"07461","geo_score":0.805,"%school religious exemptions":7.55,"school_name":"Sussex Christian School","total reported students in school":53,"id":"a6etfzs0914m","geo_precision":"range"},"type":"Feature","geometry":{"type":"Point","coordinates":[-74.603472,41.212776]}},{"properties":{"mailing_address":"238 Farview Avenue","city":"Paramus","zipcode":"07652","geo_score":0.876,"%school religious exemptions":27.27,"school_name":"Educational Partnership for Instructing Children","total reported students in school":11,"id":"a6etfzjbeqbd","geo_precision":"range"},"type":"Feature","geometry":{"type":"Point","coordinates":[-74.062941,40.935538]}},{"properties":{"mailing_address":"801 Featherbed Lane","city":"Clark","zipcode":"07066","geo_score":0.902,"%school religious exemptions":3.39,"school_name":"Featherbed Lane School","total reported students in school":177,"id":"a6etfzne3uax","geo_precision":"range"},"type":"Feature","geometry":{"type":"Point","coordinates":[-74.322998,40.624151]}},{"properties":{"mailing_address":"721 Westfield Road","city":"Scotch Plains","zipcode":"07076","geo_score":0.902,"%school religious exemptions":4.35,"school_name":"H.B. Brunner Elementary School","total reported students in school":138,"id":"a6etfzjq7vh4","geo_precision":"range"},"type":"Feature","geometry":{"type":"Point","coordinates":[-74.381941,40.650518]}},{"properties":{"mailing_address":"23 So. Prospect St.","city":"Verona","zipcode":"07044","geo_score":0.506,"%school religious exemptions":7.69,"school_name":"Community Montessori Academy","total reported students in school":65,"id":"a6etfzry0yf1","geo_precision":"street"},"type":"Feature","geometry":{"type":"Point","coordinates":[-74.249569,40.831896]}},{"properties":{"mailing_address":"514 Mount laurel Road","city":"Mount Laurel","zipcode":"08054","geo_score":0.819,"%school religious exemptions":9.52,"school_name":"TE Harrington Middle School","total reported students in school":21,"id":"a6etfzh2apbt","geo_precision":"range"},"type":"Feature","geometry":{"type":"Point","coordinates":[-74.890887,39.933604]}},{"properties":{"mailing_address":"39 Colson Lane","city":"Mullica Hill","zipcode":"08062","geo_score":0.831,"%school religious exemptions":3.74,"school_name":"All Children Smile Preschool Inc.","total reported students in school":107,"id":"a6etfzs5gk47","geo_precision":"range"},"type":"Feature","geometry":{"type":"Point","coordinates":[-75.222417,39.747785]}},{"properties":{"mailing_address":"30 Mc Clelland Avenue","city":"Wayne","zipcode":"07470","geo_score":0.816,"%school religious exemptions":5.0,"school_name":"The Learning Center - Ryerson","total reported students in school":20,"id":"a6etfzofvvk8","geo_precision":"range"},"type":"Feature","geometry":{"type":"Point","coordinates":[-74.270738,40.930217]}},{"properties":{"mailing_address":"28 Conrow Road","city":"Delran","zipcode":"08075","geo_score":0.82,"%school religious exemptions":3.19,"school_name":"Montessori Academy","total reported students in school":94,"id":"a6etfzi8lfzc","geo_precision":"range"},"type":"Feature","geometry":{"type":"Point","coordinates":[-74.949293,40.002782]}},{"properties":{"mailing_address":"2414 Old Mill Rd","city":"Spring Lake Heights","zipcode":"07762","geo_score":0.902,"%school religious exemptions":10.94,"school_name":"Wall Methodist Child Care","total reported students in school":64,"id":"a6etfzcdnzt6","geo_precision":"range"},"type":"Feature","geometry":{"type":"Point","coordinates":[-74.050951,40.159232]}},{"properties":{"mailing_address":"345 South Main Street","city":"Wharton, NJ","zipcode":"07885","geo_score":0.827,"%school religious exemptions":64.29,"school_name":"Celebrate the Children School","total reported students in school":14,"id":"a6etfzpqbbow","geo_precision":"range"},"type":"Feature","geometry":{"type":"Point","coordinates":[-74.579282,40.88766]}},{"properties":{"mailing_address":"250 Colonial Court","city":"Teaneck","zipcode":"07666","geo_score":0.827,"%school religious exemptions":4.17,"school_name":"Teaneck Recreation Department","total reported students in school":48,"id":"a6etfzlg4rzw","geo_precision":"range"},"type":"Feature","geometry":{"type":"Point","coordinates":[-74.012591,40.894719]}},{"properties":{"mailing_address":"1010 WELDON ROAD","city":"OAK RIDGE","zipcode":"07438","geo_score":0.817,"%school religious exemptions":4.88,"school_name":"JEFFERSON TWP. H.S.. TEENS AND TOTS","total reported students in school":41,"id":"a6etfzq0z8lx","geo_precision":"range"},"type":"Feature","geometry":{"type":"Point","coordinates":[-74.54804,41.019382]}},{"properties":{"mailing_address":"PO Box 57","city":"Colts Neck","zipcode":"07722","geo_score":0.408,"%school religious exemptions":11.9,"school_name":"Colts Neck Reformed Church Nursery School","total reported students in school":42,"id":"a6etfzjivl3s","geo_precision":"street"},"type":"Feature","geometry":{"type":"Point","coordinates":[-74.311259,40.342276]}},{"properties":{"mailing_address":"PO Box 48","city":"Chester","zipcode":"07930","geo_score":0.286,"%school religious exemptions":11.43,"school_name":"Little Lambs Christian Nursery School","total reported students in school":35,"id":"a6etfzq5m9i8","geo_precision":"street"},"type":"Feature","geometry":{"type":"Point","coordinates":[-74.621939,40.758162]}},{"properties":{"mailing_address":"1010 WELDON ROAD","city":"OAK RIDGE","zipcode":"07438","geo_score":0.817,"%school religious exemptions":14.29,"school_name":"JEFFERSON TOWNSHIP HIGH SCHOOL","total reported students in school":21,"id":"a6etfzq0en5t","geo_precision":"range"},"type":"Feature","geometry":{"type":"Point","coordinates":[-74.54804,41.019382]}},{"properties":{"mailing_address":"285 River Ave","city":"Lakewood","zipcode":"08701","geo_score":0.744,"%school religious exemptions":3.77,"school_name":"Yesiva Shagas Aryeh","total reported students in school":53,"id":"a6etfzpznck8","geo_precision":"range"},"type":"Feature","geometry":{"type":"Point","coordinates":[-74.216349,40.079866]}},{"properties":{"mailing_address":"98 Decker Road","city":"Butler","zipcode":"07405","geo_score":0.827,"%school religious exemptions":3.13,"school_name":"Aaron Decker Elementary School","total reported students in school":96,"id":"a6etfzju4kxl","geo_precision":"range"},"type":"Feature","geometry":{"type":"Point","coordinates":[-74.356286,41.004653]}},{"properties":{"mailing_address":"264 West Northfield Road","city":"Livingston","zipcode":"07039","geo_score":0.805,"%school religious exemptions":5.56,"school_name":"The Early Childhood Center at Temple Emanu-El","total reported students in school":72,"id":"a6etfzdroz59","geo_precision":"range"},"type":"Feature","geometry":{"type":"Point","coordinates":[-74.334809,40.787718]}},{"properties":{"mailing_address":"44 Stony Brook Road","city":"Rockaway","zipcode":"07866","geo_score":0.817,"%school religious exemptions":6.15,"school_name":"Stony Brook Elementary School","total reported students in school":65,"id":"a6etfzdg10ge","geo_precision":"range"},"type":"Feature","geometry":{"type":"Point","coordinates":[-74.518541,40.914555]}},{"properties":{"mailing_address":"500 Rte.17 South suite 307","city":"Hasbrouck Heights, NJ","zipcode":"07604","geo_score":0.401,"%school religious exemptions":5.26,"school_name":"lodi/moonachie/garfield campus","total reported students in school":19,"id":"a6etfziob2br","geo_precision":"street"},"type":"Feature","geometry":{"type":"Point","coordinates":[-74.070309,40.946324]}},{"properties":{"mailing_address":"8 Dogwood Drive","city":"Chester","zipcode":"07930","geo_score":0.819,"%school religious exemptions":4.88,"school_name":"Dogwood School of Chester","total reported students in school":82,"id":"a6etfzlzp4sf","geo_precision":"range"},"type":"Feature","geometry":{"type":"Point","coordinates":[-74.636495,40.805643]}},{"properties":{"mailing_address":"16 Milton Avenue","city":"Chatham","zipcode":"07928","geo_score":0.902,"%school religious exemptions":3.26,"school_name":"Milton Avenue School","total reported students in school":215,"id":"a6etfzikiq7q","geo_precision":"range"},"type":"Feature","geometry":{"type":"Point","coordinates":[-74.380289,40.7471]}},{"properties":{"mailing_address":"1810 Burnt Mills Road","city":"Bedminster","zipcode":"07921","geo_score":0.844,"%school religious exemptions":7.14,"school_name":"Somerset Hills Learning Institute","total reported students in school":14,"id":"a6etfzqqzagb","geo_precision":"range"},"type":"Feature","geometry":{"type":"Point","coordinates":[-74.655644,40.642857]}},{"properties":{"mailing_address":"143 Brooklyn Road","city":"Stanhope","zipcode":"07874","geo_score":0.687,"%school religious exemptions":3.67,"school_name":"Our Savior Nursery School","total reported students in school":109,"id":"a6etfzrra6e8","geo_precision":"range"},"type":"Feature","geometry":{"type":"Point","coordinates":[-74.66973,40.917003]}},{"properties":{"mailing_address":"88 Erskine Road","city":"Ringwood","zipcode":"07456","geo_score":0.805,"%school religious exemptions":4.08,"school_name":"Robert Erskine School","total reported students in school":49,"id":"a6etfzo41cjp","geo_precision":"range"},"type":"Feature","geometry":{"type":"Point","coordinates":[-74.26446,41.092307]}},{"properties":{"mailing_address":"5627 Lake Road","city":"Newfield","zipcode":"08344","geo_score":0.814,"%school religious exemptions":5.26,"school_name":"Lake School","total reported students in school":38,"id":"a6etfzje2fqj","geo_precision":"range"},"type":"Feature","geometry":{"type":"Point","coordinates":[-75.003382,39.57037]}},{"properties":{"mailing_address":"324 34th St.","city":"Union City","zipcode":"07087","geo_score":0.707,"%school religious exemptions":3.85,"school_name":"Learning Institute of Union City","total reported students in school":78,"id":"a6etfziv13x2","geo_precision":"range"},"type":"Feature","geometry":{"type":"Point","coordinates":[-74.026477,40.77196]}},{"properties":{"mailing_address":"302 East McFarlan St.","city":"Dover","zipcode":"07801","geo_score":0.817,"%school religious exemptions":4.17,"school_name":"Dover Middle School","total reported students in school":24,"id":"a6etfzjntzp5","geo_precision":"range"},"type":"Feature","geometry":{"type":"Point","coordinates":[-74.544975,40.889883]}},{"properties":{"mailing_address":"601 Willow Grove Street","city":"Hackettstown","zipcode":"07840","geo_score":0.829,"%school religious exemptions":3.08,"school_name":"Willow Grove Elementary School","total reported students in school":65,"id":"a6etfzomnkwe","geo_precision":"range"},"type":"Feature","geometry":{"type":"Point","coordinates":[-74.815697,40.859904]}},{"properties":{"mailing_address":"2000 Route 208","city":"Hawthorne","zipcode":"07506","geo_score":0.769,"%school religious exemptions":3.16,"school_name":"Hawthorne Christian Academy","total reported students in school":95,"id":"a6etfzqez51j","geo_precision":"range"},"type":"Feature","geometry":{"type":"Point","coordinates":[-74.159947,40.97747]}},{"properties":{"mailing_address":"199 Evesboro-Medford Rd.","city":"Marlton","zipcode":"08053","geo_score":0.815,"%school religious exemptions":5.26,"school_name":"Frances DeMasi Elementary School","total reported students in school":19,"id":"a6etfznhhc1t","geo_precision":"range"},"type":"Feature","geometry":{"type":"Point","coordinates":[-74.910484,39.907229]}},{"properties":{"mailing_address":"129 Bull Run Road","city":"Pennington","zipcode":"08534","geo_score":0.902,"%school religious exemptions":6.25,"school_name":"The Graduates Learning Center","total reported students in school":32,"id":"a6etfzlgywp4","geo_precision":"range"},"type":"Feature","geometry":{"type":"Point","coordinates":[-74.768481,40.285605]}},{"properties":{"mailing_address":"356 Sicomac Avenue","city":"Wyckoff, NJ","zipcode":"07481","geo_score":0.881,"%school religious exemptions":4.29,"school_name":"Sicomac Elementary School","total reported students in school":70,"id":"a6etfzhikcxk","geo_precision":"range"},"type":"Feature","geometry":{"type":"Point","coordinates":[-74.175991,40.987259]}},{"properties":{"mailing_address":"682 PARK AVE","city":"East Orange","zipcode":"07019","geo_score":0.805,"%school religious exemptions":5.36,"school_name":"EAST ORANGE CILD DEVELOPMENT CORPORATION","total reported students in school":56,"id":"a6etfzfz8sgz","geo_precision":"range"},"type":"Feature","geometry":{"type":"Point","coordinates":[-74.031492,40.744987]}},{"properties":{"mailing_address":"19 South Main Street","city":"Stockton","zipcode":"08559","geo_score":0.827,"%school religious exemptions":5.26,"school_name":"Stockton Borough School","total reported students in school":19,"id":"a6etfzgksvue","geo_precision":"range"},"type":"Feature","geometry":{"type":"Point","coordinates":[-74.976035,40.405377]}},{"properties":{"mailing_address":"256 County Route 513","city":"Glen Gardner","zipcode":"08826","geo_score":0.749,"%school religious exemptions":4.35,"school_name":"Voorhees High School","total reported students in school":23,"id":"a6etfzisggm6","geo_precision":"range"},"type":"Feature","geometry":{"type":"Point","coordinates":[-74.886917,40.695424]}},{"properties":{"mailing_address":"1019 MacArthur Blvd","city":"Mahwah","zipcode":"07430","geo_score":0.863,"%school religious exemptions":6.67,"school_name":"Prime Time Early Learning Center","total reported students in school":15,"id":"a6etfzmej027","geo_precision":"range"},"type":"Feature","geometry":{"type":"Point","coordinates":[-74.167563,41.077596]}},{"properties":{"mailing_address":"425 Woodfern Road","city":"Hillsborough","zipcode":"08844","geo_score":0.805,"%school religious exemptions":5.71,"school_name":"Woodfern School","total reported students in school":70,"id":"a6etfzbtfv6k","geo_precision":"range"},"type":"Feature","geometry":{"type":"Point","coordinates":[-74.760896,40.499342]}},{"properties":{"mailing_address":"65 Chestnut Street","city":"Montclair","zipcode":"07042","geo_score":0.86,"%school religious exemptions":22.22,"school_name":"Montclair Cooperative School","total reported students in school":36,"id":"a6etfzmhpery","geo_precision":"range"},"type":"Feature","geometry":{"type":"Point","coordinates":[-74.209972,40.82094]}},{"properties":{"mailing_address":"41 Henry Road","city":"Hewitt","zipcode":"07421","geo_score":0.816,"%school religious exemptions":4.26,"school_name":"Upper Greenwood Lake Elementary School","total reported students in school":94,"id":"a6etfzp06cr6","geo_precision":"range"},"type":"Feature","geometry":{"type":"Point","coordinates":[-74.387239,41.183417]}},{"properties":{"mailing_address":"430 Knickerbocker Rd.","city":"Tenafly","zipcode":"07670","geo_score":0.902,"%school religious exemptions":4.65,"school_name":"Tween Tot Preschool","total reported students in school":43,"id":"a6etfzktdqk7","geo_precision":"range"},"type":"Feature","geometry":{"type":"Point","coordinates":[-73.977754,40.926907]}},{"properties":{"mailing_address":"201 W. 20th","city":"Ship Bottom","zipcode":"08008","geo_score":0.361,"%school religious exemptions":4.88,"school_name":"Long Beach Island Grade School","total reported students in school":41,"id":"a6etfzqi2pwa","geo_precision":"street"},"type":"Feature","geometry":{"type":"Point","coordinates":[-74.233252,39.576924]}},{"properties":{"mailing_address":"15 Conklin Place","city":"Hackensack","zipcode":"07601","geo_score":0.902,"%school religious exemptions":7.84,"school_name":"Hackensack Christian School","total reported students in school":51,"id":"a6etfzicedoy","geo_precision":"range"},"type":"Feature","geometry":{"type":"Point","coordinates":[-74.042087,40.892232]}},{"properties":{"mailing_address":"29 Whitehall Road","city":"Towaco","zipcode":"07082","geo_score":0.902,"%school religious exemptions":3.41,"school_name":"Montville United Methodist Nursery School","total reported students in school":88,"id":"a6etfzs2zngk","geo_precision":"range"},"type":"Feature","geometry":{"type":"Point","coordinates":[-74.343668,40.922233]}},{"properties":{"mailing_address":"36 Birch Avenue","city":"Little Silver","zipcode":"07739","geo_score":0.874,"%school religious exemptions":14.29,"school_name":"Vincent S. Mastro Montessori Academy","total reported students in school":28,"id":"a6etfziyr34z","geo_precision":"range"},"type":"Feature","geometry":{"type":"Point","coordinates":[-74.044755,40.329553]}},{"properties":{"mailing_address":"208 South Mountain Ave.","city":"Montclair","zipcode":"07042","geo_score":0.86,"%school religious exemptions":6.67,"school_name":"YCS Sawtelle Learning Center","total reported students in school":15,"id":"a6etfzehomxo","geo_precision":"range"},"type":"Feature","geometry":{"type":"Point","coordinates":[-74.231526,40.805676]}},{"properties":{"mailing_address":"316 Ridgedale Avenue","city":"East Hanover","zipcode":"07936","geo_score":0.831,"%school religious exemptions":3.23,"school_name":"St. Rose of Lima Academy","total reported students in school":31,"id":"a6etfzqa7vti","geo_precision":"range"},"type":"Feature","geometry":{"type":"Point","coordinates":[-74.366646,40.821104]}},{"properties":{"mailing_address":"208 South Mountain Ave.","city":"Montclair","zipcode":"07042","geo_score":0.86,"%school religious exemptions":7.69,"school_name":"YCS Sawtelle Learning Center Annex- Franklin Schoo","total reported students in school":13,"id":"a6etfzh2trl9","geo_precision":"range"},"type":"Feature","geometry":{"type":"Point","coordinates":[-74.231526,40.805676]}},{"properties":{"mailing_address":"209 Harmony Rd","city":"Middletown","zipcode":"07748","geo_score":0.815,"%school religious exemptions":8.51,"school_name":"The Goddard School","total reported students in school":47,"id":"a6etfziply96","geo_precision":"range"},"type":"Feature","geometry":{"type":"Point","coordinates":[-74.124263,40.410029]}},{"properties":{"mailing_address":"2434 Route 563","city":"Egg Harbor","zipcode":"08215","geo_score":0.672,"%school religious exemptions":4.0,"school_name":"Green Bank School","total reported students in school":25,"id":"a6etfzqvicf9","geo_precision":"range"},"type":"Feature","geometry":{"type":"Point","coordinates":[-74.610381,39.560866]}},{"properties":{"mailing_address":"300 Cromwell St","city":"Phillipsburg","zipcode":"08865","geo_score":0.813,"%school religious exemptions":4.55,"school_name":"Phillipsburg Christian Academy","total reported students in school":44,"id":"a6etfzjxdwpg","geo_precision":"range"},"type":"Feature","geometry":{"type":"Point","coordinates":[-75.17145,40.701088]}},{"properties":{"mailing_address":"520 W. Main St.","city":"Rockaway","zipcode":"07866","geo_score":0.365,"%school religious exemptions":9.09,"school_name":"Morris Hills High School","total reported students in school":22,"id":"a6etfzfly68e","geo_precision":"street"},"type":"Feature","geometry":{"type":"Point","coordinates":[-74.515349,40.900901]}},{"properties":{"mailing_address":"1409 West Front Street","city":"Lincroft","zipcode":"07738","geo_score":0.902,"%school religious exemptions":10.77,"school_name":"A Child's Place School","total reported students in school":65,"id":"a6etfzhbw3c0","geo_precision":"range"},"type":"Feature","geometry":{"type":"Point","coordinates":[-74.132934,40.345826]}},{"properties":{"mailing_address":"10 St. Paul's Place","city":"Nutley","zipcode":"07110","geo_score":0.75,"%school religious exemptions":3.23,"school_name":"The Community School in Nutley","total reported students in school":93,"id":"a6etfzi3hdcq","geo_precision":"zip"},"type":"Feature","geometry":{"type":"Point","coordinates":[-74.150144,40.814822]}},{"properties":{"mailing_address":"29 Wolf Hill Avenue","city":"Oceanport","zipcode":"07757","geo_score":0.834,"%school religious exemptions":4.41,"school_name":"Wolf Hill School","total reported students in school":68,"id":"a6etfzntylvs","geo_precision":"range"},"type":"Feature","geometry":{"type":"Point","coordinates":[-74.034392,40.308037]}},{"properties":{"mailing_address":"1061 Raritan Rd.","city":"Scotch Plains","zipcode":"07076","geo_score":0.902,"%school religious exemptions":4.0,"school_name":"Willow Grove Pre-School","total reported students in school":50,"id":"a6etfzca10t8","geo_precision":"range"},"type":"Feature","geometry":{"type":"Point","coordinates":[-74.377441,40.607679]}},{"properties":{"mailing_address":"901 Route 10 East","city":"Whippany","zipcode":"07981","geo_score":0.629,"%school religious exemptions":4.65,"school_name":"Brody Childhood Center - JCC Metrowest","total reported students in school":43,"id":"a6etfzmg1rt1","geo_precision":"range"},"type":"Feature","geometry":{"type":"Point","coordinates":[-74.427831,40.827642]}},{"properties":{"mailing_address":"301 Second Avenue","city":"Haddon Heights","zipcode":"08035","geo_score":0.805,"%school religious exemptions":58.33,"school_name":"Haddon Heights High School","total reported students in school":12,"id":"a6etfzpy9dav","geo_precision":"range"},"type":"Feature","geometry":{"type":"Point","coordinates":[-75.051486,39.884132]}},{"properties":{"mailing_address":"33 St Mary's Place","city":"Denville","zipcode":"07834","geo_score":0.462,"%school religious exemptions":3.28,"school_name":"Riverview School","total reported students in school":61,"id":"a6etfzhg945s","geo_precision":"street"},"type":"Feature","geometry":{"type":"Point","coordinates":[-74.464642,40.904008]}},{"properties":{"mailing_address":"281 Route 46","city":"Great Meadows","zipcode":"07838","geo_score":0.604,"%school religious exemptions":3.51,"school_name":"Central School","total reported students in school":57,"id":"a6etfzedok8w","geo_precision":"range"},"type":"Feature","geometry":{"type":"Point","coordinates":[-74.899498,40.872862]}},{"properties":{"mailing_address":"500 West Earl Ct","city":"Toms River","zipcode":"08753","geo_score":0.679,"%school religious exemptions":3.7,"school_name":"Washington Street Elementary","total reported students in school":54,"id":"a6etfzp41pio","geo_precision":"street"},"type":"Feature","geometry":{"type":"Point","coordinates":[-74.172592,39.956005]}},{"properties":{"mailing_address":"220 Western Blvd","city":"Lanoka Harbor","zipcode":"08734","geo_score":0.562,"%school religious exemptions":3.13,"school_name":"Cedar Creek Elementary School","total reported students in school":128,"id":"a6etfzhbkvp2","geo_precision":"street"},"type":"Feature","geometry":{"type":"Point","coordinates":[-74.195596,39.870698]}},{"properties":{"mailing_address":"2688 Main Street","city":"Lawrenceville","zipcode":"08648","geo_score":0.61,"%school religious exemptions":3.23,"school_name":"Lawrenceville Presby Coop Nursery","total reported students in school":31,"id":"a6etfzk2yheb","geo_precision":"street"},"type":"Feature","geometry":{"type":"Point","coordinates":[-74.658802,40.172492]}},{"properties":{"mailing_address":"640 Green Grove Rd","city":"Neptune","zipcode":"07753","geo_score":0.823,"%school religious exemptions":6.67,"school_name":"A Little Class Pre School Neptune","total reported students in school":45,"id":"a6etfzh1ihdo","geo_precision":"range"},"type":"Feature","geometry":{"type":"Point","coordinates":[-74.067567,40.21547]}},{"properties":{"mailing_address":"Benedict Street","city":"Point Pleasant","zipcode":"08742","geo_score":0.736,"%school religious exemptions":9.24,"school_name":"Ocean Road School","total reported students in school":119,"id":"a6etfzkegm0v","geo_precision":"street"},"type":"Feature","geometry":{"type":"Point","coordinates":[-74.063291,40.082398]}},{"properties":{"mailing_address":"401 Greenbrook Road","city":"North Plainfield","zipcode":"07063","geo_score":0.87,"%school religious exemptions":7.04,"school_name":"Sundance School","total reported students in school":284,"id":"a6etfzfsogin","geo_precision":"range"},"type":"Feature","geometry":{"type":"Point","coordinates":[-74.447181,40.614397]}},{"properties":{"mailing_address":"2  Wescott  Road","city":"Marlton","zipcode":"08053","geo_score":0.815,"%school religious exemptions":3.03,"school_name":"Robert  B  Jaggard  School","total reported students in school":66,"id":"a6etfzho9059","geo_precision":"range"},"type":"Feature","geometry":{"type":"Point","coordinates":[-74.902833,39.878436]}},{"properties":{"mailing_address":"Lincoln and Fifth Avenues","city":"Avon","zipcode":"07717","geo_score":0.571,"%school religious exemptions":8.57,"school_name":"Avon Elementary School","total reported students in school":35,"id":"a6etfzq8vrme","geo_precision":"street"},"type":"Feature","geometry":{"type":"Point","coordinates":[-74.00992,40.1897]}},{"properties":{"mailing_address":"80 Embury Avenue","city":"Ocean Grove","zipcode":"07756","geo_score":0.902,"%school religious exemptions":8.77,"school_name":"Tender Care Nursery","total reported students in school":57,"id":"a6etfzgniuw1","geo_precision":"range"},"type":"Feature","geometry":{"type":"Point","coordinates":[-74.008885,40.211438]}},{"properties":{"mailing_address":"5 Municipal Drive","city":"Lumberton","zipcode":"08048","geo_score":0.902,"%school religious exemptions":3.23,"school_name":"Stepping Stones Preschool Cooperative","total reported students in school":62,"id":"a6etfzfdd8qy","geo_precision":"range"},"type":"Feature","geometry":{"type":"Point","coordinates":[-74.79891,39.963382]}},{"properties":{"mailing_address":"73 Cayuga Ave","city":"Rockaway","zipcode":"07866","geo_score":0.817,"%school religious exemptions":4.55,"school_name":"Community Nursery School Inc.","total reported students in school":22,"id":"a6etfzo2idcr","geo_precision":"range"},"type":"Feature","geometry":{"type":"Point","coordinates":[-74.525824,40.930193]}},{"properties":{"mailing_address":"100 Chestnut Street","city":"Montclair","zipcode":"07042","geo_score":0.86,"%school religious exemptions":3.03,"school_name":"Montclair High School","total reported students in school":33,"id":"a6etfznou39r","geo_precision":"range"},"type":"Feature","geometry":{"type":"Point","coordinates":[-74.213297,40.822572]}},{"properties":{"mailing_address":"270 Conestoga Drive","city":"Marlton","zipcode":"08053","geo_score":0.815,"%school religious exemptions":3.08,"school_name":"J Harold Van Zant Elementary School","total reported students in school":65,"id":"a6etfzckdna1","geo_precision":"range"},"type":"Feature","geometry":{"type":"Point","coordinates":[-74.94388,39.905628]}},{"properties":{"mailing_address":"53 Bayard Lane","city":"Princeton","zipcode":"08540","geo_score":0.868,"%school religious exemptions":3.03,"school_name":"The Lewis School of Princeton","total reported students in school":33,"id":"a6etfzpjxofq","geo_precision":"range"},"type":"Feature","geometry":{"type":"Point","coordinates":[-74.666284,40.351023]}},{"properties":{"mailing_address":"25 Schoolhouse Road","city":"Randolph","zipcode":"07950","geo_score":0.662,"%school religious exemptions":3.33,"school_name":"Center Grove School","total reported students in school":90,"id":"a6etfzckpfgw","geo_precision":"street"},"type":"Feature","geometry":{"type":"Point","coordinates":[-74.54231,40.812278]}},{"properties":{"mailing_address":"Bridge and Water Street","city":"Milford","zipcode":"08848","geo_score":0.545,"%school religious exemptions":7.04,"school_name":"Milford YMCA Preschool","total reported students in school":71,"id":"a6etfzj70kst","geo_precision":"street"},"type":"Feature","geometry":{"type":"Point","coordinates":[-75.094543,40.568801]}},{"properties":{"mailing_address":"51 Old Road","city":"Livingston","zipcode":"07039","geo_score":0.805,"%school religious exemptions":4.17,"school_name":"The Horizon School","total reported students in school":24,"id":"a6etfzby20dd","geo_precision":"range"},"type":"Feature","geometry":{"type":"Point","coordinates":[-74.345907,40.795269]}},{"properties":{"mailing_address":"1 Normal Ave.","city":"Montclair","zipcode":"07043","geo_score":0.77,"%school religious exemptions":3.23,"school_name":"Ben Samuels Children's Center Montclair State Univ","total reported students in school":186,"id":"a6etfznak5nu","geo_precision":"range"},"type":"Feature","geometry":{"type":"Point","coordinates":[-74.211964,40.857426]}},{"properties":{"mailing_address":"49 Orange Rd","city":"Montclair","zipcode":"07042","geo_score":0.86,"%school religious exemptions":3.86,"school_name":"Montclair Community Pre-K","total reported students in school":207,"id":"a6etfzi74ltf","geo_precision":"range"},"type":"Feature","geometry":{"type":"Point","coordinates":[-74.222776,40.815169]}},{"properties":{"mailing_address":"118 Millhurst Road","city":"Manalapan","zipcode":"07726","geo_score":0.694,"%school religious exemptions":6.67,"school_name":"Wemrock Brook School","total reported students in school":15,"id":"a6etfzrhetwx","geo_precision":"range"},"type":"Feature","geometry":{"type":"Point","coordinates":[-74.345074,40.279705]}},{"properties":{"mailing_address":"605 Pascack Road","city":"Twp. of Washington","zipcode":"07676","geo_score":0.0,"%school religious exemptions":4.32,"school_name":"Bergen County YJCC-Nursery School","total reported students in school":162,"id":"a6etfzpiyywa","geo_precision":"unmatched"},"type":"Feature","geometry":null},{"properties":{"mailing_address":"1577 E. 2nd street","city":"Scotch Plains","zipcode":"07076","geo_score":0.5,"%school religious exemptions":3.57,"school_name":"L'Academy Montessori","total reported students in school":28,"id":"a6etfzf752iv","geo_precision":"street"},"type":"Feature","geometry":{"type":"Point","coordinates":[-74.402422,40.642029]}},{"properties":{"mailing_address":"45 Appleton Ave.","city":"Leonardo","zipcode":"07737","geo_score":0.902,"%school religious exemptions":3.85,"school_name":"The Little Chief Learning Station","total reported students in school":104,"id":"a6etfznidrop","geo_precision":"range"},"type":"Feature","geometry":{"type":"Point","coordinates":[-74.064028,40.417473]}},{"properties":{"mailing_address":"8 Cleveland Avenue","city":"Morris Plains","zipcode":"07950","geo_score":0.821,"%school religious exemptions":7.69,"school_name":"Morris Plains Cooperative Play School","total reported students in school":130,"id":"a6etfzogkhe7","geo_precision":"range"},"type":"Feature","geometry":{"type":"Point","coordinates":[-74.490126,40.832955]}},{"properties":{"mailing_address":"Beach Avenue at Eighth","city":"Beach Haven","zipcode":"08008","geo_score":0.612,"%school religious exemptions":8.11,"school_name":"Beach Haven E.S.","total reported students in school":37,"id":"a6etfzdjhja4","geo_precision":"street"},"type":"Feature","geometry":{"type":"Point","coordinates":[-74.232635,39.57119]}},{"properties":{"mailing_address":"406 Memorial Ave","city":"Westmont","zipcode":"08108","geo_score":0.611,"%school religious exemptions":23.08,"school_name":"Haddon Township High School","total reported students in school":13,"id":"a6etfzoyccyz","geo_precision":"street"},"type":"Feature","geometry":{"type":"Point","coordinates":[-75.108272,39.940236]}},{"properties":{"mailing_address":"316 Ridgedale Avenue","city":"East Hanover","zipcode":"07936","geo_score":0.831,"%school religious exemptions":4.82,"school_name":"Saint Rose of Lima Academy","total reported students in school":83,"id":"a6etfzj6jf66","geo_precision":"range"},"type":"Feature","geometry":{"type":"Point","coordinates":[-74.366646,40.821104]}},{"properties":{"mailing_address":"8 Wright Way","city":"Oakland","zipcode":"07436","geo_score":0.831,"%school religious exemptions":21.43,"school_name":"Barnstable Academy","total reported students in school":14,"id":"a6etfzcbw453","geo_precision":"range"},"type":"Feature","geometry":{"type":"Point","coordinates":[-74.246063,41.007312]}},{"properties":{"mailing_address":"535 Walnut Street","city":"Norwood","zipcode":"07648","geo_score":0.902,"%school religious exemptions":3.57,"school_name":"Carousel Early Learning Centers","total reported students in school":196,"id":"a6etfzphkb2n","geo_precision":"range"},"type":"Feature","geometry":{"type":"Point","coordinates":[-73.951559,40.996551]}},{"properties":{"mailing_address":"130 County Road","city":"Demarest","zipcode":"07627","geo_score":0.756,"%school religious exemptions":5.71,"school_name":"County Road School","total reported students in school":70,"id":"a6etfzkdhzyi","geo_precision":"range"},"type":"Feature","geometry":{"type":"Point","coordinates":[-73.957263,40.95149]}},{"properties":{"mailing_address":"1150 Pottersville Road","city":"Gladstone","zipcode":"07934","geo_score":0.851,"%school religious exemptions":6.9,"school_name":"The Willow School","total reported students in school":58,"id":"a6etfzo95zsk","geo_precision":"range"},"type":"Feature","geometry":{"type":"Point","coordinates":[-74.679193,40.719328]}},{"properties":{"mailing_address":"1004 Laurel Oak Road","city":"Voorhees","zipcode":"08043","geo_score":0.829,"%school religious exemptions":15.38,"school_name":"Y.A.L.E. School Southeast","total reported students in school":13,"id":"a6etfzfijbp2","geo_precision":"range"},"type":"Feature","geometry":{"type":"Point","coordinates":[-74.978121,39.843894]}},{"properties":{"mailing_address":"PO Box E","city":"Blairstown","zipcode":"07825","geo_score":0.429,"%school religious exemptions":3.56,"school_name":"Blairstown Elementary School","total reported students in school":281,"id":"a6etfzqhov6x","geo_precision":"street"},"type":"Feature","geometry":{"type":"Point","coordinates":[-74.675682,40.883348]}},{"properties":{"mailing_address":"99 Main Street","city":"Succasunna","zipcode":"07876","geo_score":0.902,"%school religious exemptions":5.26,"school_name":"Succasunna Nursery School","total reported students in school":19,"id":"a6etfzf8mfos","geo_precision":"range"},"type":"Feature","geometry":{"type":"Point","coordinates":[-74.638363,40.868368]}},{"properties":{"mailing_address":"1012 Madison Avenue","city":"Rahway","zipcode":"07065","geo_score":0.902,"%school religious exemptions":7.69,"school_name":"Rahway High School","total reported students in school":13,"id":"a6etfzels2pu","geo_precision":"range"},"type":"Feature","geometry":{"type":"Point","coordinates":[-74.293271,40.609693]}},{"properties":{"mailing_address":"372 Witherspoon Street","city":"Princeton","zipcode":"08540","geo_score":0.577,"%school religious exemptions":5.88,"school_name":"Community Park Elementary","total reported students in school":85,"id":"a6etfzgy6b9e","geo_precision":"street"},"type":"Feature","geometry":{"type":"Point","coordinates":[-74.663061,40.357337]}},{"properties":{"mailing_address":"425 Kinhs Highway East PO Box 2o","city":"Haddonfield","zipcode":"08033","geo_score":0.62,"%school religious exemptions":3.7,"school_name":"Bancroft School Haddonfield","total reported students in school":27,"id":"a6etfzkcrajp","geo_precision":"range"},"type":"Feature","geometry":{"type":"Point","coordinates":[-75.054417,39.899893]}},{"properties":{"mailing_address":"176 north FULLERTON AVENUE","city":"montclair","zipcode":"07042","geo_score":0.86,"%school religious exemptions":4.71,"school_name":"rand ELEMENTARY SCHOOL","total reported students in school":85,"id":"a6etfzre3li7","geo_precision":"range"},"type":"Feature","geometry":{"type":"Point","coordinates":[-74.211633,40.82126]}},{"properties":{"mailing_address":"43 South Jefferson Road","city":"Whippany","zipcode":"07981","geo_score":0.805,"%school religious exemptions":21.88,"school_name":"Abundant Life Christian School","total reported students in school":32,"id":"a6etfzitar2s","geo_precision":"range"},"type":"Feature","geometry":{"type":"Point","coordinates":[-74.436277,40.825019]}},{"properties":{"mailing_address":"400 Union Ave","city":"Bridgewater","zipcode":"08807","geo_score":0.902,"%school religious exemptions":4.0,"school_name":"Adamsville","total reported students in school":150,"id":"a6etfzkov7r5","geo_precision":"range"},"type":"Feature","geometry":{"type":"Point","coordinates":[-74.581626,40.570062]}},{"properties":{"mailing_address":"1001 River Avenue","city":"Point Pleasant","zipcode":"08742","geo_score":0.747,"%school religious exemptions":8.18,"school_name":"Point Pleasant Recreation Center Preschool","total reported students in school":110,"id":"a6etfzi1dk19","geo_precision":"range"},"type":"Feature","geometry":{"type":"Point","coordinates":[-74.075796,40.078116]}},{"properties":{"mailing_address":"3048 Valley Road","city":"Basking Ridge","zipcode":"07980","geo_score":0.642,"%school religious exemptions":6.25,"school_name":"Zimmer Preschool","total reported students in school":64,"id":"a6etfzcgkfcq","geo_precision":"street"},"type":"Feature","geometry":{"type":"Point","coordinates":[-74.504531,40.667024]}},{"properties":{"mailing_address":"12 Hilltop Road","city":"Mendham","zipcode":"07945","geo_score":0.805,"%school religious exemptions":3.45,"school_name":"Hilltop School","total reported students in school":58,"id":"a6etfzhbtll2","geo_precision":"range"},"type":"Feature","geometry":{"type":"Point","coordinates":[-74.599426,40.773493]}},{"properties":{"mailing_address":"300 Cold Soil Road","city":"Princeton","zipcode":"08540","geo_score":0.868,"%school religious exemptions":10.0,"school_name":"Princeton Child Development Institute","total reported students in school":10,"id":"a6etfzfmo8qb","geo_precision":"range"},"type":"Feature","geometry":{"type":"Point","coordinates":[-74.733362,40.330443]}},{"properties":{"mailing_address":"120 Lake Drive East","city":"Wayne","zipcode":"07470","geo_score":0.816,"%school religious exemptions":5.95,"school_name":"Packanack Cooperative Nursery School","total reported students in school":84,"id":"a6etfzbtb9nk","geo_precision":"range"},"type":"Feature","geometry":{"type":"Point","coordinates":[-74.252053,40.942086]}},{"properties":{"mailing_address":"730 Barlow Avenue","city":"West Deptford","zipcode":"08096","geo_score":0.824,"%school religious exemptions":10.34,"school_name":"Children's Montessori Schoolhouse","total reported students in school":29,"id":"a6etfzmkb328","geo_precision":"range"},"type":"Feature","geometry":{"type":"Point","coordinates":[-75.15509,39.850327]}},{"properties":{"mailing_address":"226 sussex ave","city":"morristown","zipcode":"07962","geo_score":0.707,"%school religious exemptions":35.29,"school_name":"cheder lubavitch","total reported students in school":51,"id":"a6etfzi3jyxn","geo_precision":"street"},"type":"Feature","geometry":{"type":"Point","coordinates":[-74.499097,40.807892]}},{"properties":{"mailing_address":"20 Stone Cliff Terrace","city":"Oak Ridge","zipcode":"07438","geo_score":0.513,"%school religious exemptions":4.82,"school_name":"Alpine Montessori","total reported students in school":83,"id":"a6etfzk78n40","geo_precision":"street"},"type":"Feature","geometry":{"type":"Point","coordinates":[-74.529061,40.994653]}},{"properties":{"mailing_address":"303 Union Avenue","city":"Middlesex","zipcode":"08846","geo_score":0.902,"%school religious exemptions":20.0,"school_name":"Little Miracles Child Care &amp; Educational Center","total reported students in school":15,"id":"a6etfzifi4j6","geo_precision":"range"},"type":"Feature","geometry":{"type":"Point","coordinates":[-74.517288,40.568247]}},{"properties":{"mailing_address":"316 Elizabeth Avenue","city":"Somerset","zipcode":"08873","geo_score":0.815,"%school religious exemptions":7.69,"school_name":"Little Miracles Child Care &amp; Educational Center","total reported students in school":26,"id":"a6etfzklef3m","geo_precision":"range"},"type":"Feature","geometry":{"type":"Point","coordinates":[-74.532197,40.550173]}},{"properties":{"mailing_address":"902 Harrison Street","city":"Frenchtown","zipcode":"08825","geo_score":0.844,"%school religious exemptions":3.51,"school_name":"Edith Ort Thomas","total reported students in school":57,"id":"a6etfzh4wsgc","geo_precision":"range"},"type":"Feature","geometry":{"type":"Point","coordinates":[-75.062725,40.534043]}},{"properties":{"mailing_address":"160 Avenue of the Commons","city":"Shrewsbury","zipcode":"07702","geo_score":0.585,"%school religious exemptions":3.97,"school_name":"Creative Learning Center","total reported students in school":126,"id":"a6etfzenajf9","geo_precision":"zip"},"type":"Feature","geometry":{"type":"Point","coordinates":[-74.107943,40.325361]}},{"properties":{"mailing_address":"714 Herbertsville Road","city":"Brick","zipcode":"08724","geo_score":0.902,"%school religious exemptions":7.04,"school_name":"St. Paul's Christian School","total reported students in school":71,"id":"a6etfzms64u2","geo_precision":"range"},"type":"Feature","geometry":{"type":"Point","coordinates":[-74.115298,40.117802]}},{"properties":{"mailing_address":"41 Oak Street","city":"Clifton","zipcode":"07014","geo_score":0.827,"%school religious exemptions":4.88,"school_name":"School 8","total reported students in school":41,"id":"a6etfzq78kvi","geo_precision":"range"},"type":"Feature","geometry":{"type":"Point","coordinates":[-74.131923,40.83011]}},{"properties":{"mailing_address":"300 Leonardville Rd","city":"Belford","zipcode":"07718","geo_score":0.902,"%school religious exemptions":3.48,"school_name":"Bayview Elementary School","total reported students in school":115,"id":"a6etfzfa0hc9","geo_precision":"range"},"type":"Feature","geometry":{"type":"Point","coordinates":[-74.085304,40.414535]}},{"properties":{"mailing_address":"26 Nichol Avenue, Davison Hall","city":"New Brunswick","zipcode":"08901","geo_score":0.738,"%school religious exemptions":12.5,"school_name":"Nutritional Sciences Preschool","total reported students in school":32,"id":"a6etfznobmqy","geo_precision":"street"},"type":"Feature","geometry":{"type":"Point","coordinates":[-74.439857,40.48251]}},{"properties":{"mailing_address":"150 Knickerbocker Road","city":"Demarest","zipcode":"07627","geo_score":0.902,"%school religious exemptions":5.0,"school_name":"Northern Valley Regional High School at Demarest","total reported students in school":40,"id":"a6etfzbtd8ns","geo_precision":"range"},"type":"Feature","geometry":{"type":"Point","coordinates":[-73.974424,40.96398]}},{"properties":{"mailing_address":"495 Adelphia Rd","city":"Freehold","zipcode":"07728","geo_score":0.813,"%school religious exemptions":4.0,"school_name":"Adelphia School","total reported students in school":50,"id":"a6etfzpwhznv","geo_precision":"range"},"type":"Feature","geometry":{"type":"Point","coordinates":[-74.218764,40.208189]}},{"properties":{"mailing_address":"119 Virginia Ave.","city":"Manasquan","zipcode":"08736","geo_score":0.872,"%school religious exemptions":7.27,"school_name":"St. Denis School","total reported students in school":55,"id":"a6etfzc3cn5r","geo_precision":"range"},"type":"Feature","geometry":{"type":"Point","coordinates":[-74.050777,40.11916]}},{"properties":{"mailing_address":"601 Park Ave.","city":"Hoboken","zipcode":"07030","geo_score":0.902,"%school religious exemptions":3.7,"school_name":"The Hudson School","total reported students in school":27,"id":"a6etfzeqaqk5","geo_precision":"range"},"type":"Feature","geometry":{"type":"Point","coordinates":[-74.031737,40.743925]}},{"properties":{"mailing_address":"14 Luppatatong Avenue","city":"Keyport","zipcode":"07735","geo_score":0.819,"%school religious exemptions":5.13,"school_name":"Miles of Smiles Daycare/Preschool Center","total reported students in school":39,"id":"a6etfzcn9top","geo_precision":"range"},"type":"Feature","geometry":{"type":"Point","coordinates":[-74.208062,40.433279]}},{"properties":{"mailing_address":"631 Salem-Fort Elfsborg Rd","city":"Salem","zipcode":"08079","geo_score":0.817,"%school religious exemptions":11.54,"school_name":"Elsinboro Township School","total reported students in school":26,"id":"a6etfznnft3r","geo_precision":"range"},"type":"Feature","geometry":{"type":"Point","coordinates":[-75.520247,39.54949]}},{"properties":{"mailing_address":"100 Pinelynn Road","city":"Glen Rock","zipcode":"07452","geo_score":0.822,"%school religious exemptions":3.51,"school_name":"Clara E. Coleman E,S,","total reported students in school":57,"id":"a6etfzcv83zk","geo_precision":"range"},"type":"Feature","geometry":{"type":"Point","coordinates":[-74.114812,40.955908]}},{"properties":{"mailing_address":"104 boonton ave .","city":"kinnelon.","zipcode":"07405","geo_score":0.816,"%school religious exemptions":7.69,"school_name":"the learning tree.day care center.","total reported students in school":26,"id":"a6etfzfsy14q","geo_precision":"range"},"type":"Feature","geometry":{"type":"Point","coordinates":[-74.341848,40.998014]}},{"properties":{"mailing_address":"13 Ramah Road","city":"Bridgeton","zipcode":"08302","geo_score":0.816,"%school religious exemptions":9.09,"school_name":"Salem County Special Services School District","total reported students in school":11,"id":"a6etfzrfrj4j","geo_precision":"range"},"type":"Feature","geometry":{"type":"Point","coordinates":[-75.219259,39.38088]}},{"properties":{"mailing_address":"1 Summerfield Lane","city":"Neptune","zipcode":"07753","geo_score":0.778,"%school religious exemptions":3.31,"school_name":"Summerfield School","total reported students in school":121,"id":"a6etfzgvwjaw","geo_precision":"range"},"type":"Feature","geometry":{"type":"Point","coordinates":[-74.068097,40.214735]}},{"properties":{"mailing_address":"250 Schubert Avenue","city":"Runnemede","zipcode":"08078","geo_score":0.902,"%school religious exemptions":3.57,"school_name":"Triton Regional High School","total reported students in school":28,"id":"a6etfzeihyiz","geo_precision":"range"},"type":"Feature","geometry":{"type":"Point","coordinates":[-75.064229,39.848472]}},{"properties":{"mailing_address":"36 Maple Road","city":"West Milford","zipcode":"07480","geo_score":0.902,"%school religious exemptions":7.69,"school_name":"New Beginnings Annex","total reported students in school":13,"id":"a6etfzd7ns8f","geo_precision":"range"},"type":"Feature","geometry":{"type":"Point","coordinates":[-74.391193,41.063557]}},{"properties":{"mailing_address":"883 Highway 34","city":"Matawan","zipcode":"07747","geo_score":0.59,"%school religious exemptions":3.13,"school_name":"Presbyterian Nursery School","total reported students in school":96,"id":"a6etfzg3jk2g","geo_precision":"range"},"type":"Feature","geometry":{"type":"Point","coordinates":[-74.237738,40.410134]}},{"properties":{"mailing_address":"88 Franklin Avenue","city":"West Orange","zipcode":"07052","geo_score":0.805,"%school religious exemptions":7.96,"school_name":"Playhouse, Inc.","total reported students in school":113,"id":"a6etfzjohcsy","geo_precision":"range"},"type":"Feature","geometry":{"type":"Point","coordinates":[-74.227952,40.791742]}},{"properties":{"mailing_address":"707 Ocean Road","city":"Point Pleasant","zipcode":"08742","geo_score":0.82,"%school religious exemptions":6.38,"school_name":"Neighborhood Preschool","total reported students in school":47,"id":"a6etfzlod4g5","geo_precision":"range"},"type":"Feature","geometry":{"type":"Point","coordinates":[-74.054155,40.08198]}},{"properties":{"mailing_address":"259 Avenue E","city":"Bayonne","zipcode":"07002","geo_score":0.697,"%school religious exemptions":3.13,"school_name":"Bayonne Family Community Center","total reported students in school":32,"id":"a6etfzfnczqy","geo_precision":"range"},"type":"Feature","geometry":{"type":"Point","coordinates":[-74.116325,40.662385]}},{"properties":{"mailing_address":"P O Box 294","city":"Fair Haven","zipcode":"07704","geo_score":0.393,"%school religious exemptions":6.48,"school_name":"Meadow Flower Nursery School","total reported students in school":108,"id":"a6etfzfjzk07","geo_precision":"street"},"type":"Feature","geometry":{"type":"Point","coordinates":[-74.311259,40.342276]}},{"properties":{"mailing_address":"300 Benjamin Ave.","city":"Iselin","zipcode":"08830","geo_score":0.819,"%school religious exemptions":3.13,"school_name":"Robert Mascenik School","total reported students in school":32,"id":"a6etfzjldc4c","geo_precision":"range"},"type":"Feature","geometry":{"type":"Point","coordinates":[-74.315148,40.576457]}},{"properties":{"mailing_address":"145 Pergola Ave","city":"Monroe twp","zipcode":"08831","geo_score":0.694,"%school religious exemptions":15.38,"school_name":"Academy Learning Center","total reported students in school":26,"id":"a6etfzc8tipl","geo_precision":"range"},"type":"Feature","geometry":{"type":"Point","coordinates":[-74.41608,40.352401]}},{"properties":{"mailing_address":"125 Ridgedale Ave.","city":"Cedar Knolls","zipcode":"07927","geo_score":0.902,"%school religious exemptions":16.67,"school_name":"Allegro School","total reported students in school":12,"id":"a6etfzoykijq","geo_precision":"range"},"type":"Feature","geometry":{"type":"Point","coordinates":[-74.450771,40.819153]}},{"properties":{"mailing_address":"10-00 Hopper Avenue","city":"Fair Lawn","zipcode":"07410","geo_score":0.732,"%school religious exemptions":8.0,"school_name":"John A. Forrest Elementary School","total reported students in school":50,"id":"a6etfzf8fden","geo_precision":"range"},"type":"Feature","geometry":{"type":"Point","coordinates":[-74.127477,40.935225]}},{"properties":{"mailing_address":"p.o. box 282","city":"vernon","zipcode":"07462","geo_score":0.214,"%school religious exemptions":4.29,"school_name":"The Children's School","total reported students in school":70,"id":"a6etfzqzc6nk","geo_precision":"street"},"type":"Feature","geometry":{"type":"Point","coordinates":[-74.139454,40.925874]}},{"properties":{"mailing_address":"30 Seney Dr.","city":"Bernardsville","zipcode":"07924","geo_score":0.902,"%school religious exemptions":3.9,"school_name":"School of St. Elizabeth","total reported students in school":77,"id":"a6etfzo483f0","geo_precision":"range"},"type":"Feature","geometry":{"type":"Point","coordinates":[-74.571636,40.72436]}},{"properties":{"mailing_address":"577 Route 24","city":"Mendham","zipcode":"07945","geo_score":0.659,"%school religious exemptions":4.61,"school_name":"The Westmont Montessori School","total reported students in school":152,"id":"a6etfzmgeuoh","geo_precision":"range"},"type":"Feature","geometry":{"type":"Point","coordinates":[-74.640188,40.773872]}},{"properties":{"mailing_address":"375 Burnt Hill Road","city":"Skillman","zipcode":"08558","geo_score":0.829,"%school religious exemptions":5.88,"school_name":"Upper Middle School","total reported students in school":17,"id":"a6etfzd81oqy","geo_precision":"range"},"type":"Feature","geometry":{"type":"Point","coordinates":[-74.674209,40.428631]}},{"properties":{"mailing_address":"327 East Ridgewood Ave","city":"Paramus","zipcode":"07652","geo_score":0.708,"%school religious exemptions":5.88,"school_name":"BELA/Bergen Early Learning Alliance","total reported students in school":17,"id":"a6etfzlr5jic","geo_precision":"street"},"type":"Feature","geometry":{"type":"Point","coordinates":[-74.090696,40.972032]}},{"properties":{"mailing_address":"483 Woodlane Road Suite 7","city":"Westampton","zipcode":"08060","geo_score":0.695,"%school religious exemptions":3.08,"school_name":"Different and Wonderful Learning Center","total reported students in school":65,"id":"a6etfzitw1oo","geo_precision":"range"},"type":"Feature","geometry":{"type":"Point","coordinates":[-74.859424,40.024997]}},{"properties":{"mailing_address":"565 Nugentown Rd.","city":"Little Egg Harbor Twp.","zipcode":"08087","geo_score":0.821,"%school religious exemptions":7.14,"school_name":"Pinelands Regional High School","total reported students in school":14,"id":"a6etfzl99m0y","geo_precision":"range"},"type":"Feature","geometry":{"type":"Point","coordinates":[-74.357483,39.612058]}},{"properties":{"mailing_address":"925 17th Avenue","city":"Wall","zipcode":"07719","geo_score":0.741,"%school religious exemptions":7.32,"school_name":"West Belmar Elementary School","total reported students in school":41,"id":"a6etfziro9h9","geo_precision":"range"},"type":"Feature","geometry":{"type":"Point","coordinates":[-74.03314,40.172715]}},{"properties":{"mailing_address":"55 George Street","city":"Allendale","zipcode":"07401","geo_score":0.902,"%school religious exemptions":6.67,"school_name":"Nanny's Nest Nursery School","total reported students in school":45,"id":"a6etfznlxgvy","geo_precision":"range"},"type":"Feature","geometry":{"type":"Point","coordinates":[-74.139905,41.030258]}},{"properties":{"mailing_address":"821 Riverview Drive","city":"Brielle","zipcode":"08730","geo_score":0.902,"%school religious exemptions":8.08,"school_name":"Church in Brielle Nursery School","total reported students in school":99,"id":"a6etfzol86tk","geo_precision":"range"},"type":"Feature","geometry":{"type":"Point","coordinates":[-74.0601,40.105056]}},{"properties":{"mailing_address":"115 Summit Avenue","city":"Island Heights","zipcode":"08732","geo_score":0.902,"%school religious exemptions":3.77,"school_name":"Island Heights Grade School","total reported students in school":53,"id":"a6etfzhx1oc7","geo_precision":"range"},"type":"Feature","geometry":{"type":"Point","coordinates":[-74.148743,39.943678]}},{"properties":{"mailing_address":"1600 stuyvesant ave","city":"trenton","zipcode":"08618","geo_score":0.829,"%school religious exemptions":9.09,"school_name":"project teach-mercer","total reported students in school":22,"id":"a6etfznemqle","geo_precision":"range"},"type":"Feature","geometry":{"type":"Point","coordinates":[-74.7984,40.24565]}},{"properties":{"mailing_address":"84 Route 31","city":"Flemington","zipcode":"08822","geo_score":0.672,"%school religious exemptions":4.04,"school_name":"Hunterdon Central Regional High School","total reported students in school":99,"id":"a6etfzes2pg4","geo_precision":"range"},"type":"Feature","geometry":{"type":"Point","coordinates":[-74.852612,40.514967]}},{"properties":{"mailing_address":"39 Fardale Ave","city":"Mahwah","zipcode":"07430","geo_score":0.863,"%school religious exemptions":4.08,"school_name":"Gearge Washington E.S.","total reported students in school":49,"id":"a6etfzpf4a64","geo_precision":"range"},"type":"Feature","geometry":{"type":"Point","coordinates":[-74.177267,41.041164]}},{"properties":{"mailing_address":"210 South Stanwick Rd.","city":"Moorestown","zipcode":"08057","geo_score":0.824,"%school religious exemptions":3.23,"school_name":"South Valley School","total reported students in school":155,"id":"a6etfzcydhay","geo_precision":"range"},"type":"Feature","geometry":{"type":"Point","coordinates":[-74.929487,39.967838]}},{"properties":{"mailing_address":"125 E. Ridgewood Avenue","city":"Paramus","zipcode":"07652","geo_score":0.468,"%school religious exemptions":3.85,"school_name":"Parkway School","total reported students in school":104,"id":"a6etfzrfk0uo","geo_precision":"street"},"type":"Feature","geometry":{"type":"Point","coordinates":[-74.042814,40.952739]}},{"properties":{"mailing_address":"13 South Main St.","city":"Pennington","zipcode":"08534","geo_score":0.902,"%school religious exemptions":3.33,"school_name":"Pennington Presbyterian Nursery School","total reported students in school":120,"id":"a6etfzbxqwra","geo_precision":"range"},"type":"Feature","geometry":{"type":"Point","coordinates":[-74.790987,40.327747]}},{"properties":{"mailing_address":"16 Washington Valley Road","city":"Brookside","zipcode":"07926","geo_score":0.805,"%school religious exemptions":3.81,"school_name":"Mendham Township Middle School","total reported students in school":105,"id":"a6etfznnpe54","geo_precision":"range"},"type":"Feature","geometry":{"type":"Point","coordinates":[-74.513152,40.797027]}},{"properties":{"mailing_address":"1225 Raider Way","city":"Toms River","zipcode":"08753","geo_score":0.868,"%school religious exemptions":4.76,"school_name":"Toms River High School East","total reported students in school":21,"id":"a6etfzm1lofl","geo_precision":"range"},"type":"Feature","geometry":{"type":"Point","coordinates":[-74.143294,39.96798]}},{"properties":{"mailing_address":"65 South Street","city":"Morristown","zipcode":"07960","geo_score":0.656,"%school religious exemptions":3.53,"school_name":"Presbyterian Church Nursery School","total reported students in school":85,"id":"a6etfzr1vfes","geo_precision":"range"},"type":"Feature","geometry":{"type":"Point","coordinates":[-74.479306,40.794799]}},{"properties":{"mailing_address":"20 Yantacaw Pl.","city":"Nutley","zipcode":"07110","geo_score":0.829,"%school religious exemptions":4.72,"school_name":"Yantacaw Elementary School","total reported students in school":127,"id":"a6etfzmgvrea","geo_precision":"range"},"type":"Feature","geometry":{"type":"Point","coordinates":[-74.151043,40.824492]}},{"properties":{"mailing_address":"112 West Delaware Ave","city":"Pennington","zipcode":"08534","geo_score":0.805,"%school religious exemptions":6.9,"school_name":"The Pennington School","total reported students in school":87,"id":"a6etfzk8axxc","geo_precision":"range"},"type":"Feature","geometry":{"type":"Point","coordinates":[-74.794442,40.327675]}},{"properties":{"mailing_address":"149 Adelaide Street","city":"Belleville","zipcode":"07109","geo_score":0.902,"%school religious exemptions":3.67,"school_name":"Belleville School 5","total reported students in school":109,"id":"a6etfzs4unxl","geo_precision":"range"},"type":"Feature","geometry":{"type":"Point","coordinates":[-74.155982,40.802631]}},{"properties":{"mailing_address":"749 Colonial Road","city":"Franklin Lakes","zipcode":"07417","geo_score":0.902,"%school religious exemptions":5.66,"school_name":"Colonial Road School","total reported students in school":53,"id":"a6etfzlrh16a","geo_precision":"range"},"type":"Feature","geometry":{"type":"Point","coordinates":[-74.225528,41.014076]}},{"properties":{"mailing_address":"54 Roger Court","city":"Ringwood","zipcode":"07456","geo_score":0.768,"%school religious exemptions":3.23,"school_name":"Peter Cooper School","total reported students in school":93,"id":"a6etfzg3wb9e","geo_precision":"range"},"type":"Feature","geometry":{"type":"Point","coordinates":[-74.266496,41.066058]}},{"properties":{"mailing_address":"11025 Deal Road","city":"Ocean","zipcode":"07712","geo_score":0.634,"%school religious exemptions":3.72,"school_name":"Hillel Yeshiva","total reported students in school":242,"id":"a6etfzibu878","geo_precision":"street"},"type":"Feature","geometry":{"type":"Point","coordinates":[-74.07526,40.246849]}},{"properties":{"mailing_address":"709 Ridge Road","city":"Lyndhurst","zipcode":"07071","geo_score":0.816,"%school religious exemptions":3.07,"school_name":"Washington School","total reported students in school":163,"id":"a6etfzq1avsw","geo_precision":"range"},"type":"Feature","geometry":{"type":"Point","coordinates":[-74.12433,40.800721]}},{"properties":{"mailing_address":"20 Edgemont Road","city":"Montclair","zipcode":"07042","geo_score":0.86,"%school religious exemptions":3.7,"school_name":"Edgemont Elementary School","total reported students in school":54,"id":"a6etfzcrvnce","geo_precision":"range"},"type":"Feature","geometry":{"type":"Point","coordinates":[-74.214583,40.830207]}},{"properties":{"mailing_address":"617 Sickler Avenue","city":"Sicklerville","zipcode":"08081","geo_score":0.813,"%school religious exemptions":9.09,"school_name":"Winslow Upper Elementary School 6","total reported students in school":22,"id":"a6etfzg7jcsi","geo_precision":"range"},"type":"Feature","geometry":{"type":"Point","coordinates":[-74.980139,39.729688]}},{"properties":{"mailing_address":"151 Andover Road","city":"Sparta","zipcode":"07871","geo_score":0.831,"%school religious exemptions":3.65,"school_name":"Alpine School","total reported students in school":137,"id":"a6etfze0vxq9","geo_precision":"range"},"type":"Feature","geometry":{"type":"Point","coordinates":[-74.677239,41.026264]}},{"properties":{"mailing_address":"50 Brantwood Place","city":"Clifton","zipcode":"07013","geo_score":0.823,"%school religious exemptions":3.85,"school_name":"Little Genius Academy, LLC","total reported students in school":26,"id":"a6etfzivvjxg","geo_precision":"range"},"type":"Feature","geometry":{"type":"Point","coordinates":[-74.181688,40.856806]}},{"properties":{"mailing_address":"347 Middletown-Lincroft Rd","city":"Lincroft","zipcode":"07738","geo_score":0.902,"%school religious exemptions":6.8,"school_name":"Oak Hill Academy","total reported students in school":147,"id":"a6etfzkoztta","geo_precision":"range"},"type":"Feature","geometry":{"type":"Point","coordinates":[-74.125762,40.34429]}},{"properties":{"mailing_address":"90 Fackler Road","city":"Lawrenceville","zipcode":"08648","geo_score":0.82,"%school religious exemptions":5.26,"school_name":"Princeton Junior School","total reported students in school":38,"id":"a6etfzpitnpj","geo_precision":"range"},"type":"Feature","geometry":{"type":"Point","coordinates":[-74.70895,40.30977]}},{"properties":{"mailing_address":"207 Front St. P.O. Box 596","city":"Elmer","zipcode":"08318","geo_score":0.367,"%school religious exemptions":4.35,"school_name":"Elmer Elementary School","total reported students in school":23,"id":"a6etfzjzv2oe","geo_precision":"street"},"type":"Feature","geometry":{"type":"Point","coordinates":[-75.168976,39.595867]}},{"properties":{"mailing_address":"180 Rodney Street","city":"Glen Rock","zipcode":"07452","geo_score":0.822,"%school religious exemptions":3.24,"school_name":"Academy of Our Lady","total reported students in school":185,"id":"a6etfzdq6xix","geo_precision":"range"},"type":"Feature","geometry":{"type":"Point","coordinates":[-74.130622,40.956257]}},{"properties":{"mailing_address":"370 Walnut Avenue","city":"Cranford","zipcode":"07016","geo_score":0.82,"%school religious exemptions":4.82,"school_name":"Walnut Avenue School","total reported students in school":228,"id":"a6etfzs76l9l","geo_precision":"range"},"type":"Feature","geometry":{"type":"Point","coordinates":[-74.304538,40.645423]}},{"properties":{"mailing_address":"3301 Allenwood-Lakewood Rd.","city":"Allenwood","zipcode":"08721","geo_score":0.61,"%school religious exemptions":4.39,"school_name":"Allenwood Elementary School","total reported students in school":114,"id":"a6etfzp8dd3l","geo_precision":"street"},"type":"Feature","geometry":{"type":"Point","coordinates":[-74.122933,40.133863]}},{"properties":{"mailing_address":"4 Woodland Road","city":"Montvale","zipcode":"07645","geo_score":0.865,"%school religious exemptions":5.56,"school_name":"St. Paul's Nursery School","total reported students in school":54,"id":"a6etfzm11evv","geo_precision":"range"},"type":"Feature","geometry":{"type":"Point","coordinates":[-74.037686,41.044174]}},{"properties":{"mailing_address":"518 Sicomac Ave","city":"Wyckoff","zipcode":"07481","geo_score":0.902,"%school religious exemptions":4.92,"school_name":"Eastern Christian Middle School","total reported students in school":61,"id":"a6etfzp2saim","geo_precision":"range"},"type":"Feature","geometry":{"type":"Point","coordinates":[-74.188546,40.991749]}},{"properties":{"mailing_address":"32 Lafayette Rd.","city":"Sparta, NJ","zipcode":"07871","geo_score":0.831,"%school religious exemptions":9.09,"school_name":"Hilltop Country Day School","total reported students in school":77,"id":"a6etfzi9tbdd","geo_precision":"range"},"type":"Feature","geometry":{"type":"Point","coordinates":[-74.639573,41.03752]}},{"properties":{"mailing_address":"205 Oak Street","city":"Boonton","zipcode":"07005","geo_score":0.844,"%school religious exemptions":5.26,"school_name":"Our Lady of Mount Carmel","total reported students in school":57,"id":"a6etfznl74gq","geo_precision":"range"},"type":"Feature","geometry":{"type":"Point","coordinates":[-74.413981,40.908139]}},{"properties":{"mailing_address":"435 Nassau St","city":"Princeton","zipcode":"08540","geo_score":0.868,"%school religious exemptions":5.33,"school_name":"The Joan Levin Nursery School at The Jewish Center","total reported students in school":75,"id":"a6etfzcaoy9u","geo_precision":"range"},"type":"Feature","geometry":{"type":"Point","coordinates":[-74.640761,40.355984]}},{"properties":{"mailing_address":"15 Tower Hill Rd","city":"Mountain Lakes","zipcode":"07046","geo_score":0.827,"%school religious exemptions":5.26,"school_name":"Craig School","total reported students in school":19,"id":"a6etfzr7as5l","geo_precision":"range"},"type":"Feature","geometry":{"type":"Point","coordinates":[-74.444513,40.891094]}},{"properties":{"mailing_address":"16-50 PARMELEE AVENUE","city":"FAIR LAWN","zipcode":"07410","geo_score":0.732,"%school religious exemptions":3.85,"school_name":"WESTMORELAND  SCHOOL","total reported students in school":52,"id":"a6etfzj7kgan","geo_precision":"range"},"type":"Feature","geometry":{"type":"Point","coordinates":[-74.133766,40.942006]}},{"properties":{"mailing_address":"25 Willow Street","city":"Fair Haven","zipcode":"07704","geo_score":0.902,"%school religious exemptions":5.38,"school_name":"Viola L Sickles E.S.","total reported students in school":130,"id":"a6etfzs2sbt6","geo_precision":"range"},"type":"Feature","geometry":{"type":"Point","coordinates":[-74.03398,40.364055]}},{"properties":{"mailing_address":"244 Kingshighway West","city":"Haddonfield","zipcode":"08033","geo_score":0.559,"%school religious exemptions":6.9,"school_name":"Kingsway Learning Center- Haddonfield","total reported students in school":29,"id":"a6etfzrolwyd","geo_precision":"zip"},"type":"Feature","geometry":{"type":"Point","coordinates":[-75.040727,39.90178]}},{"properties":{"mailing_address":"164acksonville Road","city":"Pompton Plains","zipcode":"07444","geo_score":0.857,"%school religious exemptions":25.53,"school_name":"Netherlands Reformed Christian School","total reported students in school":47,"id":"a6etfzd0oeuu","geo_precision":"zip"},"type":"Feature","geometry":{"type":"Point","coordinates":[-74.402663,41.008797]}},{"properties":{"mailing_address":"PO Box 187","city":"Whitehouse","zipcode":"08888","geo_score":0.393,"%school religious exemptions":5.56,"school_name":"The Preschool of Whitehouse UM Church","total reported students in school":72,"id":"a6etfzfyw4b3","geo_precision":"street"},"type":"Feature","geometry":{"type":"Point","coordinates":[-74.461942,40.567225]}},{"properties":{"mailing_address":"2499 Spruce Ave.","city":"Egg Harbor Township","zipcode":"08234","geo_score":0.759,"%school religious exemptions":3.39,"school_name":"Davenport Primary School","total reported students in school":236,"id":"a6etfzmt95rf","geo_precision":"street"},"type":"Feature","geometry":{"type":"Point","coordinates":[-74.578631,39.425118]}},{"properties":{"mailing_address":"155 Parkway Avenue","city":"Harrington Park","zipcode":"07640","geo_score":0.693,"%school religious exemptions":18.45,"school_name":"The Valley Program@Our Lady of Victories","total reported students in school":103,"id":"a6etfzna7w9g","geo_precision":"range"},"type":"Feature","geometry":{"type":"Point","coordinates":[-73.980816,40.984809]}},{"properties":{"mailing_address":"446 Seashore Road","city":"Cape May","zipcode":"08204","geo_score":0.867,"%school religious exemptions":3.77,"school_name":"Seashore Children's Learning Center","total reported students in school":53,"id":"a6etfzs4uzhz","geo_precision":"range"},"type":"Feature","geometry":{"type":"Point","coordinates":[-74.889631,39.004956]}},{"properties":{"mailing_address":"1 Plainfield Ave","city":"Edison","zipcode":"08817","geo_score":0.902,"%school religious exemptions":6.25,"school_name":"Rabbi Jacob Joseph School","total reported students in school":16,"id":"a6etfzrda7o0","geo_precision":"range"},"type":"Feature","geometry":{"type":"Point","coordinates":[-74.398359,40.5005]}},{"properties":{"mailing_address":"89 Village Center Drive","city":"Freehold","zipcode":"07728","geo_score":0.813,"%school religious exemptions":4.0,"school_name":"Kiddie Academy of Freehold","total reported students in school":25,"id":"a6etfze6qe39","geo_precision":"range"},"type":"Feature","geometry":{"type":"Point","coordinates":[-74.308384,40.240536]}},{"properties":{"mailing_address":"91 Jefferson Ave","city":"Edison","zipcode":"08817","geo_score":0.835,"%school religious exemptions":5.88,"school_name":"Netivot Montessori","total reported students in school":51,"id":"a6etfzr94r9q","geo_precision":"range"},"type":"Feature","geometry":{"type":"Point","coordinates":[-74.404196,40.505686]}},{"properties":{"mailing_address":"40-25 Fair Lawn Avenue","city":"Fair Lawn","zipcode":"07410","geo_score":0.61,"%school religious exemptions":8.33,"school_name":"The Helen Troum Nursery &amp; Kindergarten","total reported students in school":24,"id":"a6etfzlhon79","geo_precision":"range"},"type":"Feature","geometry":{"type":"Point","coordinates":[-74.104882,40.943511]}},{"properties":{"mailing_address":"511 Millbrook Ave","city":"Randolph","zipcode":"07850","geo_score":0.805,"%school religious exemptions":7.69,"school_name":"Little Rams Preschool","total reported students in school":13,"id":"a6etfzc2lsp1","geo_precision":"range"},"type":"Feature","geometry":{"type":"Point","coordinates":[-74.563921,40.846508]}},{"properties":{"mailing_address":"9 Pittstown Road","city":"Clinton","zipcode":"08809","geo_score":0.805,"%school religious exemptions":10.45,"school_name":"Crossroads Christian Academy","total reported students in school":67,"id":"a6etfzf9ly84","geo_precision":"range"},"type":"Feature","geometry":{"type":"Point","coordinates":[-74.920987,40.62985]}},{"properties":{"mailing_address":"300 Third St.","city":"Belvidere","zipcode":"07823","geo_score":0.706,"%school religious exemptions":3.13,"school_name":"Third St. Elementary","total reported students in school":64,"id":"a6etfzisxq46","geo_precision":"range"},"type":"Feature","geometry":{"type":"Point","coordinates":[-75.077946,40.825891]}},{"properties":{"mailing_address":"P.O. Box 195","city":"Pomona","zipcode":"08240","geo_score":0.393,"%school religious exemptions":3.13,"school_name":"Free To Be Child Care Center","total reported students in school":32,"id":"a6etfzeag1o6","geo_precision":"street"},"type":"Feature","geometry":{"type":"Point","coordinates":[-74.824351,38.997943]}},{"properties":{"mailing_address":"201 Roseld Avenue","city":"Deal","zipcode":"07723","geo_score":0.854,"%school religious exemptions":17.86,"school_name":"Deal Elementary School","total reported students in school":28,"id":"a6etfzk8avto","geo_precision":"range"},"type":"Feature","geometry":{"type":"Point","coordinates":[-74.005584,40.247741]}},{"properties":{"mailing_address":"35 School Street","city":"Ramsey","zipcode":"07446","geo_score":0.815,"%school religious exemptions":66.67,"school_name":"John Y. Dater School","total reported students in school":12,"id":"a6etfzg19pbq","geo_precision":"range"},"type":"Feature","geometry":{"type":"Point","coordinates":[-74.144188,41.05781]}},{"properties":{"mailing_address":"57 Burton Avenue","city":"Hasbrouck Heights","zipcode":"07604","geo_score":0.902,"%school religious exemptions":3.13,"school_name":"Methodist Nursery School","total reported students in school":32,"id":"a6etfzlu2u6h","geo_precision":"range"},"type":"Feature","geometry":{"type":"Point","coordinates":[-74.077096,40.858707]}},{"properties":{"mailing_address":"P.O. Box 285","city":"Middletown","zipcode":"07748","geo_score":0.371,"%school religious exemptions":5.26,"school_name":"The Academy Preschool","total reported students in school":38,"id":"a6etfzi4mrrh","geo_precision":"street"},"type":"Feature","geometry":{"type":"Point","coordinates":[-74.311259,40.342276]}},{"properties":{"mailing_address":"224 Hance Rd","city":"Fair Haven","zipcode":"07704","geo_score":0.902,"%school religious exemptions":3.28,"school_name":"Knollwood School","total reported students in school":122,"id":"a6etfzplp2it","geo_precision":"range"},"type":"Feature","geometry":{"type":"Point","coordinates":[-74.041938,40.356145]}},{"properties":{"mailing_address":"1300 Crim Road","city":"Bridgewater","zipcode":"08807","geo_score":0.902,"%school religious exemptions":3.08,"school_name":"Crim Elementary School","total reported students in school":65,"id":"a6etfzq45ofs","geo_precision":"range"},"type":"Feature","geometry":{"type":"Point","coordinates":[-74.590981,40.611613]}},{"properties":{"mailing_address":"411 Tuttle Ave","city":"Spring Lake","zipcode":"07762","geo_score":0.862,"%school religious exemptions":4.88,"school_name":"H.W. Mountz School","total reported students in school":82,"id":"a6etfzo4v2ch","geo_precision":"range"},"type":"Feature","geometry":{"type":"Point","coordinates":[-74.029942,40.157809]}},{"properties":{"mailing_address":"490 Ringwood Ave","city":"Wanaque","zipcode":"07465","geo_score":0.816,"%school religious exemptions":8.11,"school_name":"Ringwood Cooperative Nursery School","total reported students in school":37,"id":"a6etfzqnqyuv","geo_precision":"range"},"type":"Feature","geometry":{"type":"Point","coordinates":[-74.28762,41.05514]}},{"properties":{"mailing_address":"205 Linden Avenue","city":"Glen Ridge","zipcode":"07028","geo_score":0.902,"%school religious exemptions":3.05,"school_name":"Linden Avenue School","total reported students in school":131,"id":"a6etfznr09f9","geo_precision":"range"},"type":"Feature","geometry":{"type":"Point","coordinates":[-74.209935,40.792774]}},{"properties":{"mailing_address":"PO Box 309","city":"Milltown","zipcode":"08850","geo_score":0.393,"%school religious exemptions":3.17,"school_name":"Good Day Preschool &amp; Kindergarten","total reported students in school":126,"id":"a6etfzj57ue4","geo_precision":"street"},"type":"Feature","geometry":{"type":"Point","coordinates":[-74.461942,40.567225]}},{"properties":{"mailing_address":"424 Collings Ave.","city":"Collingswood","zipcode":"08108","geo_score":0.715,"%school religious exemptions":4.0,"school_name":"Collingswood High School","total reported students in school":25,"id":"a6etfzli8igm","geo_precision":"range"},"type":"Feature","geometry":{"type":"Point","coordinates":[-75.07974,39.912556]}},{"properties":{"mailing_address":"1253A Yardville-Allentown Rd.","city":"Allentown","zipcode":"08501","geo_score":0.883,"%school religious exemptions":3.85,"school_name":"School Time Learning Center","total reported students in school":52,"id":"a6etfzc8vl41","geo_precision":"range"},"type":"Feature","geometry":{"type":"Point","coordinates":[-74.612302,40.173864]}},{"properties":{"mailing_address":"400 Beach Ave.","city":"Manahawkin","zipcode":"08050","geo_score":0.833,"%school religious exemptions":9.68,"school_name":"Lighthouse Christian Academy","total reported students in school":31,"id":"a6etfzr2ay0y","geo_precision":"range"},"type":"Feature","geometry":{"type":"Point","coordinates":[-74.245876,39.69858]}},{"properties":{"mailing_address":"334 Mountain Lake Rd.","city":"Great Meadows","zipcode":"07838","geo_score":0.813,"%school religious exemptions":3.45,"school_name":"Liberty School","total reported students in school":29,"id":"a6etfzl0a22k","geo_precision":"range"},"type":"Feature","geometry":{"type":"Point","coordinates":[-74.951581,40.869551]}},{"properties":{"mailing_address":"226 MAIN STREET","city":"EAST RUTHERFORD","zipcode":"07073","geo_score":0.826,"%school religious exemptions":5.88,"school_name":"EAST RUTHERFORD DAY CARE","total reported students in school":34,"id":"a6etfzmu1jde","geo_precision":"range"},"type":"Feature","geometry":{"type":"Point","coordinates":[-74.09939,40.832719]}},{"properties":{"mailing_address":"123 White Oak Lane","city":"Old Bridge","zipcode":"08857","geo_score":0.868,"%school religious exemptions":7.69,"school_name":"Calvary Christian School","total reported students in school":52,"id":"a6etfzqrbeof","geo_precision":"range"},"type":"Feature","geometry":{"type":"Point","coordinates":[-74.318354,40.406837]}},{"properties":{"mailing_address":"52 School House Road","city":"Oak Ridge","zipcode":"07438","geo_score":0.817,"%school religious exemptions":3.53,"school_name":"Milton School","total reported students in school":170,"id":"a6etfzehglta","geo_precision":"range"},"type":"Feature","geometry":{"type":"Point","coordinates":[-74.528,41.026953]}},{"properties":{"mailing_address":"PO Box 99","city":"Newfoundland","zipcode":"07435","geo_score":0.286,"%school religious exemptions":29.41,"school_name":"Winter Bible Nursery","total reported students in school":17,"id":"a6etfzfpuyv9","geo_precision":"street"},"type":"Feature","geometry":{"type":"Point","coordinates":[-74.119954,40.902071]}},{"properties":{"mailing_address":"52 great hills road","city":"Short Hills","zipcode":"07078","geo_score":0.827,"%school religious exemptions":4.26,"school_name":"Far Brook","total reported students in school":94,"id":"a6etfze1u4fd","geo_precision":"range"},"type":"Feature","geometry":{"type":"Point","coordinates":[-74.316264,40.748216]}},{"properties":{"mailing_address":"245 Leonardville Rd","city":"Belford","zipcode":"07718","geo_score":0.902,"%school religious exemptions":4.0,"school_name":"KinderCare","total reported students in school":50,"id":"a6etfzibvz0o","geo_precision":"range"},"type":"Feature","geometry":{"type":"Point","coordinates":[-74.087074,40.414578]}},{"properties":{"mailing_address":"PO Box 370","city":"Chester","zipcode":"07930","geo_score":0.286,"%school religious exemptions":6.45,"school_name":"Mustard Seed Child Care Centerq","total reported students in school":31,"id":"a6etfzojgw3b","geo_precision":"street"},"type":"Feature","geometry":{"type":"Point","coordinates":[-74.621939,40.758162]}},{"properties":{"mailing_address":"130 Whitman Avenue","city":"Metuchen,","zipcode":"08840","geo_score":0.823,"%school religious exemptions":3.7,"school_name":"DaySpring Child Care Center","total reported students in school":54,"id":"a6etfzpudd5o","geo_precision":"range"},"type":"Feature","geometry":{"type":"Point","coordinates":[-74.367802,40.529075]}},{"properties":{"mailing_address":"429 Route 46 East","city":"Hackettstown","zipcode":"07840","geo_score":0.387,"%school religious exemptions":8.22,"school_name":"Deer Path Montessori School","total reported students in school":73,"id":"a6etfzigs3ew","geo_precision":"street"},"type":"Feature","geometry":{"type":"Point","coordinates":[-74.783723,40.852563]}},{"properties":{"mailing_address":"Long Hill Rd","city":"Little Falls","zipcode":"07424","geo_score":0.74,"%school religious exemptions":3.79,"school_name":"Little Falls School 2","total reported students in school":132,"id":"a6etfzqmxow7","geo_precision":"street"},"type":"Feature","geometry":{"type":"Point","coordinates":[-74.215747,40.876897]}},{"properties":{"mailing_address":"16 West Front Street","city":"Trenton","zipcode":"08608","geo_score":0.902,"%school religious exemptions":5.0,"school_name":"Capital Child Care","total reported students in school":100,"id":"a6etfzmh2hta","geo_precision":"range"},"type":"Feature","geometry":{"type":"Point","coordinates":[-74.766554,40.219473]}},{"properties":{"mailing_address":"50 CHERRY HILL ROAD","city":"PRINCETON","zipcode":"08540","geo_score":0.868,"%school religious exemptions":3.77,"school_name":"CHERRY HILL NURSERY SCHOOL","total reported students in school":53,"id":"a6etfzobq9xu","geo_precision":"range"},"type":"Feature","geometry":{"type":"Point","coordinates":[-74.664903,40.362724]}},{"properties":{"mailing_address":"152 Lanes Mill Road","city":"Howell","zipcode":"07731","geo_score":0.74,"%school religious exemptions":9.52,"school_name":"Monmouth Academy","total reported students in school":21,"id":"a6etfzqekerv","geo_precision":"range"},"type":"Feature","geometry":{"type":"Point","coordinates":[-74.096132,40.306234]}},{"properties":{"mailing_address":"205 Mountain Way","city":"Morris Plains","zipcode":"07950","geo_score":0.821,"%school religious exemptions":3.9,"school_name":"Mountain Way School","total reported students in school":77,"id":"a6etfzdilq19","geo_precision":"range"},"type":"Feature","geometry":{"type":"Point","coordinates":[-74.48525,40.833591]}},{"properties":{"mailing_address":"2495 Kennedy Boulevard","city":"Jersey City","zipcode":"07304","geo_score":0.397,"%school religious exemptions":3.7,"school_name":"Learning Community Charter School","total reported students in school":162,"id":"a6etfzqeub6z","geo_precision":"street"},"type":"Feature","geometry":{"type":"Point","coordinates":[-74.065236,40.756861]}},{"properties":{"mailing_address":"171 Old Turnpike Rd","city":"Califon","zipcode":"07830","geo_score":0.729,"%school religious exemptions":3.96,"school_name":"Old Turnpike School","total reported students in school":101,"id":"a6etfzpknanh","geo_precision":"range"},"type":"Feature","geometry":{"type":"Point","coordinates":[-74.773963,40.704849]}},{"properties":{"mailing_address":"31 Chapel Hill Road","city":"Lincoln Park","zipcode":"07035","geo_score":0.813,"%school religious exemptions":11.54,"school_name":"Chapel Hill Academy","total reported students in school":26,"id":"a6etfzpu6uh1","geo_precision":"range"},"type":"Feature","geometry":{"type":"Point","coordinates":[-74.304017,40.921014]}},{"properties":{"mailing_address":"426 Knickerbocker Road","city":"Tenafly","zipcode":"07670","geo_score":0.902,"%school religious exemptions":6.25,"school_name":"The Montessori House Pre-School","total reported students in school":80,"id":"a6etfzpvhst9","geo_precision":"range"},"type":"Feature","geometry":{"type":"Point","coordinates":[-73.97776,40.92673]}},{"properties":{"mailing_address":"5809 Main St.","city":"Mays Landing","zipcode":"08330","geo_score":0.814,"%school religious exemptions":3.13,"school_name":"St. Vincent de Paul Regional School","total reported students in school":64,"id":"a6etfzq7386n","geo_precision":"range"},"type":"Feature","geometry":{"type":"Point","coordinates":[-74.724352,39.451042]}},{"properties":{"mailing_address":"1891 Lanes Mill Road","city":"Brick","zipcode":"08724","geo_score":0.546,"%school religious exemptions":18.42,"school_name":"Lanes Mill Elementary School","total reported students in school":38,"id":"a6etfzquap0c","geo_precision":"street"},"type":"Feature","geometry":{"type":"Point","coordinates":[-74.053846,40.142714]}},{"properties":{"mailing_address":"26 Nichol Avenue","city":"New Brunswick","zipcode":"08901","geo_score":0.699,"%school religious exemptions":3.45,"school_name":"Douglass Psychology Child Study Center","total reported students in school":29,"id":"a6etfzmkpqxv","geo_precision":"range"},"type":"Feature","geometry":{"type":"Point","coordinates":[-74.438446,40.483825]}},{"properties":{"mailing_address":"24 Valley Road","city":"Stanhope","zipcode":"07874","geo_score":0.817,"%school religious exemptions":3.03,"school_name":"Valley Road Elementry School","total reported students in school":66,"id":"a6etfzkih4ca","geo_precision":"range"},"type":"Feature","geometry":{"type":"Point","coordinates":[-74.704951,40.91515]}},{"properties":{"mailing_address":"1115 Green Grove Road","city":"Neptune","zipcode":"07753","geo_score":0.823,"%school religious exemptions":4.48,"school_name":"Children's Center of Monmouth County","total reported students in school":67,"id":"a6etfzf8uogk","geo_precision":"range"},"type":"Feature","geometry":{"type":"Point","coordinates":[-74.077527,40.232011]}},{"properties":{"mailing_address":"1 Crest Way","city":"Aberdeen","zipcode":"07747","geo_score":0.668,"%school religious exemptions":20.83,"school_name":"Developmental Learning Center","total reported students in school":24,"id":"a6etfzqe1x58","geo_precision":"range"},"type":"Feature","geometry":{"type":"Point","coordinates":[-74.231768,40.422107]}},{"properties":{"mailing_address":"28 Dwight Place","city":"Fairfield","zipcode":"07004","geo_score":0.902,"%school religious exemptions":5.56,"school_name":"New Beginnings","total reported students in school":54,"id":"a6etfzn17zxy","geo_precision":"range"},"type":"Feature","geometry":{"type":"Point","coordinates":[-74.290692,40.871989]}},{"properties":{"mailing_address":"818 Tinton Ave","city":"Tinton Falls","zipcode":"07724","geo_score":0.823,"%school religious exemptions":6.45,"school_name":"Luther Memorial Christian Preschool","total reported students in school":31,"id":"a6etfzeeskjp","geo_precision":"range"},"type":"Feature","geometry":{"type":"Point","coordinates":[-74.104285,40.306259]}},{"properties":{"mailing_address":"299 Pidgeon Hill Road","city":"Wantage","zipcode":"07461","geo_score":0.902,"%school religious exemptions":8.33,"school_name":"High Point Regional HS Child Care Center","total reported students in school":24,"id":"a6etfzdclrkg","geo_precision":"range"},"type":"Feature","geometry":{"type":"Point","coordinates":[-74.646512,41.199163]}},{"properties":{"mailing_address":"211 Irving Ave.","city":"Closter","zipcode":"10968","geo_score":0.488,"%school religious exemptions":12.5,"school_name":"The Lindgren Nursery School, Inc.","total reported students in school":128,"id":"a6etfzjnys0r","geo_precision":"zip"},"type":"Feature","geometry":{"type":"Point","coordinates":[-73.918205,41.040946]}},{"properties":{"mailing_address":"2903 Route HWY 138 East","city":"Wall","zipcode":"07719","geo_score":0.638,"%school religious exemptions":10.0,"school_name":"Allaire Country Day","total reported students in school":10,"id":"a6etfzbymw2u","geo_precision":"range"},"type":"Feature","geometry":{"type":"Point","coordinates":[-74.086686,40.170808]}},{"properties":{"mailing_address":"157 Lafayette Place","city":"Lyndhurst","zipcode":"07071","geo_score":0.816,"%school religious exemptions":4.0,"school_name":"Lyndhurst Day Care Center","total reported students in school":25,"id":"a6etfzf3448g","geo_precision":"range"},"type":"Feature","geometry":{"type":"Point","coordinates":[-74.119759,40.814341]}},{"properties":{"mailing_address":"354 rock road","city":"glen rock","zipcode":"07452","geo_score":0.822,"%school religious exemptions":14.49,"school_name":"glen rock cooperative nursery school","total reported students in school":69,"id":"a6etfzc3f0sg","geo_precision":"range"},"type":"Feature","geometry":{"type":"Point","coordinates":[-74.12483,40.962271]}},{"properties":{"mailing_address":"682 Harristown Road","city":"Glen Rock","zipcode":"07452","geo_score":0.822,"%school religious exemptions":5.26,"school_name":"Glen Rock Jewish Center Nursery School","total reported students in school":76,"id":"a6etfziqfidw","geo_precision":"range"},"type":"Feature","geometry":{"type":"Point","coordinates":[-74.1197,40.958192]}},{"properties":{"mailing_address":"PO Box 97, Tennent Road","city":"Tennent","zipcode":"07763","geo_score":0.408,"%school religious exemptions":4.26,"school_name":"Tennent Co-Operative Nursery School","total reported students in school":47,"id":"a6etfzfm08gu","geo_precision":"street"},"type":"Feature","geometry":{"type":"Point","coordinates":[-74.311259,40.342276]}},{"properties":{"mailing_address":"368 Midland Ave","city":"Saddle Brook","zipcode":"07663","geo_score":0.902,"%school religious exemptions":4.41,"school_name":"Tutor Time","total reported students in school":136,"id":"a6etfzgf5cuu","geo_precision":"range"},"type":"Feature","geometry":{"type":"Point","coordinates":[-74.104433,40.902212]}},{"properties":{"mailing_address":"24 Main Street","city":"Madison","zipcode":"07940","geo_score":0.902,"%school religious exemptions":3.45,"school_name":"The Montessori Children's Academy","total reported students in school":116,"id":"a6etfzrdbo47","geo_precision":"range"},"type":"Feature","geometry":{"type":"Point","coordinates":[-74.416812,40.759885]}},{"properties":{"mailing_address":"3067 Lakewood-Allenwood Road","city":"Howell","zipcode":"07731","geo_score":0.902,"%school religious exemptions":5.0,"school_name":"LITTLE PEOPLE'S PRESCHOOL CENTER","total reported students in school":40,"id":"a6etfzhms3i5","geo_precision":"range"},"type":"Feature","geometry":{"type":"Point","coordinates":[-74.178663,40.114235]}},{"properties":{"mailing_address":"19 Emerson Plaza East","city":"Emerson","zipcode":"07630","geo_score":0.902,"%school religious exemptions":4.94,"school_name":"All About Me","total reported students in school":81,"id":"a6etfzc53blb","geo_precision":"range"},"type":"Feature","geometry":{"type":"Point","coordinates":[-74.027508,40.973512]}},{"properties":{"mailing_address":"5 Legion Drive","city":"Cresskill","zipcode":"07626","geo_score":0.902,"%school religious exemptions":4.35,"school_name":"All About Me","total reported students in school":115,"id":"a6etfzdk7ilj","geo_precision":"range"},"type":"Feature","geometry":{"type":"Point","coordinates":[-73.960693,40.937493]}},{"properties":{"mailing_address":"16 Maxim Drive","city":"Hopatcong, NJ","zipcode":"07843","geo_score":0.812,"%school religious exemptions":3.45,"school_name":"West Side Child Care Center","total reported students in school":29,"id":"a6etfzefma8u","geo_precision":"range"},"type":"Feature","geometry":{"type":"Point","coordinates":[-74.647156,40.94962]}},{"properties":{"mailing_address":"77 jay st","city":"clifton","zipcode":"07013","geo_score":0.823,"%school religious exemptions":8.22,"school_name":"jin-a-child care center","total reported students in school":73,"id":"a6etfzeyelxb","geo_precision":"range"},"type":"Feature","geometry":{"type":"Point","coordinates":[-74.182906,40.879414]}},{"properties":{"mailing_address":"300 White Horse Pike","city":"Oaklyn","zipcode":"08107","geo_score":0.751,"%school religious exemptions":13.64,"school_name":"Little Bear Daycare","total reported students in school":22,"id":"a6etfzjrthao","geo_precision":"street"},"type":"Feature","geometry":{"type":"Point","coordinates":[-75.079976,39.905784]}},{"properties":{"mailing_address":"301 Middle Road","city":"Holmdel","zipcode":"07733","geo_score":0.902,"%school religious exemptions":27.27,"school_name":"New School of Monmouth County","total reported students in school":11,"id":"a6etfzf6m7p2","geo_precision":"range"},"type":"Feature","geometry":{"type":"Point","coordinates":[-74.139045,40.422122]}},{"properties":{"mailing_address":"420 S, Black Horse Pike","city":"Blackwood","zipcode":"08012","geo_score":0.327,"%school religious exemptions":4.08,"school_name":"Our Lady of Hope Pre-School","total reported students in school":49,"id":"a6etfzlxkgnc","geo_precision":"street"},"type":"Feature","geometry":{"type":"Point","coordinates":[-75.050195,39.770255]}},{"properties":{"mailing_address":"15 South 3rd Ave","city":"Highland Park","zipcode":"08904","geo_score":0.819,"%school religious exemptions":5.0,"school_name":"Yellow Brick Road Preschool","total reported students in school":40,"id":"a6etfzokh7kh","geo_precision":"range"},"type":"Feature","geometry":{"type":"Point","coordinates":[-74.427896,40.498923]}},{"properties":{"mailing_address":"951 Ridgewood Road","city":"Millburn","zipcode":"07041","geo_score":0.902,"%school religious exemptions":7.14,"school_name":"Millburn Township Co-operative Nursery School","total reported students in school":28,"id":"a6etfzkit87s","geo_precision":"range"},"type":"Feature","geometry":{"type":"Point","coordinates":[-74.304859,40.720374]}},{"properties":{"mailing_address":"621 Rahway Ave","city":"Woodbridge","zipcode":"07095","geo_score":0.902,"%school religious exemptions":3.41,"school_name":"Young Ideas Nursery School","total reported students in school":88,"id":"a6etfzcc6rmj","geo_precision":"range"},"type":"Feature","geometry":{"type":"Point","coordinates":[-74.273697,40.562549]}},{"properties":{"mailing_address":"970 Black Oak Ridge RD","city":"Wayne","zipcode":"07470","geo_score":0.816,"%school religious exemptions":3.23,"school_name":"Donna Reid's Child Development Center","total reported students in school":93,"id":"a6etfzlzada4","geo_precision":"range"},"type":"Feature","geometry":{"type":"Point","coordinates":[-74.272538,40.973234]}},{"properties":{"mailing_address":"359 Chapel Heights Road","city":"Sewell","zipcode":"08080","geo_score":0.749,"%school religious exemptions":13.73,"school_name":"Bethel Prep Christian Academy","total reported students in school":51,"id":"a6etfzilpyiq","geo_precision":"range"},"type":"Feature","geometry":{"type":"Point","coordinates":[-75.10129,39.736549]}},{"properties":{"mailing_address":"550 Barnegat Blvd.North","city":"Barnegat","zipcode":"08005","geo_score":0.381,"%school religious exemptions":6.67,"school_name":"Barnegat High School","total reported students in school":30,"id":"a6etfznetyi0","geo_precision":"street"},"type":"Feature","geometry":{"type":"Point","coordinates":[-74.313891,39.755472]}},{"properties":{"mailing_address":"1 Canal Street","city":"Jersey City","zipcode":"07302","geo_score":0.902,"%school religious exemptions":4.76,"school_name":"Hudson Montessori","total reported students in school":21,"id":"a6etfzge56ao","geo_precision":"range"},"type":"Feature","geometry":{"type":"Point","coordinates":[-74.044985,40.715802]}},{"properties":{"mailing_address":"645 Ocean Road","city":"Pt Pleasant","zipcode":"08742","geo_score":0.82,"%school religious exemptions":3.7,"school_name":"Magical Moments Preschool","total reported students in school":54,"id":"a6etfzi4vjm9","geo_precision":"range"},"type":"Feature","geometry":{"type":"Point","coordinates":[-74.052832,40.081695]}},{"properties":{"mailing_address":"365 Emerson Ave","city":"Plainfield","zipcode":"07062","geo_score":0.815,"%school religious exemptions":11.76,"school_name":"The Newmark School","total reported students in school":17,"id":"a6etfzpgw1lo","geo_precision":"range"},"type":"Feature","geometry":{"type":"Point","coordinates":[-74.405333,40.633339]}},{"properties":{"mailing_address":"4101 princeton Pike","city":"Princeton","zipcode":"08540","geo_score":0.868,"%school religious exemptions":3.66,"school_name":"Chapin School","total reported students in school":82,"id":"a6etfzfuokft","geo_precision":"range"},"type":"Feature","geometry":{"type":"Point","coordinates":[-74.693124,40.311071]}},{"properties":{"mailing_address":"310 Jefferson St","city":"Hoboken","zipcode":"07030","geo_score":0.902,"%school religious exemptions":3.66,"school_name":"Mile Square Early Learning Center","total reported students in school":82,"id":"a6etfzd6tqg9","geo_precision":"range"},"type":"Feature","geometry":{"type":"Point","coordinates":[-74.037436,40.74139]}},{"properties":{"mailing_address":"65 Main Street","city":"Sparta","zipcode":"07871","geo_score":0.831,"%school religious exemptions":9.3,"school_name":"Sparta Parks &amp; Recreation\"Circle of Friends\" Presc","total reported students in school":43,"id":"a6etfzcm32cj","geo_precision":"range"},"type":"Feature","geometry":{"type":"Point","coordinates":[-74.636572,41.036125]}},{"properties":{"mailing_address":"925 Fifth Avenue","city":"River Edge","zipcode":"07661","geo_score":0.72,"%school religious exemptions":3.85,"school_name":"YWCA of Bergen County Nursery School","total reported students in school":26,"id":"a6etfzfqo15p","geo_precision":"range"},"type":"Feature","geometry":{"type":"Point","coordinates":[-74.037385,40.942371]}},{"properties":{"mailing_address":"181 Lafayette Avenue","city":"Passaic","zipcode":"07055","geo_score":0.902,"%school religious exemptions":5.97,"school_name":"Passaic-Clifton Cheder/Bais Yaakov","total reported students in school":67,"id":"a6etfzr12w9a","geo_precision":"range"},"type":"Feature","geometry":{"type":"Point","coordinates":[-74.127659,40.854603]}},{"properties":{"mailing_address":"1 School Street","city":"Glen Gardner","zipcode":"08826","geo_score":0.823,"%school religious exemptions":6.52,"school_name":"Clockwork Learning Center","total reported students in school":46,"id":"a6etfzn9uni7","geo_precision":"range"},"type":"Feature","geometry":{"type":"Point","coordinates":[-74.942916,40.70117]}},{"properties":{"mailing_address":"219 Hardwick St","city":"Belvidere","zipcode":"07823","geo_score":0.823,"%school religious exemptions":4.84,"school_name":"Little Seaters Day Care Preschool","total reported students in school":62,"id":"a6etfzcaf3cb","geo_precision":"range"},"type":"Feature","geometry":{"type":"Point","coordinates":[-75.075565,40.827081]}},{"properties":{"mailing_address":"37 Speer Avenue","city":"clifton","zipcode":"07013","geo_score":0.823,"%school religious exemptions":9.09,"school_name":"Today's Learning Center","total reported students in school":22,"id":"a6etfzd0un8d","geo_precision":"range"},"type":"Feature","geometry":{"type":"Point","coordinates":[-74.14563,40.854765]}},{"properties":{"mailing_address":"47 Eyland Avenue","city":"Succasunna","zipcode":"07876","geo_score":0.902,"%school religious exemptions":8.33,"school_name":"Eisenhower Middle school","total reported students in school":12,"id":"a6etfzfk1sn0","geo_precision":"range"},"type":"Feature","geometry":{"type":"Point","coordinates":[-74.63534,40.860266]}},{"properties":{"mailing_address":"2421 Pennington Road","city":"Pennington","zipcode":"08534","geo_score":0.902,"%school religious exemptions":9.09,"school_name":"Early Childhood Center at Har Sinai Temple","total reported students in school":11,"id":"a6etfzehhpuz","geo_precision":"range"},"type":"Feature","geometry":{"type":"Point","coordinates":[-74.783605,40.298975]}},{"properties":{"mailing_address":"75 East End Ave","city":"Lakewood","zipcode":"08701","geo_score":0.817,"%school religious exemptions":4.08,"school_name":"Yeshiva Tifereth Torah","total reported students in school":98,"id":"a6etfzev4wi8","geo_precision":"range"},"type":"Feature","geometry":{"type":"Point","coordinates":[-74.200471,40.100062]}},{"properties":{"mailing_address":"1015 East Park Ave.","city":"Vineland","zipcode":"08360","geo_score":0.82,"%school religious exemptions":9.52,"school_name":"Early Learning Center","total reported students in school":42,"id":"a6etfzjr8dk2","geo_precision":"range"},"type":"Feature","geometry":{"type":"Point","coordinates":[-75.013166,39.491094]}},{"properties":{"mailing_address":"160 Old Country Road","city":"Middletown","zipcode":"07748","geo_score":0.815,"%school religious exemptions":5.36,"school_name":"First Discoveries II","total reported students in school":56,"id":"a6etfzja9r6t","geo_precision":"range"},"type":"Feature","geometry":{"type":"Point","coordinates":[-74.125379,40.407985]}},{"properties":{"mailing_address":"235 Howard Boulevard","city":"Mount Arlington","zipcode":"07856","geo_score":0.805,"%school religious exemptions":6.25,"school_name":"Mount Arlington Public School","total reported students in school":48,"id":"a6etfzpeskx7","geo_precision":"street"},"type":"Feature","geometry":{"type":"Point","coordinates":[-74.636415,40.918265]}},{"properties":{"mailing_address":"37 E. Allendale Ave","city":"Allendale","zipcode":"07401","geo_score":0.464,"%school religious exemptions":3.53,"school_name":"Archer Cooperative Nursery, Inc","total reported students in school":85,"id":"a6etfzpbyx7s","geo_precision":"street"},"type":"Feature","geometry":{"type":"Point","coordinates":[-74.12434,41.031408]}},{"properties":{"mailing_address":"1 LINCOLN DRIVE","city":"CRESSKILL","zipcode":"07626","geo_score":0.902,"%school religious exemptions":8.33,"school_name":"CRESSKILL HIGH","total reported students in school":12,"id":"a6etfznmnfwu","geo_precision":"range"},"type":"Feature","geometry":{"type":"Point","coordinates":[-73.964198,40.944862]}},{"properties":{"mailing_address":"400 Paramus Rd.","city":"Paramus","zipcode":"07652","geo_score":0.902,"%school religious exemptions":8.57,"school_name":"Bergen Community College Child Dev. center","total reported students in school":35,"id":"a6etfzg84x2f","geo_precision":"range"},"type":"Feature","geometry":{"type":"Point","coordinates":[-74.094019,40.951543]}},{"properties":{"mailing_address":"Maude Ave.","city":"Brooklawn","zipcode":"08030","geo_score":0.857,"%school religious exemptions":6.25,"school_name":"Brooklawn United Methodist Christian Nursery Schoo","total reported students in school":16,"id":"a6etfzk38pxy","geo_precision":"street"},"type":"Feature","geometry":{"type":"Point","coordinates":[-75.121201,39.877685]}},{"properties":{"mailing_address":"1700 Allenwood Road","city":"Wall","zipcode":"07719","geo_score":0.824,"%school religious exemptions":11.11,"school_name":"Willow Tree Nursery School","total reported students in school":36,"id":"a6etfzesc0bv","geo_precision":"range"},"type":"Feature","geometry":{"type":"Point","coordinates":[-74.08102,40.185616]}},{"properties":{"mailing_address":"P.O. Box 172","city":"Wenonah","zipcode":"08090","geo_score":0.714,"%school religious exemptions":3.13,"school_name":"All God's Children Preschool","total reported students in school":96,"id":"a6etfzd5g5ce","geo_precision":"street"},"type":"Feature","geometry":{"type":"Point","coordinates":[-75.061887,39.856159]}},{"properties":{"mailing_address":"510 Grant Avenue","city":"Plainfield","zipcode":"07060","geo_score":0.814,"%school religious exemptions":8.33,"school_name":"Black United Fund School Age Child Care","total reported students in school":12,"id":"a6etfzgqpexh","geo_precision":"range"},"type":"Feature","geometry":{"type":"Point","coordinates":[-74.431652,40.605649]}},{"properties":{"mailing_address":"51 Park Avenue","city":"Piscataway","zipcode":"08854","geo_score":0.826,"%school religious exemptions":3.51,"school_name":"Yeshiva Shaarei Tzion - Girls Devision","total reported students in school":57,"id":"a6etfzcf4lq0","geo_precision":"range"},"type":"Feature","geometry":{"type":"Point","coordinates":[-74.488846,40.527243]}},{"properties":{"mailing_address":"80 Tingley Lane","city":"Edison","zipcode":"08820","geo_score":0.902,"%school religious exemptions":4.55,"school_name":"Candyland Academy","total reported students in school":44,"id":"a6etfzla0idf","geo_precision":"range"},"type":"Feature","geometry":{"type":"Point","coordinates":[-74.375114,40.58316]}},{"properties":{"mailing_address":"140 Rt. 17 North","city":"Paramus","zipcode":"07652","geo_score":0.417,"%school religious exemptions":5.88,"school_name":"Absorbent Mind Montessori Academy","total reported students in school":34,"id":"a6etfzg2fk31","geo_precision":"street"},"type":"Feature","geometry":{"type":"Point","coordinates":[-74.088763,40.965675]}},{"properties":{"mailing_address":"724 KINGS HWY EAST","city":"ATLANTIC HIGHLANDS","zipcode":"07716","geo_score":0.822,"%school religious exemptions":4.95,"school_name":"Mountain Hill School","total reported students in school":202,"id":"a6etfzs3g8tb","geo_precision":"range"},"type":"Feature","geometry":{"type":"Point","coordinates":[-74.057622,40.395293]}},{"properties":{"mailing_address":"223 Ridge Road","city":"North Arlington","zipcode":"07031","geo_score":0.902,"%school religious exemptions":7.69,"school_name":"All Angels Learning Center","total reported students in school":13,"id":"a6etfzqgjbxm","geo_precision":"range"},"type":"Feature","geometry":{"type":"Point","coordinates":[-74.132598,40.789501]}},{"properties":{"mailing_address":"150-D Tices Lane","city":"east Brunswick","zipcode":"08816","geo_score":0.791,"%school religious exemptions":8.11,"school_name":"Dominique's Learning Playhouse","total reported students in school":37,"id":"a6etfzofsxam","geo_precision":"range"},"type":"Feature","geometry":{"type":"Point","coordinates":[-74.416392,40.453672]}},{"properties":{"mailing_address":"20 Jefferson St","city":"Newton","zipcode":"07860","geo_score":0.805,"%school religious exemptions":4.17,"school_name":"St Joseph Regional School","total reported students in school":48,"id":"a6etfzm14dnl","geo_precision":"range"},"type":"Feature","geometry":{"type":"Point","coordinates":[-74.504922,40.896243]}},{"properties":{"mailing_address":"58 Sandhill Rd","city":"Vernon","zipcode":"07462","geo_score":0.902,"%school religious exemptions":17.33,"school_name":"Fields of Green Montessori School","total reported students in school":75,"id":"a6etfzgv3h9w","geo_precision":"range"},"type":"Feature","geometry":{"type":"Point","coordinates":[-74.507883,41.203016]}},{"properties":{"mailing_address":"121 Miller Street","city":"Highlands","zipcode":"07732","geo_score":0.82,"%school religious exemptions":4.76,"school_name":"Happy Hills Learning Center, Inc.","total reported students in school":105,"id":"a6etfzg70fya","geo_precision":"range"},"type":"Feature","geometry":{"type":"Point","coordinates":[-73.988388,40.399525]}},{"properties":{"mailing_address":"38 North Road","city":"Kinnelon","zipcode":"07405","geo_score":0.648,"%school religious exemptions":3.7,"school_name":"Smoke Rise Cooperative Nursery School","total reported students in school":54,"id":"a6etfzq349i1","geo_precision":"range"},"type":"Feature","geometry":{"type":"Point","coordinates":[-74.398598,40.992773]}},{"properties":{"mailing_address":"213 East Jimmie Leeds Road","city":"Galloway","zipcode":"08205","geo_score":0.805,"%school religious exemptions":4.29,"school_name":"Tutor Time Childcare and Learning Center","total reported students in school":70,"id":"a6etfzngzw3h","geo_precision":"range"},"type":"Feature","geometry":{"type":"Point","coordinates":[-74.510581,39.471768]}},{"properties":{"mailing_address":"1000 Morris Avenue","city":"Union","zipcode":"07083","geo_score":0.902,"%school religious exemptions":3.45,"school_name":"Kean University Child Care &amp; Development Center","total reported students in school":29,"id":"a6etfzij1etd","geo_precision":"range"},"type":"Feature","geometry":{"type":"Point","coordinates":[-74.235571,40.682742]}},{"properties":{"mailing_address":"Church &amp; Sicklerville Rds.","city":"Sicklerville","zipcode":"08081","geo_score":0.619,"%school religious exemptions":3.77,"school_name":"The Littlest Angels School","total reported students in school":53,"id":"a6etfzd1notk","geo_precision":"street"},"type":"Feature","geometry":{"type":"Point","coordinates":[-74.968207,39.721985]}},{"properties":{"mailing_address":"25 Baldin Drive","city":"Midland Park","zipcode":"07432","geo_score":0.823,"%school religious exemptions":3.41,"school_name":"Eastern Christian Elementary School","total reported students in school":88,"id":"a6etfzp3br9s","geo_precision":"range"},"type":"Feature","geometry":{"type":"Point","coordinates":[-74.144977,40.996706]}},{"properties":{"mailing_address":"350 Lake Road","city":"Basking Ridge","zipcode":"07920","geo_score":0.829,"%school religious exemptions":3.85,"school_name":"Gentle Shepherd Christian Preschool","total reported students in school":104,"id":"a6etfzidesls","geo_precision":"range"},"type":"Feature","geometry":{"type":"Point","coordinates":[-74.574606,40.686188]}},{"properties":{"mailing_address":"235 Hope Road","city":"Tinton Falls","zipcode":"07724","geo_score":0.823,"%school religious exemptions":5.07,"school_name":"Ranney School","total reported students in school":217,"id":"a6etfzg3sj2f","geo_precision":"range"},"type":"Feature","geometry":{"type":"Point","coordinates":[-74.08057,40.308804]}},{"properties":{"mailing_address":"70 Highway 35","city":"Red Bank","zipcode":"07701","geo_score":0.571,"%school religious exemptions":4.29,"school_name":"First Discoveries I","total reported students in school":70,"id":"a6etfzpej9yj","geo_precision":"range"},"type":"Feature","geometry":{"type":"Point","coordinates":[-74.068073,40.351457]}},{"properties":{"mailing_address":"224 Highwood Ave","city":"Ridgewood","zipcode":"07450","geo_score":0.902,"%school religious exemptions":11.11,"school_name":"Friends Neighborhood Nursery School","total reported students in school":18,"id":"a6etfzcdqwcd","geo_precision":"range"},"type":"Feature","geometry":{"type":"Point","coordinates":[-74.122034,40.974826]}},{"properties":{"mailing_address":"164 Hopkins Avenue","city":"Haddonfield","zipcode":"08033","geo_score":0.876,"%school religious exemptions":3.23,"school_name":"Christ The King Regional School","total reported students in school":93,"id":"a6etfzc28uj4","geo_precision":"range"},"type":"Feature","geometry":{"type":"Point","coordinates":[-75.035399,39.901793]}},{"properties":{"mailing_address":"601 Hagan rd","city":"cape may court house","zipcode":"08210","geo_score":0.416,"%school religious exemptions":8.57,"school_name":"Barbarito and Beyers Preschoola Inc.","total reported students in school":35,"id":"a6etfzr6nyvo","geo_precision":"street"},"type":"Feature","geometry":{"type":"Point","coordinates":[-74.600003,39.428605]}},{"properties":{"mailing_address":"route 322 mays landing campus","city":"mays landing","zipcode":"08330","geo_score":0.47,"%school religious exemptions":6.67,"school_name":"Barbarito and Beyers preschool, Inc","total reported students in school":15,"id":"a6etfzgzbjzl","geo_precision":"street"},"type":"Feature","geometry":{"type":"Point","coordinates":[-74.635008,39.317789]}},{"properties":{"mailing_address":"300 Pompton Road Hunziker Wing 35","city":"Wayne","zipcode":"07670","geo_score":0.502,"%school religious exemptions":4.35,"school_name":"WPU Child Development Center","total reported students in school":23,"id":"a6etfzjq5p0n","geo_precision":"zip"},"type":"Feature","geometry":{"type":"Point","coordinates":[-73.960481,40.919298]}},{"properties":{"mailing_address":"4 Tree Farm Road","city":"Pennington","zipcode":"08534","geo_score":0.902,"%school religious exemptions":5.26,"school_name":"Pennington Montessori School","total reported students in school":152,"id":"a6etfzpi3frg","geo_precision":"range"},"type":"Feature","geometry":{"type":"Point","coordinates":[-74.797538,40.336738]}},{"properties":{"mailing_address":"328 E. Great Creek Road","city":"Galloway","zipcode":"08205","geo_score":0.321,"%school religious exemptions":4.0,"school_name":"Peace Lutheran Preschool","total reported students in school":50,"id":"a6etfzf03ufq","geo_precision":"street"},"type":"Feature","geometry":{"type":"Point","coordinates":[-74.45473,39.468312]}},{"properties":{"mailing_address":"101 E Main Street","city":"Marlton","zipcode":"08053","geo_score":0.815,"%school religious exemptions":3.28,"school_name":"Wiley Christian Preschool &amp; Daycare","total reported students in school":61,"id":"a6etfzk5hi8n","geo_precision":"range"},"type":"Feature","geometry":{"type":"Point","coordinates":[-74.909569,39.887001]}},{"properties":{"mailing_address":"1 Corbett Way","city":"Eatontown","zipcode":"07724","geo_score":0.816,"%school religious exemptions":3.33,"school_name":"Next Generation II","total reported students in school":30,"id":"a6etfzc2qgp9","geo_precision":"range"},"type":"Feature","geometry":{"type":"Point","coordinates":[-74.049071,40.275966]}},{"properties":{"mailing_address":"924 Middletown Lincroft Road","city":"Middletown","zipcode":"07748","geo_score":0.815,"%school religious exemptions":3.08,"school_name":"Mother's Day Out","total reported students in school":65,"id":"a6etfzdawie9","geo_precision":"range"},"type":"Feature","geometry":{"type":"Point","coordinates":[-74.122094,40.364317]}},{"properties":{"mailing_address":"410 IRVINGTON AVE.","city":"SOUTH ORANGE","zipcode":"07079","geo_score":0.78,"%school religious exemptions":4.0,"school_name":"JAJO CENTER for CHILD DEVELOPMENT","total reported students in school":25,"id":"a6etfzf9a98v","geo_precision":"range"},"type":"Feature","geometry":{"type":"Point","coordinates":[-74.252738,40.740009]}},{"properties":{"mailing_address":"110 Federal City Rd","city":"Lawrenceville","zipcode":"08648","geo_score":0.82,"%school religious exemptions":5.88,"school_name":"Crayons Nursery School, Inc.","total reported students in school":34,"id":"a6etfzpjxfwu","geo_precision":"range"},"type":"Feature","geometry":{"type":"Point","coordinates":[-74.758466,40.288661]}},{"properties":{"mailing_address":"100 Elizabeth Street","city":"Teaneck","zipcode":"07666","geo_score":0.754,"%school religious exemptions":3.57,"school_name":"Teaneck High School","total reported students in school":56,"id":"a6etfzikf84j","geo_precision":"range"},"type":"Feature","geometry":{"type":"Point","coordinates":[-74.009548,40.892373]}},{"properties":{"mailing_address":"903 S. Beverwyck Rd","city":"Parsippany","zipcode":"07054","geo_score":0.336,"%school religious exemptions":5.56,"school_name":"Little Blessings Child Care","total reported students in school":18,"id":"a6etfzpqgiu1","geo_precision":"street"},"type":"Feature","geometry":{"type":"Point","coordinates":[-74.385683,40.859925]}},{"properties":{"mailing_address":"42 Cedar Grove Lane","city":"Somerset","zipcode":"08873","geo_score":0.815,"%school religious exemptions":5.88,"school_name":"Somerset  Bible Baptist Christian","total reported students in school":17,"id":"a6etfzkc0xw3","geo_precision":"range"},"type":"Feature","geometry":{"type":"Point","coordinates":[-74.518897,40.5243]}},{"properties":{"mailing_address":"Post Office Box 108","city":"Glen Ridge","zipcode":"07028","geo_score":0.42,"%school religious exemptions":3.7,"school_name":"Little Stars Childcare Center","total reported students in school":27,"id":"a6etfzisjd7w","geo_precision":"street"},"type":"Feature","geometry":{"type":"Point","coordinates":[-74.237354,40.594709]}},{"properties":{"mailing_address":"24 High School Drive","city":"Egg Harbor Township","zipcode":"08234","geo_score":0.857,"%school religious exemptions":3.16,"school_name":"Egg Harbor Twp High school","total reported students in school":95,"id":"a6etfzkamm2k","geo_precision":"range"},"type":"Feature","geometry":{"type":"Point","coordinates":[-74.623518,39.393823]}},{"properties":{"mailing_address":"74 Jacksonville Road","city":"Towaco","zipcode":"07082","geo_score":0.902,"%school religious exemptions":8.33,"school_name":"ABC's of Learning_Montville","total reported students in school":48,"id":"a6etfzrxwg4n","geo_precision":"range"},"type":"Feature","geometry":{"type":"Point","coordinates":[-74.342607,40.935432]}},{"properties":{"mailing_address":"129 Boonton Avenue","city":"Kinnelon","zipcode":"07405","geo_score":0.816,"%school religious exemptions":7.69,"school_name":"ABC's of Learning","total reported students in school":26,"id":"a6etfzr05hfe","geo_precision":"range"},"type":"Feature","geometry":{"type":"Point","coordinates":[-74.34229,40.996372]}},{"properties":{"mailing_address":"1301 Oak Avenue","city":"Linwood","zipcode":"08221","geo_score":0.82,"%school religious exemptions":20.0,"school_name":"Mainland Regional High School","total reported students in school":15,"id":"a6etfzm58fs6","geo_precision":"range"},"type":"Feature","geometry":{"type":"Point","coordinates":[-74.57522,39.34616]}},{"properties":{"mailing_address":"7-20 Bellair Avenue","city":"FairLawn","zipcode":"07410","geo_score":0.61,"%school religious exemptions":3.45,"school_name":"Van Riper Ellis Christian School","total reported students in school":87,"id":"a6etfzopzitn","geo_precision":"range"},"type":"Feature","geometry":{"type":"Point","coordinates":[-74.120508,40.930626]}},{"properties":{"mailing_address":"107 Wyckoff Ave.","city":"Waldwick","zipcode":"07463","geo_score":0.902,"%school religious exemptions":6.06,"school_name":"The Forum School","total reported students in school":33,"id":"a6etfzs2l0uz","geo_precision":"range"},"type":"Feature","geometry":{"type":"Point","coordinates":[-74.128616,41.009891]}},{"properties":{"mailing_address":"32 Pleasant Ave","city":"Montclair","zipcode":"07042","geo_score":0.86,"%school religious exemptions":3.88,"school_name":"Over The Rainbow Nursery Inc","total reported students in school":103,"id":"a6etfzo26yjg","geo_precision":"range"},"type":"Feature","geometry":{"type":"Point","coordinates":[-74.220795,40.796323]}},{"properties":{"mailing_address":"351 N. Delsea Drive","city":"Clayton","zipcode":"08312","geo_score":0.476,"%school religious exemptions":4.55,"school_name":"Trinity Learning Center","total reported students in school":22,"id":"a6etfzcxmyoe","geo_precision":"street"},"type":"Feature","geometry":{"type":"Point","coordinates":[-75.091265,39.656172]}},{"properties":{"mailing_address":"970 Black Oak Ridge Road","city":"wayne","zipcode":"07470","geo_score":0.816,"%school religious exemptions":4.65,"school_name":"Rainbow Montessori Schools","total reported students in school":43,"id":"a6etfzdha381","geo_precision":"range"},"type":"Feature","geometry":{"type":"Point","coordinates":[-74.272538,40.973234]}},{"properties":{"mailing_address":"75 Knickerbocker Road","city":"Englewood","zipcode":"07631","geo_score":0.902,"%school religious exemptions":21.05,"school_name":"Ability School","total reported students in school":19,"id":"a6etfzgw6rli","geo_precision":"range"},"type":"Feature","geometry":{"type":"Point","coordinates":[-73.981383,40.900904]}},{"properties":{"mailing_address":"61 Georgia Road","city":"Freehold","zipcode":"07728","geo_score":0.813,"%school religious exemptions":15.0,"school_name":"Providence Christian Academy","total reported students in school":20,"id":"a6etfzr33fmp","geo_precision":"range"},"type":"Feature","geometry":{"type":"Point","coordinates":[-74.294135,40.214722]}},{"properties":{"mailing_address":"641 West Englewood Ave","city":"Teaneck","zipcode":"07666","geo_score":0.827,"%school religious exemptions":6.67,"school_name":"Congregation Bnai Yeshurun Nursery School","total reported students in school":30,"id":"a6etfzfftxx6","geo_precision":"range"},"type":"Feature","geometry":{"type":"Point","coordinates":[-74.020795,40.906507]}},{"properties":{"mailing_address":"605 Union Lane","city":"Brielle","zipcode":"08730","geo_score":0.902,"%school religious exemptions":3.24,"school_name":"Brielle Elementary School","total reported students in school":185,"id":"a6etfzikqj1u","geo_precision":"range"},"type":"Feature","geometry":{"type":"Point","coordinates":[-74.058507,40.11146]}},{"properties":{"mailing_address":"33 Fulton Street","city":"Montclair","zipcode":"07042","geo_score":0.86,"%school religious exemptions":12.5,"school_name":"Montclair Child Development Center, Inc.","total reported students in school":16,"id":"a6etfzmxe20x","geo_precision":"range"},"type":"Feature","geometry":{"type":"Point","coordinates":[-74.213877,40.807573]}},{"properties":{"mailing_address":"95 Bauer Drive","city":"Oakland","zipcode":"07436","geo_score":0.831,"%school religious exemptions":4.55,"school_name":"Kradle 2 Kindergarten","total reported students in school":66,"id":"a6etfzm4oox6","geo_precision":"range"},"type":"Feature","geometry":{"type":"Point","coordinates":[-74.242472,41.004645]}},{"properties":{"mailing_address":"PO Box 71","city":"Ogdensburg","zipcode":"07439","geo_score":0.286,"%school religious exemptions":4.08,"school_name":"The Hunter School","total reported students in school":49,"id":"a6etfzmrzcwo","geo_precision":"street"},"type":"Feature","geometry":{"type":"Point","coordinates":[-74.119954,40.902071]}},{"properties":{"mailing_address":"1898 Hinds Road","city":"Toms River","zipcode":"08753","geo_score":0.868,"%school religious exemptions":3.1,"school_name":"The Singing Rooster","total reported students in school":129,"id":"a6etfzlf4q5f","geo_precision":"range"},"type":"Feature","geometry":{"type":"Point","coordinates":[-74.147324,40.016104]}},{"properties":{"mailing_address":"113 Cottage Place","city":"Ridgewood","zipcode":"07450","geo_score":0.902,"%school religious exemptions":9.09,"school_name":"Little crane Montessori School","total reported students in school":22,"id":"a6etfzc6p5ih","geo_precision":"range"},"type":"Feature","geometry":{"type":"Point","coordinates":[-74.114683,40.981289]}},{"properties":{"mailing_address":"26 Montrose Avenue","city":"Verona","zipcode":"07044","geo_score":0.902,"%school religious exemptions":3.17,"school_name":"The Children's House","total reported students in school":63,"id":"a6etfze6qc1s","geo_precision":"range"},"type":"Feature","geometry":{"type":"Point","coordinates":[-74.247338,40.83115]}},{"properties":{"mailing_address":"817 Whitehorse-Hamilton Square Road","city":"Hamilton","zipcode":"08690","geo_score":0.64,"%school religious exemptions":4.55,"school_name":"Montessori School of Hamilton","total reported students in school":88,"id":"a6etfzekr76z","geo_precision":"street"},"type":"Feature","geometry":{"type":"Point","coordinates":[-74.688693,40.2053]}},{"properties":{"mailing_address":"1542 North Bay Avenue","city":"Toms River","zipcode":"08753","geo_score":0.868,"%school religious exemptions":3.39,"school_name":"Jane Addams Daycare Center","total reported students in school":59,"id":"a6etfzn0zeee","geo_precision":"range"},"type":"Feature","geometry":{"type":"Point","coordinates":[-74.184732,39.9892]}},{"properties":{"mailing_address":"83 West Main Street","city":"Rockaway","zipcode":"07866","geo_score":0.817,"%school religious exemptions":16.67,"school_name":"Blue Skies Day Care","total reported students in school":12,"id":"a6etfznymblc","geo_precision":"range"},"type":"Feature","geometry":{"type":"Point","coordinates":[-74.515274,40.900918]}},{"properties":{"mailing_address":"278 North 8th Street","city":"Prospect Park","zipcode":"07508","geo_score":0.805,"%school religious exemptions":4.17,"school_name":"Al-Hikmah Elementary School (I.E.F.)","total reported students in school":96,"id":"a6etfzk7s0c7","geo_precision":"range"},"type":"Feature","geometry":{"type":"Point","coordinates":[-74.172873,40.933086]}},{"properties":{"mailing_address":"128 N. Farview  Ave.","city":"Paramus","zipcode":"07652","geo_score":0.468,"%school religious exemptions":10.0,"school_name":"Mission Kids Nursery School","total reported students in school":10,"id":"a6etfzne3l98","geo_precision":"street"},"type":"Feature","geometry":{"type":"Point","coordinates":[-74.068591,40.91985]}},{"properties":{"mailing_address":"200 North Main Street","city":"Lambertville","zipcode":"08530","geo_score":0.829,"%school religious exemptions":5.56,"school_name":"Lambertville Public","total reported students in school":54,"id":"a6etfzqnbpiv","geo_precision":"range"},"type":"Feature","geometry":{"type":"Point","coordinates":[-74.944923,40.373177]}},{"properties":{"mailing_address":"40 Franklin TPKE","city":"Waldwick","zipcode":"07463","geo_score":0.902,"%school religious exemptions":6.76,"school_name":"The Little School","total reported students in school":74,"id":"a6etfzde3747","geo_precision":"range"},"type":"Feature","geometry":{"type":"Point","coordinates":[-74.119661,41.010618]}},{"properties":{"mailing_address":"662 Goffle Road","city":"Hawthorne","zipcode":"07506","geo_score":0.902,"%school religious exemptions":6.52,"school_name":"The Learning Tree Preschool and childcare","total reported students in school":46,"id":"a6etfzp4vlzo","geo_precision":"range"},"type":"Feature","geometry":{"type":"Point","coordinates":[-74.162346,40.956227]}},{"properties":{"mailing_address":"1 Church Street","city":"Cape May Court House","zipcode":"08210","geo_score":0.822,"%school religious exemptions":3.85,"school_name":"Church Street Christian School","total reported students in school":52,"id":"a6etfzj73jm1","geo_precision":"range"},"type":"Feature","geometry":{"type":"Point","coordinates":[-74.824555,39.084835]}},{"properties":{"mailing_address":"400 N. Main Street","city":"Manahawkin","zipcode":"08050","geo_score":0.388,"%school religious exemptions":5.26,"school_name":"Southern Ocean Preschool","total reported students in school":76,"id":"a6etfzfb4ev8","geo_precision":"street"},"type":"Feature","geometry":{"type":"Point","coordinates":[-74.260145,39.694244]}},{"properties":{"mailing_address":"29 Coddington Terrace","city":"Livingston, New Jersey","zipcode":"07039","geo_score":0.82,"%school religious exemptions":6.67,"school_name":"Children's Workshop Preschool","total reported students in school":30,"id":"a6etfzp2xloa","geo_precision":"range"},"type":"Feature","geometry":{"type":"Point","coordinates":[-74.33656,40.778042]}},{"properties":{"mailing_address":"1075 Easton Ave.","city":"Somerset","zipcode":"08873","geo_score":0.815,"%school religious exemptions":3.45,"school_name":"Grace Montessori School","total reported students in school":29,"id":"a6etfzcafv89","geo_precision":"range"},"type":"Feature","geometry":{"type":"Point","coordinates":[-74.48851,40.515534]}},{"properties":{"mailing_address":"808 Abbott Blvd.","city":"Fort Lee","zipcode":"07024","geo_score":0.84,"%school religious exemptions":3.13,"school_name":"Preschool at Chabad of Fort Lee","total reported students in school":32,"id":"a6etfznrmloh","geo_precision":"range"},"type":"Feature","geometry":{"type":"Point","coordinates":[-73.982708,40.831311]}},{"properties":{"mailing_address":"44 Ryerson Avenue","city":"Newton","zipcode":"07860","geo_score":0.528,"%school religious exemptions":6.67,"school_name":"Newton High School Child Care Center","total reported students in school":15,"id":"a6etfze77mps","geo_precision":"street"},"type":"Feature","geometry":{"type":"Point","coordinates":[-74.665692,40.921558]}},{"properties":{"mailing_address":"3155 ROUTE 10; SUITE LL200","city":"DENVILLE","zipcode":"07834","geo_score":0.643,"%school religious exemptions":3.33,"school_name":"UNION HILL NURSERY SCHOOL","total reported students in school":30,"id":"a6etfzmccku1","geo_precision":"street"},"type":"Feature","geometry":{"type":"Point","coordinates":[-74.506447,40.865196]}},{"properties":{"mailing_address":"201 ROSELD AVENUE","city":"DEAL","zipcode":"07723","geo_score":0.854,"%school religious exemptions":11.43,"school_name":"LITTLE ONES","total reported students in school":35,"id":"a6etfzkqtqvf","geo_precision":"range"},"type":"Feature","geometry":{"type":"Point","coordinates":[-74.005584,40.247741]}}],"is_temporal":false,"author":{"url":"","metadata":"","contact_name":"","contact_address":"","source":"","contact_phone":""},"source":"","pagination":{"sort":null,"start":0,"total":468,"limit":1000000},"state":"complete","tags":"","published":"2014-08-12T21:39:25-04:00","id":110330}