{"type":"FeatureCollection","data_type":"Dataset","url_type":null,"permissions":[{"permissions":{"download":true,"view":true},"group_id":"everyone"}],"classification":null,"title":"Mid-Atlantic - House - 43rd Congress","count":72,"stream_id":110560,"contributor":{"url":"http://geocommons.com/users/25572","name":"rungiraffe"},"data_attributes":null,"calculation_params":null,"icon_link":null,"link":"http://geocommons.com/overlays/110560.json","extent":[-77.0454,38.8861,-77.0007,38.9118],"geometry_types":["point"],"unique_name":null,"name":"Mid-Atlantic - House - 43rd Congress","feature_count":72,"description":"","next_feature":null,"is_raster":false,"short_classification":"Y","stats":{"latitude":{"max":38.911762,"mean":38.8979995,"variance":1.35861698873298e-05,"stdev":0.00368594219804514,"min":38.886146,"median":38.898708},"longitude":{"max":-77.000748,"mean":-77.029247375,"variance":6.04569621813261e-05,"stdev":0.00777540752509642,"min":-77.045386,"median":-77.030909}},"features":[{"properties":{"city":"Washington","name":"Abraham Herr SMITH of PA","latitude":38.896264,"hotel":"Willard's Hotel","region":"Mid-Atlantic","street":"1401 Pennsylvania Ave. NW","longitude":-77.032066,"id":"a62xqr37e47a","state":"DC","party":"Republican"},"type":"Feature","geometry":{"type":"Point","coordinates":[-77.032066,38.896264]}},{"properties":{"city":"Washington","name":"Alexander Wilson TAYLOR of PA","latitude":38.88867,"hotel":null,"region":"Mid-Atlantic","street":"217 A St. SE","longitude":-77.002019,"id":"a62xqrduaxc5","state":"DC","party":"Republican"},"type":"Feature","geometry":{"type":"Point","coordinates":[-77.002019,38.88867]}},{"properties":{"city":"Washington","name":"Alfred Crout HARMER of PA","latitude":38.897193,"hotel":null,"region":"Mid-Atlantic","street":"1310 F St. NW","longitude":-77.030041,"id":"a62xqrfmdvmp","state":"DC","party":"Republican"},"type":"Feature","geometry":{"type":"Point","coordinates":[-77.030041,38.897193]}},{"properties":{"city":"Washington","name":"Amos, Jr. CLARK of NJ","latitude":38.896264,"hotel":"Willard's Hotel","region":"Mid-Atlantic","street":"1401 Pennsylvania Ave. NW","longitude":-77.032066,"id":"a62xqr3icmdc","state":"DC","party":"Republican"},"type":"Feature","geometry":{"type":"Point","coordinates":[-77.032066,38.896264]}},{"properties":{"city":"Washington","name":"Carlton Brandaga CURTIS of PA","latitude":38.896264,"hotel":"Willard's Hotel","region":"Mid-Atlantic","street":"1401 Pennsylvania Ave. NW","longitude":-77.032066,"id":"a62xqrc6a072","state":"DC","party":"Republican"},"type":"Feature","geometry":{"type":"Point","coordinates":[-77.032066,38.896264]}},{"properties":{"city":"Washington","name":"Charles ALBRIGHT of PA","latitude":38.897191,"hotel":null,"region":"Mid-Atlantic","street":"1324 F St. NW","longitude":-77.030306,"id":"a62xqr916lcp","state":"DC","party":"Republican"},"type":"Feature","geometry":{"type":"Point","coordinates":[-77.030306,38.897191]}},{"properties":{"city":"Washington","name":"Charles O'NEILL of PA","latitude":38.896422,"hotel":null,"region":"Mid-Atlantic","street":"516 13th St. NW","longitude":-77.02978,"id":"a62xqrhk4joy","state":"DC","party":"Republican"},"type":"Feature","geometry":{"type":"Point","coordinates":[-77.02978,38.896422]}},{"properties":{"city":"Washington","name":"Charles ST. JOHN of NY","latitude":38.892638,"hotel":"National Hotel","region":"Mid-Atlantic","street":"600 Pennsylvania Ave. NW","longitude":-77.020077,"id":"a62xqrb90asg","state":"DC","party":"Republican"},"type":"Feature","geometry":{"type":"Point","coordinates":[-77.020077,38.892638]}},{"properties":{"city":"Washington","name":"Charles West KENDALL of NV","latitude":38.911762,"hotel":null,"region":"Mid-Atlantic","street":"1328 Corcoran St.","longitude":-77.030375,"id":"a62xqrfn8iwr","state":"DC","party":"Democrat"},"type":"Feature","geometry":{"type":"Point","coordinates":[-77.030375,38.911762]}},{"properties":{"city":"Washington","name":"Clarkson Nott POTTER of NY","latitude":38.901503,"hotel":null,"region":"Mid-Atlantic","street":"2009 I St.NW","longitude":-77.045386,"id":"a62xqrfg8dlx","state":"DC","party":"Democrat"},"type":"Feature","geometry":{"type":"Point","coordinates":[-77.045386,38.901503]}},{"properties":{"city":"Washington","name":"Clinton Dugald MacDOUGALL of NY","latitude":38.896409,"hotel":null,"region":"Mid-Atlantic","street":"515 12th St. NW","longitude":-77.0279,"id":"a62xqr7m0ndr","state":"DC","party":"Republican"},"type":"Feature","geometry":{"type":"Point","coordinates":[-77.0279,38.896409]}},{"properties":{"city":"Washington","name":"Clinton Levi MERRIAM of NY","latitude":38.900376,"hotel":null,"region":"Mid-Atlantic","street":"812 12th St. NW","longitude":-77.028184,"id":"a62xqrgrtr2m","state":"DC","party":"Republican"},"type":"Feature","geometry":{"type":"Point","coordinates":[-77.028184,38.900376]}},{"properties":{"city":"Washington","name":"David Miller DE WITT of NY","latitude":38.899628,"hotel":null,"region":"Mid-Atlantic","street":"1338 New York Ave. NW","longitude":-77.030909,"id":"a62xqr8mjsr7","state":"DC","party":"Democrat"},"type":"Feature","geometry":{"type":"Point","coordinates":[-77.030909,38.899628]}},{"properties":{"city":"Washington","name":"David WILBER of NY","latitude":38.88867,"hotel":null,"region":"Mid-Atlantic","street":"218 A St. SE","longitude":-77.000748,"id":"a62xqrbonaco","state":"DC","party":"Republican"},"type":"Feature","geometry":{"type":"Point","coordinates":[-77.000748,38.88867]}},{"properties":{"city":"Washington","name":"Eli PERRY of NY","latitude":38.90046,"hotel":"The Arlington","region":"Mid-Atlantic","street":"810 Vermont Ave. NW","longitude":-77.035152,"id":"a62xqr4o87qp","state":"DC","party":"Democrat"},"type":"Feature","geometry":{"type":"Point","coordinates":[-77.035152,38.90046]}},{"properties":{"city":"Washington","name":"Ellis Henry ROBERTS of NY","latitude":38.902688,"hotel":"Hamilton House","region":"Mid-Atlantic","street":"1001 14th St. NW","longitude":-77.031891,"id":"a62xqrdaveiq","state":"DC","party":"Republican"},"type":"Feature","geometry":{"type":"Point","coordinates":[-77.031891,38.902688]}},{"properties":{"city":"Washington","name":"Ephraim King WILSON of MD","latitude":38.898978,"hotel":null,"region":"Mid-Atlantic","street":"720 13th St. NW","longitude":-77.029685,"id":"a62xqr2qqb7w","state":"DC","party":"Democrat"},"type":"Feature","geometry":{"type":"Point","coordinates":[-77.029685,38.898978]}},{"properties":{"city":"Washington","name":"Fernando WOOD of NY","latitude":38.900866,"hotel":null,"region":"Mid-Atlantic","street":"825 15th St. NW","longitude":-77.033526,"id":"a62xqr6s1rzv","state":"DC","party":"Democrat"},"type":"Feature","geometry":{"type":"Point","coordinates":[-77.033526,38.900866]}},{"properties":{"city":"Washington","name":"Freeman CLARKE of NY","latitude":38.90046,"hotel":"The Arlington","region":"Mid-Atlantic","street":"810 Vermont Ave. NW","longitude":-77.035152,"id":"a62xqr6654g2","state":"DC","party":"Republican"},"type":"Feature","geometry":{"type":"Point","coordinates":[-77.035152,38.90046]}},{"properties":{"city":"Washington","name":"George Gilbert HOSKINS of NY","latitude":38.897458,"hotel":"Ebbitt House","region":"Mid-Atlantic","street":"1345 F St NW","longitude":-77.030686,"id":"a62xqrdmmt5r","state":"DC","party":"Republican"},"type":"Feature","geometry":{"type":"Point","coordinates":[-77.030686,38.897458]}},{"properties":{"city":"Washington","name":"Glenni William SCOFIELD of PA","latitude":38.896264,"hotel":"Willard's Hotel","region":"Mid-Atlantic","street":"1401 Pennsylvania Ave. NW","longitude":-77.032066,"id":"a62xqrcgf5v7","state":"DC","party":"Republican"},"type":"Feature","geometry":{"type":"Point","coordinates":[-77.032066,38.896264]}},{"properties":{"city":"Washington","name":"Henry Harrison HATHORN of NY","latitude":38.90046,"hotel":"The Arlington","region":"Mid-Atlantic","street":"810 Vermont Ave. NW","longitude":-77.035152,"id":"a62xqr9goy8v","state":"DC","party":"Republican"},"type":"Feature","geometry":{"type":"Point","coordinates":[-77.035152,38.90046]}},{"properties":{"city":"Washington","name":"Henry Joel SCUDDER of NY","latitude":38.896264,"hotel":"Willard's Hotel","region":"Mid-Atlantic","street":"1401 Pennsylvania Ave. NW","longitude":-77.032066,"id":"a62xqri7jbrr","state":"DC","party":"Republican"},"type":"Feature","geometry":{"type":"Point","coordinates":[-77.032066,38.896264]}},{"properties":{"city":"Washington","name":"Hiester CLYMER of PA","latitude":38.898896,"hotel":null,"region":"Mid-Atlantic","street":"1517 Pennsylvania Ave. NW","longitude":-77.034724,"id":"a62xqrbe6k3y","state":"DC","party":"Democrat"},"type":"Feature","geometry":{"type":"Point","coordinates":[-77.034724,38.898896]}},{"properties":{"city":"Washington","name":"Hiram Lawton RICHMOND of PA","latitude":38.897192,"hotel":null,"region":"Mid-Atlantic","street":"1320 F St. NW","longitude":-77.03023,"id":"a62xqr55hwpr","state":"DC","party":"Republican"},"type":"Feature","geometry":{"type":"Point","coordinates":[-77.03023,38.897192]}},{"properties":{"city":"Washington","name":"Horace Boardman SMITH of NY","latitude":38.90273,"hotel":null,"region":"Mid-Atlantic","street":"1213 K St. NW","longitude":-77.028817,"id":"a62xqr9zi150","state":"DC","party":"Republican"},"type":"Feature","geometry":{"type":"Point","coordinates":[-77.028817,38.90273]}},{"properties":{"city":"Washington","name":"Isaac Williamson SCUDDER of NJ","latitude":38.900542,"hotel":"Wormley's Hotel","region":"Mid-Atlantic","street":"809 15th St NW","longitude":-77.033468,"id":"a62xqr2p51g1","state":"DC","party":"Republican"},"type":"Feature","geometry":{"type":"Point","coordinates":[-77.033468,38.900542]}},{"properties":{"city":"Washington","name":"James Dale STRAWBRIDGE of PA","latitude":38.899983,"hotel":null,"region":"Mid-Atlantic","street":"933 H St. NW","longitude":-77.024685,"id":"a62xqr3dcabb","state":"DC","party":"Republican"},"type":"Feature","geometry":{"type":"Point","coordinates":[-77.024685,38.899983]}},{"properties":{"city":"Washington","name":"James Rush LOFLAND of DE","latitude":38.896252,"hotel":"Imperial Hotel","region":"Mid-Atlantic","street":"1331 Pennsylvania Ave. NW","longitude":-77.030426,"id":"a62xqr71patj","state":"DC","party":"Republican"},"type":"Feature","geometry":{"type":"Point","coordinates":[-77.030426,38.896252]}},{"properties":{"city":"Washington","name":"James Scott NEGLEY of PA","latitude":38.896264,"hotel":"Willard's Hotel","region":"Mid-Atlantic","street":"1401 Pennsylvania Ave. NW","longitude":-77.032066,"id":"a62xqr3f82yu","state":"DC","party":"Republican"},"type":"Feature","geometry":{"type":"Point","coordinates":[-77.032066,38.896264]}},{"properties":{"city":"Washington","name":"James Soloman BIERY of PA","latitude":38.896264,"hotel":"Willard's Hotel","region":"Mid-Atlantic","street":"1401 Pennsylvania Ave. NW","longitude":-77.032066,"id":"a62xqre2sh50","state":"DC","party":"Republican"},"type":"Feature","geometry":{"type":"Point","coordinates":[-77.032066,38.896264]}},{"properties":{"city":"Washington","name":"James Stevenson SMART of NY","latitude":38.897239,"hotel":null,"region":"Mid-Atlantic","street":"1108 F St. NW","longitude":-77.027203,"id":"a62xqr3qir39","state":"DC","party":"Republican"},"type":"Feature","geometry":{"type":"Point","coordinates":[-77.027203,38.897239]}},{"properties":{"city":"Washington","name":"John Alexander MAGEE of PA","latitude":38.892638,"hotel":"National Hotel","region":"Mid-Atlantic","street":"600 Pennsylvania Ave. NW","longitude":-77.020077,"id":"a62xqrfv4zhp","state":"DC","party":"Democrat"},"type":"Feature","geometry":{"type":"Point","coordinates":[-77.020077,38.892638]}},{"properties":{"city":"Washington","name":"John Brutzman STORM of PA","latitude":38.896409,"hotel":null,"region":"Mid-Atlantic","street":"515 12th St. NW","longitude":-77.0279,"id":"a62xqr2lz2yc","state":"DC","party":"Democrat"},"type":"Feature","geometry":{"type":"Point","coordinates":[-77.0279,38.896409]}},{"properties":{"city":"Washington","name":"John CESSNA of PA","latitude":38.896252,"hotel":"Imperial Hotel","region":"Mid-Atlantic","street":"1331 Pennsylvania Ave. NW","longitude":-77.030426,"id":"a62xqr43x8ir","state":"DC","party":"Republican"},"type":"Feature","geometry":{"type":"Point","coordinates":[-77.030426,38.896252]}},{"properties":{"city":"Washington","name":"John Daniel LAWSON of NY","latitude":38.90046,"hotel":"The Arlington","region":"Mid-Atlantic","street":"810 Vermont Ave. NW","longitude":-77.035152,"id":"a62xqrd8s6he","state":"DC","party":"Republican"},"type":"Feature","geometry":{"type":"Point","coordinates":[-77.035152,38.90046]}},{"properties":{"city":"Washington","name":"John Godfrey SCHUMAKER of NY","latitude":38.90046,"hotel":"The Arlington","region":"Mid-Atlantic","street":"810 Vermont Ave. NW","longitude":-77.035152,"id":"a62xqr8r40i1","state":"DC","party":"Democrat"},"type":"Feature","geometry":{"type":"Point","coordinates":[-77.035152,38.90046]}},{"properties":{"city":"Washington","name":"John McCandless THOMPSON of PA","latitude":38.897458,"hotel":"Ebbitt House","region":"Mid-Atlantic","street":"1345 F St NW","longitude":-77.030686,"id":"a62xqr2n20ej","state":"DC","party":"Republican"},"type":"Feature","geometry":{"type":"Point","coordinates":[-77.030686,38.897458]}},{"properties":{"city":"Washington","name":"John Osborne WHITEHOUSE of NY","latitude":38.896264,"hotel":"Willard's Hotel","region":"Mid-Atlantic","street":"1401 Pennsylvania Ave. NW","longitude":-77.032066,"id":"a62xqreklvw1","state":"DC","party":"Democrat"},"type":"Feature","geometry":{"type":"Point","coordinates":[-77.032066,38.896264]}},{"properties":{"city":"Washington","name":"John Weinland KILLINGER of PA","latitude":38.900164,"hotel":null,"region":"Mid-Atlantic","street":"806 12th St. NW","longitude":-77.028184,"id":"a62xqr5y0qh0","state":"DC","party":"Republican"},"type":"Feature","geometry":{"type":"Point","coordinates":[-77.028184,38.900164]}},{"properties":{"city":"Washington","name":"John Wright HAZELTON of NJ","latitude":38.892818,"hotel":null,"region":"Mid-Atlantic","street":"227 3rd St. NW","longitude":-77.001841,"id":"a62xqr5lk7y0","state":"DC","party":"Republican"},"type":"Feature","geometry":{"type":"Point","coordinates":[-77.001841,38.892818]}},{"properties":{"city":"Washington","name":"Lazarus Denison SHOEMAKER of PA","latitude":38.896264,"hotel":"Willard's Hotel","region":"Mid-Atlantic","street":"1401 Pennsylvania Ave. NW","longitude":-77.032066,"id":"a62xqrhsizfq","state":"DC","party":"Republican"},"type":"Feature","geometry":{"type":"Point","coordinates":[-77.032066,38.896264]}},{"properties":{"city":"Washington","name":"Lemuel TODD of PA","latitude":38.897217,"hotel":null,"region":"Mid-Atlantic","street":"910 F St. NW","longitude":-77.024311,"id":"a62xqrhrdwjy","state":"DC","party":"Republican"},"type":"Feature","geometry":{"type":"Point","coordinates":[-77.024311,38.897217]}},{"properties":{"city":"Washington","name":"Leonard MYERS of PA","latitude":38.895203,"hotel":null,"region":"Mid-Atlantic","street":"424 11th St. NW","longitude":-77.027178,"id":"a62xqr6xr9ta","state":"DC","party":"Republican"},"type":"Feature","geometry":{"type":"Point","coordinates":[-77.027178,38.895203]}},{"properties":{"city":"Washington","name":"Lloyd, Jr. LOWNDES of MD","latitude":38.902709,"hotel":null,"region":"Mid-Atlantic","street":"1209 K St. NW","longitude":-77.028786,"id":"a62xqrb4meij","state":"DC","party":"Republican"},"type":"Feature","geometry":{"type":"Point","coordinates":[-77.028786,38.902709]}},{"properties":{"city":"Washington","name":"Lyman Kidder BASS of NY","latitude":38.901187,"hotel":null,"region":"Mid-Atlantic","street":"1412 I St. NW","longitude":-77.032295,"id":"a62xqr4gbdwb","state":"DC","party":"Republican"},"type":"Feature","geometry":{"type":"Point","coordinates":[-77.032295,38.901187]}},{"properties":{"city":"Washington","name":"Lyman TREMAIN of NY","latitude":38.90046,"hotel":"The Arlington","region":"Mid-Atlantic","street":"810 Vermont Ave. NW","longitude":-77.035152,"id":"a62xqriv0c7f","state":"DC","party":"Republican"},"type":"Feature","geometry":{"type":"Point","coordinates":[-77.035152,38.90046]}},{"properties":{"city":"Washington","name":"Marcus Lawrence WARD of NJ","latitude":38.901189,"hotel":null,"region":"Mid-Atlantic","street":"1336 I St. NW","longitude":-77.030376,"id":"a62xqre2cvsa","state":"DC","party":"Republican"},"type":"Feature","geometry":{"type":"Point","coordinates":[-77.030376,38.901189]}},{"properties":{"city":"Washington","name":"Philip Schuyler CROOKE of NY","latitude":38.90046,"hotel":"The Arlington","region":"Mid-Atlantic","street":"810 Vermont Ave. NW","longitude":-77.035152,"id":"a62xqr3kq1j1","state":"DC","party":"Republican"},"type":"Feature","geometry":{"type":"Point","coordinates":[-77.035152,38.90046]}},{"properties":{"city":"Washington","name":"Robert HAMILTON of NJ","latitude":38.896264,"hotel":"Willard's Hotel","region":"Mid-Atlantic","street":"1401 Pennsylvania Ave. NW","longitude":-77.032066,"id":"a62xqra7eoeh","state":"DC","party":"Democrat"},"type":"Feature","geometry":{"type":"Point","coordinates":[-77.032066,38.896264]}},{"properties":{"city":"Washington","name":"Robert Milton SPEER of PA","latitude":38.892638,"hotel":"National Hotel","region":"Mid-Atlantic","street":"600 Pennsylvania Ave. NW","longitude":-77.020077,"id":"a62xqrd1twmj","state":"DC","party":"Democrat"},"type":"Feature","geometry":{"type":"Point","coordinates":[-77.020077,38.892638]}},{"properties":{"city":"Washington","name":"Robert Safford HALE of NY","latitude":38.900305,"hotel":null,"region":"Mid-Atlantic","street":"810 12th St. NW","longitude":-77.028184,"id":"a62xqr6wudmz","state":"DC","party":"Republican"},"type":"Feature","geometry":{"type":"Point","coordinates":[-77.028184,38.900305]}},{"properties":{"city":"Washington","name":"Rodolphus Holland DUELL of NY","latitude":38.892312,"hotel":"St. James Hotel","region":"Mid-Atlantic","street":"401 Constitution Ave. NW","longitude":-77.018672,"id":"a62xqrdh2mse","state":"DC","party":"Republican"},"type":"Feature","geometry":{"type":"Point","coordinates":[-77.018672,38.892312]}},{"properties":{"city":"Washington","name":"Samuel Atkinson DOBBINS of NJ","latitude":38.896264,"hotel":"Willard's Hotel","region":"Mid-Atlantic","street":"1401 Pennsylvania Ave. NW","longitude":-77.032066,"id":"a62xqr76t8qt","state":"DC","party":"Republican"},"type":"Feature","geometry":{"type":"Point","coordinates":[-77.032066,38.896264]}},{"properties":{"city":"Washington","name":"Samuel Jackson RANDALL of PA","latitude":38.886146,"hotel":null,"region":"Mid-Atlantic","street":"120 C St. SE","longitude":-77.00533,"id":"a62xqrb750sq","state":"DC","party":"Democrat"},"type":"Feature","geometry":{"type":"Point","coordinates":[-77.00533,38.886146]}},{"properties":{"city":"Washington","name":"Simeon Baldwin CHITTENDEN of NY","latitude":38.90046,"hotel":"The Arlington","region":"Mid-Atlantic","street":"810 Vermont Ave. NW","longitude":-77.035152,"id":"a62xqrhvjtu8","state":"DC","party":"Independent Republican"},"type":"Feature","geometry":{"type":"Point","coordinates":[-77.035152,38.90046]}},{"properties":{"city":"Washington","name":"Sobieski ROSS of PA","latitude":38.897463,"hotel":null,"region":"Mid-Atlantic","street":"1405 F St. NW","longitude":-77.032197,"id":"a62xqretsexe","state":"DC","party":"Republican"},"type":"Feature","geometry":{"type":"Point","coordinates":[-77.032197,38.897463]}},{"properties":{"city":"Washington","name":"Stevenson ARCHER of MD","latitude":38.898978,"hotel":null,"region":"Mid-Atlantic","street":"720 13th St. NW","longitude":-77.029685,"id":"a62xqrddh8rc","state":"DC","party":"Democrat"},"type":"Feature","geometry":{"type":"Point","coordinates":[-77.029685,38.898978]}},{"properties":{"city":"Washington","name":"Stewart Lyndon WOODFORD of NY","latitude":38.90046,"hotel":"The Arlington","region":"Mid-Atlantic","street":"810 Vermont Ave. NW","longitude":-77.035152,"id":"a62xqrhov1p6","state":"DC","party":"Republican"},"type":"Feature","geometry":{"type":"Point","coordinates":[-77.035152,38.90046]}},{"properties":{"city":"Washington","name":"Thomas Collier PLATT of NY","latitude":38.900027,"hotel":null,"region":"Mid-Atlantic","street":"1518 H St. NW","longitude":-77.0348,"id":"a62xqr5h692z","state":"DC","party":"Republican"},"type":"Feature","geometry":{"type":"Point","coordinates":[-77.0348,38.900027]}},{"properties":{"city":"Washington","name":"Thomas James CREAMER of NY","latitude":38.90046,"hotel":"The Arlington","region":"Mid-Atlantic","street":"810 Vermont Ave. NW","longitude":-77.035152,"id":"a62xqreib970","state":"DC","party":"Democrat"},"type":"Feature","geometry":{"type":"Point","coordinates":[-77.035152,38.90046]}},{"properties":{"city":"Washington","name":"Thomas SWANN of MD","latitude":38.900855,"hotel":null,"region":"Mid-Atlantic","street":"823 15th St.","longitude":-77.033538,"id":"a62xqr3f7ftx","state":"DC","party":"Democrat"},"type":"Feature","geometry":{"type":"Point","coordinates":[-77.033538,38.900855]}},{"properties":{"city":"Washington","name":"Walter Loomis SESSIONS of NY","latitude":38.901167,"hotel":null,"region":"Mid-Atlantic","street":"1324 I St. NW","longitude":-77.030157,"id":"a62xqr8leme2","state":"DC","party":"Republican"},"type":"Feature","geometry":{"type":"Point","coordinates":[-77.030157,38.901167]}},{"properties":{"city":"Washington","name":"Washington TOWNSEND of PA","latitude":38.898708,"hotel":null,"region":"Mid-Atlantic","street":"713 14th St. NW","longitude":-77.031834,"id":"a62xqrgmgxp0","state":"DC","party":"Republican"},"type":"Feature","geometry":{"type":"Point","coordinates":[-77.031834,38.898708]}},{"properties":{"city":"Washington","name":"William Almon WHEELER of NY","latitude":38.900446,"hotel":null,"region":"Mid-Atlantic","street":"815 12th St. NW","longitude":-77.027914,"id":"a62xqrfw0t06","state":"DC","party":"Republican"},"type":"Feature","geometry":{"type":"Point","coordinates":[-77.027914,38.900446]}},{"properties":{"city":"Washington","name":"William Darrah KELLEY of PA","latitude":38.898757,"hotel":null,"region":"Mid-Atlantic","street":"715 14th St. NW","longitude":-77.031834,"id":"a62xqrbfuz1g","state":"DC","party":"Republican"},"type":"Feature","geometry":{"type":"Point","coordinates":[-77.031834,38.898757]}},{"properties":{"city":"Washington","name":"William Esselstyne LANSING of NY","latitude":38.896264,"hotel":"Willard's Hotel","region":"Mid-Atlantic","street":"1401 Pennsylvania Ave. NW","longitude":-77.032066,"id":"a62xqr7e9ejt","state":"DC","party":"Republican"},"type":"Feature","geometry":{"type":"Point","coordinates":[-77.032066,38.896264]}},{"properties":{"city":"Washington","name":"William Henry LAMPORT of NY","latitude":38.90072,"hotel":null,"region":"Mid-Atlantic","street":"814 I St. NW","longitude":-77.023095,"id":"a62xqrh0d4fv","state":"DC","party":"Republican"},"type":"Feature","geometry":{"type":"Point","coordinates":[-77.023095,38.90072]}},{"properties":{"city":"Washington","name":"William Julian ALBERT of MD","latitude":38.899628,"hotel":null,"region":"Mid-Atlantic","street":"717 Madison Place NW","longitude":-77.035012,"id":"a62xqr2lhi6e","state":"DC","party":"Republican"},"type":"Feature","geometry":{"type":"Point","coordinates":[-77.035012,38.899628]}},{"properties":{"city":"Washington","name":"William Randall ROBERTS of NY","latitude":38.896264,"hotel":"Willard's Hotel","region":"Mid-Atlantic","street":"1401 Pennsylvania Ave. NW","longitude":-77.032066,"id":"a62xqr99bd1t","state":"DC","party":"Democrat"},"type":"Feature","geometry":{"type":"Point","coordinates":[-77.032066,38.896264]}},{"properties":{"city":"Washington","name":"William Sutton MOORE of PA","latitude":38.895225,"hotel":null,"region":"Mid-Atlantic","street":"426 11th St. NW","longitude":-77.027178,"id":"a62xqr47hdtb","state":"DC","party":"Republican"},"type":"Feature","geometry":{"type":"Point","coordinates":[-77.027178,38.895225]}},{"properties":{"city":"Washington","name":"William Walter PHELPS of NJ","latitude":38.900027,"hotel":null,"region":"Mid-Atlantic","street":"1518 H St. NW","longitude":-77.0348,"id":"a62xqrcl2az7","state":"DC","party":"Republican"},"type":"Feature","geometry":{"type":"Point","coordinates":[-77.0348,38.900027]}}],"is_temporal":false,"author":{"url":"","metadata":"","contact_name":"","contact_address":"","source":"Con","contact_phone":""},"source":"","pagination":{"sort":null,"start":0,"total":72,"limit":1000000},"state":"complete","tags":"","published":"2011-04-25T14:34:06Z","id":110560}