{"type":"FeatureCollection","data_type":"Dataset","url_type":null,"permissions":[{"permissions":{"download":true,"view":true},"group_id":"everyone"}],"classification":null,"title":"Power 6 ","count":77,"stream_id":110666,"contributor":{"url":"http://geocommons.com/users/25933","name":"nickmc10"},"data_attributes":null,"calculation_params":null,"icon_link":null,"link":"http://geocommons.com/overlays/110666.json","extent":[-123.262,25.7743,-71.2116,47.6062],"geometry_types":["point"],"unique_name":null,"name":"Power 6 ","feature_count":77,"description":"","next_feature":null,"is_raster":false,"short_classification":"Y","stats":{},"features":[{"properties":{"city":"Champaign","zip":"61801","geo_score":0.889,"id":"a65hfefhsige","geo_precision":"zip","big 10":"University of Illinois","state":"Illinois"},"type":"Feature","geometry":{"type":"Point","coordinates":[-88.11032,40.113367]}},{"properties":{"city":"Bloomington","zip":"47408","geo_score":1.0,"id":"a65hfe88bc32","geo_precision":"zip","big 10":"Indiana University","state":"Indiana"},"type":"Feature","geometry":{"type":"Point","coordinates":[-86.469187,39.230326]}},{"properties":{"city":"Iowa City","zip":"52240","geo_score":0.881,"id":"a65hfelzfjmg","geo_precision":"zip","big 10":"University of Iowa","state":"Iowa"},"type":"Feature","geometry":{"type":"Point","coordinates":[-91.66128,41.569183]}},{"properties":{"city":"East Lansing","zip":"48823","geo_score":1.0,"id":"a65hfeksyz0g","geo_precision":"zip","big 10":"Michigan State University","state":"Michigan"},"type":"Feature","geometry":{"type":"Point","coordinates":[-84.503527,42.737334]}},{"properties":{"city":"Ann Arbor","zip":"48103","geo_score":1.0,"id":"a65hfe805reu","geo_precision":"zip","big 10":"University of Michigan","state":"Michigan"},"type":"Feature","geometry":{"type":"Point","coordinates":[-83.849042,42.266638]}},{"properties":{"city":"Minneapolis","zip":"55455","geo_score":1.0,"id":"a65hfe7m380x","geo_precision":"zip","big 10":"University of Minnesota","state":"Minnesota"},"type":"Feature","geometry":{"type":"Point","coordinates":[-93.298376,45.038364]}},{"properties":{"city":"Evanston","zip":"60208","geo_score":1.0,"id":"a65hfe8kx9tq","geo_precision":"zip","big 10":"Northwestern University","state":"Illinois"},"type":"Feature","geometry":{"type":"Point","coordinates":[-87.684506,42.058629]}},{"properties":{"city":"Columbus","zip":"43210","geo_score":1.0,"id":"a65hfe7it896","geo_precision":"zip","big 10":"Ohio State University","state":"Ohio"},"type":"Feature","geometry":{"type":"Point","coordinates":[-82.832558,39.914038]}},{"properties":{"city":"State College","zip":"16801","geo_score":0.869,"id":"a65hfel63edz","geo_precision":"zip","big 10":"Penn State University","state":"Pennsylvania"},"type":"Feature","geometry":{"type":"Point","coordinates":[-77.825555,40.763396]}},{"properties":{"city":"West Lafyette","zip":"47907","geo_score":0.989,"id":"a65hfehweayx","geo_precision":"zip","big 10":"Purdue University","state":"Indiana"},"type":"Feature","geometry":{"type":"Point","coordinates":[-86.916215,40.424923]}},{"properties":{"city":"Madison","zip":"53706","geo_score":1.0,"id":"a65hfeabphgz","geo_precision":"zip","big 10":"University of Wisconsin","state":"Wisconsin"},"type":"Feature","geometry":{"type":"Point","coordinates":[-89.413326,43.077755]}},{"properties":{"city":null,"zip":null,"id":"a65hfelaz4xf","big 10":"ACC","state":null},"type":"Feature","geometry":null},{"properties":{"city":"Winston-Salem","zip":"27106","geo_score":0.881,"id":"a65hfekxewpz","geo_precision":"zip","big 10":"Wake Forest","state":"North Carolina"},"type":"Feature","geometry":{"type":"Point","coordinates":[-80.285329,36.125415]}},{"properties":{"city":"Boston","zip":"2467","geo_score":0.738,"id":"a65hfeao484w","geo_precision":"zip","big 10":"Boston College","state":"Massachusetts"},"type":"Feature","geometry":{"type":"Point","coordinates":[-71.211649,42.357564]}},{"properties":{"city":"Chapel Hill","zip":"27834","geo_score":0.896,"id":"a65hfe73lu46","geo_precision":"zip","big 10":"University of North Carolina","state":"North Carolina"},"type":"Feature","geometry":{"type":"Point","coordinates":[-77.263849,35.447663]}},{"properties":{"city":"Durham","zip":"27708","geo_score":0.857,"id":"a65hfe8clxp1","geo_precision":"zip","big 10":"Duke University","state":"North Carolina"},"type":"Feature","geometry":{"type":"Point","coordinates":[-78.92398,36.028685]}},{"properties":{"city":"Blackburg","zip":"24061","geo_score":0.986,"id":"a65hfe7dlxnu","geo_precision":"zip","big 10":"Virginia Tech","state":"Virginia"},"type":"Feature","geometry":{"type":"Point","coordinates":[-80.351482,37.179115]}},{"properties":{"city":"Tallahasse","zip":"32313","geo_score":0.987,"id":"a65hfem7r1ay","geo_precision":"zip","big 10":"Florida State University","state":"Florida"},"type":"Feature","geometry":{"type":"Point","coordinates":[-84.346204,30.479347]}},{"properties":{"city":"Miami","zip":"33124","geo_score":1.0,"id":"a65hfeanmnxn","geo_precision":"zip","big 10":"University of Miami","state":"Florida"},"type":"Feature","geometry":{"type":"Point","coordinates":[-80.193659,25.774266]}},{"properties":{"city":"Clemson","zip":"29632","geo_score":1.0,"id":"a65hfe6rk1qr","geo_precision":"zip","big 10":"Clemson University","state":"South Carolina"},"type":"Feature","geometry":{"type":"Point","coordinates":[-82.710126,34.847372]}},{"properties":{"city":"Raleigh","zip":"27607","geo_score":1.0,"id":"a65hfejaiu7y","geo_precision":"zip","big 10":"North Carolina State University","state":"North Carolina"},"type":"Feature","geometry":{"type":"Point","coordinates":[-78.707101,35.804237]}},{"properties":{"city":"Atlanta","zip":"30602","geo_score":0.918,"id":"a65hfee08jqk","geo_precision":"zip","big 10":"Georgia Tech","state":"Georgia"},"type":"Feature","geometry":{"type":"Point","coordinates":[-83.365029,33.925971]}},{"properties":{"city":"Charlottesville","zip":"22901","geo_score":0.867,"id":"a65hfed5hygh","geo_precision":"zip","big 10":"University of Virginia","state":"Virginia"},"type":"Feature","geometry":{"type":"Point","coordinates":[-78.466122,38.08597]}},{"properties":{"city":"College Park","zip":"20742","geo_score":0.857,"id":"a65hfe7karxx","geo_precision":"zip","big 10":"University of Maryland","state":"Maryland"},"type":"Feature","geometry":{"type":"Point","coordinates":[-76.877743,38.833563]}},{"properties":{"city":null,"zip":null,"id":"a65hfefd0dtr","big 10":"Big 12","state":null},"type":"Feature","geometry":null},{"properties":{"city":"Stillwater","zip":"74078","geo_score":1.0,"id":"a65hfedd2tgf","geo_precision":"zip","big 10":"Oklahoma State University","state":"Oklahoma"},"type":"Feature","geometry":{"type":"Point","coordinates":[-96.987458,36.093665]}},{"properties":{"city":"Ohmaha","zip":"68182","geo_score":0.976,"id":"a65hfefsrbhu","geo_precision":"zip","big 10":"University of Nebraska","state":"Nebraska"},"type":"Feature","geometry":{"type":"Point","coordinates":[-96.171104,41.291736]}},{"properties":{"city":"Lawrence","zip":"66045","geo_score":1.0,"id":"a65hfe79yop1","geo_precision":"zip","big 10":"University of Kansas","state":"Kansas"},"type":"Feature","geometry":{"type":"Point","coordinates":[-95.275623,38.952526]}},{"properties":{"city":"College Station","zip":"77843","geo_score":1.0,"id":"a65hfeft8g7k","geo_precision":"zip","big 10":"Texas A&amp;M University","state":"Texas"},"type":"Feature","geometry":{"type":"Point","coordinates":[-96.341012,30.65212]}},{"properties":{"city":"Norman","zip":"73019","geo_score":1.0,"id":"a65hfeboxypx","geo_precision":"zip","big 10":"University of Oklahoma","state":"Oklahoma"},"type":"Feature","geometry":{"type":"Point","coordinates":[-97.44451,35.208566]}},{"properties":{"city":"Columbia","zip":"63130","geo_score":0.867,"id":"a65hfei0rsf1","geo_precision":"zip","big 10":"University of Missouri","state":"Missouri"},"type":"Feature","geometry":{"type":"Point","coordinates":[-90.309281,38.655885]}},{"properties":{"city":"Lubbock","zip":"79409","geo_score":1.0,"id":"a65hfe7f0iy0","geo_precision":"zip","big 10":"Texas Tech University","state":"Texas"},"type":"Feature","geometry":{"type":"Point","coordinates":[-101.821292,33.610018]}},{"properties":{"city":"Boulder","zip":"80262","geo_score":0.898,"id":"a65hfecthsq5","geo_precision":"zip","big 10":"University of Colorado","state":"Colorado"},"type":"Feature","geometry":{"type":"Point","coordinates":[-104.938391,39.731038]}},{"properties":{"city":"Austin","zip":"78712","geo_score":1.0,"id":"a65hfe7sri4i","geo_precision":"zip","big 10":"University of Texas","state":"Texas"},"type":"Feature","geometry":{"type":"Point","coordinates":[-97.735394,30.285207]}},{"properties":{"city":"Manhattan","zip":"66502","geo_score":0.889,"id":"a65hfe8agb5b","geo_precision":"zip","big 10":"Kansas State University","state":"Kansas"},"type":"Feature","geometry":{"type":"Point","coordinates":[-96.426666,39.159442]}},{"properties":{"city":"Waco","zip":"76798","geo_score":1.0,"id":"a65hfeks5o61","geo_precision":"zip","big 10":"Baylor University","state":"Texas"},"type":"Feature","geometry":{"type":"Point","coordinates":[-97.203166,31.553646]}},{"properties":{"city":"Ames","zip":"50011","geo_score":1.0,"id":"a65hfejdy7lr","geo_precision":"zip","big 10":"Iowa State University","state":"Iowa"},"type":"Feature","geometry":{"type":"Point","coordinates":[-93.465172,42.035998]}},{"properties":{"city":null,"zip":null,"id":"a65hfeek4oek","big 10":"Big East","state":null},"type":"Feature","geometry":null},{"properties":{"city":"Syracuse","zip":null,"geo_score":0.857,"id":"a65hfeey602z","geo_precision":"city","big 10":"Syracuse University","state":"New York"},"type":"Feature","geometry":{"type":"Point","coordinates":[-76.147424,43.048122]}},{"properties":{"city":"Pittsburgh","zip":null,"geo_score":0.857,"id":"a65hfe6m3xw4","geo_precision":"city","big 10":"University of Pittsburgh","state":"Pennsylvania"},"type":"Feature","geometry":{"type":"Point","coordinates":[-79.995886,40.440625]}},{"properties":{"city":"Philadelphia","zip":null,"geo_score":0.857,"id":"a65hfe6aprqx","geo_precision":"city","big 10":"University of Villanova","state":"Pennsylvania"},"type":"Feature","geometry":{"type":"Point","coordinates":[-75.163789,39.952335]}},{"properties":{"city":"New York City","zip":null,"geo_score":0.662,"id":"a65hfeepl3kh","geo_precision":"city","big 10":"St. Johns University","state":"New York"},"type":"Feature","geometry":{"type":"Point","coordinates":[-74.005973,40.714269]}},{"properties":{"city":"New Brunswick","zip":null,"geo_score":0.714,"id":"a65hfeiby14j","geo_precision":"city","big 10":"Rutgers University","state":"New Jersey"},"type":"Feature","geometry":{"type":"Point","coordinates":[-74.451819,40.486216]}},{"properties":{"city":"Tampa","zip":null,"geo_score":0.857,"id":"a65hfe7otn1f","geo_precision":"city","big 10":"University of South Florida","state":"Florida"},"type":"Feature","geometry":{"type":"Point","coordinates":[-82.458428,27.947522]}},{"properties":{"city":"Providence","zip":null,"geo_score":0.857,"id":"a65hfe9gagt1","geo_precision":"city","big 10":"Providence College","state":"Rhode Island"},"type":"Feature","geometry":{"type":"Point","coordinates":[-71.412834,41.823989]}},{"properties":{"city":"Storrs","zip":null,"geo_score":0.633,"id":"a65hfedkqkmh","geo_precision":"city","big 10":"University of Connecicut","state":"Connecicut"},"type":"Feature","geometry":{"type":"Point","coordinates":[-95.085802,37.340336]}},{"properties":{"city":"South Orange","zip":null,"geo_score":0.649,"id":"a65hfefgikcx","geo_precision":"city","big 10":"Seton Hall University","state":"New Jersey"},"type":"Feature","geometry":{"type":"Point","coordinates":[-117.853112,33.787795]}},{"properties":{"city":"Lousiville","zip":null,"geo_score":0.829,"id":"a65hfe6ehc0q","geo_precision":"city","big 10":"University of Louisville","state":"Kentucky"},"type":"Feature","geometry":{"type":"Point","coordinates":[-85.759407,38.254238]}},{"properties":{"city":"South Bend","zip":null,"geo_score":0.857,"id":"a65hfelj8pme","geo_precision":"city","big 10":"University of Notre Dame","state":"Indiana"},"type":"Feature","geometry":{"type":"Point","coordinates":[-86.250007,41.683381]}},{"properties":{"city":"Chicago","zip":null,"geo_score":0.857,"id":"a65hfedkicf8","geo_precision":"city","big 10":"DePaul University","state":"Illinois"},"type":"Feature","geometry":{"type":"Point","coordinates":[-87.650052,41.850033]}},{"properties":{"city":"Washington D.C","zip":null,"geo_score":0.0,"id":"a65hfedtx1lr","geo_precision":"unmatched","big 10":"University of Georgetown","state":null},"type":"Feature","geometry":null},{"properties":{"city":"Cinncinnati","zip":null,"geo_score":0.844,"id":"a65hfej05rno","geo_precision":"city","big 10":"University of Cinncinnati","state":"Ohio"},"type":"Feature","geometry":{"type":"Point","coordinates":[-84.456886,39.162004]}},{"properties":{"city":"Morgantown","zip":null,"geo_score":0.857,"id":"a65hfe6y4nzp","geo_precision":"city","big 10":"West Virgina University","state":"West Virginia"},"type":"Feature","geometry":{"type":"Point","coordinates":[-79.983141,39.609911]}},{"properties":{"city":"Milwaukee","zip":null,"geo_score":0.857,"id":"a65hfebix2zk","geo_precision":"city","big 10":"Marquette University","state":"Wisconsin"},"type":"Feature","geometry":{"type":"Point","coordinates":[-87.906474,43.038903]}},{"properties":{"city":null,"zip":null,"id":"a65hfea63u2s","big 10":"Pac 10","state":null},"type":"Feature","geometry":null},{"properties":{"city":"Los Angeles","zip":null,"geo_score":0.857,"id":"a65hfebwgjnc","geo_precision":"city","big 10":"University of Southern California","state":"California"},"type":"Feature","geometry":{"type":"Point","coordinates":[-118.243685,34.052234]}},{"properties":{"city":"Los Angeles","zip":null,"geo_score":0.857,"id":"a65hfek1hfdx","geo_precision":"city","big 10":"University of California Los Angeles","state":"California"},"type":"Feature","geometry":{"type":"Point","coordinates":[-118.243685,34.052234]}},{"properties":{"city":"Berkely","zip":null,"geo_score":0.839,"id":"a65hfejrx829","geo_precision":"city","big 10":"University of California","state":"California"},"type":"Feature","geometry":{"type":"Point","coordinates":[-122.29673,37.860576]}},{"properties":{"city":"Tucson","zip":null,"geo_score":0.857,"id":"a65hfee5n2ul","geo_precision":"city","big 10":"University of Arizona","state":"Arizona"},"type":"Feature","geometry":{"type":"Point","coordinates":[-110.926479,32.221743]}},{"properties":{"city":"Tempe","zip":null,"geo_score":0.857,"id":"a65hfeaxl1ai","geo_precision":"city","big 10":"Arizona State University","state":"Arizona"},"type":"Feature","geometry":{"type":"Point","coordinates":[-111.90931,33.414768]}},{"properties":{"city":"Seattle","zip":null,"geo_score":0.857,"id":"a65hfefpmhww","geo_precision":"city","big 10":"University of Washington","state":"Washington"},"type":"Feature","geometry":{"type":"Point","coordinates":[-122.332071,47.60621]}},{"properties":{"city":"Pullman","zip":null,"geo_score":0.857,"id":"a65hfe7o5twb","geo_precision":"city","big 10":"Washington State University","state":"Washington"},"type":"Feature","geometry":{"type":"Point","coordinates":[-117.317741,46.82748]}},{"properties":{"city":"Eugene","zip":null,"geo_score":0.857,"id":"a65hfe67m9z9","geo_precision":"city","big 10":"University of Oregon","state":"Oregon"},"type":"Feature","geometry":{"type":"Point","coordinates":[-123.086754,44.052069]}},{"properties":{"city":"Corvallis","zip":null,"geo_score":0.857,"id":"a65hfea3f7m1","geo_precision":"city","big 10":"Oregon State University","state":"Oregon"},"type":"Feature","geometry":{"type":"Point","coordinates":[-123.262044,44.564566]}},{"properties":{"city":"Palo Alto","zip":null,"geo_score":0.857,"id":"a65hfeewh5m2","geo_precision":"city","big 10":"Stanford","state":"California"},"type":"Feature","geometry":{"type":"Point","coordinates":[-122.14302,37.441883]}},{"properties":{"city":null,"zip":null,"id":"a65hfe8q9rle","big 10":"SEC","state":null},"type":"Feature","geometry":null},{"properties":{"city":"Lexington","zip":null,"geo_score":0.857,"id":"a65hfeefw1bl","geo_precision":"city","big 10":"University of Kentucky","state":"Kentucky"},"type":"Feature","geometry":{"type":"Point","coordinates":[-84.477715,37.988689]}},{"properties":{"city":"Starkville","zip":null,"geo_score":0.857,"id":"a65hfem9a7j1","geo_precision":"city","big 10":"Mississippi State University","state":"Mississippi"},"type":"Feature","geometry":{"type":"Point","coordinates":[-88.879117,33.42554]}},{"properties":{"city":"Oxford","zip":null,"geo_score":0.857,"id":"a65hfejwgr2z","geo_precision":"city","big 10":"University of Mississippi","state":"Mississippi"},"type":"Feature","geometry":{"type":"Point","coordinates":[-90.898158,31.267951]}},{"properties":{"city":"Tuscoloosa","zip":null,"geo_score":0.843,"id":"a65hfeg1vlnw","geo_precision":"city","big 10":"University of Alabama","state":"Alabama"},"type":"Feature","geometry":{"type":"Point","coordinates":[-87.569174,33.209841]}},{"properties":{"city":"Fayetteville","zip":null,"geo_score":0.857,"id":"a65hfeghooip","geo_precision":"city","big 10":"University of Arkansas","state":"Arkansas"},"type":"Feature","geometry":{"type":"Point","coordinates":[-94.190997,35.974602]}},{"properties":{"city":"Gainesville","zip":null,"geo_score":0.818,"id":"a65hfefnvyis","geo_precision":"city","big 10":"University of Florida","state":"Florida"},"type":"Feature","geometry":{"type":"Point","coordinates":[-85.354651,30.731305]}},{"properties":{"city":"Nashville","zip":null,"geo_score":0.857,"id":"a65hfe919vww","geo_precision":"city","big 10":"Vanderbilt University","state":"Tennessee"},"type":"Feature","geometry":{"type":"Point","coordinates":[-86.784443,36.16589]}},{"properties":{"city":"Athens","zip":null,"geo_score":0.857,"id":"a65hfegpbd67","geo_precision":"city","big 10":"University of Georgia","state":"Georgia"},"type":"Feature","geometry":{"type":"Point","coordinates":[-83.353697,33.992902]}},{"properties":{"city":"Auburn","zip":null,"geo_score":0.857,"id":"a65hfeguvb9j","geo_precision":"city","big 10":"University of Auburn","state":"Alabama"},"type":"Feature","geometry":{"type":"Point","coordinates":[-85.468222,32.547542]}},{"properties":{"city":"Columbia","zip":null,"geo_score":0.857,"id":"a65hfeccabvn","geo_precision":"city","big 10":"University of South Carolina","state":"South Carolina"},"type":"Feature","geometry":{"type":"Point","coordinates":[-81.024864,33.987454]}},{"properties":{"city":"Baton Rouge","zip":null,"geo_score":0.857,"id":"a65hfehnxnrs","geo_precision":"city","big 10":"Louisiana State University","state":"Louisiana"},"type":"Feature","geometry":{"type":"Point","coordinates":[-91.154551,30.450746]}}],"is_temporal":false,"author":{"url":"","metadata":"","contact_name":"","contact_address":"","source":"","contact_phone":""},"source":"","pagination":{"sort":null,"start":0,"total":77,"limit":1000000},"state":"complete","tags":"","published":"2014-08-12T22:18:29-04:00","id":110666}