{"type":"FeatureCollection","data_type":"Dataset","url_type":null,"permissions":[{"permissions":{"download":true,"view":true},"group_id":"everyone"}],"classification":null,"title":"final draft","count":35,"stream_id":110809,"contributor":{"url":"http://geocommons.com/users/25868","name":"coatesd1"},"data_attributes":null,"calculation_params":null,"icon_link":null,"link":"http://geocommons.com/overlays/110809.json","extent":[-123.087,30.7313,-74.006,44.0521],"geometry_types":["point"],"unique_name":null,"name":"final draft","feature_count":35,"description":"","next_feature":null,"is_raster":false,"short_classification":"Y","stats":{"championships":{"max":11,"mean":2.08571428571429,"variance":4.43361344537815,"stdev":2.10561474286683,"min":1,"median":1}},"features":[{"properties":{"city":"Tucson","championships":1,"geo_score":0.857,"id":"a7rp54km2t3u","geo_precision":"city","school":"University of Arizona","state":"Arizona"},"type":"Feature","geometry":{"type":"Point","coordinates":[-110.926479,32.221743]}},{"properties":{"city":"Fayetteville","championships":1,"geo_score":0.857,"id":"a7rp54kipuo5","geo_precision":"city","school":"University of Arkansas","state":"Arkansas"},"type":"Feature","geometry":{"type":"Point","coordinates":[-94.190997,35.974602]}},{"properties":{"city":"Berkeley","championships":1,"geo_score":0.857,"id":"a7rp54992bvw","geo_precision":"city","school":"California","state":"California"},"type":"Feature","geometry":{"type":"Point","coordinates":[-122.29673,37.860576]}},{"properties":{"city":"Cincinnati","championships":2,"geo_score":0.857,"id":"a7rp54cad7k4","geo_precision":"city","school":"University of Cincinnati","state":"Ohio"},"type":"Feature","geometry":{"type":"Point","coordinates":[-84.456886,39.162004]}},{"properties":{"city":"New York","championships":1,"geo_score":0.857,"id":"a7rp54mj9vh3","geo_precision":"city","school":"City College of New York","state":"New York"},"type":"Feature","geometry":{"type":"Point","coordinates":[-74.005973,40.714269]}},{"properties":{"city":"Storrs","championships":3,"geo_score":0.633,"id":"a7rp5492fjm4","geo_precision":"city","school":"Univeristy of Connecticut","state":"Connecticuit"},"type":"Feature","geometry":{"type":"Point","coordinates":[-95.085802,37.340336]}},{"properties":{"city":"Durham","championships":4,"geo_score":0.857,"id":"a7rp54gev7n4","geo_precision":"city","school":"Duke University","state":"North Carolina"},"type":"Feature","geometry":{"type":"Point","coordinates":[-78.898619,35.994033]}},{"properties":{"city":"Gainesville","championships":2,"geo_score":0.818,"id":"a7rp54lt5ecw","geo_precision":"city","school":"University of Florida","state":"Florida"},"type":"Feature","geometry":{"type":"Point","coordinates":[-85.354651,30.731305]}},{"properties":{"city":"Washington","championships":1,"geo_score":0.714,"id":"a7rp54m3b40k","geo_precision":"city","school":"Georgetown University","state":"D.C."},"type":"Feature","geometry":{"type":"Point","coordinates":[-77.036366,38.895112]}},{"properties":{"city":"Notre Dame","championships":1,"geo_score":0.857,"id":"a7rp54bypen6","geo_precision":"city","school":"Holy Cross","state":"Indiana"},"type":"Feature","geometry":{"type":"Point","coordinates":[-86.292991,41.596769]}},{"properties":{"city":"Bloomington","championships":5,"geo_score":0.813,"id":"a7rp549w0iap","geo_precision":"city","school":"Indiana University","state":"Indiana"},"type":"Feature","geometry":{"type":"Point","coordinates":[-85.064684,39.502272]}},{"properties":{"city":"Lawrence","championships":3,"geo_score":0.857,"id":"a7rp54lds3ga","geo_precision":"city","school":"University of Kansas","state":"Kansas"},"type":"Feature","geometry":{"type":"Point","coordinates":[-95.283982,38.907518]}},{"properties":{"city":"Lexington","championships":7,"geo_score":0.857,"id":"a7rp54hp11up","geo_precision":"city","school":"University of Kentucky","state":"Kentucky"},"type":"Feature","geometry":{"type":"Point","coordinates":[-84.477715,37.988689]}},{"properties":{"city":"Philadelphia","championships":1,"geo_score":0.857,"id":"a7rp54as0aao","geo_precision":"city","school":"La Salle University","state":"Pennsylvania"},"type":"Feature","geometry":{"type":"Point","coordinates":[-75.163789,39.952335]}},{"properties":{"city":"Louisville","championships":2,"geo_score":0.857,"id":"a7rp54alo3ez","geo_precision":"city","school":"University of Louisville","state":"Kentucky"},"type":"Feature","geometry":{"type":"Point","coordinates":[-85.759407,38.254238]}},{"properties":{"city":"Chicago","championships":1,"geo_score":0.857,"id":"a7rp54iao6q2","geo_precision":"city","school":"Loyola University","state":"Illinois"},"type":"Feature","geometry":{"type":"Point","coordinates":[-87.650052,41.850033]}},{"properties":{"city":"Milwaukee","championships":1,"geo_score":0.714,"id":"a7rp54gq50pm","geo_precision":"city","school":"Marquette University","state":"Wisconsin1"},"type":"Feature","geometry":{"type":"Point","coordinates":[-87.906474,43.038903]}},{"properties":{"city":"College Park","championships":1,"geo_score":0.812,"id":"a7rp54bsvpua","geo_precision":"city","school":"University of Maryland","state":"Maryland"},"type":"Feature","geometry":{"type":"Point","coordinates":[-76.951086,39.008721]}},{"properties":{"city":"Ann Arbor","championships":1,"geo_score":0.75,"id":"a7rp54a4a4ag","geo_precision":"city","school":"University of Michigan","state":"Michigan"},"type":"Feature","geometry":{"type":"Point","coordinates":[-86.176715,42.96502]}},{"properties":{"city":"East Lansing","championships":2,"geo_score":0.805,"id":"a7rp549ed37k","geo_precision":"city","school":"Michigan State University","state":"Michigan"},"type":"Feature","geometry":{"type":"Point","coordinates":[-84.555535,42.732535]}},{"properties":{"city":"Chapel Hill","championships":5,"geo_score":0.857,"id":"a7rp54cqm4as","geo_precision":"city","school":"University of North Carolina","state":"North Carolina"},"type":"Feature","geometry":{"type":"Point","coordinates":[-79.038605,35.926939]}},{"properties":{"city":"Columbus","championships":1,"geo_score":0.776,"id":"a7rp54hpj7vn","geo_precision":"city","school":"Ohio State University","state":"Ohio"},"type":"Feature","geometry":{"type":"Point","coordinates":[-82.695724,39.998397]}},{"properties":{"city":"Stillwater","championships":2,"geo_score":0.857,"id":"a7rp54cb3s4k","geo_precision":"city","school":"Oklahoma State University","state":"Oklahoma"},"type":"Feature","geometry":{"type":"Point","coordinates":[-97.069061,36.101521]}},{"properties":{"city":"Eugene","championships":1,"geo_score":0.857,"id":"a7rp54co1spu","geo_precision":"city","school":"University of Oregon","state":"Oregon"},"type":"Feature","geometry":{"type":"Point","coordinates":[-123.086754,44.052069]}},{"properties":{"city":"San Francisco","championships":2,"geo_score":0.857,"id":"a7rp54jmvv1j","geo_precision":"city","school":"University of San Francisco","state":"California"},"type":"Feature","geometry":{"type":"Point","coordinates":[-122.419416,37.77493]}},{"properties":{"city":"Palo Alto","championships":1,"geo_score":0.857,"id":"a7rp54kve34k","geo_precision":"city","school":"Stanford University","state":"California"},"type":"Feature","geometry":{"type":"Point","coordinates":[-122.14302,37.441883]}},{"properties":{"city":"Syracuse","championships":1,"geo_score":0.857,"id":"a7rp54mavur5","geo_precision":"city","school":"Syracuse University","state":"New York"},"type":"Feature","geometry":{"type":"Point","coordinates":[-76.147424,43.048122]}},{"properties":{"city":"Los Angelos","championships":11,"geo_score":0.843,"id":"a7rp54jzkwo9","geo_precision":"city","school":"UCLA","state":"California"},"type":"Feature","geometry":{"type":"Point","coordinates":[-118.243685,34.052234]}},{"properties":{"city":"Las Vegas","championships":1,"geo_score":0.857,"id":"a7rp54a5uu6l","geo_precision":"city","school":"University of Nevada, Las Vegas","state":"Nevada"},"type":"Feature","geometry":{"type":"Point","coordinates":[-115.137223,36.174971]}},{"properties":{"city":"El Paso","championships":1,"geo_score":0.857,"id":"a7rp54gipyxt","geo_precision":"city","school":"UTEP (Texas Western)","state":"Texas"},"type":"Feature","geometry":{"type":"Point","coordinates":[-106.486931,31.75872]}},{"properties":{"city":"Salt Lake City","championships":1,"geo_score":0.857,"id":"a7rp54axwbe4","geo_precision":"city","school":"University of Utah","state":"Utah"},"type":"Feature","geometry":{"type":"Point","coordinates":[-111.891047,40.760779]}},{"properties":{"city":"Villanova","championships":1,"geo_score":0.857,"id":"a7rp54ms1532","geo_precision":"city","school":"Villanova University","state":"Pennsylvania"},"type":"Feature","geometry":{"type":"Point","coordinates":[-75.369458,40.027909]}},{"properties":{"city":"Madison","championships":1,"geo_score":0.857,"id":"a7rp54b74mha","geo_precision":"city","school":"University of Wisconsin","state":"Wisconsin"},"type":"Feature","geometry":{"type":"Point","coordinates":[-89.40123,43.073052]}},{"properties":{"city":"Laramie","championships":1,"geo_score":0.857,"id":"a7rp54jmpofc","geo_precision":"city","school":"University of Wyoming","state":"Wyoming"},"type":"Feature","geometry":{"type":"Point","coordinates":[-105.801022,41.43902]}},{"properties":{"city":"Raleigh","championships":2,"geo_score":0.857,"id":"a7rp54dgeyox","geo_precision":"city","school":"North Carolina State University","state":"North Carolina"},"type":"Feature","geometry":{"type":"Point","coordinates":[-78.638615,35.772096]}}],"is_temporal":false,"author":{"url":"","metadata":"","contact_name":"","contact_address":"","source":"","contact_phone":""},"source":"","pagination":{"sort":null,"start":0,"total":35,"limit":1000000},"state":"complete","tags":"","published":"2014-08-12T22:26:19-04:00","id":110809}