{"type":"FeatureCollection","data_type":"Dataset","url_type":null,"permissions":[{"permissions":{"download":true,"view":true},"group_id":"everyone"}],"classification":null,"title":"noname","count":11,"stream_id":111033,"contributor":{"url":"http://geocommons.com/users/26020","name":"muthukumarm1982"},"data_attributes":null,"calculation_params":null,"icon_link":null,"link":"http://geocommons.com/overlays/111033.json","extent":[-93.1135,40.4273,-79.891,44.9641],"geometry_types":["point"],"unique_name":null,"name":"noname","feature_count":11,"description":"","next_feature":null,"is_raster":false,"short_classification":"Y","stats":{"latitude":{"max":44.964069,"mean":28.8579226,"variance":1464.18642408052,"stdev":38.2646889975669,"min":-79.970354,"median":40.456907},"longitude":{"max":-79.890968,"mean":-81.3958592222222,"variance":19.3089064985007,"stdev":4.39419008447526,"min":-93.113513,"median":-79.923867}},"features":[{"properties":{"city":"Pittsburgh","latitude":40.456907,"zip":"15232","geo_score":"0.902","longitude":-79.935423,"column_1":null,"id":"a6mjntuiy1rt","geo_precision":"range","address":"5550 Centre Ave","recycle site":"Giant Eagle","state":"PA"},"type":"Feature","geometry":{"type":"Point","coordinates":[-79.935423,40.456907]}},{"properties":{"city":"Pittsburgh","latitude":40.436022,"zip":"15217","geo_score":"0.911","longitude":-79.922879,"column_1":null,"id":"a6mjnttq19t7","geo_precision":"range","address":"1901 Murray Ave","recycle site":"Giant Eagle","state":"PA"},"type":"Feature","geometry":{"type":"Point","coordinates":[-79.922879,40.436022]}},{"properties":{"city":"Pittsburgh","latitude":40.458588,"zip":"15206","geo_score":"0.734","longitude":-79.922162,"column_1":null,"id":"a6mjnu1exqpy","geo_precision":"street","address":"6320 ?Shakespeare Street, ?#7","recycle site":"Giant Eagle","state":"PA"},"type":"Feature","geometry":{"type":"Point","coordinates":[-79.922162,40.458588]}},{"properties":{"city":"Pittsburgh","latitude":40.457629,"zip":"15206","geo_score":"0.929","longitude":-79.917657,"column_1":null,"id":"a6mjntqzg3nb","geo_precision":"range","address":"6401 Penn Ave","recycle site":"Giant Eagle","state":"PA"},"type":"Feature","geometry":{"type":"Point","coordinates":[-79.917657,40.457629]}},{"properties":{"city":"Pittsburgh","latitude":40.443956,"zip":"15217","geo_score":"0.583","longitude":-79.923867,"column_1":null,"id":"a6mjntwzlsyj","geo_precision":"street","address":"Murray ?Ave &amp; ?Loretta St","recycle site":"Giant Eagle","state":"PA"},"type":"Feature","geometry":{"type":"Point","coordinates":[-79.923867,40.443956]}},{"properties":{"city":null,"latitude":null,"zip":null,"geo_score":null,"longitude":null,"column_1":null,"id":"a6mjntwzg4xr","geo_precision":null,"address":null,"recycle site":"Pittsburgh Recycling Services","state":null},"type":"Feature","geometry":null},{"properties":{"city":"15201","latitude":-79.970354,"zip":"40.461117","geo_score":"street","longitude":null,"column_1":null,"id":"a6mjntsqgeos","geo_precision":"Pittsburgh","address":"PA","recycle site":"Smallman ?St &amp; ?32nd St","state":"0.714"},"type":"Feature","geometry":null},{"properties":{"city":"Pittsburgh","latitude":40.430368,"zip":"15203","geo_score":"1","longitude":-79.977165,"column_1":null,"id":"a6mjntr55n8m","geo_precision":"range","address":"2021 Wharton St","recycle site":"Giant Eagle","state":"PA"},"type":"Feature","geometry":{"type":"Point","coordinates":[-79.977165,40.430368]}},{"properties":{"city":"Pittsburgh","latitude":40.474745,"zip":"15201","geo_score":"1","longitude":-79.959099,"column_1":null,"id":"a6mjnu1mg4c1","geo_precision":"range","address":"4701 Plummer St","recycle site":"Giant Eagle","state":"PA"},"type":"Feature","geometry":{"type":"Point","coordinates":[-79.959099,40.474745]}},{"properties":{"city":"Pittsburgh","latitude":40.427296,"zip":"15218","geo_score":"0.545","longitude":-79.890968,"column_1":null,"id":"a6mjntxm1y5y","geo_precision":"street","address":"1705 ?S Braddock ?Ave","recycle site":"giant Eagle","state":"PA"},"type":"Feature","geometry":{"type":"Point","coordinates":[-79.890968,40.427296]}},{"properties":{"city":"St. Paul","latitude":44.964069,"zip":"55103","geo_score":null,"longitude":-93.113513,"column_1":null,"id":"a6mjnu1rejk0","geo_precision":"range","address":"309 Como Avenue","recycle site":"Vasko Rubbish Removal","state":"MN"},"type":"Feature","geometry":{"type":"Point","coordinates":[-93.113513,44.964069]}}],"is_temporal":false,"author":{"url":null,"metadata":null,"contact_name":null,"contact_address":null,"source":null,"contact_phone":null},"source":null,"pagination":{"sort":null,"start":0,"total":11,"limit":1000000},"state":"complete","tags":"","published":"2014-08-12T22:38:55-04:00","id":111033}