{"type":"FeatureCollection","data_type":"Dataset","url_type":null,"permissions":[{"permissions":{"download":true,"view":true},"group_id":"everyone"}],"classification":null,"title":"2010-frequency","count":77,"stream_id":111007,"contributor":{"url":"http://geocommons.com/users/26072","name":"brzy56"},"data_attributes":null,"calculation_params":null,"icon_link":null,"link":"http://geocommons.com/overlays/111007.json","extent":[-123.345,32.7153,-115.967,40.6726],"geometry_types":["point"],"unique_name":null,"name":"2010-frequency","feature_count":77,"description":"","next_feature":null,"is_raster":false,"short_classification":"Y","stats":{"companies":{"max":92,"mean":4.93506493506494,"variance":151.140464798359,"stdev":12.2939198304837,"min":0,"median":2}},"features":[{"properties":{"city":"Los Angeles","geo_score":0.857,"companies":46,"id":"a62bu6akn3p1","geo_precision":"city","state":"CA"},"type":"Feature","geometry":{"type":"Point","coordinates":[-118.243685,34.052234]}},{"properties":{"city":"Encino","geo_score":0.857,"companies":2,"id":"a62bu6bymysp","geo_precision":"city","state":"CA"},"type":"Feature","geometry":{"type":"Point","coordinates":[-118.298662,33.786594]}},{"properties":{"city":"Santa Barbara","geo_score":0.857,"companies":16,"id":"a62bu6bf6176","geo_precision":"city","state":"CA"},"type":"Feature","geometry":{"type":"Point","coordinates":[-119.69819,34.420831]}},{"properties":{"city":"San Diego","geo_score":0.857,"companies":92,"id":"a62bu6aecimx","geo_precision":"city","state":"CA"},"type":"Feature","geometry":{"type":"Point","coordinates":[-117.157255,32.715329]}},{"properties":{"city":"Santa Ana","geo_score":0.857,"companies":4,"id":"a62bu5yzoc8o","geo_precision":"city","state":"CA"},"type":"Feature","geometry":{"type":"Point","coordinates":[-117.867834,33.745573]}},{"properties":{"city":"Irvine","geo_score":0.857,"companies":36,"id":"a62bu61mctdf","geo_precision":"city","state":"CA"},"type":"Feature","geometry":{"type":"Point","coordinates":[-117.823111,33.669465]}},{"properties":{"city":"La Jolla","geo_score":0.857,"companies":11,"id":"a62bu61dhcz2","geo_precision":"city","state":"CA"},"type":"Feature","geometry":{"type":"Point","coordinates":[-117.876447,33.857515]}},{"properties":{"city":"Del Mar","geo_score":0.738,"companies":3,"id":"a62bu60txyzv","geo_precision":"city","state":"CA"},"type":"Feature","geometry":{"type":"Point","coordinates":[-123.34501,39.398219]}},{"properties":{"city":"North Hills","geo_score":0.78,"companies":1,"id":"a62bu6bpzrd5","geo_precision":"city","state":"CA"},"type":"Feature","geometry":{"type":"Point","coordinates":[-117.339207,33.690021]}},{"properties":{"city":"Torrance","geo_score":0.857,"companies":2,"id":"a62bu69kkzmp","geo_precision":"city","state":"CA"},"type":"Feature","geometry":{"type":"Point","coordinates":[-118.340629,33.835849]}},{"properties":{"city":"Lake Forest","geo_score":0.786,"companies":4,"id":"a62bu68iakwz","geo_precision":"city","state":"CA"},"type":"Feature","geometry":{"type":"Point","coordinates":[-119.755172,37.698261]}},{"properties":{"city":"Cerritos","geo_score":0.857,"companies":2,"id":"a62bu5x7blwk","geo_precision":"city","state":"CA"},"type":"Feature","geometry":{"type":"Point","coordinates":[-118.064787,33.858348]}},{"properties":{"city":"Santa Monica","geo_score":0.857,"companies":23,"id":"a62bu5x6z0oe","geo_precision":"city","state":"CA"},"type":"Feature","geometry":{"type":"Point","coordinates":[-118.491191,34.019454]}},{"properties":{"city":"Goleta","geo_score":0.738,"companies":7,"id":"a62bu6911xig","geo_precision":"city","state":"CA"},"type":"Feature","geometry":{"type":"Point","coordinates":[-122.029407,38.025476]}},{"properties":{"city":"Thousand Oaks","geo_score":0.857,"companies":2,"id":"a62bu66qemi5","geo_precision":"city","state":"CA"},"type":"Feature","geometry":{"type":"Point","coordinates":[-118.837594,34.170561]}},{"properties":{"city":"Carlsbad","geo_score":0.857,"companies":9,"id":"a62bu68e7i1e","geo_precision":"city","state":"CA"},"type":"Feature","geometry":{"type":"Point","coordinates":[-116.846046,33.016928]}},{"properties":{"city":"Culver City","geo_score":0.857,"companies":3,"id":"a62bu5yu8xsd","geo_precision":"city","state":"CA"},"type":"Feature","geometry":{"type":"Point","coordinates":[-118.298662,33.786594]}},{"properties":{"city":"Vista","geo_score":0.857,"companies":2,"id":"a62bu668eky3","geo_precision":"city","state":"CA"},"type":"Feature","geometry":{"type":"Point","coordinates":[-116.846046,33.016928]}},{"properties":{"city":"Rancho Cucamonga","geo_score":0.857,"companies":1,"id":"a62bu67cp617","geo_precision":"city","state":"CA"},"type":"Feature","geometry":{"type":"Point","coordinates":[-115.967051,34.839964]}},{"properties":{"city":"Pasadena","geo_score":0.857,"companies":6,"id":"a62bu67e0sri","geo_precision":"city","state":"CA"},"type":"Feature","geometry":{"type":"Point","coordinates":[-118.144516,34.147785]}},{"properties":{"city":"West Hollywood","geo_score":0.813,"companies":1,"id":"a62bu677r5pq","geo_precision":"city","state":"CA"},"type":"Feature","geometry":{"type":"Point","coordinates":[-118.326743,34.098343]}},{"properties":{"city":"Foothill Ranch","geo_score":0.857,"companies":1,"id":"a62bu6d70rej","geo_precision":"city","state":"CA"},"type":"Feature","geometry":{"type":"Point","coordinates":[-117.730745,33.663011]}},{"properties":{"city":"Commerce","geo_score":0.857,"companies":1,"id":"a62bu6ch1vk3","geo_precision":"city","state":"CA"},"type":"Feature","geometry":{"type":"Point","coordinates":[-118.159793,34.000569]}},{"properties":{"city":"Hermosa Beach","geo_score":0.857,"companies":2,"id":"a62bu6934muj","geo_precision":"city","state":"CA"},"type":"Feature","geometry":{"type":"Point","coordinates":[-118.298662,33.786594]}},{"properties":{"city":"Encinitas","geo_score":0.857,"companies":3,"id":"a62bu65j5gdx","geo_precision":"city","state":"CA"},"type":"Feature","geometry":{"type":"Point","coordinates":[-116.846046,33.016928]}},{"properties":{"city":"Oxnard","geo_score":0.792,"companies":2,"id":"a62bu60ovikc","geo_precision":"city","state":"CA"},"type":"Feature","geometry":{"type":"Point","coordinates":[-119.227886,34.163338]}},{"properties":{"city":"San Bernardino","geo_score":0.857,"companies":1,"id":"a62bu61twfdo","geo_precision":"city","state":"CA"},"type":"Feature","geometry":{"type":"Point","coordinates":[-117.289765,34.108345]}},{"properties":{"city":"Mira Loma","geo_score":0.768,"companies":1,"id":"a62bu5ybbd9d","geo_precision":"city","state":"CA"},"type":"Feature","geometry":{"type":"Point","coordinates":[-121.641635,39.220724]}},{"properties":{"city":"Redwood City","geo_score":0.74,"companies":1,"id":"a62bu66j9ema","geo_precision":"city","state":"CA"},"type":"Feature","geometry":{"type":"Point","coordinates":[-115.967051,34.839964]}},{"properties":{"city":"Chatsworth","geo_score":0.789,"companies":2,"id":"a62bu683koek","geo_precision":"city","state":"CA"},"type":"Feature","geometry":{"type":"Point","coordinates":[-118.637033,34.240837]}},{"properties":{"city":"Laguna Hills","geo_score":0.857,"companies":4,"id":"a62bu63sdky8","geo_precision":"city","state":"CA"},"type":"Feature","geometry":{"type":"Point","coordinates":[-117.715535,33.595714]}},{"properties":{"city":"Sunnyvale","geo_score":0.857,"companies":1,"id":"a62bu5xrji9o","geo_precision":"city","state":"CA"},"type":"Feature","geometry":{"type":"Point","coordinates":[-122.03635,37.36883]}},{"properties":{"city":"Monrovia","geo_score":0.857,"companies":3,"id":"a62bu5xfsvum","geo_precision":"city","state":"CA"},"type":"Feature","geometry":{"type":"Point","coordinates":[-118.298662,33.786594]}},{"properties":{"city":"San Francisco","geo_score":0.857,"companies":2,"id":"a62bu62e9nvh","geo_precision":"city","state":"CA"},"type":"Feature","geometry":{"type":"Point","coordinates":[-122.419416,37.77493]}},{"properties":{"city":"Marina Del Rey","geo_score":0.774,"companies":1,"id":"a62bu60vux5r","geo_precision":"city","state":"CA"},"type":"Feature","geometry":{"type":"Point","coordinates":[-117.906451,34.005568]}},{"properties":{"city":"Westlake Village","geo_score":0.857,"companies":5,"id":"a62bu67i8jdr","geo_precision":"city","state":"CA"},"type":"Feature","geometry":{"type":"Point","coordinates":[-118.805647,34.145839]}},{"properties":{"city":"Camarillo","geo_score":0.857,"companies":3,"id":"a62bu60uo8wk","geo_precision":"city","state":"CA"},"type":"Feature","geometry":{"type":"Point","coordinates":[-119.084253,34.307783]}},{"properties":{"city":"LONG BEACH","geo_score":0.857,"companies":1,"id":"a62bu6auoah0","geo_precision":"city","state":"CA"},"type":"Feature","geometry":{"type":"Point","coordinates":[-118.189235,33.766962]}},{"properties":{"city":"Woodland Hills","geo_score":0.857,"companies":3,"id":"a62bu62ozfld","geo_precision":"city","state":"CA"},"type":"Feature","geometry":{"type":"Point","coordinates":[-118.60592,34.168339]}},{"properties":{"city":"Carpinteria","geo_score":0.857,"companies":1,"id":"a62bu6bd4khf","geo_precision":"city","state":"CA"},"type":"Feature","geometry":{"type":"Point","coordinates":[-119.520525,34.405045]}},{"properties":{"city":"Aliso Viejo","geo_score":0.857,"companies":9,"id":"a62bu6a6l37t","geo_precision":"city","state":"CA"},"type":"Feature","geometry":{"type":"Point","coordinates":[-117.751341,33.603459]}},{"properties":{"city":"Sylmar","geo_score":0.857,"companies":1,"id":"a62bu68amttk","geo_precision":"city","state":"CA"},"type":"Feature","geometry":{"type":"Point","coordinates":[-118.298662,33.786594]}},{"properties":{"city":"Escondido","geo_score":0.857,"companies":1,"id":"a62bu64potdt","geo_precision":"city","state":"CA"},"type":"Feature","geometry":{"type":"Point","coordinates":[-117.086421,33.119207]}},{"properties":{"city":"Visalia","geo_score":0.857,"companies":1,"id":"a62bu6ak0cqy","geo_precision":"city","state":"CA"},"type":"Feature","geometry":{"type":"Point","coordinates":[-119.292059,36.330228]}},{"properties":{"city":"Newport Beach","geo_score":0.857,"companies":5,"id":"a62bu5z6b4va","geo_precision":"city","state":"CA"},"type":"Feature","geometry":{"type":"Point","coordinates":[-117.928947,33.61891]}},{"properties":{"city":"Inglewood","geo_score":0.857,"companies":2,"id":"a62bu61xtq70","geo_precision":"city","state":"CA"},"type":"Feature","geometry":{"type":"Point","coordinates":[-118.298662,33.786594]}},{"properties":{"city":"Calabasas","geo_score":0.857,"companies":1,"id":"a62bu5xgdoy1","geo_precision":"city","state":"CA"},"type":"Feature","geometry":{"type":"Point","coordinates":[-118.298662,33.786594]}},{"properties":{"city":"Laguna Niguel","geo_score":0.857,"companies":1,"id":"a62bu65q1ygv","geo_precision":"city","state":"CA"},"type":"Feature","geometry":{"type":"Point","coordinates":[-117.769442,33.640302]}},{"properties":{"city":"Glendale","geo_score":0.857,"companies":2,"id":"a62bu629xozy","geo_precision":"city","state":"CA"},"type":"Feature","geometry":{"type":"Point","coordinates":[-118.255075,34.142508]}},{"properties":{"city":"Pasadena","geo_score":0.857,"companies":0,"id":"a62bu6aixrgm","geo_precision":"city","state":"CA"},"type":"Feature","geometry":{"type":"Point","coordinates":[-118.144516,34.147785]}},{"properties":{"city":"Venice","geo_score":0.857,"companies":1,"id":"a62bu68s5zz2","geo_precision":"city","state":"CA"},"type":"Feature","geometry":{"type":"Point","coordinates":[-118.460079,33.990845]}},{"properties":{"city":"Port Hueneme","geo_score":0.857,"companies":1,"id":"a62bu63fg37p","geo_precision":"city","state":"CA"},"type":"Feature","geometry":{"type":"Point","coordinates":[-119.15458,34.148893]}},{"properties":{"city":"El Segundo","geo_score":0.857,"companies":4,"id":"a62bu6bxed8j","geo_precision":"city","state":"CA"},"type":"Feature","geometry":{"type":"Point","coordinates":[-118.298662,33.786594]}},{"properties":{"city":"Sherman Oaks","geo_score":0.766,"companies":2,"id":"a62bu69jde82","geo_precision":"city","state":"CA"},"type":"Feature","geometry":{"type":"Point","coordinates":[-120.594892,35.118865]}},{"properties":{"city":"Ventura","geo_score":0.857,"companies":4,"id":"a62bu684usq5","geo_precision":"city","state":"CA"},"type":"Feature","geometry":{"type":"Point","coordinates":[-119.358352,34.330829]}},{"properties":{"city":"EL CAJON","geo_score":0.857,"companies":1,"id":"a62bu5yuxgl4","geo_precision":"city","state":"CA"},"type":"Feature","geometry":{"type":"Point","coordinates":[-117.041287,32.865113]}},{"properties":{"city":"Costa Mesa","geo_score":0.73,"companies":3,"id":"a62bu63ld0l5","geo_precision":"city","state":"CA"},"type":"Feature","geometry":{"type":"Point","coordinates":[-115.967051,34.839964]}},{"properties":{"city":"Hollywood","geo_score":0.857,"companies":2,"id":"a62bu5ydkzxx","geo_precision":"city","state":"CA"},"type":"Feature","geometry":{"type":"Point","coordinates":[-118.326743,34.098343]}},{"properties":{"city":"Poway","geo_score":0.857,"companies":1,"id":"a62bu69uh2fb","geo_precision":"city","state":"CA"},"type":"Feature","geometry":{"type":"Point","coordinates":[-117.030299,32.994097]}},{"properties":{"city":"Huntington Beach","geo_score":0.857,"companies":2,"id":"a62bu63a6mvu","geo_precision":"city","state":"CA"},"type":"Feature","geometry":{"type":"Point","coordinates":[-117.999227,33.660297]}},{"properties":{"city":"San Clemente","geo_score":0.805,"companies":1,"id":"a62bu689er09","geo_precision":"city","state":"CA"},"type":"Feature","geometry":{"type":"Point","coordinates":[-121.044252,38.211127]}},{"properties":{"city":"Orange","geo_score":0.857,"companies":1,"id":"a62bu61f6u26","geo_precision":"city","state":"CA"},"type":"Feature","geometry":{"type":"Point","coordinates":[-117.853112,33.787795]}},{"properties":{"city":"Beverly Hills","geo_score":0.857,"companies":6,"id":"a62bu5xpi8zf","geo_precision":"city","state":"CA"},"type":"Feature","geometry":{"type":"Point","coordinates":[-118.298662,33.786594]}},{"properties":{"city":"San Luis Obispo","geo_score":0.736,"companies":1,"id":"a62bu68fyxl3","geo_precision":"city","state":"CA"},"type":"Feature","geometry":{"type":"Point","coordinates":[-118.345664,37.400762]}},{"properties":{"city":"Manhattan Beach","geo_score":0.857,"companies":3,"id":"a62bu6dl0wuq","geo_precision":"city","state":"CA"},"type":"Feature","geometry":{"type":"Point","coordinates":[-118.298662,33.786594]}},{"properties":{"city":"San Juan Capistran","geo_score":0.849,"companies":1,"id":"a62bu664srfo","geo_precision":"city","state":"CA"},"type":"Feature","geometry":{"type":"Point","coordinates":[-117.662551,33.501693]}},{"properties":{"city":"Burbank","geo_score":0.857,"companies":2,"id":"a62bu69j9ez9","geo_precision":"city","state":"CA"},"type":"Feature","geometry":{"type":"Point","coordinates":[-118.308966,34.180839]}},{"properties":{"city":"Solana Beach","geo_score":0.857,"companies":1,"id":"a62bu642fp8y","geo_precision":"city","state":"CA"},"type":"Feature","geometry":{"type":"Point","coordinates":[-117.256769,33.007075]}},{"properties":{"city":"Altadena","geo_score":0.857,"companies":1,"id":"a62bu615513a","geo_precision":"city","state":"CA"},"type":"Feature","geometry":{"type":"Point","coordinates":[-118.298662,33.786594]}},{"properties":{"city":"San Marcos","geo_score":0.746,"companies":1,"id":"a62bu5zbv8i3","geo_precision":"city","state":"CA"},"type":"Feature","geometry":{"type":"Point","coordinates":[-123.034604,40.672576]}},{"properties":{"city":"Yucaipa","geo_score":0.857,"companies":1,"id":"a62bu6cixfcc","geo_precision":"city","state":"CA"},"type":"Feature","geometry":{"type":"Point","coordinates":[-116.971138,34.06226]}},{"properties":{"city":"Palm Desert","geo_score":0.757,"companies":1,"id":"a62bu60zemlj","geo_precision":"city","state":"CA"},"type":"Feature","geometry":{"type":"Point","coordinates":[-120.763269,38.259361]}},{"properties":{"city":"Newbury Park","geo_score":0.857,"companies":1,"id":"a62bu69lyfgd","geo_precision":"city","state":"CA"},"type":"Feature","geometry":{"type":"Point","coordinates":[-119.1343,34.032383]}},{"properties":{"city":"Pacific Palisades","geo_score":0.786,"companies":1,"id":"a62bu68ulu4p","geo_precision":"city","state":"CA"},"type":"Feature","geometry":{"type":"Point","coordinates":[-122.480015,37.616774]}},{"properties":{"city":"Agoura Hills","geo_score":0.792,"companies":1,"id":"a62bu5yh7ykb","geo_precision":"city","state":"CA"},"type":"Feature","geometry":{"type":"Point","coordinates":[-118.737867,34.143061]}},{"properties":{"city":"Rancho Palos Verde","geo_score":0.723,"companies":1,"id":"a62bu677ggy7","geo_precision":"city","state":"CA"},"type":"Feature","geometry":{"type":"Point","coordinates":[-122.449991,39.58988]}},{"properties":{"city":"Tustin","geo_score":0.857,"companies":1,"id":"a62bu5y56xnf","geo_precision":"city","state":"CA"},"type":"Feature","geometry":{"type":"Point","coordinates":[-117.826166,33.745851]}}],"is_temporal":false,"author":{"url":"","metadata":"","contact_name":"","contact_address":"","source":"","contact_phone":""},"source":"","pagination":{"sort":null,"start":0,"total":77,"limit":1000000},"state":"complete","tags":"","published":"2014-08-12T22:37:07-04:00","id":111007}