{"type":"FeatureCollection","data_type":"Dataset","url_type":null,"permissions":[{"permissions":{"download":true,"view":true},"group_id":"everyone"}],"classification":null,"title":"Post Offices, Fresno County, 1870-1890","count":88,"stream_id":111304,"contributor":{"url":"http://geocommons.com/users/8072","name":"spatialhistory"},"data_attributes":null,"calculation_params":null,"icon_link":null,"link":"http://geocommons.com/overlays/111304.json","extent":[-120.834,5.68434e-14,5.68434e-14,37.2155],"geometry_types":["point"],"unique_name":null,"name":"Post Offices, Fresno County, 1870-1890","feature_count":88,"description":"Summary:\nPost office locations in Fresno County, 1870-1890.\nDescription:\nTemporal data was gathered from microfilm records of postmasters and offices in the form of dates for established, discontinued, re-established, and name change events (National Archive, Roll M841, Record of Appointment of Postmasters, 1832 - September 30, 1971). Post offices were then assigned unique geographic locations through a combination of geocoding and manual entry. The geocoding process utilized the Geographic Names Information System database, available from the US Geological Survey. The database contains records for hundreds of thousands of entities across the country, including their coordinate locations.\nCredits:\nLocations geocoded by Cameron Blevins, 2010 (cblevins@stanford.edu). Fresno County subset used in a paper by Cameron Ormsby titled, &quot;Land Speculation in Fresno County: 1890--1891.&quot; (Article can be found on the Stanford Spatial History Project website.) This study was conducted at Stanford's Spatial History Lab (spatialhistory.stanford.edu). The research was made possible through funding provided by NSF Award 0820501, Mellon Distinguished Professor Grant (Richard White), and the Vice Provost for Undergraduate Education at Stanford. Technical support and project management by Erik Steiner (ebs110@stanford.edu). Additional support provided by Kathy Harris, Jake Coolidge, Killeen Hanson, Evgenia Schneider, and Daniel Meyer. \nAccess and use limitations:\nThe reuse and adaptation of this data is encouraged for scholarly work. Its commercial use is strictly prohibited. Kindly inform the authors of any adaptations or modifications made to improve the quality of the data.","next_feature":null,"is_raster":false,"short_classification":"Y","stats":{"X":{"max":0.0,"mean":-89.7842807954546,"variance":2718.05374903599,"stdev":52.1349570733111,"min":-120.83351,"median":-119.53875},"Y":{"max":37.2155,"mean":27.5297282954546,"variance":255.584555647385,"stdev":15.9870120925514,"min":0.0,"median":36.63106},"ID":{"max":3502.0,"mean":1805.81818181818,"variance":992171.598746082,"stdev":996.078108757582,"min":2.0,"median":1861.0},"CHANGES":{"max":0.0,"mean":0.0,"variance":0.0,"stdev":0.0,"min":0.0,"median":0.0},"OBJECTID":{"max":88.0,"mean":44.5,"variance":652.666666666667,"stdev":25.5473416751463,"min":1.0,"median":45.0}},"features":[{"properties":{"NAME":"Academy","X":-119.53875,"EVENTTYPE":"Established","Y":36.88745,"STARTDATE":"1876-05-08","GEOID":"Academy1876","ID":2.0,"CHANGES":0.0,"OBJECTID":1.0,"id":"a673i4coxl29","REGION":"South San Joaquin Valley","ENDDATE":"1877-07-06","COUNTY":"Fresno"},"type":"Feature","geometry":{"type":"Point","coordinates":[-119.53875,36.887449999094]}},{"properties":{"NAME":"Alcalde","X":-120.41972,"EVENTTYPE":"Established","Y":36.09615,"STARTDATE":"1888-10-29","GEOID":"Alcalde1888","ID":28.0,"CHANGES":0.0,"OBJECTID":2.0,"id":"a673i4of5ndd","REGION":"South San Joaquin Valley","ENDDATE":"1900-01-01","COUNTY":"Fresno"},"type":"Feature","geometry":{"type":"Point","coordinates":[-120.41972,36.0961499991016]}},{"properties":{"NAME":"Auberry","X":-119.48624,"EVENTTYPE":"Established","Y":37.07439,"STARTDATE":"1884-06-12","GEOID":"Auberry1884","ID":106.0,"CHANGES":0.0,"OBJECTID":3.0,"id":"a673i4qps63h","REGION":"South San Joaquin Valley","ENDDATE":"1900-01-01","COUNTY":"Fresno"},"type":"Feature","geometry":{"type":"Point","coordinates":[-119.48624,37.0743899990922]}},{"properties":{"NAME":"Bethel","X":-119.57374,"EVENTTYPE":"Established","Y":36.67995,"STARTDATE":"1881-01-04","GEOID":"Bethel1881","ID":194.0,"CHANGES":0.0,"OBJECTID":4.0,"id":"a673i4gl68oi","REGION":"South San Joaquin Valley","ENDDATE":"1883-01-23","COUNTY":"Fresno"},"type":"Feature","geometry":{"type":"Point","coordinates":[-119.57374,36.679949999096]}},{"properties":{"NAME":"Big Dry Creek","X":-119.66764,"EVENTTYPE":"Established","Y":36.87662,"STARTDATE":"1870-01-01","GEOID":"BigDryCreek1870","ID":202.0,"CHANGES":0.0,"OBJECTID":5.0,"id":"a673i4kt2rxo","REGION":"South San Joaquin Valley","ENDDATE":"1893-08-10","COUNTY":"Fresno"},"type":"Feature","geometry":{"type":"Point","coordinates":[-119.66764,36.876619999094]}},{"properties":{"NAME":"Burrough","X":-119.36667,"EVENTTYPE":"Established","Y":36.975,"STARTDATE":"1889-10-02","GEOID":"Burrough1889","ID":304.0,"CHANGES":0.0,"OBJECTID":6.0,"id":"a673i4pnpsbe","REGION":"South San Joaquin Valley","ENDDATE":"1900-01-01","COUNTY":"Fresno"},"type":"Feature","geometry":{"type":"Point","coordinates":[-119.36667,36.9749999990931]}},{"properties":{"NAME":"Calinga","X":-120.36071,"EVENTTYPE":"Established","Y":36.14079,"STARTDATE":"1889-07-22","GEOID":"Calinga1889","ID":330.0,"CHANGES":0.0,"OBJECTID":7.0,"id":"a673i4kjxjyk","REGION":"South San Joaquin Valley","ENDDATE":"1900-01-01","COUNTY":"Fresno"},"type":"Feature","geometry":{"type":"Point","coordinates":[-120.36071,36.1407899991011]}},{"properties":{"NAME":"Cantua","X":-120.32127,"EVENTTYPE":"Established","Y":36.50189,"STARTDATE":"1888-03-07","GEOID":"Cantua1888","ID":349.0,"CHANGES":0.0,"OBJECTID":8.0,"id":"a673i4mq438f","REGION":"South San Joaquin Valley","ENDDATE":"1888-06-15","COUNTY":"Fresno"},"type":"Feature","geometry":{"type":"Point","coordinates":[-120.32127,36.5018899990975]}},{"properties":{"NAME":"Clifton","X":-119.59374,"EVENTTYPE":"Established","Y":36.65912,"STARTDATE":"1885-01-28","GEOID":"Clifton1885","ID":445.0,"CHANGES":0.0,"OBJECTID":9.0,"id":"a673i4is5mdf","REGION":"South San Joaquin Valley","ENDDATE":"1900-01-01","COUNTY":"Fresno"},"type":"Feature","geometry":{"type":"Point","coordinates":[-119.59374,36.6591199990961]}},{"properties":{"NAME":"Direct","X":0.0,"EVENTTYPE":"Established","Y":0.0,"STARTDATE":"1887-10-07","GEOID":"Direct1887","ID":593.0,"CHANGES":0.0,"OBJECTID":10.0,"id":"a673i4o5vviv","REGION":"South San Joaquin Valley","ENDDATE":"1890-04-25","COUNTY":"Fresno"},"type":"Feature","geometry":{"type":"Point","coordinates":[5.6843418860808e-14,5.68434188589333e-14]}},{"properties":{"NAME":"Dunlap","X":-119.11944,"EVENTTYPE":"Established","Y":36.7375,"STARTDATE":"1882-11-13","GEOID":"Dunlap1882","ID":621.0,"CHANGES":0.0,"OBJECTID":11.0,"id":"a673i4lb94pl","REGION":"South San Joaquin Valley","ENDDATE":"1885-07-17","COUNTY":"Fresno"},"type":"Feature","geometry":{"type":"Point","coordinates":[-119.11944,36.7374999990952]}},{"properties":{"NAME":"Easton","X":-119.7907,"EVENTTYPE":"Established","Y":36.65134,"STARTDATE":"1881-02-02","GEOID":"Easton1881","ID":633.0,"CHANGES":0.0,"OBJECTID":12.0,"id":"a673i4bt8l66","REGION":"South San Joaquin Valley","ENDDATE":"1883-08-03","COUNTY":"Fresno"},"type":"Feature","geometry":{"type":"Point","coordinates":[-119.7907,36.6513399990962]}},{"properties":{"NAME":"Fine Gold","X":0.0,"EVENTTYPE":"Established","Y":0.0,"STARTDATE":"1881-04-04","GEOID":"FineGold1881","ID":738.0,"CHANGES":0.0,"OBJECTID":13.0,"id":"a673i4m1e5wc","REGION":"South San Joaquin Valley","ENDDATE":"1882-01-20","COUNTY":"Fresno"},"type":"Feature","geometry":{"type":"Point","coordinates":[5.6843418860808e-14,5.68434188589333e-14]}},{"properties":{"NAME":"Firebaugh","X":-120.45545,"EVENTTYPE":"Established","Y":36.85912,"STARTDATE":"1870-01-01","GEOID":"Firebaugh1870","ID":740.0,"CHANGES":0.0,"OBJECTID":14.0,"id":"a673i4i0a9an","REGION":"South San Joaquin Valley","ENDDATE":"1900-01-01","COUNTY":"Fresno"},"type":"Feature","geometry":{"type":"Point","coordinates":[-120.45545,36.8591199990941]}},{"properties":{"NAME":"Flume","X":0.0,"EVENTTYPE":"Established","Y":0.0,"STARTDATE":"1888-06-09","GEOID":"Flume1888","ID":748.0,"CHANGES":0.0,"OBJECTID":15.0,"id":"a673i4dz6a2m","REGION":"South San Joaquin Valley","ENDDATE":"1895-03-25","COUNTY":"Fresno"},"type":"Feature","geometry":{"type":"Point","coordinates":[5.6843418860808e-14,5.68434188589333e-14]}},{"properties":{"NAME":"Fort Miller","X":-119.79515,"EVENTTYPE":"Established","Y":36.7855,"STARTDATE":"1874-12-23","GEOID":"FortMiller1874","ID":764.0,"CHANGES":0.0,"OBJECTID":16.0,"id":"a673i4gqd96s","REGION":"South San Joaquin Valley","ENDDATE":"1876-04-05","COUNTY":"Fresno"},"type":"Feature","geometry":{"type":"Point","coordinates":[-119.79515,36.785499999095]}},{"properties":{"NAME":"Fowler","X":-119.67958,"EVENTTYPE":"Established","Y":36.63106,"STARTDATE":"1882-04-24","GEOID":"Fowler1882","ID":772.0,"CHANGES":0.0,"OBJECTID":17.0,"id":"a673i4mpfcl1","REGION":"South San Joaquin Valley","ENDDATE":"1900-01-01","COUNTY":"Fresno"},"type":"Feature","geometry":{"type":"Point","coordinates":[-119.67958,36.6310599990964]}},{"properties":{"NAME":"Fresno City","X":-120.26099,"EVENTTYPE":"Established","Y":36.66106,"STARTDATE":"1872-08-28","GEOID":"FresnoCity1872","ID":791.0,"CHANGES":0.0,"OBJECTID":18.0,"id":"a673i4c1zj6r","REGION":"South San Joaquin Valley","ENDDATE":"1900-01-01","COUNTY":"Fresno"},"type":"Feature","geometry":{"type":"Point","coordinates":[-120.26099,36.661059999096]}},{"properties":{"NAME":"Fresno County","X":-120.26099,"EVENTTYPE":"Established","Y":36.66106,"STARTDATE":"1870-01-01","GEOID":"FresnoCounty1870","ID":792.0,"CHANGES":0.0,"OBJECTID":19.0,"id":"a673i4itodr5","REGION":"South San Joaquin Valley","ENDDATE":"1900-01-01","COUNTY":"Fresno"},"type":"Feature","geometry":{"type":"Point","coordinates":[-120.26099,36.661059999096]}},{"properties":{"NAME":"Fruitvale1","X":-119.57541,"EVENTTYPE":"Established","Y":36.59412,"STARTDATE":"1883-05-14","GEOID":"Fruitvale11883","ID":796.0,"CHANGES":0.0,"OBJECTID":20.0,"id":"a673i4hhn8xl","REGION":"South San Joaquin Valley","ENDDATE":"1888-06-01","COUNTY":"Fresno"},"type":"Feature","geometry":{"type":"Point","coordinates":[-119.57541,36.5941199990967]}},{"properties":{"NAME":"Gertrude","X":0.0,"EVENTTYPE":"Established","Y":0.0,"STARTDATE":"1881-09-28","GEOID":"Gertrude1881","ID":831.0,"CHANGES":0.0,"OBJECTID":21.0,"id":"a673i4ccxjym","REGION":"South San Joaquin Valley","ENDDATE":"1895-03-25","COUNTY":"Fresno"},"type":"Feature","geometry":{"type":"Point","coordinates":[5.6843418860808e-14,5.68434188589333e-14]}},{"properties":{"NAME":"Hamptonville","X":-119.73042,"EVENTTYPE":"Established","Y":36.938,"STARTDATE":"1881-07-15","GEOID":"Hamptonville1881","ID":914.0,"CHANGES":0.0,"OBJECTID":22.0,"id":"a673i4n0e6u3","REGION":"South San Joaquin Valley","ENDDATE":"1900-01-01","COUNTY":"Fresno"},"type":"Feature","geometry":{"type":"Point","coordinates":[-119.73042,36.9379999990935]}},{"properties":{"NAME":"Herndon","X":-119.91738,"EVENTTYPE":"Established","Y":36.83661,"STARTDATE":"1887-09-22","GEOID":"Herndon1887","ID":953.0,"CHANGES":0.0,"OBJECTID":23.0,"id":"a673i4ef9ygi","REGION":"South San Joaquin Valley","ENDDATE":"1893-11-14","COUNTY":"Fresno"},"type":"Feature","geometry":{"type":"Point","coordinates":[-119.91738,36.8366099990944]}},{"properties":{"NAME":"Huron","X":-120.1016,"EVENTTYPE":"Established","Y":36.20357,"STARTDATE":"1877-06-18","GEOID":"Huron1877","ID":999.0,"CHANGES":0.0,"OBJECTID":24.0,"id":"a673i4jiclz0","REGION":"South San Joaquin Valley","ENDDATE":"1883-01-08","COUNTY":"Fresno"},"type":"Feature","geometry":{"type":"Point","coordinates":[-120.1016,36.2035699991005]}},{"properties":{"NAME":"Kenyon","X":-119.35833,"EVENTTYPE":"Established","Y":37.0625,"STARTDATE":"1890-08-21","GEOID":"Kenyon1890","ID":1089.0,"CHANGES":0.0,"OBJECTID":25.0,"id":"a673i4f6ysgx","REGION":"South San Joaquin Valley","ENDDATE":"1900-01-01","COUNTY":"Fresno"},"type":"Feature","geometry":{"type":"Point","coordinates":[-119.35833,37.0624999990924]}},{"properties":{"NAME":"Kerndon","X":-119.91738,"EVENTTYPE":"Established","Y":36.83661,"STARTDATE":"1887-01-14","GEOID":"Kerndon1887","ID":1090.0,"CHANGES":0.0,"OBJECTID":26.0,"id":"a673i4jpdo5m","REGION":"South San Joaquin Valley","ENDDATE":"1900-01-01","COUNTY":"Fresno"},"type":"Feature","geometry":{"type":"Point","coordinates":[-119.91738,36.8366099990944]}},{"properties":{"NAME":"Kingsburgh","X":-119.55207,"EVENTTYPE":"Established","Y":36.51384,"STARTDATE":"1875-11-16","GEOID":"Kingsburgh1875","ID":1096.0,"CHANGES":0.0,"OBJECTID":27.0,"id":"a673i4ikexzw","REGION":"South San Joaquin Valley","ENDDATE":"1900-01-01","COUNTY":"Fresno"},"type":"Feature","geometry":{"type":"Point","coordinates":[-119.55207,36.5138399990974]}},{"properties":{"NAME":"King's River","X":-119.38208,"EVENTTYPE":"Established","Y":36.67776,"STARTDATE":"1870-01-01","GEOID":"King'sRiver1870","ID":1097.0,"CHANGES":0.0,"OBJECTID":28.0,"id":"a673i4nl1h76","REGION":"South San Joaquin Valley","ENDDATE":"1900-01-01","COUNTY":"Fresno"},"type":"Feature","geometry":{"type":"Point","coordinates":[-119.38208,36.6777599990958]}},{"properties":{"NAME":"Kingston","X":-119.71763,"EVENTTYPE":"Established","Y":36.43828,"STARTDATE":"1870-01-01","GEOID":"Kingston1870","ID":1098.0,"CHANGES":0.0,"OBJECTID":29.0,"id":"a673i4blv3q2","REGION":"South San Joaquin Valley","ENDDATE":"1886-11-30","COUNTY":"Fresno"},"type":"Feature","geometry":{"type":"Point","coordinates":[-119.71763,36.4382799990981]}},{"properties":{"NAME":"Last","X":-120.23164,"EVENTTYPE":"Established","Y":36.03939,"STARTDATE":"1890-08-21","GEOID":"Last1890","ID":1161.0,"CHANGES":0.0,"OBJECTID":30.0,"id":"a673i4mdvnng","REGION":"South San Joaquin Valley","ENDDATE":"1895-04-25","COUNTY":"Fresno"},"type":"Feature","geometry":{"type":"Point","coordinates":[-120.23164,36.0393899991022]}},{"properties":{"NAME":"Letcher","X":-119.51847,"EVENTTYPE":"Established","Y":36.90773,"STARTDATE":"1886-07-08","GEOID":"Letcher1886","ID":1186.0,"CHANGES":0.0,"OBJECTID":31.0,"id":"a673i4j1gcf3","REGION":"South San Joaquin Valley","ENDDATE":"1900-01-01","COUNTY":"Fresno"},"type":"Feature","geometry":{"type":"Point","coordinates":[-119.51847,36.9077299990939]}},{"properties":{"NAME":"Lodge","X":-119.49583,"EVENTTYPE":"Established","Y":37.04306,"STARTDATE":"1888-06-14","GEOID":"Lodge1888","ID":1221.0,"CHANGES":0.0,"OBJECTID":32.0,"id":"a673i4c1z2vl","REGION":"South San Joaquin Valley","ENDDATE":"1899-04-10","COUNTY":"Fresno"},"type":"Feature","geometry":{"type":"Point","coordinates":[-119.49583,37.0430599990925]}},{"properties":{"NAME":"Loyd","X":0.0,"EVENTTYPE":"Established","Y":0.0,"STARTDATE":"1889-11-27","GEOID":"Loyd1889","ID":1258.0,"CHANGES":0.0,"OBJECTID":33.0,"id":"a673i4ma4ts6","REGION":"South San Joaquin Valley","ENDDATE":"1890-04-09","COUNTY":"Fresno"},"type":"Feature","geometry":{"type":"Point","coordinates":[5.6843418860808e-14,5.68434188589333e-14]}},{"properties":{"NAME":"Millerton","X":-119.64153,"EVENTTYPE":"Established","Y":36.98384,"STARTDATE":"1870-01-01","GEOID":"Millerton1870","ID":1359.0,"CHANGES":0.0,"OBJECTID":34.0,"id":"a673i4ccbkhv","REGION":"South San Joaquin Valley","ENDDATE":"1900-01-01","COUNTY":"Fresno"},"type":"Feature","geometry":{"type":"Point","coordinates":[-119.64153,36.983839999093]}},{"properties":{"NAME":"Narbo","X":0.0,"EVENTTYPE":"Established","Y":0.0,"STARTDATE":"1884-09-18","GEOID":"Narbo1884","ID":1453.0,"CHANGES":0.0,"OBJECTID":35.0,"id":"a673i4nyz1ud","REGION":"South San Joaquin Valley","ENDDATE":"1887-12-10","COUNTY":"Fresno"},"type":"Feature","geometry":{"type":"Point","coordinates":[5.6843418860808e-14,5.68434188589333e-14]}},{"properties":{"NAME":"New Idria","X":0.0,"EVENTTYPE":"Established","Y":0.0,"STARTDATE":"1870-01-01","GEOID":"NewIdria1870","ID":1476.0,"CHANGES":0.0,"OBJECTID":36.0,"id":"a673i4k8j6ic","REGION":"South San Joaquin Valley","ENDDATE":"1894-10-10","COUNTY":"Fresno"},"type":"Feature","geometry":{"type":"Point","coordinates":[5.6843418860808e-14,5.68434188589333e-14]}},{"properties":{"NAME":"Oleander","X":-119.75417,"EVENTTYPE":"Established","Y":36.63333,"STARTDATE":"1881-01-10","GEOID":"Oleander1881","ID":1527.0,"CHANGES":0.0,"OBJECTID":37.0,"id":"a673i4qze28o","REGION":"South San Joaquin Valley","ENDDATE":"1900-01-01","COUNTY":"Fresno"},"type":"Feature","geometry":{"type":"Point","coordinates":[-119.75417,36.6333299990963]}},{"properties":{"NAME":"Palo Blanco","X":0.0,"EVENTTYPE":"Established","Y":0.0,"STARTDATE":"1872-09-03","GEOID":"PaloBlanco1872","ID":1581.0,"CHANGES":0.0,"OBJECTID":38.0,"id":"a673i4orba9n","REGION":"South San Joaquin Valley","ENDDATE":"1873-09-04","COUNTY":"Fresno"},"type":"Feature","geometry":{"type":"Point","coordinates":[5.6843418860808e-14,5.68434188589333e-14]}},{"properties":{"NAME":"Panoche","X":-120.83351,"EVENTTYPE":"Established","Y":36.5969,"STARTDATE":"1870-01-01","GEOID":"Panoche1870","ID":1587.0,"CHANGES":0.0,"OBJECTID":39.0,"id":"a673i4r9c15m","REGION":"South San Joaquin Valley","ENDDATE":"1900-01-01","COUNTY":"Fresno"},"type":"Feature","geometry":{"type":"Point","coordinates":[-120.83351,36.5968999990967]}},{"properties":{"NAME":"Pisbradera","X":0.0,"EVENTTYPE":"Established","Y":0.0,"STARTDATE":"1880-04-05","GEOID":"Pisbradera1880","ID":1655.0,"CHANGES":0.0,"OBJECTID":40.0,"id":"a673i4gt982i","REGION":"South San Joaquin Valley","ENDDATE":"1882-10-09","COUNTY":"Fresno"},"type":"Feature","geometry":{"type":"Point","coordinates":[5.6843418860808e-14,5.68434188589333e-14]}},{"properties":{"NAME":"Rallsville","X":0.0,"EVENTTYPE":"Established","Y":0.0,"STARTDATE":"1881-08-01","GEOID":"Rallsville1881","ID":1730.0,"CHANGES":0.0,"OBJECTID":41.0,"id":"a673i4ooiabv","REGION":"South San Joaquin Valley","ENDDATE":"1883-10-10","COUNTY":"Fresno"},"type":"Feature","geometry":{"type":"Point","coordinates":[5.6843418860808e-14,5.68434188589333e-14]}},{"properties":{"NAME":"Raymond","X":-119.90738,"EVENTTYPE":"Established","Y":37.2155,"STARTDATE":"1886-07-09","GEOID":"Raymond1886","ID":1742.0,"CHANGES":0.0,"OBJECTID":42.0,"id":"a673i4cej2qv","REGION":"South San Joaquin Valley","ENDDATE":"1900-01-01","COUNTY":"Fresno"},"type":"Feature","geometry":{"type":"Point","coordinates":[-119.90738,37.215499999091]}},{"properties":{"NAME":"Riverdale","X":-119.86014,"EVENTTYPE":"Established","Y":36.43189,"STARTDATE":"1875-07-01","GEOID":"Riverdale1875","ID":1781.0,"CHANGES":0.0,"OBJECTID":43.0,"id":"a673i4kczban","REGION":"South San Joaquin Valley","ENDDATE":"1900-01-01","COUNTY":"Fresno"},"type":"Feature","geometry":{"type":"Point","coordinates":[-119.86014,36.4318899990983]}},{"properties":{"NAME":"Sanders","X":-119.47259,"EVENTTYPE":"Established","Y":36.61036,"STARTDATE":"1879-10-15","GEOID":"Sanders1879","ID":1849.0,"CHANGES":0.0,"OBJECTID":44.0,"id":"a673i4ohz9ei","REGION":"South San Joaquin Valley","ENDDATE":"1895-05-03","COUNTY":"Fresno"},"type":"Feature","geometry":{"type":"Point","coordinates":[-119.47259,36.6103599990966]}},{"properties":{"NAME":"Sanger","X":-119.55819,"EVENTTYPE":"Established","Y":36.70523,"STARTDATE":"1888-06-26","GEOID":"Sanger1888","ID":1861.0,"CHANGES":0.0,"OBJECTID":45.0,"id":"a673i4lebh3a","REGION":"South San Joaquin Valley","ENDDATE":"1900-01-01","COUNTY":"Fresno"},"type":"Feature","geometry":{"type":"Point","coordinates":[-119.55819,36.7052299990956]}},{"properties":{"NAME":"Selma","X":-119.61291,"EVENTTYPE":"Established","Y":36.56995,"STARTDATE":"1880-08-12","GEOID":"Selma1880","ID":1930.0,"CHANGES":0.0,"OBJECTID":46.0,"id":"a673i4kad3jg","REGION":"South San Joaquin Valley","ENDDATE":"1900-01-01","COUNTY":"Fresno"},"type":"Feature","geometry":{"type":"Point","coordinates":[-119.61291,36.5699499990969]}},{"properties":{"NAME":"Sentinel","X":-119.49291,"EVENTTYPE":"Established","Y":36.96412,"STARTDATE":"1880-04-07","GEOID":"Sentinel1880","ID":1933.0,"CHANGES":0.0,"OBJECTID":47.0,"id":"a673i4djkgek","REGION":"South San Joaquin Valley","ENDDATE":"1883-01-31","COUNTY":"Fresno"},"type":"Feature","geometry":{"type":"Point","coordinates":[-119.49291,36.9641199990933]}},{"properties":{"NAME":"Squaw Valley","X":-119.24679,"EVENTTYPE":"Established","Y":36.74023,"STARTDATE":"1879-11-07","GEOID":"SquawValley1879","ID":2029.0,"CHANGES":0.0,"OBJECTID":48.0,"id":"a673i4q5i8ya","REGION":"South San Joaquin Valley","ENDDATE":"1895-07-09","COUNTY":"Fresno"},"type":"Feature","geometry":{"type":"Point","coordinates":[-119.24679,36.7402299990954]}},{"properties":{"NAME":"Starville","X":0.0,"EVENTTYPE":"Established","Y":0.0,"STARTDATE":"1889-06-26","GEOID":"Starville1889","ID":2038.0,"CHANGES":0.0,"OBJECTID":49.0,"id":"a673i4hafwnc","REGION":"South San Joaquin Valley","ENDDATE":"1891-03-30","COUNTY":"Fresno"},"type":"Feature","geometry":{"type":"Point","coordinates":[5.6843418860808e-14,5.68434188589333e-14]}},{"properties":{"NAME":"Swamp","X":0.0,"EVENTTYPE":"Established","Y":0.0,"STARTDATE":"1889-01-31","GEOID":"Swamp1889","ID":2086.0,"CHANGES":0.0,"OBJECTID":50.0,"id":"a673i4kczgkq","REGION":"South San Joaquin Valley","ENDDATE":"1889-03-19","COUNTY":"Fresno"},"type":"Feature","geometry":{"type":"Point","coordinates":[5.6843418860808e-14,5.68434188589333e-14]}},{"properties":{"NAME":"Temperance","X":-119.58819,"EVENTTYPE":"Established","Y":37.06023,"STARTDATE":"1881-04-21","GEOID":"Temperance1881","ID":2116.0,"CHANGES":0.0,"OBJECTID":51.0,"id":"a673i4cnii8a","REGION":"South San Joaquin Valley","ENDDATE":"1886-11-11","COUNTY":"Fresno"},"type":"Feature","geometry":{"type":"Point","coordinates":[-119.58819,37.0602299990924]}},{"properties":{"NAME":"Thermal","X":-119.53345,"EVENTTYPE":"Established","Y":37.02066,"STARTDATE":"1889-07-15","GEOID":"Thermal1889","ID":2127.0,"CHANGES":0.0,"OBJECTID":52.0,"id":"a673i4q14brb","REGION":"South San Joaquin Valley","ENDDATE":"1900-01-01","COUNTY":"Fresno"},"type":"Feature","geometry":{"type":"Point","coordinates":[-119.53345,37.0206599990927]}},{"properties":{"NAME":"Tokay","X":-119.73375,"EVENTTYPE":"Established","Y":36.68356,"STARTDATE":"1886-05-05","GEOID":"Tokay1886","ID":2148.0,"CHANGES":0.0,"OBJECTID":53.0,"id":"a673i4bvvoe2","REGION":"South San Joaquin Valley","ENDDATE":"1900-01-01","COUNTY":"Fresno"},"type":"Feature","geometry":{"type":"Point","coordinates":[-119.73375,36.6835599990958]}},{"properties":{"NAME":"Toll House","X":-119.4,"EVENTTYPE":"Established","Y":37.01944,"STARTDATE":"1876-05-08","GEOID":"TollHouse1876","ID":2150.0,"CHANGES":0.0,"OBJECTID":54.0,"id":"a673i4qisnw7","REGION":"South San Joaquin Valley","ENDDATE":"1884-11-13","COUNTY":"Fresno"},"type":"Feature","geometry":{"type":"Point","coordinates":[-119.4,37.0194399990929]}},{"properties":{"NAME":"Trimmer","X":-119.29583,"EVENTTYPE":"Established","Y":36.90556,"STARTDATE":"1889-07-27","GEOID":"Trimmer1889","ID":2165.0,"CHANGES":0.0,"OBJECTID":55.0,"id":"a673i4ce4r74","REGION":"South San Joaquin Valley","ENDDATE":"1890-10-24","COUNTY":"Fresno"},"type":"Feature","geometry":{"type":"Point","coordinates":[-119.29583,36.9055599990937]}},{"properties":{"NAME":"Wahtoka","X":-119.4579,"EVENTTYPE":"Established","Y":36.67689,"STARTDATE":"1887-01-25","GEOID":"Wahtoka1887","ID":2249.0,"CHANGES":0.0,"OBJECTID":56.0,"id":"a673i4cfbjp8","REGION":"South San Joaquin Valley","ENDDATE":"1900-01-01","COUNTY":"Fresno"},"type":"Feature","geometry":{"type":"Point","coordinates":[-119.4579,36.6768899990959]}},{"properties":{"NAME":"Warthau","X":0.0,"EVENTTYPE":"Established","Y":0.0,"STARTDATE":"1880-03-01","GEOID":"Warthau1880","ID":2262.0,"CHANGES":0.0,"OBJECTID":57.0,"id":"a673i4mih0qo","REGION":"South San Joaquin Valley","ENDDATE":"1900-01-01","COUNTY":"Fresno"},"type":"Feature","geometry":{"type":"Point","coordinates":[5.6843418860808e-14,5.68434188589333e-14]}},{"properties":{"NAME":"White Bridge","X":0.0,"EVENTTYPE":"Established","Y":0.0,"STARTDATE":"1879-01-09","GEOID":"WhiteBridge1879","ID":2298.0,"CHANGES":0.0,"OBJECTID":58.0,"id":"a673i4m60let","REGION":"South San Joaquin Valley","ENDDATE":"1893-11-15","COUNTY":"Fresno"},"type":"Feature","geometry":{"type":"Point","coordinates":[5.6843418860808e-14,5.68434188589333e-14]}},{"properties":{"NAME":"Wild Flower","X":-119.68194,"EVENTTYPE":"Established","Y":36.50278,"STARTDATE":"1878-06-21","GEOID":"WildFlower1878","ID":2310.0,"CHANGES":0.0,"OBJECTID":59.0,"id":"a673i4capei9","REGION":"South San Joaquin Valley","ENDDATE":"1900-01-01","COUNTY":"Fresno"},"type":"Feature","geometry":{"type":"Point","coordinates":[-119.68194,36.5027799990976]}},{"properties":{"NAME":"Academy","X":-119.53875,"EVENTTYPE":"Discontinued","Y":36.88745,"STARTDATE":"1877-07-06","GEOID":"Academy1876","ID":2365.0,"CHANGES":0.0,"OBJECTID":60.0,"id":"a673i4jk5m5m","REGION":"South San Joaquin Valley","ENDDATE":"1892-04-22","COUNTY":"Fresno"},"type":"Feature","geometry":{"type":"Point","coordinates":[-119.53875,36.887449999094]}},{"properties":{"NAME":"Bethel","X":-119.57374,"EVENTTYPE":"Discontinued","Y":36.67995,"STARTDATE":"1883-01-23","GEOID":"Bethel1881","ID":2435.0,"CHANGES":0.0,"OBJECTID":61.0,"id":"a673i4hqk4yv","REGION":"South San Joaquin Valley","ENDDATE":"1900-01-01","COUNTY":"Fresno"},"type":"Feature","geometry":{"type":"Point","coordinates":[-119.57374,36.679949999096]}},{"properties":{"NAME":"Cantua","X":-120.32127,"EVENTTYPE":"Discontinued","Y":36.50189,"STARTDATE":"1888-06-15","GEOID":"Cantua1888","ID":2491.0,"CHANGES":0.0,"OBJECTID":62.0,"id":"a673i4gm0d60","REGION":"South San Joaquin Valley","ENDDATE":"1890-03-19","COUNTY":"Fresno"},"type":"Feature","geometry":{"type":"Point","coordinates":[-120.32127,36.5018899990975]}},{"properties":{"NAME":"Direct","X":0.0,"EVENTTYPE":"Discontinued","Y":0.0,"STARTDATE":"1890-04-25","GEOID":"Direct1887","ID":2572.0,"CHANGES":0.0,"OBJECTID":63.0,"id":"a673i4htyfp6","REGION":"South San Joaquin Valley","ENDDATE":"1900-01-01","COUNTY":"Fresno"},"type":"Feature","geometry":{"type":"Point","coordinates":[5.6843418860808e-14,5.68434188589333e-14]}},{"properties":{"NAME":"Dunlap","X":-119.11944,"EVENTTYPE":"Discontinued","Y":36.7375,"STARTDATE":"1885-07-17","GEOID":"Dunlap1882","ID":2583.0,"CHANGES":0.0,"OBJECTID":64.0,"id":"a673i4cvihi5","REGION":"South San Joaquin Valley","ENDDATE":"1885-11-16","COUNTY":"Fresno"},"type":"Feature","geometry":{"type":"Point","coordinates":[-119.11944,36.7374999990952]}},{"properties":{"NAME":"Easton","X":-119.7907,"EVENTTYPE":"Discontinued","Y":36.65134,"STARTDATE":"1883-08-03","GEOID":"Easton1881","ID":2588.0,"CHANGES":0.0,"OBJECTID":65.0,"id":"a673i4clnhdv","REGION":"South San Joaquin Valley","ENDDATE":"1900-01-01","COUNTY":"Fresno"},"type":"Feature","geometry":{"type":"Point","coordinates":[-119.7907,36.6513399990962]}},{"properties":{"NAME":"Fine Gold","X":0.0,"EVENTTYPE":"Discontinued","Y":0.0,"STARTDATE":"1882-01-20","GEOID":"FineGold1881","ID":2620.0,"CHANGES":0.0,"OBJECTID":66.0,"id":"a673i4fts1qp","REGION":"South San Joaquin Valley","ENDDATE":"1900-01-01","COUNTY":"Fresno"},"type":"Feature","geometry":{"type":"Point","coordinates":[5.6843418860808e-14,5.68434188589333e-14]}},{"properties":{"NAME":"Fort Miller","X":-119.79515,"EVENTTYPE":"Discontinued","Y":36.7855,"STARTDATE":"1876-04-05","GEOID":"FortMiller1874","ID":2630.0,"CHANGES":0.0,"OBJECTID":67.0,"id":"a673i4bl3bc7","REGION":"South San Joaquin Valley","ENDDATE":"1900-01-01","COUNTY":"Fresno"},"type":"Feature","geometry":{"type":"Point","coordinates":[-119.79515,36.785499999095]}},{"properties":{"NAME":"Fruitvale1","X":-119.57541,"EVENTTYPE":"Discontinued","Y":36.59412,"STARTDATE":"1888-06-01","GEOID":"Fruitvale11883","ID":2640.0,"CHANGES":0.0,"OBJECTID":68.0,"id":"a673i4fn7288","REGION":"South San Joaquin Valley","ENDDATE":"1888-08-15","COUNTY":"Fresno"},"type":"Feature","geometry":{"type":"Point","coordinates":[-119.57541,36.5941199990967]}},{"properties":{"NAME":"Huron","X":-120.1016,"EVENTTYPE":"Discontinued","Y":36.20357,"STARTDATE":"1883-01-08","GEOID":"Huron1877","ID":2719.0,"CHANGES":0.0,"OBJECTID":69.0,"id":"a673i4mkzwy1","REGION":"South San Joaquin Valley","ENDDATE":"1886-04-28","COUNTY":"Fresno"},"type":"Feature","geometry":{"type":"Point","coordinates":[-120.1016,36.2035699991005]}},{"properties":{"NAME":"Kingston","X":-119.71763,"EVENTTYPE":"Discontinued","Y":36.43828,"STARTDATE":"1886-11-30","GEOID":"Kingston1870","ID":2756.0,"CHANGES":0.0,"OBJECTID":70.0,"id":"a673i4q3no13","REGION":"South San Joaquin Valley","ENDDATE":"1889-06-05","COUNTY":"Fresno"},"type":"Feature","geometry":{"type":"Point","coordinates":[-119.71763,36.4382799990981]}},{"properties":{"NAME":"Loyd","X":0.0,"EVENTTYPE":"Discontinued","Y":0.0,"STARTDATE":"1890-04-09","GEOID":"Loyd1889","ID":2817.0,"CHANGES":0.0,"OBJECTID":71.0,"id":"a673i4bqxoh3","REGION":"South San Joaquin Valley","ENDDATE":"1900-01-01","COUNTY":"Fresno"},"type":"Feature","geometry":{"type":"Point","coordinates":[5.6843418860808e-14,5.68434188589333e-14]}},{"properties":{"NAME":"Narbo","X":0.0,"EVENTTYPE":"Discontinued","Y":0.0,"STARTDATE":"1887-12-10","GEOID":"Narbo1884","ID":2893.0,"CHANGES":0.0,"OBJECTID":72.0,"id":"a673i4qzeq1x","REGION":"South San Joaquin Valley","ENDDATE":"1900-01-01","COUNTY":"Fresno"},"type":"Feature","geometry":{"type":"Point","coordinates":[5.6843418860808e-14,5.68434188589333e-14]}},{"properties":{"NAME":"Palo Blanco","X":0.0,"EVENTTYPE":"Discontinued","Y":0.0,"STARTDATE":"1873-09-04","GEOID":"PaloBlanco1872","ID":2934.0,"CHANGES":0.0,"OBJECTID":73.0,"id":"a673i4l4pmvv","REGION":"South San Joaquin Valley","ENDDATE":"1900-01-01","COUNTY":"Fresno"},"type":"Feature","geometry":{"type":"Point","coordinates":[5.6843418860808e-14,5.68434188589333e-14]}},{"properties":{"NAME":"Pisbradera","X":0.0,"EVENTTYPE":"Discontinued","Y":0.0,"STARTDATE":"1882-10-09","GEOID":"Pisbradera1880","ID":2970.0,"CHANGES":0.0,"OBJECTID":74.0,"id":"a673i4n5fn2w","REGION":"South San Joaquin Valley","ENDDATE":"1900-01-01","COUNTY":"Fresno"},"type":"Feature","geometry":{"type":"Point","coordinates":[5.6843418860808e-14,5.68434188589333e-14]}},{"properties":{"NAME":"Rallsville","X":0.0,"EVENTTYPE":"Discontinued","Y":0.0,"STARTDATE":"1883-10-10","GEOID":"Rallsville1881","ID":2989.0,"CHANGES":0.0,"OBJECTID":75.0,"id":"a673i4ipw76g","REGION":"South San Joaquin Valley","ENDDATE":"1900-01-01","COUNTY":"Fresno"},"type":"Feature","geometry":{"type":"Point","coordinates":[5.6843418860808e-14,5.68434188589333e-14]}},{"properties":{"NAME":"Sentinel","X":-119.49291,"EVENTTYPE":"Discontinued","Y":36.96412,"STARTDATE":"1883-01-31","GEOID":"Sentinel1880","ID":3064.0,"CHANGES":0.0,"OBJECTID":76.0,"id":"a673i4n5r18b","REGION":"South San Joaquin Valley","ENDDATE":"1888-02-03","COUNTY":"Fresno"},"type":"Feature","geometry":{"type":"Point","coordinates":[-119.49291,36.9641199990933]}},{"properties":{"NAME":"Swamp","X":0.0,"EVENTTYPE":"Discontinued","Y":0.0,"STARTDATE":"1889-03-19","GEOID":"Swamp1889","ID":3122.0,"CHANGES":0.0,"OBJECTID":77.0,"id":"a673i4mmzsol","REGION":"South San Joaquin Valley","ENDDATE":"1900-01-01","COUNTY":"Fresno"},"type":"Feature","geometry":{"type":"Point","coordinates":[5.6843418860808e-14,5.68434188589333e-14]}},{"properties":{"NAME":"Temperance","X":-119.58819,"EVENTTYPE":"Discontinued","Y":37.06023,"STARTDATE":"1886-11-11","GEOID":"Temperance1881","ID":3139.0,"CHANGES":0.0,"OBJECTID":78.0,"id":"a673i4dshtm6","REGION":"South San Joaquin Valley","ENDDATE":"1900-01-01","COUNTY":"Fresno"},"type":"Feature","geometry":{"type":"Point","coordinates":[-119.58819,37.0602299990924]}},{"properties":{"NAME":"Toll House","X":-119.4,"EVENTTYPE":"Discontinued","Y":37.01944,"STARTDATE":"1884-11-13","GEOID":"TollHouse1876","ID":3152.0,"CHANGES":0.0,"OBJECTID":79.0,"id":"a673i4gqmpb1","REGION":"South San Joaquin Valley","ENDDATE":"1885-02-02","COUNTY":"Fresno"},"type":"Feature","geometry":{"type":"Point","coordinates":[-119.4,37.0194399990929]}},{"properties":{"NAME":"Trimmer","X":-119.29583,"EVENTTYPE":"Discontinued","Y":36.90556,"STARTDATE":"1890-10-24","GEOID":"Trimmer1889","ID":3158.0,"CHANGES":0.0,"OBJECTID":80.0,"id":"a673i4q1ufnm","REGION":"South San Joaquin Valley","ENDDATE":"1892-05-06","COUNTY":"Fresno"},"type":"Feature","geometry":{"type":"Point","coordinates":[-119.29583,36.9055599990937]}},{"properties":{"NAME":"Cantua","X":-120.32127,"EVENTTYPE":"Reestablished","Y":36.50189,"STARTDATE":"1890-03-19","GEOID":"Cantua1888","ID":3265.0,"CHANGES":0.0,"OBJECTID":81.0,"id":"a673i4kfbv1k","REGION":"South San Joaquin Valley","ENDDATE":"1892-01-25","COUNTY":"Fresno"},"type":"Feature","geometry":{"type":"Point","coordinates":[-120.32127,36.5018899990975]}},{"properties":{"NAME":"Dunlap","X":-119.11944,"EVENTTYPE":"Reestablished","Y":36.7375,"STARTDATE":"1885-11-16","GEOID":"Dunlap1882","ID":3289.0,"CHANGES":0.0,"OBJECTID":82.0,"id":"a673i4gbqai5","REGION":"South San Joaquin Valley","ENDDATE":"1900-01-01","COUNTY":"Fresno"},"type":"Feature","geometry":{"type":"Point","coordinates":[-119.11944,36.7374999990952]}},{"properties":{"NAME":"Fruitvale1","X":-119.57541,"EVENTTYPE":"Reestablished","Y":36.59412,"STARTDATE":"1888-08-15","GEOID":"Fruitvale11883","ID":3302.0,"CHANGES":0.0,"OBJECTID":83.0,"id":"a673i4fb7x47","REGION":"South San Joaquin Valley","ENDDATE":"1892-03-25","COUNTY":"Fresno"},"type":"Feature","geometry":{"type":"Point","coordinates":[-119.57541,36.5941199990967]}},{"properties":{"NAME":"Huron","X":-120.1016,"EVENTTYPE":"Reestablished","Y":36.20357,"STARTDATE":"1886-04-28","GEOID":"Huron1877","ID":3322.0,"CHANGES":0.0,"OBJECTID":84.0,"id":"a673i4fq32ls","REGION":"South San Joaquin Valley","ENDDATE":"1900-01-01","COUNTY":"Fresno"},"type":"Feature","geometry":{"type":"Point","coordinates":[-120.1016,36.2035699991005]}},{"properties":{"NAME":"Kingston","X":-119.71763,"EVENTTYPE":"Reestablished","Y":36.43828,"STARTDATE":"1889-06-05","GEOID":"Kingston1870","ID":3334.0,"CHANGES":0.0,"OBJECTID":85.0,"id":"a673i4dkph20","REGION":"South San Joaquin Valley","ENDDATE":"1890-02-17","COUNTY":"Fresno"},"type":"Feature","geometry":{"type":"Point","coordinates":[-119.71763,36.4382799990981]}},{"properties":{"NAME":"Sentinel","X":-119.49291,"EVENTTYPE":"Reestablished","Y":36.96412,"STARTDATE":"1888-02-03","GEOID":"Sentinel1880","ID":3429.0,"CHANGES":0.0,"OBJECTID":86.0,"id":"a673i4arfspa","REGION":"South San Joaquin Valley","ENDDATE":"1897-11-03","COUNTY":"Fresno"},"type":"Feature","geometry":{"type":"Point","coordinates":[-119.49291,36.9641199990933]}},{"properties":{"NAME":"Toll House","X":-119.4,"EVENTTYPE":"Reestablished","Y":37.01944,"STARTDATE":"1885-02-02","GEOID":"TollHouse1876","ID":3449.0,"CHANGES":0.0,"OBJECTID":87.0,"id":"a673i4nn497c","REGION":"South San Joaquin Valley","ENDDATE":"1894-05-01","COUNTY":"Fresno"},"type":"Feature","geometry":{"type":"Point","coordinates":[-119.4,37.0194399990929]}},{"properties":{"NAME":"Kingston","X":-119.71763,"EVENTTYPE":"Discontinued","Y":36.43828,"STARTDATE":"1890-02-17","GEOID":"Kingston1870","ID":3502.0,"CHANGES":0.0,"OBJECTID":88.0,"id":"a673i4c9kb5t","REGION":"South San Joaquin Valley","ENDDATE":"1891-01-03","COUNTY":"Fresno"},"type":"Feature","geometry":{"type":"Point","coordinates":[-119.71763,36.4382799990981]}}],"is_temporal":false,"author":{"url":"","metadata":"","contact_name":"","contact_address":"","source":"","contact_phone":""},"source":"","pagination":{"sort":null,"start":0,"total":88,"limit":1000000},"state":"complete","tags":"county,fresno,historic,offices,post","published":"2014-08-12T22:59:51-04:00","id":111304}