{"type":"FeatureCollection","data_type":"Dataset","url_type":null,"permissions":[{"permissions":{"download":true,"view":true},"group_id":"everyone"}],"classification":null,"title":"Farmers Markets,Maryland, 2009","count":91,"stream_id":11133,"contributor":{"url":"http://geocommons.com/users/185","name":"emily"},"data_attributes":null,"calculation_params":null,"icon_link":null,"link":"http://geocommons.com/overlays/11133.json","extent":[-79.3997,38.1944,-75.0528,39.7008],"geometry_types":["point"],"unique_name":null,"name":"Farmers Markets,Maryland, 2009","feature_count":91,"description":"This dataset was created from the USDA Farmers Market database listing. The point data is usually the exact location of the market but may sometimes be the general area. Attributes include contact information, hours, and if the market takes food stamps. Address were geocoded using batchgeocode.com. Most points are not be the exact location.","next_feature":null,"is_raster":false,"short_classification":"Y","stats":{"ebt":{"max":0,"mean":0.0,"variance":0.0,"stdev":0.0,"min":0,"median":0},"latitude":{"max":39.700798,"mean":39.1262014285714,"variance":0.127746425043892,"stdev":0.357416318938982,"min":38.194396,"median":39.191038},"wic":{"max":1,"mean":0.824175824175824,"variance":0.146520146520147,"stdev":0.382779501175477,"min":0,"median":1},"sfmnp":{"max":1,"mean":0.813186813186813,"variance":0.153601953601953,"stdev":0.391920851195689,"min":0,"median":1},"longitude":{"max":-75.052789,"mean":-76.7925353736264,"variance":0.535409954867548,"stdev":0.731717127630307,"min":-79.399709,"median":-76.730529}},"features":[{"properties":{"city":"Baltimore, MD 21218","covered":"Covered: No","ebt":0,"days":"Saturday, 7:00 a.m.- 12:00 noon","latitude":39.32712,"exact":"","county":"County: Baltimore","contact":"Contact: Marc Rey","website":"Website: http://www.32ndstreetmarket.org","market":"32nd Street/Waverly Farmers Market","wic":1,"sfmnp":1,"street":"E. 32nd &amp; Barclay Street","phone":"Phone: (410) 889-6388 or (410) 917-1496","months":"","longitude":-76.611049,"id":"a678xuh0inxg","location":"","benefits":"WIC: Yes; SFMNP: Yes; EBT: No","open":"Open Year-Round: Yes"},"type":"Feature","geometry":{"type":"Point","coordinates":[-76.611049,39.32712]}},{"properties":{"city":"National Harbor, MD","covered":"Covered: No","ebt":0,"days":"Saturday, 9:00 a.m.- 2:00 p.m.","latitude":38.823399,"exact":"","county":"County: Prince George's","contact":"Contact: National Harbor Management Office","website":"Website: http://www.americanmarketnh.com","market":"American Market at National Harbor","wic":0,"sfmnp":0,"street":"Waterfront St. &amp; Fleet St.","phone":"Phone: (301) 203-4170","months":"May 31 - October 18","longitude":-75.923759,"id":"a678xu3ik3wy","location":"","benefits":"WIC: No; SFMNP: No; EBT: No","open":"Open Year-Round: No"},"type":"Feature","geometry":{"type":"Point","coordinates":[-75.923759,38.823399]}},{"properties":{"city":"Annapolis, MD","covered":"Covered: No","ebt":0,"days":"Sunday, 8:00 a.m.- 12:00 noon","latitude":38.9767,"exact":"Not Exact Location","county":"County: Anne Arundel","contact":"Contact: Janna Howley","website":"","market":"Annapolis FRESHFARM Market","wic":1,"sfmnp":1,"street":"","phone":"Phone: (202) 362-8889","months":"June 1 - October 5","longitude":-76.489934,"id":"a678xu1n8kip","location":"Donner Parking Lot","benefits":"WIC: Yes; SFMNP: Yes; EBT: No","open":"Open Year-Round: No"},"type":"Feature","geometry":{"type":"Point","coordinates":[-76.489934,38.9767]}},{"properties":{"city":"Annapolis, MD 21401","covered":"Covered: No","ebt":0,"days":"Saturday, 7:00 a.m.- 12:00 noon Tuesday, 7:00 a.m.- 12:00 noon","latitude":38.98277,"exact":"","county":"County: Anne Arundel","contact":"Contact: Brenda Conti","website":"","market":"Anne Arundel County Farmers Market","wic":1,"sfmnp":1,"street":"Riva Rd. &amp; Henry S. Truman Pkwy.","phone":"Phone: (410) 349-0317","months":"April 5 - December 20 June 10 - October 28","longitude":-76.584789,"id":"a678xu85pv50","location":"","benefits":"WIC: Yes; SFMNP: Yes; EBT: No","open":"Open Year-Round: No"},"type":"Feature","geometry":{"type":"Point","coordinates":[-76.584789,38.98277]}},{"properties":{"city":"Baltimore, MD","covered":"Covered: No","ebt":0,"days":"Sunday, 8:00 a.m.- 12:00 noon (or sell out)","latitude":39.29224,"exact":"","county":"County: Baltimore","contact":"Contact: Carole Simon","website":"","market":"Baltimore Farmers Market","wic":1,"sfmnp":1,"street":"Saratoga Street  &amp; Gay Streets","phone":"Phone: (410) 752-8632","months":"May 4 - December 21","longitude":-76.608839,"id":"a678xufn2lr2","location":"Downtown, Saratoga Street Between Holiday &amp; Gay Streets (under JFX Viaduct)","benefits":"WIC: Yes; SFMNP: Yes; EBT: No","open":"Open Year-Round: No"},"type":"Feature","geometry":{"type":"Point","coordinates":[-76.608839,39.29224]}},{"properties":{"city":"Bel Air, MD","covered":"Covered: No","ebt":0,"days":"Saturday, 7:00 a.m.- 11:00 a.m. Tuesday, 9:00 a.m.- 2:00 p.m.","latitude":39.535862,"exact":"","county":"County: Harford","contact":"Contact: Katherine Adams","website":"Website: http://www.belairfarmersmarket.com","market":"Bel Air Farmers Market","wic":1,"sfmnp":1,"street":"2 South Bond Street","phone":"Phone: (410) 692-0403","months":"April 12 - October 25 April 15 - October 28","longitude":-76.350545,"id":"a678xu20hfis","location":"Mary Risteau Building Parking lot,","benefits":"WIC: Yes; SFMNP: Yes; EBT: No","open":"Open Year-Round: No"},"type":"Feature","geometry":{"type":"Point","coordinates":[-76.350545,39.535862]}},{"properties":{"city":"Berlin, MD 21811","covered":"Covered: No","ebt":0,"days":"Friday, 10:00 a.m.- 3:00 p.m. Wednesday, 10:00 a.m.- 3:00 p.m.","latitude":38.325,"exact":"Not Exact Location","county":"County: Worcester","contact":"Contact: Carol Kenney","website":"","market":"Berlin Farmers Market","wic":1,"sfmnp":1,"street":"North Main Street","phone":"Phone: (410) 641-4775","months":"May 2 - November 21 July 9 - November 26","longitude":-75.219189,"id":"a678xu60n712","location":"North Main Street, Downtown Historic Berlin","benefits":"WIC: Yes; SFMNP: Yes; EBT: No","open":"Open Year-Round: No"},"type":"Feature","geometry":{"type":"Point","coordinates":[-75.219189,38.325]}},{"properties":{"city":"Bethesda, MD 20814","covered":"Covered: No","ebt":0,"days":"Tuesday, 10:00 a.m.- 2:30 p.m. Saturday, 10:00 a.m. - 2:30 p.m.","latitude":38.98818,"exact":"","county":"County: Montgomery","contact":"Contact: Jeremy Criss/Jeff Burton","website":"","market":"Bethesda Farmers Market","wic":1,"sfmnp":1,"street":"Norfolk and Woodmont Avenue","phone":"Phone: (301) 590-2823 or 301-215-6660","months":"May 3 - October 38","longitude":-77.096059,"id":"a678xu85zp82","location":"Veterans Park","benefits":"WIC: Yes; SFMNP: Yes; EBT: No","open":"Open Year-Round: No"},"type":"Feature","geometry":{"type":"Point","coordinates":[-77.096059,38.98818]}},{"properties":{"city":"Bowie, MD 20715","covered":"Covered: No","ebt":0,"days":"Sunday, 8:00 a.m.- 12:00 noon","latitude":38.977338,"exact":"","county":"County: Prince George's","contact":"Contact: Matt Corley","website":"","market":"Bowie Farmers Market","wic":1,"sfmnp":1,"street":"15200 Annapolis Road","phone":"Phone: (301) 809-3078","months":"May 18 - October 26","longitude":-76.742916,"id":"a678xu1zgew3","location":"Adjacent to Bowie Center for the Performing Arts","benefits":"WIC: Yes; SFMNP: Yes; EBT: No","open":"Open Year-Round: No"},"type":"Feature","geometry":{"type":"Point","coordinates":[-76.742916,38.977338]}},{"properties":{"city":"Brunswick, MD","covered":"Covered: No","ebt":0,"days":"1:00 p.m.- 4:00 p.m.","latitude":39.31307,"exact":"Not Exact Location","county":"County: Frederick","contact":"Contact: Michelle Tuwiner","website":"","market":"Brunswick Farmers Market","wic":0,"sfmnp":0,"street":"","phone":"Phone: (301) 834-5591","months":"June - October","longitude":-77.627556,"id":"a678xu4qsdgn","location":"Historic Downtown Brunswick","benefits":"WIC: No; SFMNP: No; EBT: No","open":"Open Year-Round: No"},"type":"Feature","geometry":{"type":"Point","coordinates":[-77.627556,39.31307]}},{"properties":{"city":"Prince Frederick, MD 20678","covered":"Covered: No","ebt":0,"days":"Saturday, 8:00 a.m.- 2:00 p.m.","latitude":38.535784,"exact":"","county":"County: Calvert","contact":"Contact: James Shepherd","website":"Website: http://www.calvertcountrymarket.com","market":"Calvert County Farmers Market","wic":1,"sfmnp":1,"street":"98 South Solomons Island Rd.","phone":"Phone: (410) 535-4583","months":"April 5 - November 22","longitude":-76.587205,"id":"a678xu3nb3hu","location":"Prince Frederick Shopping Center - Corner of Rt. 4 &amp; Duke St.","benefits":"WIC: Yes; SFMNP: Yes; EBT: No","open":"Open Year-Round: No"},"type":"Feature","geometry":{"type":"Point","coordinates":[-76.587205,38.535784]}},{"properties":{"city":"Cambridge, MD","covered":"Covered: No","ebt":0,"days":"Thursday, 3:30 p.m.- 6:30 p.m.","latitude":38.563122,"exact":"Not Exact Location","county":"County: Dorchester","contact":"Contact: John Seward","website":"","market":"Cambridge Main Street Farmers Market","wic":0,"sfmnp":0,"street":"","phone":"Phone: (410) 310-6093","months":"May 1 - October 16","longitude":-76.078063,"id":"a678xu837l15","location":"City of Cambridge Parking lot - Academy &amp; Muir Sts.","benefits":"WIC: No; SFMNP: No; EBT: No","open":"Open Year-Round: No"},"type":"Feature","geometry":{"type":"Point","coordinates":[-76.078063,38.563122]}},{"properties":{"city":"Westminster, MD 21157","covered":"Covered: No","ebt":0,"days":"Saturday, 8:00 a.m.- 1:00 p.m. Saturday, 8:00 a.m.- 2:00 p.m.","latitude":39.555145,"exact":"Not Exact Location","county":"County: Carroll","contact":"Contact: Anita Bullock","website":"","market":"Carroll County Farmers Market","wic":1,"sfmnp":1,"street":"Smith Ave.","phone":"Phone: (410) 848-7748","months":"June 21 - September 6 November 1 - December 13","longitude":-76.998794,"id":"a678xu7la0lv","location":"Carroll County Agriculture Center","benefits":"WIC: Yes; SFMNP: Yes; EBT: No","open":"Open Year-Round: No"},"type":"Feature","geometry":{"type":"Point","coordinates":[-76.998794,39.555145]}},{"properties":{"city":"Catonsville, MD 21228","covered":"Covered: No","ebt":0,"days":"Wednesday, 10:00 a.m.- 1:00 p.m.","latitude":39.268727,"exact":"","county":"County: Baltimore","contact":"Contact: Catonsville Chamber of Commerce","website":"Website: http://www.catonsville.org","market":"Catonsville Farmers Market","wic":1,"sfmnp":1,"street":"108 Bloomsbury Avenue","phone":"Phone: (410) 744-4169","months":"May 7 - November 26","longitude":-76.730529,"id":"a678xugj2a91","location":"Bloomsbury Community Center","benefits":"WIC: Yes; SFMNP: Yes; EBT: No","open":"Open Year-Round: No"},"type":"Feature","geometry":{"type":"Point","coordinates":[-76.730529,39.268727]}},{"properties":{"city":"Chesapeake City, MD 21915","covered":"Covered: No","ebt":0,"days":"Friday, 4:00 p.m.- 7:00 p.m.","latitude":39.513538,"exact":"","county":"County: Cecil","contact":"Contact: Joanne Richart-Young","website":"Website: http://www.cecilbusiness.org","market":"Cecil County Farmers Market at Chesapeake City","wic":1,"sfmnp":1,"street":"2728 Augustine Herman Hwy.","phone":"Phone: (410) 996-8469","months":"June 13 - October 24","longitude":-75.825264,"id":"a678xuff5121","location":"Rte 213 at Chesapeake Wine and Spirits","benefits":"WIC: Yes; SFMNP: Yes; EBT: No","open":"Open Year-Round: No"},"type":"Feature","geometry":{"type":"Point","coordinates":[-75.825264,39.513538]}},{"properties":{"city":"Elkton, MD 21921","covered":"Covered: No","ebt":0,"days":"Saturday, 9:00 a.m.- 12:00 noon","latitude":39.60862,"exact":"","county":"County: Cecil","contact":"Contact: Joanne Richart-Young","website":"","market":"Cecil County Farmers Market at Elkton","wic":1,"sfmnp":1,"street":"129 East Main St.","phone":"Phone: (410) 996-8469","months":"June 14 - October 25","longitude":-75.82824,"id":"a678xu991vwk","location":"In back of Courthouse (Enter from High Street)","benefits":"WIC: Yes; SFMNP: Yes; EBT: No","open":"Open Year-Round: No"},"type":"Feature","geometry":{"type":"Point","coordinates":[-75.82824,39.60862]}},{"properties":{"city":"Centerville, MD","covered":"Covered: No","ebt":0,"days":"Wednesday, 9:00 a.m. - 1:00 p.m. Saturday, 9:00 a.m. - 1:00 p.m.","latitude":39.335824,"exact":"","county":"County: Queen Anne's","contact":"Contact: Doris Greiner","website":"","market":"Centreville Farmers Market","wic":1,"sfmnp":1,"street":"100 Court House Square","phone":"Phone: (410) 364-5689","months":"May 3 - October 29","longitude":-77.328187,"id":"a678xuene58m","location":"100 Court House Square on N. Commerce Street","benefits":"WIC: Yes; SFMNP: Yes; EBT: No","open":"Open Year-Round: No"},"type":"Feature","geometry":{"type":"Point","coordinates":[-77.328187,39.335824]}},{"properties":{"city":"Chestertown, MD 21620","covered":"Covered: No","ebt":0,"days":"Saturday, 9:00 a.m.- 12:00 noon","latitude":39.212228,"exact":"Not Exact Location","county":"County: Kent","contact":"Contact: Owen McCoy","website":"","market":"Chestertown Farmers Market","wic":1,"sfmnp":1,"street":"","phone":"Phone: (410) 639-7217","months":"March 22 - December 20","longitude":-76.065992,"id":"a678xuf17ukg","location":"Park Row at the Fountain Park","benefits":"WIC: Yes; SFMNP: Yes; EBT: No","open":"Open Year-Round: No"},"type":"Feature","geometry":{"type":"Point","coordinates":[-76.065992,39.212228]}},{"properties":{"city":"Cheverly, MD","covered":"Covered: No","ebt":0,"days":"Saturday, 9:00 a.m.- 12:30 p.m.","latitude":38.924776,"exact":"","county":"County: Prince George's","contact":"Contact: Crystal Lai","website":"","market":"Cheverly Community Market","wic":0,"sfmnp":0,"street":"6401 Forest Road","phone":"Phone: (301) 773-0635","months":"May 24 - October 25","longitude":-76.907766,"id":"a678xu25mqpo","location":"6401 Forest Road (at Community Center)","benefits":"WIC: No; SFMNP: No; EBT: No","open":"Open Year-Round: No"},"type":"Feature","geometry":{"type":"Point","coordinates":[-76.907766,38.924776]}},{"properties":{"city":"College Park, MD 20740","covered":"Covered: No","ebt":0,"days":"Saturday, 7:00 a.m.- 12:00 noon","latitude":38.97658,"exact":"","county":"County: Prince George's","contact":"Contact: Phil Miller","website":"","market":"College Park Farmers Market","wic":1,"sfmnp":1,"street":"5211 Paint Branch Parkway","phone":"Phone: (301) 399-5485","months":"May 3 - November 22","longitude":-76.923178,"id":"a678xu5ks226","location":"Herbert Wells Ice Rink/Ellen Linson Swimming Pool","benefits":"WIC: Yes; SFMNP: Yes; EBT: No","open":"Open Year-Round: No"},"type":"Feature","geometry":{"type":"Point","coordinates":[-76.923178,38.97658]}},{"properties":{"city":"Takoma Park, MD","covered":"Covered: No","ebt":0,"days":"Wednesday, 3:00 p.m.- 7:00 p.m.","latitude":38.985677,"exact":"","county":"County: Montgomery Montgomery","contact":"Contact: John Hyde","website":"","market":"Crossroads Farmers Market","wic":1,"sfmnp":1,"street":"1325 Holton Lane","phone":"Phone: (301) 445-4369","months":"June 4 - October 29","longitude":-76.987215,"id":"a678xu3xsicf","location":"","benefits":"WIC: Yes; SFMNP: Yes; EBT: No","open":"Open Year-Round: No"},"type":"Feature","geometry":{"type":"Point","coordinates":[-76.987215,38.985677]}},{"properties":{"city":"Deale, MD 20751","covered":"Covered: No","ebt":0,"days":"Thursday, 3:00 p.m.- 6:00 p.m.","latitude":38.782413,"exact":"","county":"County: Anne Arundel","contact":"Contact: Gail Wilkerson","website":"","market":"Deale Farmers Market","wic":1,"sfmnp":1,"street":"5965 Deale-Churchton Road","phone":"Phone: (410) 867-4993","months":"July 3 - October 30","longitude":-76.552719,"id":"a678xu2zvkov","location":"Ceader Grove United Methodist Church Parking Lot","benefits":"WIC: Yes; SFMNP: Yes; EBT: No","open":"Open Year-Round: No"},"type":"Feature","geometry":{"type":"Point","coordinates":[-76.552719,38.782413]}},{"properties":{"city":"Denton, MD","covered":"Covered: No","ebt":0,"days":"Wednesday, 3:00 p.m.- 6:00 p.m.","latitude":38.88634,"exact":"","county":"County: Caroline","contact":"Contact: Jessica Perez","website":"","market":"Denton Downtown Farmers Market","wic":0,"sfmnp":0,"street":"Market &amp; Second St.","phone":"Phone: (410) 479-4315","months":"May 14 - October 15","longitude":-75.832509,"id":"a678xuf9hjmp","location":"","benefits":"WIC: No; SFMNP: No; EBT: No","open":"Open Year-Round: No"},"type":"Feature","geometry":{"type":"Point","coordinates":[-75.832509,38.88634]}},{"properties":{"city":"Denton, MD 21629","covered":"Covered: No","ebt":0,"days":"Tuesday, 8:00 a.m.- 1:00 p.m.","latitude":38.88454,"exact":"","county":"County: Caroline","contact":"Contact: Church Office","website":"","market":"Denton St. Luke's Farmers Market","wic":1,"sfmnp":1,"street":"Franklin St. &amp; 5th Ave.","phone":"Phone: (410) 479-2171","months":"June 3 - October 14","longitude":-75.829739,"id":"a678xu4vy34z","location":"St. Luke's United Methodist Church","benefits":"WIC: Yes; SFMNP: Yes; EBT: No","open":"Open Year-Round: No"},"type":"Feature","geometry":{"type":"Point","coordinates":[-75.829739,38.88454]}},{"properties":{"city":"Cambridge, MD 21613","covered":"Covered: No","ebt":0,"days":"Tuesday, 8:00 a.m.- 12:00 noon Friday, 8:00 a.m. - 12:00 noon","latitude":38.563122,"exact":"Not Exact Location","county":"County: Dorchester","contact":"Contact: Dennis Ewell","website":"","market":"Dorchester County Farmers Market","wic":1,"sfmnp":1,"street":"","phone":"Phone: (410) 228-8671","months":"July 1 - August 26 May 16 - October 31","longitude":-76.078063,"id":"a678xue62te6","location":"Saliwinds Park","benefits":"WIC: Yes; SFMNP: Yes; EBT: No","open":"Open Year-Round: No"},"type":"Feature","geometry":{"type":"Point","coordinates":[-76.078063,38.563122]}},{"properties":{"city":"Cumberland, MD 21502","covered":"Covered: No","ebt":0,"days":"Thursday, 9:30 a.m. - 2:00 p.m. Saturday, 9:30 a.m.- 2:00 p.m.","latitude":39.649725,"exact":"Not Exact Location","county":"County: Allegany","contact":"Contact: Jack Miltenberger","website":"","market":"Downtown Cumberland Farmers Market","wic":1,"sfmnp":1,"street":"","phone":"Phone: (304) 738-1093","months":"","longitude":-78.764941,"id":"a678xu4xtcox","location":"Downtown Pedestrian Mall","benefits":"WIC: Yes; SFMNP: Yes; EBT: No","open":"Open Year-Round: Yes"},"type":"Feature","geometry":{"type":"Point","coordinates":[-78.764941,39.649725]}},{"properties":{"city":"Westminster, MD 21157","covered":"Covered: No","ebt":0,"days":"Saturday, 8:00 a.m.- 12:00 noon","latitude":39.57634,"exact":"","county":"County: Carroll","contact":"Contact: Stanley Ruchlewicz","website":"","market":"Downtown Westminster Farmers Market","wic":1,"sfmnp":1,"street":"Railroad Ave. &amp; Emerald Hill Ln.","phone":"Phone: (410) 848-5294","months":"May 31 - November 22","longitude":-76.993819,"id":"a678xub88wuf","location":"Conaway parking lot","benefits":"WIC: Yes; SFMNP: Yes; EBT: No","open":"Open Year-Round: No"},"type":"Feature","geometry":{"type":"Point","coordinates":[-76.993819,39.57634]}},{"properties":{"city":"Dundalk, MD","covered":"Covered: No","ebt":0,"days":"Saturday, 6:30 a.m.- 12:30 p.m.","latitude":39.25889,"exact":"Not Exact Location","county":"County: Baltimore","contact":"Contact: Rev. David Erickson","website":"","market":"Dundalk Village Farmers Market","wic":1,"sfmnp":1,"street":"Dunman Way","phone":"Phone: (410) 282-2540","months":"July 12 - November 15","longitude":-76.512144,"id":"a678xu33ctbp","location":"Shipping Place at Dunman Way, Park in back of Dundalk Post Office","benefits":"WIC: Yes; SFMNP: Yes; EBT: No","open":"Open Year-Round: No"},"type":"Feature","geometry":{"type":"Point","coordinates":[-76.512144,39.25889]}},{"properties":{"city":"Easton, MD","covered":"Covered: No","ebt":0,"days":"Saturday, 8:00 a.m.- 1:00 p.m. Wednesday, 8:00 a.m.- 1:00 p.m.","latitude":38.77465,"exact":"Not Exact Location","county":"County: Talbot","contact":"Contact: Carolyn Jaffe","website":"","market":"Easton Farmers Market","wic":1,"sfmnp":1,"street":"Harrison Street","phone":"Phone: (410) 820-8822","months":"April 19 - December 20 June 25 - September 24","longitude":-76.074829,"id":"a678xu9acr2x","location":"Town Parking lot off Harrison Street","benefits":"WIC: Yes; SFMNP: Yes; EBT: No","open":"Open Year-Round: No"},"type":"Feature","geometry":{"type":"Point","coordinates":[-76.074829,38.77465]}},{"properties":{"city":"Baltimore, MD 21224","covered":"Covered: No","ebt":0,"days":"Wednesday, 11:00 a.m.- 2:00 p.m.","latitude":39.294698,"exact":"","county":"County: Baltimore","contact":"Contact: Customer Service","website":"","market":"Eastpoint Farmers Market","wic":1,"sfmnp":1,"street":"7839 Eastern Avenue","phone":"Phone: (410) 562-3464","months":"June 25 - October 29","longitude":-76.511921,"id":"a678xu58vozo","location":"7839 Eastern Avenue, Eastpoint Mall","benefits":"WIC: Yes; SFMNP: Yes; EBT: No","open":"Open Year-Round: No"},"type":"Feature","geometry":{"type":"Point","coordinates":[-76.511921,39.294698]}},{"properties":{"city":"Edgewood, MD","covered":"Covered: No","ebt":0,"days":"Thursday, 3:00 p.m.- 6:00 p.m.","latitude":39.41718,"exact":"","county":"County: Harford","contact":"Contact: Alan Doran","website":"","market":"Edgewood Farmers Market","wic":1,"sfmnp":1,"street":"Edgewood Road ( Route 755) &amp; Old Edgewood Road","phone":"Phone: (410) 679-2997 ext. 203","months":"May 15 - October 23","longitude":-76.292509,"id":"a678xue1bv6e","location":"Across from MARC Station","benefits":"WIC: Yes; SFMNP: Yes; EBT: No","open":"Open Year-Round: No"},"type":"Feature","geometry":{"type":"Point","coordinates":[-76.292509,39.41718]}},{"properties":{"city":"Emmitsburg, MD 21727","covered":"Covered: No","ebt":0,"days":"Friday, 3:00 p.m.- 6:30 p.m.","latitude":39.700798,"exact":"","county":"County: Frederick","contact":"Contact: Amy Naill","website":"","market":"Emmitsburg Farmers Market","wic":1,"sfmnp":1,"street":"302 South Seton Avenue","phone":"Phone: (301) 600-6303","months":"June 20 - October 17","longitude":-77.328645,"id":"a678xu86x6fh","location":"","benefits":"WIC: Yes; SFMNP: Yes; EBT: No","open":"Open Year-Round: No"},"type":"Feature","geometry":{"type":"Point","coordinates":[-77.328645,39.700798]}},{"properties":{"city":"Frederick, MD 21701","covered":"Covered: No","ebt":0,"days":"Thursday, 3:00 p.m.- 6:00 p.m.","latitude":39.415,"exact":"","county":"County: Frederick","contact":"Contact: Wendy Barth","website":"","market":"Everedy Square &amp; Shab Row Farmers Market","wic":1,"sfmnp":1,"street":"East and East Church Streets","phone":"Phone: (301) 898-3183","months":"June 5 - October 30","longitude":-77.405219,"id":"a678xu98xihg","location":"Downtown, East and East Church Streets","benefits":"WIC: Yes; SFMNP: Yes; EBT: No","open":"Open Year-Round: No"},"type":"Feature","geometry":{"type":"Point","coordinates":[-77.405219,39.415]}},{"properties":{"city":"Baltimore, MD 21236","covered":"Covered: No","ebt":0,"days":"Friday, 10:00 a.m.- 1:00 p.m.","latitude":39.370855,"exact":"","county":"County: Baltimore","contact":"Contact: Janelle Vane","website":"Website: http://www.theavenueatwhitemarsh.com","market":"Farmers Market at the Avenue","wic":1,"sfmnp":1,"street":"The Avenue at White Marsh","phone":"Phone: (443) 504-3656","months":"July 11 - October 31","longitude":-76.466104,"id":"a678xubj3qa9","location":"Parking lot behind Barnes &amp; Noble","benefits":"WIC: Yes; SFMNP: Yes; EBT: No","open":"Open Year-Round: No"},"type":"Feature","geometry":{"type":"Point","coordinates":[-76.466104,39.370855]}},{"properties":{"city":"Frederick, MD 21701","covered":"Covered: No","ebt":0,"days":"Tuesday, 11:00 a.m.- 1:30 p.m.","latitude":39.415745,"exact":"Not Exact Location","county":"County: Frederick","contact":"Contact: Mark Master","website":"","market":"Fort Detrick Farmers Market","wic":0,"sfmnp":0,"street":"","phone":"Phone: (301) 846-1956","months":"","longitude":-77.412034,"id":"a678xu1pt9dp","location":"In front of Bldg. 549, library &amp; cafeteria","benefits":"WIC: No; SFMNP: No; EBT: No","open":"Open Year-Round: Yes"},"type":"Feature","geometry":{"type":"Point","coordinates":[-77.412034,39.415745]}},{"properties":{"city":"Frostburg, MD 21532","covered":"Covered: No","ebt":0,"days":"Friday, 9:30 a.m.- 12:30 p.m.","latitude":39.651187,"exact":"Not Exact Location","county":"County: Allegany","contact":"Contact: Jack Miltenberger","website":"","market":"Frostburg Farmers Market","wic":1,"sfmnp":1,"street":"Main Street","phone":"Phone: (304) 738-1093","months":"May 30 - October 17","longitude":-78.911889,"id":"a678xu4eobxn","location":"Main Street, Downtown","benefits":"WIC: Yes; SFMNP: Yes; EBT: No","open":"Open Year-Round: No"},"type":"Feature","geometry":{"type":"Point","coordinates":[-78.911889,39.651187]}},{"properties":{"city":"Gaithersburg, MD 20877","covered":"Covered: No","ebt":0,"days":"Thursday, 2:00 p.m.- 6:00 p.m.","latitude":39.13974,"exact":"","county":"County: Montgomery","contact":"Contact: Jeremy Criss","website":"Website: http://www.montgomerycountymd.gov","market":"Gaithersburg Farmers Market","wic":1,"sfmnp":1,"street":"Fulks Corner Ave. &amp; MD Rte. 355","phone":"Phone: (301) 590-2823","months":"June 5 - October 30","longitude":-77.196409,"id":"a678xu3be0dx","location":"","benefits":"WIC: Yes; SFMNP: Yes; EBT: No","open":"Open Year-Round: No"},"type":"Feature","geometry":{"type":"Point","coordinates":[-77.196409,39.13974]}},{"properties":{"city":"Kentlands, MD 20877","covered":"Covered: No","ebt":0,"days":"Saturday, 10:00 a.m.- 2:00 p.m.","latitude":39.142865,"exact":"","county":"County: Montgomery","contact":"Contact: Nansie Heimer Wilde","website":"Website: http://www.gaithersburgmd.gov","market":"Gaithersburg Main Street Pavilion Farmers Market","wic":0,"sfmnp":0,"street":"301 Main Street","phone":"Phone: (301) 258-6350","months":"May 3 - November 22","longitude":-77.1849,"id":"a678xub0hdlg","location":"","benefits":"WIC: No; SFMNP: No; EBT: No","open":"Open Year-Round: No"},"type":"Feature","geometry":{"type":"Point","coordinates":[-77.1849,39.142865]}},{"properties":{"city":"Greenbelt, MD","covered":"Covered: No","ebt":0,"days":"Sunday, 10:00 a.m.- 2:00 p.m.","latitude":39.0003,"exact":"","county":"County: Prince George's","contact":"Contact: Kim Kash","website":"","market":"Greenbelt Farmers Market","wic":0,"sfmnp":0,"street":"Crescent Rd. &amp; Southway","phone":"Phone: (202) 281-4789","months":"June 8 - November 2","longitude":-76.877089,"id":"a678xu9r4ihs","location":"Parking lot of Roosevelt Center, Crescent Rd. &amp; Southway","benefits":"WIC: No; SFMNP: No; EBT: No","open":"Open Year-Round: No"},"type":"Feature","geometry":{"type":"Point","coordinates":[-76.877089,39.0003]}},{"properties":{"city":"Hagerstown, MD 21740","covered":"Covered: No","ebt":0,"days":"Saturday, 5:00 a.m.- 12:00 noon","latitude":39.645079,"exact":"","county":"County: Washington","contact":"Contact: Lewie Thomas","website":"Website: http://www.hagerstownmarket.org","market":"Hagerstown City Farmers Market","wic":0,"sfmnp":0,"street":"25 W. Church St.","phone":"Phone: (301) 739-8577 ext. 190","months":"","longitude":-77.719581,"id":"a678xu89rywp","location":"","benefits":"WIC: No; SFMNP: No; EBT: No","open":"Open Year-Round: Yes"},"type":"Feature","geometry":{"type":"Point","coordinates":[-77.719581,39.645079]}},{"properties":{"city":"Baltimore, MD","covered":"Covered: No","ebt":0,"days":"Saturday, 9:00 a.m.- 1:00 p.m.","latitude":39.282489,"exact":"","county":"County: Baltimore","contact":"Contact: Janna Howley","website":"","market":"Harbor East FRESHFARM Market","wic":0,"sfmnp":0,"street":"1000 block of Lancaster St.","phone":"Phone: (202) 362-8889","months":"June 14 - October 25","longitude":-76.600037,"id":"a678xugh87az","location":"","benefits":"WIC: No; SFMNP: No; EBT: No","open":"Open Year-Round: No"},"type":"Feature","geometry":{"type":"Point","coordinates":[-76.600037,39.282489]}},{"properties":{"city":"Havre de Grace, MD 21078","covered":"Covered: No","ebt":0,"days":"Saturday, 9:00 a.m.- 12:00 noon","latitude":39.54883,"exact":"","county":"County: Harford","contact":"Contact: Cathy Vincenti","website":"","market":"Havre de Grace Farmers Market","wic":1,"sfmnp":1,"street":"Pennington Ave. and N. Washington St.","phone":"Phone: (410) 939-3303","months":"May 3 - October 18","longitude":-76.089769,"id":"a678xuafixry","location":"","benefits":"WIC: Yes; SFMNP: Yes; EBT: No","open":"Open Year-Round: No"},"type":"Feature","geometry":{"type":"Point","coordinates":[-76.089769,39.54883]}},{"properties":{"city":"Baltimore, MD 21224","covered":"Covered: No","ebt":0,"days":"Saturday, 8:00 a.m.- 12:00 noon","latitude":39.28763,"exact":"","county":"County: Baltimore","contact":"Contact: Southeast CDC","website":"","market":"Highlandtown Farmers Market","wic":1,"sfmnp":1,"street":"South Conkling &amp; Bank Streets","phone":"Phone: (410) 342-3234","months":"July 12 - October 25","longitude":-76.567209,"id":"a678xu6wmpxl","location":"3500 Block of Bank Street","benefits":"WIC: Yes; SFMNP: Yes; EBT: No","open":"Open Year-Round: No"},"type":"Feature","geometry":{"type":"Point","coordinates":[-76.567209,39.28763]}},{"properties":{"city":"Columbia, MD 21044","covered":"Covered: No","ebt":0,"days":"Thursday, 2:00 p.m.- 6:00 p.m.","latitude":39.191038,"exact":"","county":"County: Howard","contact":"Contact: Lana Edelen","website":"","market":"Howard County Farmers Market - East Columbia Library","wic":1,"sfmnp":1,"street":"6600 Cradlerock Way","phone":"Phone: (301) 934-9004","months":"May 1 - November 20","longitude":-76.846643,"id":"a678xu2o8vcy","location":"Behind East Columbia Library","benefits":"WIC: Yes; SFMNP: Yes; EBT: No","open":"Open Year-Round: No"},"type":"Feature","geometry":{"type":"Point","coordinates":[-76.846643,39.191038]}},{"properties":{"city":"Cooksville, MD 21723","covered":"Covered: No","ebt":0,"days":"Saturday, 9:00 a.m.- 12:30 p.m.","latitude":39.306762,"exact":"","county":"County: Howard","contact":"Contact: R.J. Caulder","website":"","market":"Howard County Farmers Market at Glenwood Library","wic":1,"sfmnp":1,"street":"2350 State Rte. 97","phone":"Phone: (410) 442-1807","months":"May 3 - October 25","longitude":-77.021118,"id":"a678xu5ev610","location":"2350 State Rte. 97, at Glenwood Library","benefits":"WIC: Yes; SFMNP: Yes; EBT: No","open":"Open Year-Round: No"},"type":"Feature","geometry":{"type":"Point","coordinates":[-77.021118,39.306762]}},{"properties":{"city":"Columbia, MD","covered":"Covered: No","ebt":0,"days":"Sunday, 9:00 a.m.- 1:00 p.m.","latitude":39.209907,"exact":"","county":"County: Howard","contact":"Contact: Lana Edelen","website":"","market":"Howard County Farmers Market at Oakland Mills","wic":1,"sfmnp":1,"street":"5851 Robert Oliver Place","phone":"Phone: (301) 934-9004","months":"May 4 - November 23","longitude":-76.846355,"id":"a678xu4yir4n","location":"Oakland Mills Community Association","benefits":"WIC: Yes; SFMNP: Yes; EBT: No","open":"Open Year-Round: No"},"type":"Feature","geometry":{"type":"Point","coordinates":[-76.846355,39.209907]}},{"properties":{"city":"Hyattesville, MD","covered":"Covered: No","ebt":0,"days":"Tuesday, 2:00 p.m. - 6:00 p.m.","latitude":38.95584,"exact":"","county":"County: Prince George's","contact":"Contact: Peggy Campanella","website":"","market":"Hyattesville Farmers Market at Queens Chapel Town Center","wic":1,"sfmnp":1,"street":"Queens Chapel Road and Hamilton Street","phone":"Phone: (301) 627-0977","months":"June 17 - October 28","longitude":-76.962379,"id":"a678xudnnhml","location":"Corner of Queens Chapel Road and Hamilton Street Behind shopping center","benefits":"WIC: Yes; SFMNP: Yes; EBT: No","open":"Open Year-Round: No"},"type":"Feature","geometry":{"type":"Point","coordinates":[-76.962379,38.95584]}},{"properties":{"city":"Kensington, MD 20895","covered":"Covered: No","ebt":0,"days":"Saturday, 8:00 a.m.- 12:00 noon","latitude":39.02932,"exact":"Not Exact Location","county":"County: Montgomery","contact":"Contact: Shirley Watson","website":"","market":"Kensington Farmers Market","wic":1,"sfmnp":0,"street":"Howard Avenue","phone":"Phone: (301) 949-2424","months":"April - November","longitude":-77.077744,"id":"a678xu9d4i44","location":"Train station lot, Howard Avenue","benefits":"WIC: Yes; SFMNP: No; EBT: No","open":"Open Year-Round: No"},"type":"Feature","geometry":{"type":"Point","coordinates":[-77.077744,39.02932]}},{"properties":{"city":"La Plata, MD","covered":"Covered: No","ebt":0,"days":"Saturday, 8:00 a.m. - 3:00 p.m. Wednesday, 8:00 a.m. - 3:00 p.m.","latitude":38.5297,"exact":"","county":"County: Charles","contact":"Contact: Joe Harrison","website":"","market":"La Plata Farmers Market","wic":1,"sfmnp":1,"street":"Charles Street &amp; Washington Avenue","phone":"Phone: (301) 934-8421 or (301) 870-3377","months":"May 24 - November 22","longitude":-76.978059,"id":"a678xue2t8no","location":"Court House Parking Lot","benefits":"WIC: Yes; SFMNP: Yes; EBT: No","open":"Open Year-Round: No"},"type":"Feature","geometry":{"type":"Point","coordinates":[-76.978059,38.5297]}},{"properties":{"city":"Cambridge, MD 21613","covered":"Covered: No","ebt":0,"days":"Tuesday, 9:30 a.m.- 2:00 p.m.","latitude":38.563278,"exact":"Not Exact Location","county":"County: Allegany","contact":"Contact: Jack Miltenberger","website":"","market":"LaVale Farmers Market","wic":1,"sfmnp":1,"street":"","phone":"Phone: (304) 738-1093","months":"June 3 - October 14","longitude":-76.078559,"id":"a678xuc3vjgk","location":"Saliwinds Park","benefits":"WIC: Yes; SFMNP: Yes; EBT: No","open":"Open Year-Round: No"},"type":"Feature","geometry":{"type":"Point","coordinates":[-76.078559,38.563278]}},{"properties":{"city":"Laurel, MD 20708","covered":"Covered: No","ebt":0,"days":"Thursday, 10:00 a.m.- 2:00 p.m.","latitude":39.062707,"exact":"","county":"County: Prince George's","contact":"Contact: Francis Gosman","website":"","market":"Laurel Farmers Market","wic":1,"sfmnp":1,"street":"300 Block of Main St.","phone":"Phone: (301) 854-2917","months":"June 5 - October 30","longitude":-76.844378,"id":"a678xu7jelym","location":"","benefits":"WIC: Yes; SFMNP: Yes; EBT: No","open":"Open Year-Round: No"},"type":"Feature","geometry":{"type":"Point","coordinates":[-76.844378,39.062707]}},{"properties":{"city":"Middletown, MD","covered":"Covered: No","ebt":0,"days":"Thursday, 3:00 p.m.- 6:00 p.m.","latitude":39.437645,"exact":"Not Exact Location","county":"County: Frederick","contact":"Contact: Mark Boettcher","website":"","market":"Middletown Farmers Market","wic":1,"sfmnp":1,"street":"South Church Street","phone":"Phone: (240) 422-9237","months":"June 26 - September 25","longitude":-77.545658,"id":"a678xu3y8nm4","location":"Chris Reformed U.C.C. South Church Street, across from the Firehouse","benefits":"WIC: Yes; SFMNP: Yes; EBT: No","open":"Open Year-Round: No"},"type":"Feature","geometry":{"type":"Point","coordinates":[-77.545658,39.437645]}},{"properties":{"city":"Bethesda, MD 20814","covered":"Covered: No","ebt":0,"days":"Wednesday &amp; Saturday, 7:00 a.m.- 4:00 p.m. Friday, 7:00 a.m. - 4:00 p.m.","latitude":38.981061,"exact":"","county":"County: Montgomery","contact":"Contact: Barbara Johnson","website":"","market":"Montgomery Farm Women's Co-op Market","wic":0,"sfmnp":0,"street":"7155 Wisconsin Avenue","phone":"Phone: (301) 652-2291","months":"","longitude":-77.092474,"id":"a678xudlauju","location":"","benefits":"WIC: No; SFMNP: No; EBT: No","open":"Open Year-Round: Yes"},"type":"Feature","geometry":{"type":"Point","coordinates":[-77.092474,38.981061]}},{"properties":{"city":"Mount Airy, MD","covered":"Covered: No","ebt":0,"days":"Wednesday, 3:30 p.m.- 6:30 p.m.","latitude":39.377016,"exact":"","county":"County: Carroll","contact":"Contact: Kelly Ziad","website":"","market":"Mount Airy Farmers Market","wic":0,"sfmnp":0,"street":"3 North Main Street","phone":"Phone: (301) 829-1424","months":"June 4 - September 24","longitude":-77.154185,"id":"a678xuc4zqv3","location":"","benefits":"WIC: No; SFMNP: No; EBT: No","open":"Open Year-Round: No"},"type":"Feature","geometry":{"type":"Point","coordinates":[-77.154185,39.377016]}},{"properties":{"city":"Oakland, MD","covered":"Covered: No","ebt":0,"days":"Monday, 4:00 p.m. - 6:30 p.m.","latitude":39.404335,"exact":"","county":"County: Garrett","contact":"Contact: Garrett County Extension Service","website":"Website: http://www.mountainfresh.org","market":"Mountain Fresh Farmers Market - McHenry","wic":1,"sfmnp":1,"street":"1906 Deep Creek Drive","phone":"Phone: (301) 334-6960","months":"June - August","longitude":-79.399709,"id":"a678xu18i62l","location":"Parking Lot of Deep Creek Volunteer Fire Department","benefits":"WIC: Yes; SFMNP: Yes; EBT: No","open":"Open Year-Round: No"},"type":"Feature","geometry":{"type":"Point","coordinates":[-79.399709,39.404335]}},{"properties":{"city":"McHenry, MD","covered":"Covered: No","ebt":0,"days":"Saturday, 10:00 a.m.- 1:00 p.m. Wednesday, 10:00 a.m. - 1:00 p.m.","latitude":39.5578,"exact":"","county":"County: Garrett","contact":"Contact: Garrett County Extension Service","website":"Website: http://www.mountainfresh.org","market":"Mountain Fresh Farmers Market - Oakland","wic":1,"sfmnp":1,"street":"2nd Street &amp; Town Park Lane","phone":"Phone: (301) 334-6960","months":"June 7 - October 29","longitude":-79.352058,"id":"a678xu646k7k","location":"Town Parking Lot","benefits":"WIC: Yes; SFMNP: Yes; EBT: No","open":"Open Year-Round: No"},"type":"Feature","geometry":{"type":"Point","coordinates":[-79.352058,39.5578]}},{"properties":{"city":"Baltimore, MD","covered":"Covered: No","ebt":0,"days":"Wednesday, 4:00 p.m.- 7:00 p.m.","latitude":39.367982,"exact":"","county":"County: Baltimore","contact":"Contact: Molly Kushner","website":"","market":"Mt. Washington Whole Foods Market Farmers Market","wic":0,"sfmnp":0,"street":"1330 Smith Ave.","phone":"Phone: (410) 532-6700","months":"June 18 - October 29","longitude":-76.649322,"id":"a678xu6v8b7l","location":"","benefits":"WIC: No; SFMNP: No; EBT: No","open":"Open Year-Round: No"},"type":"Feature","geometry":{"type":"Point","coordinates":[-76.649322,39.367982]}},{"properties":{"city":"North Beach, MD","covered":"Covered: No","ebt":0,"days":"Friday, 6:00 p.m.- 9:00 p.m.","latitude":38.70703,"exact":"","county":"County: Calvert","contact":"Contact: Diane Burr","website":"","market":"North Beach Friday Night Farmers Market","wic":0,"sfmnp":0,"street":"Bay Ave. &amp; 5th St.","phone":"Phone: (202) 257-3253","months":"June 13 - October 31","longitude":-76.531549,"id":"a678xuehwe7g","location":"","benefits":"WIC: No; SFMNP: No; EBT: No","open":"Open Year-Round: No"},"type":"Feature","geometry":{"type":"Point","coordinates":[-76.531549,38.70703]}},{"properties":{"city":"Charlotte Hall, MD","covered":"Covered: No","ebt":0,"days":"Monday - Saturday, Daylight hours","latitude":38.47322,"exact":"","county":"County: St. Mary's","contact":"Contact: Donna Sasscer","website":"","market":"North St. Mary's County Farmers Market","wic":1,"sfmnp":1,"street":"Route 5 and route 6","phone":"Phone: (301) 475-4200 ext. 1402","months":"April 5 - November 22","longitude":-76.774079,"id":"a678xuec3lt2","location":"Charlotte Hall Library parking Lot","benefits":"WIC: Yes; SFMNP: Yes; EBT: No","open":"Open Year-Round: No"},"type":"Feature","geometry":{"type":"Point","coordinates":[-76.774079,38.47322]}},{"properties":{"city":"Ocean City, MD 21845","covered":"Covered: No","ebt":0,"days":"Sunday, 8:00 a.m. - 1:00 p.m. Tuesday &amp; Thursday, 8:00 a.m.- 1:00 p.m.","latitude":38.44736,"exact":"","county":"County: Worcester","contact":"Contact: Paul Wood","website":"","market":"Ocean City Farmers Market","wic":1,"sfmnp":1,"street":"142nd St. &amp; Coastal Hwy.","phone":"Phone: (410) 860-2607","months":"May 4 - October 5 June 5 - September 4","longitude":-75.052789,"id":"a678xu3f1fhk","location":"Phillips Restaurant Parking Lot","benefits":"WIC: Yes; SFMNP: Yes; EBT: No","open":"Open Year-Round: No"},"type":"Feature","geometry":{"type":"Point","coordinates":[-75.052789,38.44736]}},{"properties":{"city":"Olney, MD","covered":"Covered: No","ebt":0,"days":"Sunday, 9:00 a.m. - 1:00 p.m.","latitude":39.150405,"exact":"Not Exact Location","county":"County: Montgomery","contact":"Contact: Janet Terry","website":"Website: http://olneyfarmersmarket.org","market":"Olney Farmers Market","wic":1,"sfmnp":1,"street":"","phone":"Phone: (202) 257-5326","months":"May - November","longitude":-77.068094,"id":"a678xub06l1q","location":"Olney Town Center Route 108 Just east of Georgia Avenue","benefits":"WIC: Yes; SFMNP: Yes; EBT: No","open":"Open Year-Round: No"},"type":"Feature","geometry":{"type":"Point","coordinates":[-77.068094,39.150405]}},{"properties":{"city":"Baltimore, MD 21225","covered":"Covered: No","ebt":0,"days":"Wednesday, 9:30 a.m.- 2:00 p.m.","latitude":39.34914,"exact":"","county":"County: Baltimore","contact":"Contact: PHCHA","website":"","market":"Park Heights Community Farmers Market","wic":1,"sfmnp":1,"street":"5201 Park Heights Avenue","phone":"Phone: (410) 542-8190","months":"June 11 - December 17","longitude":-76.675945,"id":"a678xuexaqsf","location":"Pimlico Race Course Parking Lot","benefits":"WIC: Yes; SFMNP: Yes; EBT: No","open":"Open Year-Round: No"},"type":"Feature","geometry":{"type":"Point","coordinates":[-76.675945,39.34914]}},{"properties":{"city":"Pikesville, MD 21208","covered":"Covered: No","ebt":0,"days":"Tuesday, 10:00 a.m.- 3:00 p.m.","latitude":39.374469,"exact":"","county":"County: Baltimore","contact":"Contact: Nick Attias","website":"Website: http://www.pikesvillechamber.org","market":"Pikesville Farmers Market","wic":1,"sfmnp":1,"street":"1201 Reisterstown Road (Near Pikesville Library)","phone":"Phone: (410) 484-2337","months":"June 24 - October 28","longitude":-76.722734,"id":"a678xufz8bo8","location":"In front of the MD State police Headquarters","benefits":"WIC: Yes; SFMNP: Yes; EBT: No","open":"Open Year-Round: No"},"type":"Feature","geometry":{"type":"Point","coordinates":[-76.722734,39.374469]}},{"properties":{"city":"Odenton, MD 21113","covered":"Covered: No","ebt":0,"days":"Wednesday, 2:00 p.m.- 6:30 p.m. Thanksgiving Special, 12:00 noon- 4:00 p.m.","latitude":39.081405,"exact":"Not Exact Location","county":"County: Anne Arundel","contact":"Contact: Bill Morris","website":"","market":"Piney Orchard Farmers Market","wic":1,"sfmnp":1,"street":"","phone":"Phone: (410) 867-9162","months":"June 4 - October 29 November 5 - November 26","longitude":-76.695054,"id":"a678xue1mcbq","location":"Piney Orchard Community &amp; Vistor  Center Parking Lot Stream Valley Dr. off Rte. 170","benefits":"WIC: Yes; SFMNP: Yes; EBT: No","open":"Open Year-Round: No"},"type":"Feature","geometry":{"type":"Point","coordinates":[-76.695054,39.081405]}},{"properties":{"city":"Potomac, MD 20854","covered":"Covered: No","ebt":0,"days":"Thursday, 1:00 p.m.- 4:30 p.m.","latitude":39.020698,"exact":"","county":"County: Montgomery","contact":"Contact: Jeremy Criss","website":"Website: http://www.montgomerycountymd.gov","market":"Potomac Farmers Market","wic":0,"sfmnp":0,"street":"10301 River Road","phone":"Phone: (301) 590-2830","months":"June - October","longitude":-77.212568,"id":"a678xu6lz5cw","location":"Parking Lot of Potamac Presbyterian Church","benefits":"WIC: No; SFMNP: No; EBT: No","open":"Open Year-Round: No"},"type":"Feature","geometry":{"type":"Point","coordinates":[-77.212568,39.020698]}},{"properties":{"city":"Princess Anne, MD 21853","covered":"Covered: No","ebt":0,"days":"Saturday, 8:00 a.m.- 1:00 p.m.","latitude":38.194396,"exact":"","county":"County: Somerset","contact":"Contact: Jay Parker","website":"","market":"Princess Anne Farmers Market","wic":1,"sfmnp":1,"street":"Somerset &amp; Broad Streets","phone":"Phone: (410) 651-1818","months":"May 31 - November 1","longitude":-75.693496,"id":"a678xufy9p4e","location":"Manokin River Park","benefits":"WIC: Yes; SFMNP: Yes; EBT: No","open":"Open Year-Round: No"},"type":"Feature","geometry":{"type":"Point","coordinates":[-75.693496,38.194396]}},{"properties":{"city":"Riverdale, MD","covered":"Covered: No","ebt":0,"days":"Thursday, 3:00 p.m.- 7:00 p.m.","latitude":38.963375,"exact":"Not Exact Location","county":"County: Prince George's","contact":"Contact: Jim Coleman","website":"","market":"Riverdale Farmers Market","wic":1,"sfmnp":1,"street":"Queensbury Rd.","phone":"Phone: (301) 322-6258","months":"May 1 - October 30","longitude":-76.942379,"id":"a678xuafwm3p","location":"MARC Rail station parking lot, off Queensbury Rd.","benefits":"WIC: Yes; SFMNP: Yes; EBT: No","open":"Open Year-Round: No"},"type":"Feature","geometry":{"type":"Point","coordinates":[-76.942379,38.963375]}},{"properties":{"city":"Rockville, MD 20850","covered":"Covered: No","ebt":0,"days":"Saturday, 9:00 a.m.- 1:00 p.m.","latitude":39.08194,"exact":"","county":"County: Montgomery","contact":"Contact: Colleen McQuitty","website":"Website: http://www.rockvillemd.gov/events/Farms.htm","market":"Rockville Farmers Market I","wic":1,"sfmnp":1,"street":"Rte. 28 &amp; Monroe St.","phone":"Phone: (240) 314-8606","months":"May 17 - October 25","longitude":-77.149199,"id":"a678xu9vy3w9","location":"Corner of Rte. 28 &amp; Monroe St., in the Parking Lot","benefits":"WIC: Yes; SFMNP: Yes; EBT: No","open":"Open Year-Round: No"},"type":"Feature","geometry":{"type":"Point","coordinates":[-77.149199,39.08194]}},{"properties":{"city":"Rockville, MD 20850","covered":"Covered: No","ebt":0,"days":"Wednesday, 11:00 a.m.- 2:00 p.m.","latitude":39.08404,"exact":"","county":"County: Montgomery","contact":"Contact: Colleen McQuitty","website":"Website: http://www.rockvillemd.gov/events/farms.htm","market":"Rockville Farmers Market II","wic":1,"sfmnp":1,"street":"E. Montgomery at Maryland Ave.","phone":"Phone: (240) 314-8606","months":"June 4 - October 29","longitude":-77.150909,"id":"a678xu49v4c2","location":"In front of Regal Theater","benefits":"WIC: Yes; SFMNP: Yes; EBT: No","open":"Open Year-Round: No"},"type":"Feature","geometry":{"type":"Point","coordinates":[-77.150909,39.08404]}},{"properties":{"city":"Salisbury, MD 21801","covered":"Covered: No","ebt":0,"days":"Saturday, 8:00 a.m.- 1:00 p.m.","latitude":38.36589,"exact":"","county":"County: Wicomico","contact":"Contact: Wanda Kelly","website":"","market":"Salisbury \"Shore Fresh\" Farmers Market I","wic":1,"sfmnp":1,"street":"Route 13 &amp; Main Street","phone":"Phone: (410) 713-2022","months":"May 3 - December 8","longitude":-75.595289,"id":"a678xu7fq1eg","location":"Courthouse parking lot, Route 13 between Route 50 &amp; Main Street","benefits":"WIC: Yes; SFMNP: Yes; EBT: No","open":"Open Year-Round: No"},"type":"Feature","geometry":{"type":"Point","coordinates":[-75.595289,38.36589]}},{"properties":{"city":"Salisbury, MD 21801","covered":"Covered: No","ebt":0,"days":"Wednesday, 3:00 p.m.- 6:00 p.m.","latitude":38.4106,"exact":"Not Exact Location","county":"County: Wicomico","contact":"Contact: Wanda Kelly","website":"","market":"Salisbury \"Shore Fresh\" Farmers Market II","wic":1,"sfmnp":1,"street":"Rt. 13","phone":"Phone: (410) 713-2022","months":"May 7 - October 1","longitude":-75.567429,"id":"a678xud4120n","location":"Parking lot, at entrance to The centre at Salisbury on Rt. 13","benefits":"WIC: Yes; SFMNP: Yes; EBT: No","open":"Open Year-Round: No"},"type":"Feature","geometry":{"type":"Point","coordinates":[-75.567429,38.4106]}},{"properties":{"city":"Severna Park, MD 21146","covered":"Covered: No","ebt":0,"days":"Saturday, 8:00 a.m.- 12:00 noon","latitude":39.05768,"exact":"","county":"County: Anne Arundel","contact":"Contact: Anita Robertson","website":"","market":"Severna Park Farmers Market","wic":1,"sfmnp":1,"street":"Ritchie Hwy. (Rt. 2) &amp; Jones Station Road","phone":"Phone: (410) 827-9192","months":"April 26 - October 25","longitude":-76.527989,"id":"a678xu692cbr","location":"","benefits":"WIC: Yes; SFMNP: Yes; EBT: No","open":"Open Year-Round: No"},"type":"Feature","geometry":{"type":"Point","coordinates":[-76.527989,39.05768]}},{"properties":{"city":"Silver Spring, MD 20912","covered":"Covered: No","ebt":0,"days":"Saturday, 9:00 a.m.- 1:00 p.m.","latitude":38.99684,"exact":"","county":"County: Montgomery","contact":"Contact: Janna Howley","website":"Website: http://www.freshfarmmarket.org","market":"Silver Spring Freshfarm Market","wic":1,"sfmnp":1,"street":"Ellsworth Drive and Fenton","phone":"Phone: (202) 362-8889","months":"April 19 - November 15","longitude":-77.025429,"id":"a678xu667uct","location":"Ellsworth Drive Between Fenton &amp; Cedar","benefits":"WIC: Yes; SFMNP: Yes; EBT: No","open":"Open Year-Round: No"},"type":"Feature","geometry":{"type":"Point","coordinates":[-77.025429,38.99684]}},{"properties":{"city":"California, MD 20619","covered":"Covered: No","ebt":0,"days":"Saturday, 9:00 a.m.- 1:00 p.m.","latitude":38.307664,"exact":"","county":"County: St. Mary's","contact":"Contact: Donna Sasscer","website":"","market":"St. Mary's County California Farmers Market","wic":1,"sfmnp":1,"street":"Rte. 235 &amp; Town Creek Dr.","phone":"Phone: (301) 475-4200 ext. 1402","months":"May 3 - October 25","longitude":-76.52893,"id":"a678xu420hu2","location":"Rte. 235 &amp; Town Creek Dr., In BAE Parking Lot","benefits":"WIC: Yes; SFMNP: Yes; EBT: No","open":"Open Year-Round: No"},"type":"Feature","geometry":{"type":"Point","coordinates":[-76.52893,38.307664]}},{"properties":{"city":"St. Michaels, MD 21663","covered":"Covered: No","ebt":0,"days":"Saturday, 8:30 a.m.- 11:30 a.m.","latitude":38.785095,"exact":"","county":"County: Talbot","contact":"Contact: Janna Howley","website":"Website: http://www.freshfarmmarket.org","market":"St. Michaels \"FRESHFARM\" Market","wic":1,"sfmnp":1,"street":"Willow &amp; Green Streets","phone":"Phone: (202) 362-8889","months":"April 19 - October 11","longitude":-76.222876,"id":"a678xugcnqoc","location":"Muskrat Park on St. Michael's Harbor","benefits":"WIC: Yes; SFMNP: Yes; EBT: No","open":"Open Year-Round: No"},"type":"Feature","geometry":{"type":"Point","coordinates":[-76.222876,38.785095]}},{"properties":{"city":"Sykesville, MD","covered":"Covered: No","ebt":0,"days":"Thursday, 3:00 p.m.- 7:00 p.m.","latitude":39.36256,"exact":"","county":"County: Carroll","contact":"Contact: Ivy Wells","website":"","market":"Sykesville Farmers Market","wic":0,"sfmnp":0,"street":"350 West Friendship Rd.","phone":"Phone: (410) 795-8959","months":"July 17 - October 30","longitude":-76.968591,"id":"a678xu2it6gj","location":"","benefits":"WIC: No; SFMNP: No; EBT: No","open":"Open Year-Round: No"},"type":"Feature","geometry":{"type":"Point","coordinates":[-76.968591,39.36256]}},{"properties":{"city":"Takoma Park, MD 20912","covered":"Covered: No","ebt":0,"days":"Sunday, 10:00 a.m.- 2:00 p.m.","latitude":38.974255,"exact":"","county":"County: Montgomery","contact":"","website":"Website: http://www.takomaparkmarket.org","market":"Takoma Park Farmers Market","wic":1,"sfmnp":1,"street":"Laurel Ave.  &amp; Carroll Avenues","phone":"Phone: (301) 768-4588","months":"","longitude":-77.012489,"id":"a678xu2algfp","location":"Old Town Takoma Park on Laurel Ave. Between Eastern &amp; Carroll Avenues","benefits":"WIC: Yes; SFMNP: Yes; EBT: No","open":"Open Year-Round: Yes"},"type":"Feature","geometry":{"type":"Point","coordinates":[-77.012489,38.974255]}},{"properties":{"city":"Glen Burnie, MD 21060","covered":"Covered: No","ebt":0,"days":"Wednesday, 10:00 a.m.- 1:00 p.m. Thanksgiving Special, Wednesday, 10:00 a.m.- 1:00 p.m.","latitude":39.192214,"exact":"","county":"County: Anne Arundel","contact":"Contact: Brenda Conti","website":"","market":"The Centre at Glen Burnie Town Center Farmers Market","wic":1,"sfmnp":1,"street":"6711 Ritchie Highway","phone":"Phone: (410) 349-0317","months":"June 18 - September 24","longitude":-76.61325,"id":"a678xud7w9pg","location":"Parking Lot in front of Best Buy","benefits":"WIC: Yes; SFMNP: Yes; EBT: No","open":"Open Year-Round: No"},"type":"Feature","geometry":{"type":"Point","coordinates":[-76.61325,39.192214]}},{"properties":{"city":"Frederick, MD 21701","covered":"Covered: No","ebt":0,"days":"Saturday, 8:00 a.m.- 2:00 p.m.","latitude":39.410804,"exact":"","county":"County: Frederick","contact":"Contact: Robert Fogle","website":"","market":"The Great Frederick Fair Farmers Market","wic":1,"sfmnp":1,"street":"797 E. Patrick St.","phone":"Phone: (301) 663-5895","months":"","longitude":-77.394414,"id":"a678xu4bsgsv","location":"Fairgrounds","benefits":"WIC: Yes; SFMNP: Yes; EBT: No","open":"Open Year-Round: Yes"},"type":"Feature","geometry":{"type":"Point","coordinates":[-77.394414,39.410804]}},{"properties":{"city":"Thurmont, MD 21204","covered":"Covered: No","ebt":0,"days":"Saturday, 8:00 a.m.- 11:00 a.m.","latitude":39.399935,"exact":"Not Exact Location","county":"County: Frederick","contact":"Contact: Vickie Grinder","website":"","market":"Thurmont Mainstreet Farmers Market","wic":1,"sfmnp":1,"street":"Boundary Avenue","phone":"Phone: (301) 418-8642","months":"July 19 - August 30","longitude":-76.605364,"id":"a678xub9grzr","location":"Thurmont Carnival Grounds","benefits":"WIC: Yes; SFMNP: Yes; EBT: No","open":"Open Year-Round: No"},"type":"Feature","geometry":{"type":"Point","coordinates":[-76.605364,39.399935]}},{"properties":{"city":"Towson, MD 21204","covered":"Covered: No","ebt":0,"days":"Thursday, 10:45 a.m.- 3:00 p.m.","latitude":39.403785,"exact":"","county":"County: Baltimore","contact":"Contact: Nancy Hafford","website":"","market":"Towson Farmers Market I","wic":1,"sfmnp":1,"street":"Allegheny Ave. &amp; York Rd.","phone":"Phone: (410) 825-1144","months":"June 12 - November 20","longitude":-76.618294,"id":"a678xu49qimq","location":"Allegheny Ave. Between Washington Ave. &amp; York Rd.","benefits":"WIC: Yes; SFMNP: Yes; EBT: No","open":"Open Year-Round: No"},"type":"Feature","geometry":{"type":"Point","coordinates":[-76.618294,39.403785]}},{"properties":{"city":"Towson, MD 21204","covered":"Covered: No","ebt":0,"days":"Saturday, 9:00 a.m.- 1:00 p.m.","latitude":39.40186,"exact":"","county":"County: Baltimore","contact":"Contact: Nancy Hafford","website":"","market":"Towson Farmers Market II","wic":1,"sfmnp":1,"street":"Allegheny &amp; Washington Ave.","phone":"Phone: (410) 825-1144","months":"June 14 - November 22","longitude":-76.605059,"id":"a678xu6unqvu","location":"Parking lot at corner of Allegheny &amp; Washington Ave.","benefits":"WIC: Yes; SFMNP: Yes; EBT: No","open":"Open Year-Round: No"},"type":"Feature","geometry":{"type":"Point","coordinates":[-76.605059,39.40186]}},{"properties":{"city":"Bel Air, MD 21014","covered":"Covered: No","ebt":0,"days":"Last Friday of the month, 5:00 p.m.- dusk","latitude":39.537508,"exact":"","county":"County: Harford","contact":"Contact: Bill Tharpe","website":"","market":"Twilight Farmers Market at Rockfield Manor","wic":1,"sfmnp":1,"street":"501 Churchville Rd.","phone":"Phone: (410) 838-6181 ext. 114","months":"May 30 - September 26","longitude":-76.341268,"id":"a678xu2anp3n","location":"","benefits":"WIC: Yes; SFMNP: Yes; EBT: No","open":"Open Year-Round: No"},"type":"Feature","geometry":{"type":"Point","coordinates":[-76.341268,39.537508]}},{"properties":{"city":"Beltsville, MD 20705","covered":"Covered: No","ebt":0,"days":"Thursday, 10:00 a.m.- 2:00 p.m.","latitude":39.045332,"exact":"","county":"County: Prince George's","contact":"Contact: Carletha McGriff","website":"","market":"USDA Beltsville Farmers Market","wic":1,"sfmnp":1,"street":"5601 Sunnyside Avenue","phone":"Phone: (301) 504-1776","months":"June 19 - October 2","longitude":-76.912915,"id":"a678xuh6sk17","location":"5601 Sunnyside Avenue, Parking Lot B","benefits":"WIC: Yes; SFMNP: Yes; EBT: No","open":"Open Year-Round: No"},"type":"Feature","geometry":{"type":"Point","coordinates":[-76.912915,39.045332]}},{"properties":{"city":"Baltimore, MD","covered":"Covered: No","ebt":0,"days":"Tuesday, 10:00 a.m.- 2:00 p.m.","latitude":39.356147,"exact":"","county":"County: Baltimore","contact":"Contact: Beverly Burton","website":"","market":"Village of Cross Keys Farmers Market","wic":1,"sfmnp":1,"street":"5100 Falls Road","phone":"Phone: (410) 592-6095","months":"June 3 - October 28","longitude":-76.64441,"id":"a678xuegnbxg","location":"5100 Falls Road, Parking lot-Village of Cross Keys","benefits":"WIC: Yes; SFMNP: Yes; EBT: No","open":"Open Year-Round: No"},"type":"Feature","geometry":{"type":"Point","coordinates":[-76.64441,39.356147]}},{"properties":{"city":"Frederick, MD","covered":"Covered: No","ebt":0,"days":"Wednesday, 4:00 p.m. - 7:00 p.m.","latitude":39.50716,"exact":"","county":"County: Frederick","contact":"Contact: Gloria Long Rollins","website":"","market":"Walkersville Farmers Market","wic":1,"sfmnp":1,"street":"9224 Devilbiss Bridge Road","phone":"Phone: (301) 845-4500","months":"June 4 - September 24","longitude":-77.377459,"id":"a678xuggbs1l","location":"Heritage Farm Park","benefits":"WIC: Yes; SFMNP: Yes; EBT: No","open":"Open Year-Round: No"},"type":"Feature","geometry":{"type":"Point","coordinates":[-77.377459,39.50716]}},{"properties":{"city":"Hagerstown, MD 21740","covered":"Covered: No","ebt":0,"days":"Wednesday, 3:30 p.m.- 6:00 p.m. Saturday, 10:00 a.m.- 12:30 p.m.","latitude":39.609772,"exact":"","county":"County: Washington","contact":"Contact: Pearl Martin","website":"","market":"Washington County Farmers Market","wic":1,"sfmnp":1,"street":"Prime Outlets Blvd.","phone":"Phone: (301) 733-4551","months":"May 21 - October 29 June 7 - September 27","longitude":-77.730395,"id":"a678xuf2khso","location":"Prime Outlets Blvd. Off of Sharpsburg Pike","benefits":"WIC: Yes; SFMNP: Yes; EBT: No","open":"Open Year-Round: No"},"type":"Feature","geometry":{"type":"Point","coordinates":[-77.730395,39.609772]}},{"properties":{"city":"Frederick, MD 21701","covered":"Covered: No","ebt":0,"days":"Saturday, 10:00 a.m.- 1:00 p.m.","latitude":39.429994,"exact":"","county":"County: Frederick","contact":"Contact: Wendy Barth","website":"","market":"West Frederick Farmers Market","wic":1,"sfmnp":1,"street":"110 Baughman's Ln","phone":"Phone: (301) 898-3183","months":"May 10 - November 22","longitude":-77.389526,"id":"a678xug1fqvl","location":"110 Baughman's Ln., Behind Medical Center","benefits":"WIC: Yes; SFMNP: Yes; EBT: No","open":"Open Year-Round: No"},"type":"Feature","geometry":{"type":"Point","coordinates":[-77.389526,39.429994]}},{"properties":{"city":"Annapolis, MD","covered":"Covered: No","ebt":0,"days":"Sunday, 12:00 noon- 3:00 p.m.","latitude":38.988045,"exact":"","county":"County: Anne Arundel","contact":"Contact: Lisa Barge","website":"","market":"Westfield Annapolis Farmers Market","wic":1,"sfmnp":1,"street":"","phone":"Phone: (410) 222-7410","months":"July 6 - September 28","longitude":-76.544278,"id":"a678xualipa5","location":"Mall Parking lot near Sears Automotive","benefits":"WIC: Yes; SFMNP: Yes; EBT: No","open":"Open Year-Round: No"},"type":"Feature","geometry":{"type":"Point","coordinates":[-76.544278,38.988045]}},{"properties":{"city":"Wheaton, MD 20902","covered":"Covered: No","ebt":0,"days":"Sunday, 8:00 a.m.- 1:00 p.m.","latitude":39.03865,"exact":"","county":"County: Montgomery","contact":"Contact: Margie Satterlee","website":"","market":"Wheaton Farmers Market","wic":1,"sfmnp":1,"street":"Reedie Drive  &amp; Georgia Ave.","phone":"Phone: (410) 215-7173","months":"June 1 - October 26","longitude":-77.050879,"id":"a678xu3h5bmf","location":"Reedie Drive Between Veirs Mill Rd. &amp; Georgia Ave.","benefits":"WIC: Yes; SFMNP: Yes; EBT: No","open":"Open Year-Round: No"},"type":"Feature","geometry":{"type":"Point","coordinates":[-77.050879,39.03865]}},{"properties":{"city":"Baltimore, MD","covered":"Covered: No","ebt":0,"days":"Thursday, 10:00 a.m.- 2:00 p.m.","latitude":39.290555,"exact":"","county":"County: Baltimore","contact":"Contact: Delores Douglas or Bill Obriecht","website":"","market":"Woodlawn Farmers Market","wic":1,"sfmnp":1,"street":"6410 Security Blvd.","phone":"Phone: (410) 409-9172 or (410) 944-5239","months":"July 3 - September 25","longitude":-76.609604,"id":"a678xuh00f2n","location":"Woodlawn Bowling Lanes","benefits":"WIC: Yes; SFMNP: Yes; EBT: No","open":"Open Year-Round: No"},"type":"Feature","geometry":{"type":"Point","coordinates":[-76.609604,39.290555]}}],"is_temporal":false,"author":{"url":"http://apps.ams.usda.gov/FarmersMarkets/","metadata":"","contact_name":"","contact_address":"","source":"US Department of Agriculture","contact_phone":""},"source":"http://apps.ams.usda.gov/FarmersMarkets/","pagination":{"sort":null,"start":0,"total":91,"limit":1000000},"state":"complete","tags":"agriculture,farmers,food,markets,maryland,retail","published":"2009-03-24T12:00:00Z","id":11133}