{"type":"FeatureCollection","data_type":"Dataset","url_type":null,"permissions":[{"permissions":{"download":true,"view":true},"group_id":"everyone"}],"classification":null,"title":"March City and State for Map","count":40,"stream_id":111307,"contributor":{"url":"http://geocommons.com/users/26113","name":"zach@greenmediatoolshed.org"},"data_attributes":null,"calculation_params":null,"icon_link":null,"link":"http://geocommons.com/overlays/111307.json","extent":[-122.676,25.7743,-71.0598,47.6062],"geometry_types":["point"],"unique_name":null,"name":"March City and State for Map","feature_count":40,"description":"","next_feature":null,"is_raster":false,"short_classification":"Y","stats":{"value":{"max":325,"mean":85.05,"variance":4128.20256410256,"stdev":64.2510899837704,"min":50,"median":57}},"features":[{"properties":{"city":"New York","geo_score":0.857,"value":325,"id":"a7amphgtyy4p","geo_precision":"city","state":"NY"},"type":"Feature","geometry":{"type":"Point","coordinates":[-74.005973,40.714269]}},{"properties":{"city":"Washington","geo_score":0.857,"value":293,"id":"a7amphbm14lv","geo_precision":"city","state":"DC"},"type":"Feature","geometry":{"type":"Point","coordinates":[-77.036366,38.895112]}},{"properties":{"city":"Arlington","geo_score":0.857,"value":183,"id":"a7amphiwu96s","geo_precision":"city","state":"VA"},"type":"Feature","geometry":{"type":"Point","coordinates":[-77.084145,38.89039]}},{"properties":{"city":"Los Angeles","geo_score":0.857,"value":176,"id":"a7amphdy6pxp","geo_precision":"city","state":"CA"},"type":"Feature","geometry":{"type":"Point","coordinates":[-118.243685,34.052234]}},{"properties":{"city":"San Francisco","geo_score":0.857,"value":175,"id":"a7amphd1kag3","geo_precision":"city","state":"CA"},"type":"Feature","geometry":{"type":"Point","coordinates":[-122.419416,37.77493]}},{"properties":{"city":"Chicago","geo_score":0.857,"value":148,"id":"a7amphkujojf","geo_precision":"city","state":"IL"},"type":"Feature","geometry":{"type":"Point","coordinates":[-87.650052,41.850033]}},{"properties":{"city":"Seattle","geo_score":0.857,"value":137,"id":"a7amphcjga30","geo_precision":"city","state":"WA"},"type":"Feature","geometry":{"type":"Point","coordinates":[-122.332071,47.60621]}},{"properties":{"city":"Atlanta","geo_score":0.857,"value":124,"id":"a7amphdrqkgo","geo_precision":"city","state":"GA"},"type":"Feature","geometry":{"type":"Point","coordinates":[-84.387982,33.748995]}},{"properties":{"city":"Dorchester","geo_score":0.857,"value":78,"id":"a7amphkuspli","geo_precision":"city","state":"MA"},"type":"Feature","geometry":{"type":"Point","coordinates":[-71.074495,42.297321]}},{"properties":{"city":"Minneapolis","geo_score":0.857,"value":74,"id":"a7ampheescjn","geo_precision":"city","state":"MN"},"type":"Feature","geometry":{"type":"Point","coordinates":[-93.263836,44.979965]}},{"properties":{"city":"Walnut Creek","geo_score":0.727,"value":70,"id":"a7amphe6c9aq","geo_precision":"city","state":"CA"},"type":"Feature","geometry":{"type":"Point","coordinates":[-122.481647,38.517964]}},{"properties":{"city":"Boston","geo_score":0.857,"value":68,"id":"a7amphm3h0mx","geo_precision":"city","state":"MA"},"type":"Feature","geometry":{"type":"Point","coordinates":[-71.059773,42.358431]}},{"properties":{"city":"Dallas","geo_score":0.857,"value":66,"id":"a7amph7pczmt","geo_precision":"city","state":"TX"},"type":"Feature","geometry":{"type":"Point","coordinates":[-96.806667,32.783056]}},{"properties":{"city":"Houston","geo_score":0.816,"value":66,"id":"a7amphlfe9tq","geo_precision":"city","state":"TX"},"type":"Feature","geometry":{"type":"Point","coordinates":[-96.919704,29.845783]}},{"properties":{"city":"Mc Lean","geo_score":0.857,"value":66,"id":"a7amphhhhvrd","geo_precision":"city","state":"VA"},"type":"Feature","geometry":{"type":"Point","coordinates":[-77.17748,38.934278]}},{"properties":{"city":"Philadelphia","geo_score":0.857,"value":63,"id":"a7amph7ydi0i","geo_precision":"city","state":"PA"},"type":"Feature","geometry":{"type":"Point","coordinates":[-75.163789,39.952335]}},{"properties":{"city":"Cleveland","geo_score":0.857,"value":62,"id":"a7amphfop7fx","geo_precision":"city","state":"OH"},"type":"Feature","geometry":{"type":"Point","coordinates":[-81.695409,41.499495]}},{"properties":{"city":"Sacramento","geo_score":0.857,"value":61,"id":"a7amphku1vv8","geo_precision":"city","state":"CA"},"type":"Feature","geometry":{"type":"Point","coordinates":[-121.4944,38.581572]}},{"properties":{"city":"San Jose","geo_score":0.857,"value":59,"id":"a7amphg9p7v8","geo_precision":"city","state":"CA"},"type":"Feature","geometry":{"type":"Point","coordinates":[-121.894956,37.339386]}},{"properties":{"city":"Denver","geo_score":0.857,"value":57,"id":"a7amphe1osdj","geo_precision":"city","state":"CO"},"type":"Feature","geometry":{"type":"Point","coordinates":[-104.984703,39.739154]}},{"properties":{"city":"Miami","geo_score":0.857,"value":57,"id":"a7amphjjednd","geo_precision":"city","state":"FL"},"type":"Feature","geometry":{"type":"Point","coordinates":[-80.193659,25.774266]}},{"properties":{"city":"Rochester","geo_score":0.857,"value":57,"id":"a7amphbecsr2","geo_precision":"city","state":"NY"},"type":"Feature","geometry":{"type":"Point","coordinates":[-77.615557,43.154785]}},{"properties":{"city":"Nashville","geo_score":0.857,"value":55,"id":"a7amph6oczxd","geo_precision":"city","state":"TN"},"type":"Feature","geometry":{"type":"Point","coordinates":[-86.784443,36.16589]}},{"properties":{"city":"Baltimore","geo_score":0.857,"value":54,"id":"a7amphjh9plf","geo_precision":"city","state":"MD"},"type":"Feature","geometry":{"type":"Point","coordinates":[-76.612189,39.290385]}},{"properties":{"city":"Columbus","geo_score":0.776,"value":54,"id":"a7amphjeg0c7","geo_precision":"city","state":"OH"},"type":"Feature","geometry":{"type":"Point","coordinates":[-82.695724,39.998397]}},{"properties":{"city":"Phoenix","geo_score":0.857,"value":54,"id":"a7amphis9tr2","geo_precision":"city","state":"AZ"},"type":"Feature","geometry":{"type":"Point","coordinates":[-112.074037,33.448377]}},{"properties":{"city":"Albany","geo_score":0.857,"value":53,"id":"a7amphdpbtwh","geo_precision":"city","state":"NY"},"type":"Feature","geometry":{"type":"Point","coordinates":[-73.756232,42.652579]}},{"properties":{"city":"Duluth","geo_score":0.857,"value":53,"id":"a7amphbv6mhw","geo_precision":"city","state":"MN"},"type":"Feature","geometry":{"type":"Point","coordinates":[-92.106579,46.783273]}},{"properties":{"city":"Austin","geo_score":0.857,"value":52,"id":"a7amphfvcfk5","geo_precision":"city","state":"TX"},"type":"Feature","geometry":{"type":"Point","coordinates":[-97.743061,30.267153]}},{"properties":{"city":"Saint Petersburg","geo_score":0.857,"value":52,"id":"a7amphcey5l0","geo_precision":"city","state":"FL"},"type":"Feature","geometry":{"type":"Point","coordinates":[-82.679266,27.770861]}},{"properties":{"city":"Salt Lake City","geo_score":0.857,"value":52,"id":"a7amph9c0gsv","geo_precision":"city","state":"UT"},"type":"Feature","geometry":{"type":"Point","coordinates":[-111.891047,40.760779]}},{"properties":{"city":"San Antonio","geo_score":0.857,"value":52,"id":"a7amphdxm1r5","geo_precision":"city","state":"TX"},"type":"Feature","geometry":{"type":"Point","coordinates":[-98.493628,29.424122]}},{"properties":{"city":"Buffalo","geo_score":0.857,"value":51,"id":"a7amph825slp","geo_precision":"city","state":"NY"},"type":"Feature","geometry":{"type":"Point","coordinates":[-78.878369,42.886447]}},{"properties":{"city":"Detroit","geo_score":0.857,"value":51,"id":"a7amphdbs4pp","geo_precision":"city","state":"MI"},"type":"Feature","geometry":{"type":"Point","coordinates":[-83.045754,42.331427]}},{"properties":{"city":"New Orleans","geo_score":0.857,"value":51,"id":"a7amphf8v30u","geo_precision":"city","state":"LA"},"type":"Feature","geometry":{"type":"Point","coordinates":[-89.930956,30.068812]}},{"properties":{"city":"Portland","geo_score":0.857,"value":51,"id":"a7amphgq5att","geo_precision":"city","state":"OR"},"type":"Feature","geometry":{"type":"Point","coordinates":[-122.676207,45.523452]}},{"properties":{"city":"San Diego","geo_score":0.857,"value":51,"id":"a7amphks5e7k","geo_precision":"city","state":"CA"},"type":"Feature","geometry":{"type":"Point","coordinates":[-117.157255,32.715329]}},{"properties":{"city":"Santa Ana","geo_score":0.857,"value":51,"id":"a7amphduqtj2","geo_precision":"city","state":"CA"},"type":"Feature","geometry":{"type":"Point","coordinates":[-117.867834,33.745573]}},{"properties":{"city":"Berkeley","geo_score":0.857,"value":50,"id":"a7amphm7kdhb","geo_precision":"city","state":"CA"},"type":"Feature","geometry":{"type":"Point","coordinates":[-122.29673,37.860576]}},{"properties":{"city":"Raleigh","geo_score":0.857,"value":50,"id":"a7amphkyccq3","geo_precision":"city","state":"NC"},"type":"Feature","geometry":{"type":"Point","coordinates":[-78.638615,35.772096]}}],"is_temporal":false,"author":{"url":"","metadata":"","contact_name":"","contact_address":"","source":"","contact_phone":""},"source":"","pagination":{"sort":null,"start":0,"total":40,"limit":1000000},"state":"complete","tags":"","published":"2014-08-12T23:00:51-04:00","id":111307}