{"type":"FeatureCollection","data_type":"Dataset","url_type":null,"permissions":[{"permissions":{"download":true,"view":true},"group_id":"everyone"}],"classification":null,"title":"Starbucks","count":146,"stream_id":111721,"contributor":{"url":"http://geocommons.com/users/26008","name":"shortspringspatialworkshop"},"data_attributes":null,"calculation_params":null,"icon_link":null,"link":"http://geocommons.com/overlays/111721.json","extent":[-87.8081,41.7661,-87.5863,42.0195],"geometry_types":["point"],"unique_name":null,"name":"Starbucks","feature_count":146,"description":"","next_feature":null,"is_raster":false,"short_classification":"Y","stats":{},"features":[{"properties":{"city":"Chicago","zip":"60601","geo_score":0.805,"id":"a62efvvwkuzf","geo_precision":"range","address":"10 S Riverside Plaza","state":"IL"},"type":"Feature","geometry":{"type":"Point","coordinates":[-87.638852,41.881783]}},{"properties":{"city":"Chicago","zip":"60606","geo_score":0.619,"id":"a62efw0mhowj","geo_precision":"street","address":"100 S. Wacker Drive","state":"IL"},"type":"Feature","geometry":{"type":"Point","coordinates":[-87.636749,41.881264]}},{"properties":{"city":"Chicago","zip":"60611","geo_score":0.947,"id":"a62efw3zf0cu","geo_precision":"range","address":"111 East Chestnut","state":"IL"},"type":"Feature","geometry":{"type":"Point","coordinates":[-87.625062,41.898373]}},{"properties":{"city":"Chicago","zip":"60602","geo_score":1.0,"id":"a62efw3h0wie","geo_precision":"range","address":"111 W Washington St","state":"IL"},"type":"Feature","geometry":{"type":"Point","coordinates":[-87.631249,41.88321]}},{"properties":{"city":"Chicago","zip":"60614","geo_score":1.0,"id":"a62efvyn4rbm","geo_precision":"range","address":"1700 West Diversey Parkway","state":"IL"},"type":"Feature","geometry":{"type":"Point","coordinates":[-87.670825,41.932373]}},{"properties":{"city":"Chicago","zip":"60613","geo_score":0.607,"id":"a62efw3gdp3u","geo_precision":"street","address":"1900 W. Montrose Avenue","state":"IL"},"type":"Feature","geometry":{"type":"Point","coordinates":[-87.646231,41.961988]}},{"properties":{"city":"Chicago","zip":"60601","geo_score":1.0,"id":"a62efvvh1gk0","geo_precision":"range","address":"202 N Michigan Ave","state":"IL"},"type":"Feature","geometry":{"type":"Point","coordinates":[-87.624511,41.885775]}},{"properties":{"city":"Chicago","zip":"60606","geo_score":0.625,"id":"a62efvtldzpb","geo_precision":"street","address":"200 W. Adams","state":"IL"},"type":"Feature","geometry":{"type":"Point","coordinates":[-87.629352,41.879438]}},{"properties":{"city":"Chicago","zip":"60606","geo_score":0.607,"id":"a62efw5ep2qy","geo_precision":"street","address":"209 W. Jackson","state":"IL"},"type":"Feature","geometry":{"type":"Point","coordinates":[-87.633729,41.878119]}},{"properties":{"city":"Chicago","zip":"60606","geo_score":0.786,"id":"a62efvqjvlfs","geo_precision":"street","address":"25 E Washington Blvd","state":"IL"},"type":"Feature","geometry":{"type":"Point","coordinates":[-87.638161,41.88319]}},{"properties":{"city":"Chicago","zip":"60602","geo_score":1.0,"id":"a62efvw63843","geo_precision":"range","address":"30 N LaSalle St.","state":"IL"},"type":"Feature","geometry":{"type":"Point","coordinates":[-87.632379,41.88258]}},{"properties":{"city":"Chicago","zip":"60606","geo_score":0.941,"id":"a62efw36q09a","geo_precision":"range","address":"303 West Madison","state":"IL"},"type":"Feature","geometry":{"type":"Point","coordinates":[-87.635312,41.881934]}},{"properties":{"city":"Chicago","zip":"60606","geo_score":0.619,"id":"a62efvpswoyb","geo_precision":"street","address":"311 S. Wacker Dr.","state":"IL"},"type":"Feature","geometry":{"type":"Point","coordinates":[-87.636749,41.881264]}},{"properties":{"city":"Chicago","zip":"60610","geo_score":0.614,"id":"a62efvr8y6kw","geo_precision":"street","address":"414 N. Orleans","state":"IL"},"type":"Feature","geometry":{"type":"Point","coordinates":[-87.636983,41.889943]}},{"properties":{"city":"Chicago","zip":"60610","geo_score":0.625,"id":"a62efw413gfn","geo_precision":"street","address":"430 N. Clark","state":"IL"},"type":"Feature","geometry":{"type":"Point","coordinates":[-87.631023,41.88751]}},{"properties":{"city":"Chicago","zip":"60611","geo_score":1.0,"id":"a62efvu1ql38","geo_precision":"range","address":"444 N Michigan Avenue","state":"IL"},"type":"Feature","geometry":{"type":"Point","coordinates":[-87.624207,41.89037]}},{"properties":{"city":"Chicago","zip":"60632","geo_score":0.902,"id":"a62efvw93phy","geo_precision":"range","address":"4701 South Cicero Avenue","state":"IL"},"type":"Feature","geometry":{"type":"Point","coordinates":[-87.743158,41.807622]}},{"properties":{"city":"Chicago","zip":"60604","geo_score":1.0,"id":"a62efvtwpc0b","geo_precision":"range","address":"55 East Jackson Blvd.","state":"IL"},"type":"Feature","geometry":{"type":"Point","coordinates":[-87.625804,41.878254]}},{"properties":{"city":"Chicago","zip":"60607","geo_score":0.947,"id":"a62efvxpfk9h","geo_precision":"range","address":"550 W Van Buren","state":"IL"},"type":"Feature","geometry":{"type":"Point","coordinates":[-87.641765,41.876743]}},{"properties":{"city":"Chicago","zip":"60610","geo_score":0.321,"id":"a62efw24xgwi","geo_precision":"street","address":"670 N. Michigan Avenue","state":"IL"},"type":"Feature","geometry":{"type":"Point","coordinates":[-87.624296,41.882118]}},{"properties":{"city":"Chicago","zip":"60602","geo_score":0.614,"id":"a62efvwnebsd","geo_precision":"street","address":"68 E. Madison","state":"IL"},"type":"Feature","geometry":{"type":"Point","coordinates":[-87.626956,41.882072]}},{"properties":{"city":"Chicago","zip":"60649","geo_score":1.0,"id":"a62efvstfvre","geo_precision":"range","address":"7101 South Stony Island Ave.","state":"IL"},"type":"Feature","geometry":{"type":"Point","coordinates":[-87.586327,41.766061]}},{"properties":{"city":"Chicago","zip":"60625","geo_score":1.0,"id":"a62efvvvcs40","geo_precision":"range","address":"4558 North Kedzie Ave.","state":"IL"},"type":"Feature","geometry":{"type":"Point","coordinates":[-87.708327,41.96401]}},{"properties":{"city":"Chicago","zip":"60614","geo_score":0.61,"id":"a62efvyyjz7n","geo_precision":"street","address":"2475 N. Lincoln","state":"IL"},"type":"Feature","geometry":{"type":"Point","coordinates":[-87.635503,41.916565]}},{"properties":{"city":"Chicago","zip":"60640","geo_score":1.0,"id":"a62efvsrnedt","geo_precision":"range","address":"5300 N Clark Street","state":"IL"},"type":"Feature","geometry":{"type":"Point","coordinates":[-87.668349,41.978018]}},{"properties":{"city":"Chicago","zip":"60614","geo_score":0.973,"id":"a62efw4jt61r","geo_precision":"range","address":"2454 Ashland Ave","state":"IL"},"type":"Feature","geometry":{"type":"Point","coordinates":[-87.668179,41.926131]}},{"properties":{"city":"Chicago","zip":"60606","geo_score":0.619,"id":"a62efw3i50qb","geo_precision":"street","address":"227 W. Monroe","state":"IL"},"type":"Feature","geometry":{"type":"Point","coordinates":[-87.633798,41.88066]}},{"properties":{"city":"Chicago","zip":"60604","geo_score":1.0,"id":"a62efw3c5rpi","geo_precision":"range","address":"231 S LaSalle St","state":"IL"},"type":"Feature","geometry":{"type":"Point","coordinates":[-87.632272,41.878693]}},{"properties":{"city":"Chicago","zip":"60618","geo_score":1.0,"id":"a62efvtb5y2c","geo_precision":"range","address":"2159 West Belmont Ave.","state":"IL"},"type":"Feature","geometry":{"type":"Point","coordinates":[-87.68197,41.939524]}},{"properties":{"city":"Chicago","zip":"60707","geo_score":0.477,"id":"a62efvsxa5wm","geo_precision":"street","address":"6451 W. Diversey","state":"IL"},"type":"Feature","geometry":{"type":"Point","coordinates":[-87.7863,41.930984]}},{"properties":{"city":"Chicago","zip":"60613","geo_score":0.947,"id":"a62efvvc947b","geo_precision":"range","address":"3845 N Broadway","state":"IL"},"type":"Feature","geometry":{"type":"Point","coordinates":[-87.649645,41.952486]}},{"properties":{"city":"Chicago","zip":"60640","geo_score":0.947,"id":"a62efvxss6pu","geo_precision":"range","address":"4753 North Broadway","state":"IL"},"type":"Feature","geometry":{"type":"Point","coordinates":[-87.659234,41.968202]}},{"properties":{"city":"Chicago","zip":"60609","geo_score":0.625,"id":"a62efvzo09lc","geo_precision":"street","address":"3506 S. State St.","state":"IL"},"type":"Feature","geometry":{"type":"Point","coordinates":[-87.626644,41.831013]}},{"properties":{"city":"Chicago","zip":"60622","geo_score":0.604,"id":"a62efvx7ks2k","geo_precision":"street","address":"1588 N. Milwaukee Ave.","state":"IL"},"type":"Feature","geometry":{"type":"Point","coordinates":[-87.647624,41.89121]}},{"properties":{"city":"Chicago","zip":"60670","geo_score":0.805,"id":"a62efvwsam1q","geo_precision":"range","address":"21 S Clark St","state":"IL"},"type":"Feature","geometry":{"type":"Point","coordinates":[-87.630865,41.88133]}},{"properties":{"city":"Chicago","zip":"60610","geo_score":1.0,"id":"a62efw14khp1","geo_precision":"range","address":"750 North Franklin Street","state":"IL"},"type":"Feature","geometry":{"type":"Point","coordinates":[-87.635681,41.895895]}},{"properties":{"city":"Chicago","zip":"60611","geo_score":1.0,"id":"a62efw1uto3e","geo_precision":"range","address":"42 East Chicago Ave","state":"IL"},"type":"Feature","geometry":{"type":"Point","coordinates":[-87.626785,41.896696]}},{"properties":{"city":"Chicago","zip":"60601","geo_score":1.0,"id":"a62efvrvniem","geo_precision":"range","address":"200 East Randolph St","state":"IL"},"type":"Feature","geometry":{"type":"Point","coordinates":[-87.622974,41.884291]}},{"properties":{"city":"Chicago","zip":"60611","geo_score":0.82,"id":"a62efvu8hl1m","geo_precision":"range","address":"155 E Ontario","state":"IL"},"type":"Feature","geometry":{"type":"Point","coordinates":[-87.623727,41.893344]}},{"properties":{"city":"Chicago","zip":"60657","geo_score":1.0,"id":"a62efvsw79py","geo_precision":"range","address":"3184 North Clark Street","state":"IL"},"type":"Feature","geometry":{"type":"Point","coordinates":[-87.650366,41.939693]}},{"properties":{"city":"Chicago","zip":"60602","geo_score":1.0,"id":"a62efvslrtae","geo_precision":"range","address":"70 W Madison St","state":"IL"},"type":"Feature","geometry":{"type":"Point","coordinates":[-87.630008,41.881987]}},{"properties":{"city":"Chicago","zip":"60614","geo_score":0.805,"id":"a62efvqujx8t","geo_precision":"street","address":"2525 1/2 N CLARK ST","state":"IL"},"type":"Feature","geometry":{"type":"Point","coordinates":[-87.631682,41.911181]}},{"properties":{"city":"Chicago","zip":"60614","geo_score":0.607,"id":"a62efvwu2vet","geo_precision":"street","address":"2200 N. Clybourn","state":"IL"},"type":"Feature","geometry":{"type":"Point","coordinates":[-87.650736,41.911787]}},{"properties":{"city":"Chicago","zip":"60601","geo_score":1.0,"id":"a62efw2aavsv","geo_precision":"range","address":"161 North Clark Street","state":"IL"},"type":"Feature","geometry":{"type":"Point","coordinates":[-87.630948,41.884839]}},{"properties":{"city":"Chicago","zip":"60602","geo_score":1.0,"id":"a62efvusw4ms","geo_precision":"range","address":"66 West Washington Street","state":"IL"},"type":"Feature","geometry":{"type":"Point","coordinates":[-87.629932,41.883211]}},{"properties":{"city":"Chicago","zip":"60610","geo_score":1.0,"id":"a62efvvgntfm","geo_precision":"range","address":"39 W Division St","state":"IL"},"type":"Feature","geometry":{"type":"Point","coordinates":[-87.630088,41.903921]}},{"properties":{"city":"Chicago","zip":"60605","geo_score":0.61,"id":"a62efvui9ud9","geo_precision":"street","address":"555 S. Dearborn","state":"IL"},"type":"Feature","geometry":{"type":"Point","coordinates":[-87.629402,41.881997]}},{"properties":{"city":"Chicago","zip":"60614","geo_score":0.625,"id":"a62efvub14wr","geo_precision":"street","address":"2063 N. Clark","state":"IL"},"type":"Feature","geometry":{"type":"Point","coordinates":[-87.632854,41.913174]}},{"properties":{"city":"Chicago","zip":"60614","geo_score":1.0,"id":"a62efvprhhl4","geo_precision":"range","address":"617 W Diversey Pkwy","state":"IL"},"type":"Feature","geometry":{"type":"Point","coordinates":[-87.644251,41.932812]}},{"properties":{"city":"Chicago","zip":"60622","geo_score":1.0,"id":"a62efw4eob6d","geo_precision":"range","address":"1701 West Division Street","state":"IL"},"type":"Feature","geometry":{"type":"Point","coordinates":[-87.669944,41.903306]}},{"properties":{"city":"Chicago","zip":"60661","geo_score":1.0,"id":"a62efvyb7ulc","geo_precision":"range","address":"1 N Halsted St","state":"IL"},"type":"Feature","geometry":{"type":"Point","coordinates":[-87.647359,41.881778]}},{"properties":{"city":"Chicago","zip":"60610","geo_score":0.947,"id":"a62efw2ohkio","geo_precision":"range","address":"424 W Division","state":"IL"},"type":"Feature","geometry":{"type":"Point","coordinates":[-87.638967,41.903783]}},{"properties":{"city":"Chicago","zip":"60607","geo_score":0.902,"id":"a62efvzw4ir5","geo_precision":"range","address":"1340 South Canal Street","state":"IL"},"type":"Feature","geometry":{"type":"Point","coordinates":[-87.639166,41.86472]}},{"properties":{"city":"Chicago","zip":"60614","geo_score":0.932,"id":"a62efvs9z4lb","geo_precision":"range","address":"959 West Fullerton","state":"IL"},"type":"Feature","geometry":{"type":"Point","coordinates":[-87.65323,41.92538]}},{"properties":{"city":"Chicago","zip":"60611","geo_score":1.0,"id":"a62efvpt75o8","geo_precision":"range","address":"255 E Grand Ave","state":"IL"},"type":"Feature","geometry":{"type":"Point","coordinates":[-87.621064,41.891788]}},{"properties":{"city":"Chicago","zip":"60626","geo_score":0.482,"id":"a62efvz27eg2","geo_precision":"street","address":"1763 W. Howard St.","state":"IL"},"type":"Feature","geometry":{"type":"Point","coordinates":[-87.677633,42.019428]}},{"properties":{"city":"Lincolnwood","zip":"60712","geo_score":0.91,"id":"a62efvxrgrif","geo_precision":"range","address":"6810 McCormick","state":"IL"},"type":"Feature","geometry":{"type":"Point","coordinates":[-87.711649,42.004802]}},{"properties":{"city":"Chicago","zip":"60660","geo_score":0.61,"id":"a62efvs250wy","geo_precision":"street","address":"6009 N. Broadway Street","state":"IL"},"type":"Feature","geometry":{"type":"Point","coordinates":[-87.660092,41.98441]}},{"properties":{"city":"Chicago","zip":"60660","geo_score":0.61,"id":"a62efvry4h0e","geo_precision":"street","address":"6009 N. Broadway Street","state":"IL"},"type":"Feature","geometry":{"type":"Point","coordinates":[-87.660092,41.98441]}},{"properties":{"city":"Chicago","zip":"60614","geo_score":0.607,"id":"a62efw47wsgk","geo_precision":"street","address":"2550 N. Clyborn","state":"IL"},"type":"Feature","geometry":{"type":"Point","coordinates":[-87.650736,41.911787]}},{"properties":{"city":"Oak Park","zip":"60302","geo_score":1.0,"id":"a62efw29w5c0","geo_precision":"range","address":"259 Lake St","state":"IL"},"type":"Feature","geometry":{"type":"Point","coordinates":[-87.781983,41.888237]}},{"properties":{"city":"Chicago","zip":"60601","geo_score":0.619,"id":"a62efvzryulf","geo_precision":"street","address":"35 E. Wacker Dr","state":"IL"},"type":"Feature","geometry":{"type":"Point","coordinates":[-87.626347,41.886829]}},{"properties":{"city":"Chicago","zip":"60660","geo_score":0.607,"id":"a62efw1nql9a","geo_precision":"street","address":"1070 W. Bryn Mawr Ave.","state":"IL"},"type":"Feature","geometry":{"type":"Point","coordinates":[-87.653705,41.983859]}},{"properties":{"city":"Elmwood Park","zip":"60707","geo_score":0.614,"id":"a62efw3s87kw","geo_precision":"street","address":"2850 N. Harlem Ave.","state":"IL"},"type":"Feature","geometry":{"type":"Point","coordinates":[-87.805748,41.908903]}},{"properties":{"city":"Chicago","zip":"60610","geo_score":0.625,"id":"a62efvu66u6w","geo_precision":"street","address":"600 N. State Street","state":"IL"},"type":"Feature","geometry":{"type":"Point","coordinates":[-87.627805,41.882042]}},{"properties":{"city":"Forest Park","zip":"60130","geo_score":0.912,"id":"a62efvxukkcf","geo_precision":"range","address":"7231 Madison Ave","state":"IL"},"type":"Feature","geometry":{"type":"Point","coordinates":[-87.806056,41.879625]}},{"properties":{"city":"Chicago","zip":"60707","geo_score":0.489,"id":"a62efvqqx8zg","geo_precision":"street","address":"7112 W. North Ave.","state":"IL"},"type":"Feature","geometry":{"type":"Point","coordinates":[-87.785001,41.909147]}},{"properties":{"city":"Chicago","zip":"60610","geo_score":0.973,"id":"a62efvs4pjlm","geo_precision":"range","address":"106-108 WEST GERMANIA PLACE","state":"IL"},"type":"Feature","geometry":{"type":"Point","coordinates":[-87.631866,41.910425]}},{"properties":{"city":"Chicago","zip":"60615","geo_score":0.633,"id":"a62efvqaw4eu","geo_precision":"street","address":"1500 E. 53rd St","state":"IL"},"type":"Feature","geometry":{"type":"Point","coordinates":[-87.624179,41.798144]}},{"properties":{"city":"Chicago","zip":"60615","geo_score":0.854,"id":"a62efw5cuqtm","geo_precision":"range","address":"1174 East 55th Streeet","state":"IL"},"type":"Feature","geometry":{"type":"Point","coordinates":[-87.59722,41.795059]}},{"properties":{"city":"Chicago","zip":"60601","geo_score":1.0,"id":"a62efvz4zv8w","geo_precision":"range","address":"225 N Michigan Ave","state":"IL"},"type":"Feature","geometry":{"type":"Point","coordinates":[-87.624523,41.886012]}},{"properties":{"city":"Chicago","zip":"60611","geo_score":1.0,"id":"a62efw0iahvo","geo_precision":"range","address":"505 N Michigan Ave","state":"IL"},"type":"Feature","geometry":{"type":"Point","coordinates":[-87.624218,41.891045]}},{"properties":{"city":"Chicago","zip":"60641","geo_score":1.0,"id":"a62efvveovp9","geo_precision":"range","address":"4365 West Irving Park Road","state":"IL"},"type":"Feature","geometry":{"type":"Point","coordinates":[-87.737334,41.953535]}},{"properties":{"city":"Chicago","zip":"60601","geo_score":0.614,"id":"a62efw3wedg5","geo_precision":"street","address":"180 N. LaSalle St","state":"IL"},"type":"Feature","geometry":{"type":"Point","coordinates":[-87.632435,41.884472]}},{"properties":{"city":"Chicago","zip":"60604","geo_score":0.614,"id":"a62efw38wag5","geo_precision":"street","address":"39 S. LaSalle Street","state":"IL"},"type":"Feature","geometry":{"type":"Point","coordinates":[-87.632346,41.881275]}},{"properties":{"city":"Chicago","zip":"60624","geo_score":0.607,"id":"a62efvypqz67","geo_precision":"street","address":"3350 W. Roosevelt Rd.","state":"IL"},"type":"Feature","geometry":{"type":"Point","coordinates":[-87.709323,41.866364]}},{"properties":{"city":"Chicago","zip":"60601","geo_score":1.0,"id":"a62efw2zoo7o","geo_precision":"range","address":"40 W Lake Street","state":"IL"},"type":"Feature","geometry":{"type":"Point","coordinates":[-87.629216,41.885746]}},{"properties":{"city":"Chicago","zip":"60616","geo_score":1.0,"id":"a62efvzkm6xr","geo_precision":"range","address":"2301 S Lake Shore Dr","state":"IL"},"type":"Feature","geometry":{"type":"Point","coordinates":[-87.613399,41.852229]}},{"properties":{"city":"Chicago","zip":"60614","geo_score":0.614,"id":"a62efvxhkyru","geo_precision":"street","address":"2200 N. Halsted","state":"IL"},"type":"Feature","geometry":{"type":"Point","coordinates":[-87.647988,41.90152]}},{"properties":{"city":"Chicago","zip":"60657","geo_score":0.91,"id":"a62efvsr6wun","geo_precision":"range","address":"3045 Greenview","state":"IL"},"type":"Feature","geometry":{"type":"Point","coordinates":[-87.666154,41.937217]}},{"properties":{"city":"Chicago","zip":"60657","geo_score":1.0,"id":"a62efvsq5h09","geo_precision":"range","address":"3356 NORTH LINCOLN AVENUE","state":"IL"},"type":"Feature","geometry":{"type":"Point","coordinates":[-87.670505,41.942484]}},{"properties":{"city":"Chicago","zip":"60625","geo_score":1.0,"id":"a62efvra9pqn","geo_precision":"range","address":"4553-4557 N Lincoln Ave","state":"IL"},"type":"Feature","geometry":{"type":"Point","coordinates":[-87.6855,41.964102]}},{"properties":{"city":"Chicago","zip":"60647","geo_score":1.0,"id":"a62efw4kr8dq","geo_precision":"range","address":"2577 N Elston Ave","state":"IL"},"type":"Feature","geometry":{"type":"Point","coordinates":[-87.681855,41.928083]}},{"properties":{"city":"Chicago","zip":"60614","geo_score":0.604,"id":"a62efvycf5bd","geo_precision":"street","address":"1245 W. Fullerton Ave.","state":"IL"},"type":"Feature","geometry":{"type":"Point","coordinates":[-87.631346,41.92611]}},{"properties":{"city":"Chicago","zip":"60659","geo_score":0.61,"id":"a62efvt50ade","geo_precision":"street","address":"6075 N. Lincoln Ave.","state":"IL"},"type":"Feature","geometry":{"type":"Point","coordinates":[-87.695875,41.98358]}},{"properties":{"city":"Chicago","zip":"60613","geo_score":0.61,"id":"a62efvznw2ym","geo_precision":"street","address":"4015 N. Lincoln Avenue","state":"IL"},"type":"Feature","geometry":{"type":"Point","coordinates":[-87.674095,41.947452]}},{"properties":{"city":"Chicago","zip":"60647","geo_score":0.602,"id":"a62efvyxcojv","geo_precision":"street","address":"2543 N. California","state":"IL"},"type":"Feature","geometry":{"type":"Point","coordinates":[-87.697014,41.910728]}},{"properties":{"city":"Chicago","zip":"60602","geo_score":0.625,"id":"a62efvq5mg9j","geo_precision":"street","address":"111 N. State St.","state":"IL"},"type":"Feature","geometry":{"type":"Point","coordinates":[-87.627853,41.882602]}},{"properties":{"city":"Chicago","zip":"60602","geo_score":0.625,"id":"a62efw19ktp4","geo_precision":"street","address":"111 N. State St.","state":"IL"},"type":"Feature","geometry":{"type":"Point","coordinates":[-87.627853,41.882602]}},{"properties":{"city":"Chicago","zip":"60607","geo_score":0.92,"id":"a62efw0vqjoh","geo_precision":"range","address":"1001A West Madison Avenue","state":"IL"},"type":"Feature","geometry":{"type":"Point","coordinates":[-87.653015,41.881693]}},{"properties":{"city":"Bedford Park","zip":"60638","geo_score":1.0,"id":"a62efvuxtuc0","geo_precision":"range","address":"6520 S Cicero Ave","state":"IL"},"type":"Feature","geometry":{"type":"Point","coordinates":[-87.742141,41.774325]}},{"properties":{"city":"Chicago","zip":"60611","geo_score":0.941,"id":"a62efvpv9g3w","geo_precision":"range","address":"30 E Hubbard","state":"IL"},"type":"Feature","geometry":{"type":"Point","coordinates":[-87.62691,41.890082]}},{"properties":{"city":"Chicago","zip":"60616","geo_score":0.633,"id":"a62efvu7zsf4","geo_precision":"street","address":"2301 S. Martin Luther King Dr.","state":"IL"},"type":"Feature","geometry":{"type":"Point","coordinates":[-87.618911,41.850787]}},{"properties":{"city":"Chicago","zip":"60616","geo_score":1.0,"id":"a62efw13izaf","geo_precision":"range","address":"2301 S Lake Shore Dr","state":"IL"},"type":"Feature","geometry":{"type":"Point","coordinates":[-87.613399,41.852229]}},{"properties":{"city":"Chicago","zip":"60654","geo_score":0.744,"id":"a62efw2qv3x2","geo_precision":"street","address":"470 MERCHANDISE MART","state":"IL"},"type":"Feature","geometry":{"type":"Point","coordinates":[-87.636291,41.887913]}},{"properties":{"city":"Chicago","zip":"60661","geo_score":0.941,"id":"a62efw4t10th","geo_precision":"range","address":"139 South Clinton","state":"IL"},"type":"Feature","geometry":{"type":"Point","coordinates":[-87.641138,41.880054]}},{"properties":{"city":"Chicago","zip":"60662","geo_score":0.675,"id":"a62efvtxep3h","geo_precision":"range","address":"1001 W North Ave","state":"IL"},"type":"Feature","geometry":{"type":"Point","coordinates":[-87.653106,41.91084]}},{"properties":{"city":"Chicago","zip":"60657","geo_score":0.61,"id":"a62efvqn0het","geo_precision":"street","address":"3358 N. Broadway","state":"IL"},"type":"Feature","geometry":{"type":"Point","coordinates":[-87.644264,41.934252]}},{"properties":{"city":"Chicago","zip":"60614","geo_score":0.614,"id":"a62efvtdz12b","geo_precision":"street","address":"2200 N. Halsted","state":"IL"},"type":"Feature","geometry":{"type":"Point","coordinates":[-87.647988,41.90152]}},{"properties":{"city":"Chicago","zip":"60630","geo_score":0.614,"id":"a62efvul00ng","geo_precision":"street","address":"4830 N. Pulaski Rd.","state":"IL"},"type":"Feature","geometry":{"type":"Point","coordinates":[-87.727869,41.962531]}},{"properties":{"city":"Chicago","zip":"60625","geo_score":1.0,"id":"a62efvt84wrp","geo_precision":"range","address":"3232 W Foster Avenue","state":"IL"},"type":"Feature","geometry":{"type":"Point","coordinates":[-87.709947,41.975732]}},{"properties":{"city":"North Riverside","zip":"60546","geo_score":1.0,"id":"a62efvpmp9sg","geo_precision":"range","address":"7501 West Cermak Road","state":"IL"},"type":"Feature","geometry":{"type":"Point","coordinates":[-87.808078,41.850291]}},{"properties":{"city":"Chicago","zip":"60606","geo_score":0.935,"id":"a62efvwe59z2","geo_precision":"range","address":"150 N Wacker","state":"IL"},"type":"Feature","geometry":{"type":"Point","coordinates":[-87.636826,41.88446]}},{"properties":{"city":"Chicago","zip":"60611","geo_score":1.0,"id":"a62efw167i8r","geo_precision":"range","address":"251 East Huron Street","state":"IL"},"type":"Feature","geometry":{"type":"Point","coordinates":[-87.621708,41.895002]}},{"properties":{"city":"Chicago","zip":"60611","geo_score":1.0,"id":"a62efvzn2tvq","geo_precision":"range","address":"932 N Rush Street","state":"IL"},"type":"Feature","geometry":{"type":"Point","coordinates":[-87.62716,41.900006]}},{"properties":{"city":"Oak Park","zip":"60301","geo_score":1.0,"id":"a62efvqcc22z","geo_precision":"range","address":"1018 Lake St","state":"IL"},"type":"Feature","geometry":{"type":"Point","coordinates":[-87.800883,41.888656]}},{"properties":{"city":"Oak Park","zip":"60301","geo_score":1.0,"id":"a62efvrolmee","geo_precision":"range","address":"711 Lake St.","state":"IL"},"type":"Feature","geometry":{"type":"Point","coordinates":[-87.792831,41.888583]}},{"properties":{"city":"Chicago","zip":"60610","geo_score":0.976,"id":"a62efw34nrx8","geo_precision":"range","address":"1229 N Clyborn Ave","state":"IL"},"type":"Feature","geometry":{"type":"Point","coordinates":[-87.640222,41.904315]}},{"properties":{"city":"Chicago","zip":"60611","geo_score":0.614,"id":"a62efvxg488l","geo_precision":"street","address":"401 E. Ontario","state":"IL"},"type":"Feature","geometry":{"type":"Point","coordinates":[-87.628115,41.893271]}},{"properties":{"city":"Chicago","zip":"60610","geo_score":0.87,"id":"a62efvusnqj9","geo_precision":"range","address":"200-230 W North Ave","state":"IL"},"type":"Feature","geometry":{"type":"Point","coordinates":[-87.634711,41.911159]}},{"properties":{"city":"Chicago","zip":"60611","geo_score":1.0,"id":"a62efw4i4d2f","geo_precision":"range","address":"600 E Grand Ave","state":"IL"},"type":"Feature","geometry":{"type":"Point","coordinates":[-87.611578,41.891982]}},{"properties":{"city":"River Forest","zip":"60305","geo_score":1.0,"id":"a62efvsac2d8","geo_precision":"range","address":"7201 Lake Street","state":"IL"},"type":"Feature","geometry":{"type":"Point","coordinates":[-87.805049,41.888574]}},{"properties":{"city":"River Forest","zip":"60305","geo_score":0.619,"id":"a62efw1704cm","geo_precision":"street","address":"7601 W. North Avenue","state":"IL"},"type":"Feature","geometry":{"type":"Point","coordinates":[-87.805748,41.908903]}},{"properties":{"city":"Chicago","zip":"60611","geo_score":0.614,"id":"a62efvvoil0z","geo_precision":"street","address":"38 E. Ontario St.","state":"IL"},"type":"Feature","geometry":{"type":"Point","coordinates":[-87.628115,41.893271]}},{"properties":{"city":"Chicago","zip":"60622","geo_score":0.619,"id":"a62efvtz195p","geo_precision":"street","address":"520 N. Ogden Ave.","state":"IL"},"type":"Feature","geometry":{"type":"Point","coordinates":[-87.665624,41.881899]}},{"properties":{"city":"Chicago","zip":"60626","geo_score":0.927,"id":"a62efvpvlpqb","geo_precision":"range","address":"6738 North Sheridan Avenue","state":"IL"},"type":"Feature","geometry":{"type":"Point","coordinates":[-87.660853,42.004674]}},{"properties":{"city":"Chicago","zip":"60605","geo_score":1.0,"id":"a62efvxju8qk","geo_precision":"range","address":"31 East Roosevelt Road","state":"IL"},"type":"Feature","geometry":{"type":"Point","coordinates":[-87.626117,41.867495]}},{"properties":{"city":"Chicago","zip":"60618","geo_score":0.902,"id":"a62efw538wzk","geo_precision":"range","address":"2023-25 West Roscoe Street","state":null},"type":"Feature","geometry":{"type":"Point","coordinates":[-87.679218,41.943206]}},{"properties":{"city":"Chicago","zip":"60646","geo_score":0.607,"id":"a62efw2kehbv","geo_precision":"street","address":"4159 W. Peterson","state":"IL"},"type":"Feature","geometry":{"type":"Point","coordinates":[-87.72864,41.990134]}},{"properties":{"city":"Chicago","zip":"60606","geo_score":1.0,"id":"a62efw3hs8sc","geo_precision":"range","address":"233 South Wacker Drive","state":"IL"},"type":"Feature","geometry":{"type":"Point","coordinates":[-87.636681,41.878968]}},{"properties":{"city":"Chicago","zip":"60657","geo_score":0.715,"id":"a62efw5tkmye","geo_precision":"street","address":"1000-1002 West Diversey Ave","state":"IL"},"type":"Feature","geometry":{"type":"Point","coordinates":[-87.636111,41.933159]}},{"properties":{"city":"Chicago","zip":"60607","geo_score":1.0,"id":"a62efvuxsiho","geo_precision":"range","address":"1101 South Canal St.","state":"IL"},"type":"Feature","geometry":{"type":"Point","coordinates":[-87.639236,41.868491]}},{"properties":{"city":"Chicago","zip":"60657","geo_score":0.604,"id":"a62efvsshr1g","geo_precision":"street","address":"3359 N. Southport","state":"IL"},"type":"Feature","geometry":{"type":"Point","coordinates":[-87.663583,41.932931]}},{"properties":{"city":"Chicago","zip":"60603","geo_score":0.849,"id":"a62efvs7gzbu","geo_precision":"range","address":"131 South Dearborn","state":"IL"},"type":"Feature","geometry":{"type":"Point","coordinates":[-87.62936,41.879999]}},{"properties":{"city":"Chicago","zip":"60610","geo_score":1.0,"id":"a62efw2gm9tc","geo_precision":"range","address":"828 North State Street","state":"IL"},"type":"Feature","geometry":{"type":"Point","coordinates":[-87.628222,41.89752]}},{"properties":{"city":"Chicago","zip":"60707","geo_score":0.911,"id":"a62efvqurc1y","geo_precision":"range","address":"6525 W Diversey Ave","state":"IL"},"type":"Feature","geometry":{"type":"Point","coordinates":[-87.78865,41.930948]}},{"properties":{"city":"Chicago","zip":"60608","geo_score":0.916,"id":"a62efvyao5n4","geo_precision":"range","address":"1940 W 33rd St","state":"IL"},"type":"Feature","geometry":{"type":"Point","coordinates":[-87.674136,41.834045]}},{"properties":{"city":"Chicago","zip":"60618","geo_score":1.0,"id":"a62efvyfehtq","geo_precision":"range","address":"2939 W Addison St","state":"IL"},"type":"Feature","geometry":{"type":"Point","coordinates":[-87.701306,41.94665]}},{"properties":{"city":"Chicago","zip":"60647","geo_score":1.0,"id":"a62efvv348ro","geo_precision":"range","address":"2656 N Elston Ave","state":"IL"},"type":"Feature","geometry":{"type":"Point","coordinates":[-87.683871,41.929582]}},{"properties":{"city":"Chicago","zip":"60605","geo_score":1.0,"id":"a62efvryqx8e","geo_precision":"range","address":"1154 S Clark Street","state":"IL"},"type":"Feature","geometry":{"type":"Point","coordinates":[-87.630449,41.868008]}},{"properties":{"city":"Chicago","zip":"60632","geo_score":0.844,"id":"a62efvrc9r0p","geo_precision":"range","address":"4433 S Pulaski","state":"IL"},"type":"Feature","geometry":{"type":"Point","coordinates":[-87.723772,41.812769]}},{"properties":{"city":"Chicago","zip":"60659","geo_score":1.0,"id":"a62efvxf8aem","geo_precision":"range","address":"2112 W Peterson Ave","state":"IL"},"type":"Feature","geometry":{"type":"Point","coordinates":[-87.682766,41.99062]}},{"properties":{"city":"Cicero,","zip":"60804","geo_score":0.805,"id":"a62efvz1hwll","geo_precision":"street","address":"2901 S Cicero Ave","state":"IL"},"type":"Feature","geometry":{"type":"Point","coordinates":[-87.74354,41.822167]}},{"properties":{"city":"Evanston","zip":"60202","geo_score":1.0,"id":"a62efvq25qgs","geo_precision":"range","address":"2209 W Howard St","state":"IL"},"type":"Feature","geometry":{"type":"Point","coordinates":[-87.704397,42.019233]}},{"properties":{"city":"Chicago","zip":"60607","geo_score":0.619,"id":"a62efw4atgd6","geo_precision":"street","address":"1430 W. Taylor St.","state":"IL"},"type":"Feature","geometry":{"type":"Point","coordinates":[-87.637802,41.869709]}},{"properties":{"city":"Chicago","zip":"60601","geo_score":0.607,"id":"a62efvrmffgj","geo_precision":"street","address":"151 N. Michigan Ave.","state":"IL"},"type":"Feature","geometry":{"type":"Point","coordinates":[-87.624325,41.883238]}},{"properties":{"city":"Chicago","zip":"60606","geo_score":0.614,"id":"a62efw0d86y4","geo_precision":"street","address":"400 W. Madison","state":"IL"},"type":"Feature","geometry":{"type":"Point","coordinates":[-87.633823,41.881945]}},{"properties":{"city":"Chicago","zip":"60604","geo_score":0.607,"id":"a62efvseuwtv","geo_precision":"street","address":"175 W. Jackson Blvd","state":"IL"},"type":"Feature","geometry":{"type":"Point","coordinates":[-87.627676,41.878176]}},{"properties":{"city":"Chicago","zip":"60661","geo_score":0.614,"id":"a62efw08s6cp","geo_precision":"street","address":"40 N. Clinton St.","state":"IL"},"type":"Feature","geometry":{"type":"Point","coordinates":[-87.641193,41.881859]}},{"properties":{"city":"Chicago","zip":"60603","geo_score":0.625,"id":"a62efvx6smym","geo_precision":"street","address":"105 W. Adams","state":"IL"},"type":"Feature","geometry":{"type":"Point","coordinates":[-87.629352,41.879438]}},{"properties":{"city":"Chicago","zip":"60613","geo_score":1.0,"id":"a62efvxyy4mk","geo_precision":"range","address":"1023-1025 West Addison Street","state":"IL"},"type":"Feature","geometry":{"type":"Point","coordinates":[-87.655565,41.947224]}},{"properties":{"city":"Chicago","zip":"60614","geo_score":0.607,"id":"a62efvvll1cy","geo_precision":"street","address":"1001 W. Armitage","state":"IL"},"type":"Feature","geometry":{"type":"Point","coordinates":[-87.63653,41.918357]}},{"properties":{"city":"Chicago","zip":"60661","geo_score":0.633,"id":"a62efvzntqek","geo_precision":"street","address":"600 W. Lake St.","state":"IL"},"type":"Feature","geometry":{"type":"Point","coordinates":[-87.629498,41.885745]}},{"properties":{"city":"Chicago","zip":"60645","geo_score":0.365,"id":"a62efvvz2tm4","geo_precision":"street","address":"2357 W. Howard St.","state":"IL"},"type":"Feature","geometry":{"type":"Point","coordinates":[-87.68163,42.019456]}},{"properties":{"city":"Chicago","zip":"60640","geo_score":0.927,"id":"a62efvrmvg3g","geo_precision":"range","address":"4600 North Magnolia","state":"IL"},"type":"Feature","geometry":{"type":"Point","coordinates":[-87.661022,41.965347]}},{"properties":{"city":"Chicago","zip":"60614","geo_score":0.937,"id":"a62efvu00jjt","geo_precision":"range","address":"1157 W Wrightwood","state":"IL"},"type":"Feature","geometry":{"type":"Point","coordinates":[-87.657311,41.928941]}}],"is_temporal":false,"author":{"url":"","metadata":"","contact_name":"","contact_address":"","source":"","contact_phone":""},"source":"","pagination":{"sort":null,"start":0,"total":146,"limit":1000000},"state":"complete","tags":"coffee","published":"2014-08-12T23:42:58-04:00","id":111721}