{"type":"FeatureCollection","data_type":"Dataset","url_type":null,"permissions":[{"permissions":{"download":true,"view":true},"group_id":"everyone"}],"classification":null,"title":"110409_hail_report","count":323,"stream_id":112282,"contributor":{"url":"http://geocommons.com/users/26286","name":"mhearn"},"data_attributes":null,"calculation_params":null,"icon_link":null,"link":"http://geocommons.com/overlays/112282.json","extent":[-99.07,33.27,-79.05,45.28],"geometry_types":["point"],"unique_name":null,"name":"110409_hail_report","feature_count":323,"description":"Data from NOAA.","next_feature":null,"is_raster":false,"short_classification":"Y","stats":{"lon":{"max":-79.05,"mean":-85.7914551083592,"variance":44.7678491183201,"stdev":6.69087805286572,"min":-99.07,"median":-82.13},"size":{"max":425,"mean":151.393188854489,"variance":3286.09647520335,"stdev":57.3244840814407,"min":100,"median":150},"lat":{"max":45.28,"mean":37.4545820433436,"variance":10.7107335980616,"stdev":3.27272571384491,"min":33.27,"median":35.92}},"features":[{"properties":{"lon":-87.44,"size":100,"comments":"(IND)","time":"1231","county":"KNOX","id":"a66p4wkyhv7k","lat":38.87,"state":"IN","location":"OAKTOWN"},"type":"Feature","geometry":{"type":"Point","coordinates":[-87.44,38.87]}},{"properties":{"lon":-87.66,"size":100,"comments":"(ILX)","time":"1235","county":"CRAWFORD","id":"a66p4w5tmmev","lat":39.11,"state":"IL","location":"HUTSONVILLE"},"type":"Feature","geometry":{"type":"Point","coordinates":[-87.66,39.11]}},{"properties":{"lon":-87.45,"size":100,"comments":"(IND)","time":"1255","county":"SULLIVAN","id":"a66p4we695vo","lat":39.23,"state":"IN","location":"4 WSW FARMERSBURG"},"type":"Feature","geometry":{"type":"Point","coordinates":[-87.45,39.23]}},{"properties":{"lon":-96.35,"size":100,"comments":"ABOUT FIVE MINUTES DURATION (FSD)","time":"1303","county":"PIPESTONE","id":"a66p4wb8qg6b","lat":44.03,"state":"MN","location":"3 NW PIPESTONE"},"type":"Feature","geometry":{"type":"Point","coordinates":[-96.35,44.03]}},{"properties":{"lon":-82.23,"size":100,"comments":"(JKL)","time":"1341","county":"PIKE","id":"a66p4w68rqzc","lat":37.36,"state":"KY","location":"2 SE MOUTHCARD"},"type":"Feature","geometry":{"type":"Point","coordinates":[-82.23,37.36]}},{"properties":{"lon":-95.95,"size":100,"comments":"(FSD)","time":"1345","county":"MURRAY","id":"a66p4w6e9tnb","lat":44.11,"state":"MN","location":"2 SSW CURRENT LAKE"},"type":"Feature","geometry":{"type":"Point","coordinates":[-95.95,44.11]}},{"properties":{"lon":-95.97,"size":125,"comments":"QUARTER TO HALF DOLLAR...THIS IS CORRECTED REPORT (FSD)","time":"1345","county":"MURRAY","id":"a66p4w9h4dy4","lat":44.14,"state":"MN","location":"1 W CURRENT LAKE"},"type":"Feature","geometry":{"type":"Point","coordinates":[-95.97,44.14]}},{"properties":{"lon":-87.0,"size":100,"comments":"(LMK)","time":"1405","county":"DUBOIS","id":"a66p4wbrajfc","lat":38.42,"state":"IN","location":"IRELAND"},"type":"Feature","geometry":{"type":"Point","coordinates":[-87.0,38.42]}},{"properties":{"lon":-95.52,"size":100,"comments":"DIME TO QUARTER SIZE...COVERING THE GROUND (FSD)","time":"1420","county":"MURRAY","id":"a66p4wa0aqvf","lat":44.14,"state":"MN","location":"6 NNE DOVRAY"},"type":"Feature","geometry":{"type":"Point","coordinates":[-95.52,44.14]}},{"properties":{"lon":-85.65,"size":100,"comments":"HAIL FELL BETWEEN 1107 AND 1122 AM (LMK)","time":"1507","county":"JEFFERSON","id":"a66p4w921679","lat":38.19,"state":"KY","location":"3 SSE LOUISVILLE"},"type":"Feature","geometry":{"type":"Point","coordinates":[-85.65,38.19]}},{"properties":{"lon":-96.23,"size":275,"comments":"GOLFBALL TO BASEBALL SIZE HAIL NORTH OF MERRILL. (FSD)","time":"1508","county":"PLYMOUTH","id":"a66p4wfwjk6a","lat":42.74,"state":"IA","location":"4 SW LE MARS"},"type":"Feature","geometry":{"type":"Point","coordinates":[-96.23,42.74]}},{"properties":{"lon":-85.69,"size":100,"comments":"(LMK)","time":"1512","county":"JEFFERSON","id":"a66p4w7hqyja","lat":38.17,"state":"KY","location":"2 N OKOLONA"},"type":"Feature","geometry":{"type":"Point","coordinates":[-85.69,38.17]}},{"properties":{"lon":-85.57,"size":100,"comments":"(LMK)","time":"1527","county":"JEFFERSON","id":"a66p4whkcb9z","lat":38.21,"state":"KY","location":"JEFFERSONTOWN"},"type":"Feature","geometry":{"type":"Point","coordinates":[-85.57,38.21]}},{"properties":{"lon":-84.89,"size":100,"comments":"(LMK)","time":"1556","county":"ANDERSON","id":"a66p4weo4m7f","lat":38.03,"state":"KY","location":"LAWRENCEBURG"},"type":"Feature","geometry":{"type":"Point","coordinates":[-84.89,38.03]}},{"properties":{"lon":-83.62,"size":100,"comments":"(JKL)","time":"1614","county":"BATH","id":"a66p4wiu275e","lat":38.12,"state":"KY","location":"SALT LICK"},"type":"Feature","geometry":{"type":"Point","coordinates":[-83.62,38.12]}},{"properties":{"lon":-83.62,"size":100,"comments":"(JKL)","time":"1700","county":"BATH","id":"a66p4web3qqg","lat":38.12,"state":"KY","location":"SALT LICK"},"type":"Feature","geometry":{"type":"Point","coordinates":[-83.62,38.12]}},{"properties":{"lon":-82.58,"size":100,"comments":"(GSP)","time":"1715","county":"BUNCOMBE","id":"a66p4witeaad","lat":35.57,"state":"NC","location":"2 W ASHEVILLE"},"type":"Feature","geometry":{"type":"Point","coordinates":[-82.58,35.57]}},{"properties":{"lon":-82.59,"size":100,"comments":"(GSP)","time":"1715","county":"BUNCOMBE","id":"a66p4welccrj","lat":35.7,"state":"NC","location":"2 W WEAVERVILLE"},"type":"Feature","geometry":{"type":"Point","coordinates":[-82.59,35.7]}},{"properties":{"lon":-85.42,"size":100,"comments":"(LMK)","time":"1715","county":"TAYLOR","id":"a66p4wdrjcy6","lat":37.35,"state":"KY","location":"4 W CAMPBELLSVILLE"},"type":"Feature","geometry":{"type":"Point","coordinates":[-85.42,37.35]}},{"properties":{"lon":-82.95,"size":175,"comments":"(JKL)","time":"1730","county":"KNOTT","id":"a66p4wgl4tf1","lat":37.24,"state":"KY","location":"LITTCARR"},"type":"Feature","geometry":{"type":"Point","coordinates":[-82.95,37.24]}},{"properties":{"lon":-82.81,"size":275,"comments":"(JKL)","time":"1735","county":"KNOTT","id":"a66p4wicfcpz","lat":37.34,"state":"KY","location":"KITE"},"type":"Feature","geometry":{"type":"Point","coordinates":[-82.81,37.34]}},{"properties":{"lon":-84.93,"size":100,"comments":"(LMK)","time":"1742","county":"CASEY","id":"a66p4wm321uu","lat":37.32,"state":"KY","location":"LIBERTY"},"type":"Feature","geometry":{"type":"Point","coordinates":[-84.93,37.32]}},{"properties":{"lon":-82.6,"size":100,"comments":"(RLX)","time":"1745","county":"LAWRENCE","id":"a66p4w9lporu","lat":37.99,"state":"KY","location":"8 S LOUISA"},"type":"Feature","geometry":{"type":"Point","coordinates":[-82.6,37.99]}},{"properties":{"lon":-82.58,"size":275,"comments":"(JKL)","time":"1752","county":"PIKE","id":"a66p4wcxwhmg","lat":37.33,"state":"KY","location":"VIRGIE"},"type":"Feature","geometry":{"type":"Point","coordinates":[-82.58,37.33]}},{"properties":{"lon":-82.51,"size":175,"comments":"(JKL)","time":"1756","county":"PIKE","id":"a66p4w9hcshs","lat":37.48,"state":"KY","location":"PIKEVILLE"},"type":"Feature","geometry":{"type":"Point","coordinates":[-82.51,37.48]}},{"properties":{"lon":-84.65,"size":275,"comments":"(JKL)","time":"1800","county":"PULASKI","id":"a66p4wl4n0t6","lat":37.28,"state":"KY","location":"EUBANK"},"type":"Feature","geometry":{"type":"Point","coordinates":[-84.65,37.28]}},{"properties":{"lon":-82.51,"size":100,"comments":"SEVERAL VEHICLES DAMAGED BY HAIL AT THE STATE POLICE POST. (JKL)","time":"1800","county":"PIKE","id":"a66p4w7cpple","lat":37.48,"state":"KY","location":"PIKEVILLE"},"type":"Feature","geometry":{"type":"Point","coordinates":[-82.51,37.48]}},{"properties":{"lon":-84.29,"size":100,"comments":"(LMK)","time":"1803","county":"MADISON","id":"a66p4wi9rmzn","lat":37.58,"state":"KY","location":"BEREA"},"type":"Feature","geometry":{"type":"Point","coordinates":[-84.29,37.58]}},{"properties":{"lon":-82.13,"size":100,"comments":"(JKL)","time":"1805","county":"PIKE","id":"a66p4w8dpvg8","lat":37.5,"state":"KY","location":"2 ESE PHELPS"},"type":"Feature","geometry":{"type":"Point","coordinates":[-82.13,37.5]}},{"properties":{"lon":-82.55,"size":200,"comments":"CAR WINDOWS AND HOME WINDOWS BROKEN. (JKL)","time":"1808","county":"PIKE","id":"a66p4wiatibo","lat":37.51,"state":"KY","location":"3 NW PIKEVILLE"},"type":"Feature","geometry":{"type":"Point","coordinates":[-82.55,37.51]}},{"properties":{"lon":-83.55,"size":100,"comments":"MOST HAIL THE SIZE OF PENNIES AND NICKELS. (JKL)","time":"1808","county":"WOLFE","id":"a66p4w7f5ev9","lat":37.74,"state":"KY","location":"CAMPTON"},"type":"Feature","geometry":{"type":"Point","coordinates":[-83.55,37.74]}},{"properties":{"lon":-82.44,"size":175,"comments":"(JKL)","time":"1812","county":"PIKE","id":"a66p4wd5qlyw","lat":37.57,"state":"KY","location":"META"},"type":"Feature","geometry":{"type":"Point","coordinates":[-82.44,37.57]}},{"properties":{"lon":-84.65,"size":175,"comments":"(JKL)","time":"1813","county":"PULASKI","id":"a66p4wc18v04","lat":37.28,"state":"KY","location":"EUBANK"},"type":"Feature","geometry":{"type":"Point","coordinates":[-84.65,37.28]}},{"properties":{"lon":-82.46,"size":100,"comments":"(RLX)","time":"1815","county":"WAYNE","id":"a66p4wduiyui","lat":38.12,"state":"WV","location":"GENOA"},"type":"Feature","geometry":{"type":"Point","coordinates":[-82.46,38.12]}},{"properties":{"lon":-84.65,"size":400,"comments":"(JKL)","time":"1817","county":"PULASKI","id":"a66p4wijdcrl","lat":37.26,"state":"KY","location":"1 S EUBANK"},"type":"Feature","geometry":{"type":"Point","coordinates":[-84.65,37.26]}},{"properties":{"lon":-84.61,"size":100,"comments":"(JKL)","time":"1820","county":"PULASKI","id":"a66p4wdwp7wu","lat":37.02,"state":"KY","location":"4 S SOMERSET"},"type":"Feature","geometry":{"type":"Point","coordinates":[-84.61,37.02]}},{"properties":{"lon":-82.28,"size":100,"comments":"(RLX)","time":"1830","county":"MINGO","id":"a66p4w86ky5q","lat":37.67,"state":"WV","location":"WILLIAMSON"},"type":"Feature","geometry":{"type":"Point","coordinates":[-82.28,37.67]}},{"properties":{"lon":-82.25,"size":100,"comments":"(RLX)","time":"1830","county":"MINGO","id":"a66p4w8evqii","lat":37.69,"state":"WV","location":"2 NE WILLIAMSON"},"type":"Feature","geometry":{"type":"Point","coordinates":[-82.25,37.69]}},{"properties":{"lon":-84.08,"size":175,"comments":"(JKL)","time":"1834","county":"LAUREL","id":"a66p4we1fk2r","lat":37.13,"state":"KY","location":"LONDON"},"type":"Feature","geometry":{"type":"Point","coordinates":[-84.08,37.13]}},{"properties":{"lon":-82.15,"size":200,"comments":"TOWN OF MAXIE (RLX)","time":"1835","county":"BUCHANAN","id":"a66p4wl57bzr","lat":37.32,"state":"VA","location":"4 NW GRUNDY"},"type":"Feature","geometry":{"type":"Point","coordinates":[-82.15,37.32]}},{"properties":{"lon":-84.08,"size":175,"comments":"(JKL)","time":"1843","county":"LAUREL","id":"a66p4w7x77sy","lat":37.13,"state":"KY","location":"LONDON"},"type":"Feature","geometry":{"type":"Point","coordinates":[-84.08,37.13]}},{"properties":{"lon":-82.1,"size":200,"comments":"(RLX)","time":"1845","county":"BUCHANAN","id":"a66p4wjnhwdf","lat":37.28,"state":"VA","location":"GRUNDY"},"type":"Feature","geometry":{"type":"Point","coordinates":[-82.1,37.28]}},{"properties":{"lon":-83.87,"size":100,"comments":"(JKL)","time":"1850","county":"CLAY","id":"a66p4wk3ddlo","lat":37.09,"state":"KY","location":"BUSH"},"type":"Feature","geometry":{"type":"Point","coordinates":[-83.87,37.09]}},{"properties":{"lon":-82.05,"size":175,"comments":"(RLX)","time":"1850","county":"LOGAN","id":"a66p4wk78i7c","lat":37.8,"state":"WV","location":"5 SW LOGAN"},"type":"Feature","geometry":{"type":"Point","coordinates":[-82.05,37.8]}},{"properties":{"lon":-83.42,"size":175,"comments":"(JKL)","time":"1853","county":"BREATHITT","id":"a66p4w8coyvk","lat":37.56,"state":"KY","location":"2 W JACKSON"},"type":"Feature","geometry":{"type":"Point","coordinates":[-83.42,37.56]}},{"properties":{"lon":-81.77,"size":100,"comments":"QUARTER SIZE HAIL REPORTED BY DISPATCH. (MRX)","time":"1900","county":"WASHINGTON","id":"a66p4wd6i38b","lat":36.79,"state":"VA","location":"GLADE SPRING"},"type":"Feature","geometry":{"type":"Point","coordinates":[-81.77,36.79]}},{"properties":{"lon":-84.11,"size":100,"comments":"(JKL)","time":"1900","county":"WHITLEY","id":"a66p4wbeiqyh","lat":36.94,"state":"KY","location":"CORBIN"},"type":"Feature","geometry":{"type":"Point","coordinates":[-84.11,36.94]}},{"properties":{"lon":-81.77,"size":275,"comments":"GOLF BALL TO BASEBALL SIZE HAIL IN GLADE SPRING...REPORTED BY DISPATCH (MRX)","time":"1901","county":"WASHINGTON","id":"a66p4w6g1de2","lat":36.79,"state":"VA","location":"GLADE SPRING"},"type":"Feature","geometry":{"type":"Point","coordinates":[-81.77,36.79]}},{"properties":{"lon":-84.11,"size":175,"comments":"(JKL)","time":"1907","county":"WHITLEY","id":"a66p4wasxh7d","lat":36.94,"state":"KY","location":"CORBIN"},"type":"Feature","geometry":{"type":"Point","coordinates":[-84.11,36.94]}},{"properties":{"lon":-81.63,"size":100,"comments":"(RNK)","time":"1910","county":"SMYTH","id":"a66p4wcdl4d0","lat":36.81,"state":"VA","location":"3 ENE CHILHOWIE"},"type":"Feature","geometry":{"type":"Point","coordinates":[-81.63,36.81]}},{"properties":{"lon":-81.59,"size":150,"comments":"(RNK)","time":"1915","county":"SMYTH","id":"a66p4wc29fb6","lat":36.81,"state":"VA","location":"5 E CHILHOWIE"},"type":"Feature","geometry":{"type":"Point","coordinates":[-81.59,36.81]}},{"properties":{"lon":-81.5,"size":100,"comments":"BEGAN FALLING 320 PM...STILL FALLING AT 325 PM (RNK)","time":"1920","county":"SMYTH","id":"a66p4wg1rxxj","lat":36.83,"state":"VA","location":"MARION"},"type":"Feature","geometry":{"type":"Point","coordinates":[-81.5,36.83]}},{"properties":{"lon":-84.08,"size":175,"comments":"(JKL)","time":"1920","county":"LAUREL","id":"a66p4wcey8h5","lat":37.13,"state":"KY","location":"LONDON"},"type":"Feature","geometry":{"type":"Point","coordinates":[-84.08,37.13]}},{"properties":{"lon":-81.56,"size":100,"comments":"(RNK)","time":"1925","county":"SMYTH","id":"a66p4wer4v7s","lat":36.78,"state":"VA","location":"5 SW MARION"},"type":"Feature","geometry":{"type":"Point","coordinates":[-81.56,36.78]}},{"properties":{"lon":-81.73,"size":175,"comments":"(RLX)","time":"1925","county":"WYOMING","id":"a66p4wbglirk","lat":37.67,"state":"WV","location":"COAL MOUNTAIN"},"type":"Feature","geometry":{"type":"Point","coordinates":[-81.73,37.67]}},{"properties":{"lon":-81.5,"size":100,"comments":"NEAR INTERSECTION OF HWY 16 AND I-81 (RNK)","time":"1930","county":"SMYTH","id":"a66p4w6ntaww","lat":36.83,"state":"VA","location":"MARION"},"type":"Feature","geometry":{"type":"Point","coordinates":[-81.5,36.83]}},{"properties":{"lon":-81.52,"size":175,"comments":"(RNK)","time":"1933","county":"ASHE","id":"a66p4wdmhtc7","lat":36.3,"state":"NC","location":"FLEETWOOD"},"type":"Feature","geometry":{"type":"Point","coordinates":[-81.52,36.3]}},{"properties":{"lon":-81.18,"size":100,"comments":"(RNK)","time":"1936","county":"GRAYSON","id":"a66p4we86kl5","lat":36.72,"state":"VA","location":"ELK CREEK"},"type":"Feature","geometry":{"type":"Point","coordinates":[-81.18,36.72]}},{"properties":{"lon":-81.52,"size":100,"comments":"QUARTER SIZE HAIL ON HORSEPEN ROAD. (RNK)","time":"1938","county":"TAZEWELL","id":"a66p4wcwxaie","lat":37.21,"state":"VA","location":"5 W TIPTOP"},"type":"Feature","geometry":{"type":"Point","coordinates":[-81.52,37.21]}},{"properties":{"lon":-82.18,"size":100,"comments":"COUNTY COMMS REPORTS QUARTER SIZED HAIL (GSP)","time":"1940","county":"MCDOWELL","id":"a66p4whilno1","lat":35.63,"state":"NC","location":"OLD FORT"},"type":"Feature","geometry":{"type":"Point","coordinates":[-82.18,35.63]}},{"properties":{"lon":-83.41,"size":150,"comments":"(JKL)","time":"1945","county":"HARLAN","id":"a66p4wafkg4d","lat":36.83,"state":"KY","location":"WALLINS CREEK"},"type":"Feature","geometry":{"type":"Point","coordinates":[-83.41,36.83]}},{"properties":{"lon":-82.04,"size":200,"comments":"WFO RNK RELAYED REPORT OF EGG SIZED HAIL AT MILE MARKER 81 ON I-40. (GSP)","time":"1950","county":"MCDOWELL","id":"a66p4w7dhb4w","lat":35.64,"state":"NC","location":"3 SW MARION"},"type":"Feature","geometry":{"type":"Point","coordinates":[-82.04,35.64]}},{"properties":{"lon":-82.01,"size":100,"comments":"(GSP)","time":"1950","county":"MCDOWELL","id":"a66p4wf3l9gl","lat":35.68,"state":"NC","location":"MARION"},"type":"Feature","geometry":{"type":"Point","coordinates":[-82.01,35.68]}},{"properties":{"lon":-82.58,"size":150,"comments":"OBSERVED ON SUGAR CAMP BRANCH ROAD. (JKL)","time":"1955","county":"PIKE","id":"a66p4w9jcw1x","lat":37.33,"state":"KY","location":"VIRGIE"},"type":"Feature","geometry":{"type":"Point","coordinates":[-82.58,37.33]}},{"properties":{"lon":-81.97,"size":100,"comments":"SPOTTER REPORTS PEA TO QUARTER SIZED HAIL CURRENTLY FALLING. (GSP)","time":"2000","county":"MCDOWELL","id":"a66p4w621s5h","lat":35.65,"state":"NC","location":"3 SE MARION"},"type":"Feature","geometry":{"type":"Point","coordinates":[-81.97,35.65]}},{"properties":{"lon":-83.29,"size":175,"comments":"GOLF BALL SIZE HAIL REPORTED BY DISPATCH. (MRX)","time":"2000","county":"LEE","id":"a66p4wbwd3vw","lat":36.69,"state":"VA","location":"ROSE HILL"},"type":"Feature","geometry":{"type":"Point","coordinates":[-83.29,36.69]}},{"properties":{"lon":-81.96,"size":100,"comments":"EXIT 86 ON I-40 (GSP)","time":"2001","county":"MCDOWELL","id":"a66p4wdzqwiy","lat":35.66,"state":"NC","location":"3 ESE MARION"},"type":"Feature","geometry":{"type":"Point","coordinates":[-81.96,35.66]}},{"properties":{"lon":-80.97,"size":100,"comments":"(RNK)","time":"2001","county":"CARROLL","id":"a66p4wadfl9e","lat":36.72,"state":"VA","location":"FRIES"},"type":"Feature","geometry":{"type":"Point","coordinates":[-80.97,36.72]}},{"properties":{"lon":-80.97,"size":175,"comments":"(RNK)","time":"2009","county":"CARROLL","id":"a66p4wdaxpdx","lat":36.72,"state":"VA","location":"FRIES"},"type":"Feature","geometry":{"type":"Point","coordinates":[-80.97,36.72]}},{"properties":{"lon":-80.52,"size":125,"comments":"HAIL UP TO HALF DOLLAR SIZE ON LONG BRANCH ROAD. (RNK)","time":"2013","county":"PATRICK","id":"a66p4web6jcq","lat":36.56,"state":"VA","location":"3 S ARARAT"},"type":"Feature","geometry":{"type":"Point","coordinates":[-80.52,36.56]}},{"properties":{"lon":-82.08,"size":100,"comments":"QUARTER SIZE HAIL REPORTED BY DISPATCH. (MRX)","time":"2020","county":"RUSSELL","id":"a66p4wc8225x","lat":36.9,"state":"VA","location":"LEBANON"},"type":"Feature","geometry":{"type":"Point","coordinates":[-82.08,36.9]}},{"properties":{"lon":-80.71,"size":100,"comments":"HAIL COVERED THE GROUND. (RNK)","time":"2025","county":"CARROLL","id":"a66p4wgf40tq","lat":36.67,"state":"VA","location":"1 WNW FANCY GAP"},"type":"Feature","geometry":{"type":"Point","coordinates":[-80.71,36.67]}},{"properties":{"lon":-81.66,"size":100,"comments":"(GSP)","time":"2030","county":"CLEVELAND","id":"a66p4w5x3w3t","lat":35.48,"state":"NC","location":"3 SW CASAR"},"type":"Feature","geometry":{"type":"Point","coordinates":[-81.66,35.48]}},{"properties":{"lon":-81.66,"size":175,"comments":"(GSP)","time":"2035","county":"CLEVELAND","id":"a66p4w7maw63","lat":35.48,"state":"NC","location":"3 SW CASAR"},"type":"Feature","geometry":{"type":"Point","coordinates":[-81.66,35.48]}},{"properties":{"lon":-82.99,"size":100,"comments":"QUARTER SIZE HAIL (GSP)","time":"2038","county":"OCONEE","id":"a66p4wklm1ll","lat":34.89,"state":"SC","location":"SALEM"},"type":"Feature","geometry":{"type":"Point","coordinates":[-82.99,34.89]}},{"properties":{"lon":-81.5,"size":100,"comments":"(GSP)","time":"2048","county":"CLEVELAND","id":"a66p4wenpwkx","lat":35.38,"state":"NC","location":"4 SE LAWNDALE"},"type":"Feature","geometry":{"type":"Point","coordinates":[-81.5,35.38]}},{"properties":{"lon":-83.01,"size":425,"comments":"SOFTBALL SIZE HAIL REPORTED BY DISPATCH. (MRX)","time":"2048","county":"HAWKINS","id":"a66p4wgr0y0k","lat":36.41,"state":"TN","location":"ROGERSVILLE"},"type":"Feature","geometry":{"type":"Point","coordinates":[-83.01,36.41]}},{"properties":{"lon":-81.5,"size":175,"comments":"FALLSTON VFD (GSP)","time":"2053","county":"CLEVELAND","id":"a66p4wlyo45o","lat":35.43,"state":"NC","location":"4 ENE LAWNDALE"},"type":"Feature","geometry":{"type":"Point","coordinates":[-81.5,35.43]}},{"properties":{"lon":-81.39,"size":175,"comments":"(GSP)","time":"2059","county":"CLEVELAND","id":"a66p4wggk9ch","lat":35.31,"state":"NC","location":"5 S CHERRYVILLE"},"type":"Feature","geometry":{"type":"Point","coordinates":[-81.39,35.31]}},{"properties":{"lon":-81.5,"size":175,"comments":"(GSP)","time":"2100","county":"CLEVELAND","id":"a66p4w68fd8a","lat":35.32,"state":"NC","location":"3 NE SHELBY"},"type":"Feature","geometry":{"type":"Point","coordinates":[-81.5,35.32]}},{"properties":{"lon":-82.73,"size":175,"comments":"(GSP)","time":"2105","county":"PICKENS","id":"a66p4w6aud1x","lat":34.77,"state":"SC","location":"1 ENE NORRIS"},"type":"Feature","geometry":{"type":"Point","coordinates":[-82.73,34.77]}},{"properties":{"lon":-81.38,"size":175,"comments":"(GSP)","time":"2105","county":"GASTON","id":"a66p4wkv7bpy","lat":35.38,"state":"NC","location":"CHERRYVILLE"},"type":"Feature","geometry":{"type":"Point","coordinates":[-81.38,35.38]}},{"properties":{"lon":-81.35,"size":100,"comments":"(GSP)","time":"2109","county":"CLEVELAND","id":"a66p4wkz61nu","lat":35.24,"state":"NC","location":"KINGS MOUNTAIN"},"type":"Feature","geometry":{"type":"Point","coordinates":[-81.35,35.24]}},{"properties":{"lon":-82.57,"size":175,"comments":"(GSP)","time":"2110","county":"ANDERSON","id":"a66p4wixie0m","lat":34.77,"state":"SC","location":"4 SSE EASLEY"},"type":"Feature","geometry":{"type":"Point","coordinates":[-82.57,34.77]}},{"properties":{"lon":-82.7,"size":100,"comments":"(GSP)","time":"2110","county":"PICKENS","id":"a66p4wd3x15b","lat":34.79,"state":"SC","location":"LIBERTY"},"type":"Feature","geometry":{"type":"Point","coordinates":[-82.7,34.79]}},{"properties":{"lon":-81.29,"size":275,"comments":"(GSP)","time":"2110","county":"GASTON","id":"a66p4w6m0ho0","lat":35.28,"state":"NC","location":"BESSEMER CITY"},"type":"Feature","geometry":{"type":"Point","coordinates":[-81.29,35.28]}},{"properties":{"lon":-82.56,"size":175,"comments":"AT EAST CHURCH ROAD AND HW-8. (GSP)","time":"2118","county":"ANDERSON","id":"a66p4w6fkb5d","lat":34.77,"state":"SC","location":"4 SSE EASLEY"},"type":"Feature","geometry":{"type":"Point","coordinates":[-82.56,34.77]}},{"properties":{"lon":-81.21,"size":175,"comments":"(GSP)","time":"2118","county":"GASTON","id":"a66p4wbypjhf","lat":35.19,"state":"NC","location":"CROWDERS"},"type":"Feature","geometry":{"type":"Point","coordinates":[-81.21,35.19]}},{"properties":{"lon":-81.14,"size":275,"comments":"HAIL UP TO THE SIZE OF BASEBALLS DAMAGED MULTIPLE PLANES AT THE GASTONIA AIRPORT. (GSP)","time":"2120","county":"GASTON","id":"a66p4w6l36j4","lat":35.2,"state":"NC","location":"4 SSE GASTONIA"},"type":"Feature","geometry":{"type":"Point","coordinates":[-81.14,35.2]}},{"properties":{"lon":-81.18,"size":100,"comments":"(GSP)","time":"2120","county":"GASTON","id":"a66p4wld119q","lat":35.31,"state":"NC","location":"DALLAS"},"type":"Feature","geometry":{"type":"Point","coordinates":[-81.18,35.31]}},{"properties":{"lon":-83.3,"size":175,"comments":"(JKL)","time":"2120","county":"LESLIE","id":"a66p4wfyr7xt","lat":37.18,"state":"KY","location":"WOOTON"},"type":"Feature","geometry":{"type":"Point","coordinates":[-83.3,37.18]}},{"properties":{"lon":-81.96,"size":175,"comments":"(GSP)","time":"2126","county":"RUTHERFORD","id":"a66p4wg9iw0w","lat":35.36,"state":"NC","location":"RUTHERFORDTON"},"type":"Feature","geometry":{"type":"Point","coordinates":[-81.96,35.36]}},{"properties":{"lon":-81.11,"size":100,"comments":"(GSP)","time":"2128","county":"GASTON","id":"a66p4wl306jh","lat":35.22,"state":"NC","location":"4 SE GASTONIA"},"type":"Feature","geometry":{"type":"Point","coordinates":[-81.11,35.22]}},{"properties":{"lon":-81.23,"size":400,"comments":"NUMEROUS HAILSTONES OF THIS SIZE REPORTED (GSP)","time":"2130","county":"YORK","id":"a66p4wa6ql9z","lat":35.11,"state":"SC","location":"CLOVER"},"type":"Feature","geometry":{"type":"Point","coordinates":[-81.23,35.11]}},{"properties":{"lon":-81.17,"size":175,"comments":"(GSP)","time":"2130","county":"GASTON","id":"a66p4whs5q7e","lat":35.25,"state":"NC","location":"GASTONIA"},"type":"Feature","geometry":{"type":"Point","coordinates":[-81.17,35.25]}},{"properties":{"lon":-84.11,"size":175,"comments":"QUARTER TO GOLF BALL SIZE HAIL NEAR EXIT 122 IN CLINTON...REPORTED BY DISPATCH. (MRX)","time":"2130","county":"ANDERSON","id":"a66p4w9mekyd","lat":36.11,"state":"TN","location":"2 NE CLINTON"},"type":"Feature","geometry":{"type":"Point","coordinates":[-84.11,36.11]}},{"properties":{"lon":-82.69,"size":175,"comments":"GOLF BALL SIZE HAIL REPORTED BY SPOTTER. (MRX)","time":"2130","county":"GREENE","id":"a66p4whud0mn","lat":36.21,"state":"TN","location":"CHUCKY"},"type":"Feature","geometry":{"type":"Point","coordinates":[-82.69,36.21]}},{"properties":{"lon":-81.11,"size":125,"comments":"COCORAHS OBSERVER (GSP)","time":"2132","county":"GASTON","id":"a66p4wik5l7j","lat":35.22,"state":"NC","location":"4 SE GASTONIA"},"type":"Feature","geometry":{"type":"Point","coordinates":[-81.11,35.22]}},{"properties":{"lon":-81.23,"size":200,"comments":"(GSP)","time":"2133","county":"YORK","id":"a66p4wb3enh0","lat":35.11,"state":"SC","location":"CLOVER"},"type":"Feature","geometry":{"type":"Point","coordinates":[-81.23,35.11]}},{"properties":{"lon":-82.16,"size":175,"comments":"(GSP)","time":"2135","county":"MITCHELL","id":"a66p4wknzhzz","lat":36.01,"state":"NC","location":"BAKERSVILLE"},"type":"Feature","geometry":{"type":"Point","coordinates":[-82.16,36.01]}},{"properties":{"lon":-83.21,"size":200,"comments":"TWO INCH HAIL AT SNEEDVILLE AND MULBERRY. SEVERAL TREES DOWN AT KYLESFORD. REPORTED BY DISATCH. (MRX)","time":"2135","county":"HANCOCK","id":"a66p4w8p1gfa","lat":36.54,"state":"TN","location":"SNEEDVILLE"},"type":"Feature","geometry":{"type":"Point","coordinates":[-83.21,36.54]}},{"properties":{"lon":-81.02,"size":175,"comments":"(GSP)","time":"2138","county":"MECKLENBURG","id":"a66p4wb32k6l","lat":35.11,"state":"NC","location":"2 E LAKE WYLIE"},"type":"Feature","geometry":{"type":"Point","coordinates":[-81.02,35.11]}},{"properties":{"lon":-81.36,"size":125,"comments":"HAIL REPORTED ON WOODVALE DRIVE IN CHERRYVILLE. (GSP)","time":"2138","county":"GASTON","id":"a66p4wcpdzdr","lat":35.39,"state":"NC","location":"1 NE CHERRYVILLE"},"type":"Feature","geometry":{"type":"Point","coordinates":[-81.36,35.39]}},{"properties":{"lon":-82.46,"size":100,"comments":"(GSP)","time":"2142","county":"ANDERSON","id":"a66p4whd4jj1","lat":34.64,"state":"SC","location":"PELZER"},"type":"Feature","geometry":{"type":"Point","coordinates":[-82.46,34.64]}},{"properties":{"lon":-81.25,"size":275,"comments":"HW 274 AND HOLLAND MEMORIAL CHURCH RD (GSP)","time":"2145","county":"GASTON","id":"a66p4wiqnw3c","lat":35.29,"state":"NC","location":"5 WNW GASTONIA"},"type":"Feature","geometry":{"type":"Point","coordinates":[-81.25,35.29]}},{"properties":{"lon":-81.14,"size":200,"comments":"HW-55 AND SOUTH KINGSBURY RD (GSP)","time":"2147","county":"YORK","id":"a66p4wcubss0","lat":35.09,"state":"SC","location":"5 WSW LAKE WYLIE"},"type":"Feature","geometry":{"type":"Point","coordinates":[-81.14,35.09]}},{"properties":{"lon":-81.02,"size":175,"comments":"(GSP)","time":"2152","county":"YORK","id":"a66p4wl9wag1","lat":35.03,"state":"SC","location":"TEGA CAY"},"type":"Feature","geometry":{"type":"Point","coordinates":[-81.02,35.03]}},{"properties":{"lon":-81.19,"size":125,"comments":"ALONG HW-321 JUST OUTSIDE OF DALLAS. (GSP)","time":"2155","county":"GASTON","id":"a66p4wgs0doi","lat":35.34,"state":"NC","location":"2 NNW DALLAS"},"type":"Feature","geometry":{"type":"Point","coordinates":[-81.19,35.34]}},{"properties":{"lon":-80.98,"size":175,"comments":"I-77 EXIT 77 (GSP)","time":"2158","county":"YORK","id":"a66p4wgrauqm","lat":34.91,"state":"SC","location":"3 SE ROCK HILL"},"type":"Feature","geometry":{"type":"Point","coordinates":[-80.98,34.91]}},{"properties":{"lon":-80.94,"size":200,"comments":"(GSP)","time":"2158","county":"YORK","id":"a66p4wff1bfj","lat":35.01,"state":"SC","location":"FORT MILL"},"type":"Feature","geometry":{"type":"Point","coordinates":[-80.94,35.01]}},{"properties":{"lon":-80.91,"size":175,"comments":"(GSP)","time":"2200","county":"YORK","id":"a66p4wbezjuu","lat":34.85,"state":"SC","location":"CATAWBA"},"type":"Feature","geometry":{"type":"Point","coordinates":[-80.91,34.85]}},{"properties":{"lon":-81.03,"size":175,"comments":"(GSP)","time":"2200","county":"YORK","id":"a66p4wi4g214","lat":34.94,"state":"SC","location":"ROCK HILL"},"type":"Feature","geometry":{"type":"Point","coordinates":[-81.03,34.94]}},{"properties":{"lon":-80.83,"size":200,"comments":"(GSP)","time":"2200","county":"MECKLENBURG","id":"a66p4w615cf1","lat":35.17,"state":"NC","location":"2 S CHARLOTTE"},"type":"Feature","geometry":{"type":"Point","coordinates":[-80.83,35.17]}},{"properties":{"lon":-81.54,"size":100,"comments":"QUARTER SIZE HAIL AT CLEVELAND COUNTY HOSPITAL. (GSP)","time":"2201","county":"CLEVELAND","id":"a66p4wek6chd","lat":35.29,"state":"NC","location":"SHELBY"},"type":"Feature","geometry":{"type":"Point","coordinates":[-81.54,35.29]}},{"properties":{"lon":-81.07,"size":100,"comments":"NEAR REESE STREET AND BARTLETT STREET. (GSP)","time":"2204","county":"GASTON","id":"a66p4wkxcvab","lat":35.27,"state":"NC","location":"3 SW MOUNT HOLLY"},"type":"Feature","geometry":{"type":"Point","coordinates":[-81.07,35.27]}},{"properties":{"lon":-82.15,"size":100,"comments":"(GSP)","time":"2205","county":"LAURENS","id":"a66p4w9yghsi","lat":34.56,"state":"SC","location":"3 NE HICKORY TAVERN"},"type":"Feature","geometry":{"type":"Point","coordinates":[-82.15,34.56]}},{"properties":{"lon":-82.75,"size":175,"comments":"GOLF BALL SIZE HAIL...REPORTED BY DISPATCH. (MRX)","time":"2205","county":"GREENE","id":"a66p4whb6hft","lat":36.18,"state":"TN","location":"TUSCULUM"},"type":"Feature","geometry":{"type":"Point","coordinates":[-82.75,36.18]}},{"properties":{"lon":-80.84,"size":125,"comments":"HAIL REPORTED...BIGGER THAN QUARTER SIZED BUT SMALLER THAN GOLFBALL SIZED...AT INDIAN LAND AMOCO. ALSO...SEVERAL CARS WITH BROKEN WINDSHIELDS. (CAE)","time":"2209","county":"LANCASTER","id":"a66p4wdhtl2m","lat":34.95,"state":"SC","location":"16 NNW LANCASTER"},"type":"Feature","geometry":{"type":"Point","coordinates":[-80.84,34.95]}},{"properties":{"lon":-81.17,"size":100,"comments":"(GSP)","time":"2210","county":"GASTON","id":"a66p4wirhx5i","lat":35.25,"state":"NC","location":"GASTONIA"},"type":"Feature","geometry":{"type":"Point","coordinates":[-81.17,35.25]}},{"properties":{"lon":-81.69,"size":100,"comments":"ON OLD SHELBY ROAD. (GSP)","time":"2210","county":"BURKE","id":"a66p4w6usxnd","lat":35.73,"state":"NC","location":"1 SE MORGANTON"},"type":"Feature","geometry":{"type":"Point","coordinates":[-81.69,35.73]}},{"properties":{"lon":-81.7,"size":175,"comments":"(GSP)","time":"2210","county":"BURKE","id":"a66p4wj2xiho","lat":35.74,"state":"NC","location":"MORGANTON"},"type":"Feature","geometry":{"type":"Point","coordinates":[-81.7,35.74]}},{"properties":{"lon":-81.72,"size":125,"comments":"(GSP)","time":"2210","county":"BURKE","id":"a66p4w8stmdr","lat":35.76,"state":"NC","location":"2 NW MORGANTON"},"type":"Feature","geometry":{"type":"Point","coordinates":[-81.72,35.76]}},{"properties":{"lon":-82.41,"size":100,"comments":"QUARTER SIZE HAIL REPORTED BY SPOTTER. (MRX)","time":"2210","county":"UNICOI","id":"a66p4wky9ft4","lat":36.14,"state":"TN","location":"ERWIN"},"type":"Feature","geometry":{"type":"Point","coordinates":[-82.41,36.14]}},{"properties":{"lon":-82.12,"size":100,"comments":"(GSP)","time":"2211","county":"LAURENS","id":"a66p4wb1bt08","lat":34.52,"state":"SC","location":"4 E HICKORY TAVERN"},"type":"Feature","geometry":{"type":"Point","coordinates":[-82.12,34.52]}},{"properties":{"lon":-80.78,"size":175,"comments":"LANCASTER EMA REPORTED 3 SEPARATE EPISODES OF HAIL. GOLF BALL SIZED HAIL OCCURRED 615-630 PM. 1.5 TO 2.0 INCH HAIL OCCURRED 710-720 PM. PEA TO MARBLE SIZED OCCURRED 730 (CAE)","time":"2215","county":"LANCASTER","id":"a66p4w9fl1ge","lat":34.72,"state":"SC","location":"LANCASTER"},"type":"Feature","geometry":{"type":"Point","coordinates":[-80.78,34.72]}},{"properties":{"lon":-80.56,"size":175,"comments":"GOLF BALL SIZE HAIL COVERING THE GROUND REPORTED AT THE M AND R MINI MART. (CAE)","time":"2215","county":"LANCASTER","id":"a66p4w8r4133","lat":34.76,"state":"SC","location":"10 W PAGELAND"},"type":"Feature","geometry":{"type":"Point","coordinates":[-80.56,34.76]}},{"properties":{"lon":-80.85,"size":250,"comments":"HAM RADIO OPERATOR REPORTED TENNIS BALL SIZE HAIL 1 MILE SOUTH OF THE INTERSECTION OF STATE ROUTE 5 AND STATE ROUTE 75 NEAR VAN WYCK. (CAE)","time":"2215","county":"LANCASTER","id":"a66p4w9spd09","lat":34.83,"state":"SC","location":"9 NNW LANCASTER"},"type":"Feature","geometry":{"type":"Point","coordinates":[-80.85,34.83]}},{"properties":{"lon":-80.74,"size":150,"comments":"(GSP)","time":"2215","county":"UNION","id":"a66p4wi6fmxs","lat":34.84,"state":"NC","location":"6 S WAXHAW"},"type":"Feature","geometry":{"type":"Point","coordinates":[-80.74,34.84]}},{"properties":{"lon":-80.81,"size":200,"comments":"HAIL MEASURING 2.00 INCHES REPORTED AT ANDREW JACKSON STATE PARK. (CAE)","time":"2215","county":"LANCASTER","id":"a66p4wfiwrh7","lat":34.84,"state":"SC","location":"8 NNW LANCASTER"},"type":"Feature","geometry":{"type":"Point","coordinates":[-80.81,34.84]}},{"properties":{"lon":-81.37,"size":175,"comments":"(GSP)","time":"2215","county":"YORK","id":"a66p4wc0x0mq","lat":35.14,"state":"SC","location":"KINGS MOUNTAIN STATE PA"},"type":"Feature","geometry":{"type":"Point","coordinates":[-81.37,35.14]}},{"properties":{"lon":-81.69,"size":125,"comments":"ON SOUTH STERLING STREET IN MORGANTON. (GSP)","time":"2215","county":"BURKE","id":"a66p4w7asjhr","lat":35.73,"state":"NC","location":"1 SE MORGANTON"},"type":"Feature","geometry":{"type":"Point","coordinates":[-81.69,35.73]}},{"properties":{"lon":-81.7,"size":150,"comments":"(GSP)","time":"2215","county":"BURKE","id":"a66p4wkjgslc","lat":35.74,"state":"NC","location":"MORGANTON"},"type":"Feature","geometry":{"type":"Point","coordinates":[-81.7,35.74]}},{"properties":{"lon":-83.58,"size":100,"comments":"QUARTER SIZE HAIL REPORTED BY PUBLIC. (MRX)","time":"2225","county":"SEVIER","id":"a66p4wjqtbcz","lat":35.98,"state":"TN","location":"6 N SEVIERVILLE"},"type":"Feature","geometry":{"type":"Point","coordinates":[-83.58,35.98]}},{"properties":{"lon":-80.62,"size":150,"comments":"PUBLIC REPORTED 1.50 INCH HAIL THAT COVERED THE GROUND AT THE EXPRESS MART. (CAE)","time":"2227","county":"LANCASTER","id":"a66p4wcra37u","lat":34.75,"state":"SC","location":"9 ENE LANCASTER"},"type":"Feature","geometry":{"type":"Point","coordinates":[-80.62,34.75]}},{"properties":{"lon":-80.78,"size":100,"comments":"(CAE)","time":"2230","county":"LANCASTER","id":"a66p4wetlvkn","lat":34.72,"state":"SC","location":"LANCASTER"},"type":"Feature","geometry":{"type":"Point","coordinates":[-80.78,34.72]}},{"properties":{"lon":-80.74,"size":175,"comments":"(GSP)","time":"2230","county":"UNION","id":"a66p4wfxdryn","lat":34.92,"state":"NC","location":"WAXHAW"},"type":"Feature","geometry":{"type":"Point","coordinates":[-80.74,34.92]}},{"properties":{"lon":-82.3,"size":100,"comments":"(GSP)","time":"2230","county":"YANCEY","id":"a66p4wdeevd7","lat":35.92,"state":"NC","location":"BURNSVILLE"},"type":"Feature","geometry":{"type":"Point","coordinates":[-82.3,35.92]}},{"properties":{"lon":-81.14,"size":250,"comments":"SECOND ROUND OF HAIL AT HW-55 AND S KINGSBURY RD. (GSP)","time":"2235","county":"YORK","id":"a66p4wgq8q60","lat":35.09,"state":"SC","location":"5 WSW LAKE WYLIE"},"type":"Feature","geometry":{"type":"Point","coordinates":[-81.14,35.09]}},{"properties":{"lon":-81.56,"size":175,"comments":"(GSP)","time":"2240","county":"BURKE","id":"a66p4wb77rir","lat":35.75,"state":"NC","location":"VALDESE"},"type":"Feature","geometry":{"type":"Point","coordinates":[-81.56,35.75]}},{"properties":{"lon":-91.12,"size":125,"comments":"QUARTER TO HALF DOLLAR SIZE HAIL WAS COVERING THE GROUND (MPX)","time":"2245","county":"CHIPPEWA","id":"a66p4wirv3it","lat":45.28,"state":"WI","location":"4 N HOLCOMBE"},"type":"Feature","geometry":{"type":"Point","coordinates":[-91.12,45.28]}},{"properties":{"lon":-82.61,"size":175,"comments":"(GSP)","time":"2248","county":"MADISON","id":"a66p4wbdu0os","lat":35.93,"state":"NC","location":"5 WNW FAUST"},"type":"Feature","geometry":{"type":"Point","coordinates":[-82.61,35.93]}},{"properties":{"lon":-81.24,"size":175,"comments":"HW-279 AND PUETTS CHAPEL RD (GSP)","time":"2249","county":"GASTON","id":"a66p4w8t0fju","lat":35.35,"state":"NC","location":"4 WNW DALLAS"},"type":"Feature","geometry":{"type":"Point","coordinates":[-81.24,35.35]}},{"properties":{"lon":-81.03,"size":175,"comments":"ON WALNUT STREET IN ROCK HILL. (GSP)","time":"2250","county":"YORK","id":"a66p4wad5chw","lat":34.94,"state":"SC","location":"ROCK HILL"},"type":"Feature","geometry":{"type":"Point","coordinates":[-81.03,34.94]}},{"properties":{"lon":-82.55,"size":100,"comments":"(GSP)","time":"2250","county":"MADISON","id":"a66p4wd94zz7","lat":35.83,"state":"NC","location":"MARS HILL"},"type":"Feature","geometry":{"type":"Point","coordinates":[-82.55,35.83]}},{"properties":{"lon":-80.72,"size":125,"comments":"(CAE)","time":"2253","county":"LANCASTER","id":"a66p4wkbn1lb","lat":34.75,"state":"SC","location":"LANCASTER"},"type":"Feature","geometry":{"type":"Point","coordinates":[-80.72,34.75]}},{"properties":{"lon":-80.86,"size":200,"comments":"(CAE)","time":"2258","county":"LANCASTER","id":"a66p4wfy515e","lat":35.0,"state":"SC","location":"PLEASANT VALLEY"},"type":"Feature","geometry":{"type":"Point","coordinates":[-80.86,35.0]}},{"properties":{"lon":-80.37,"size":175,"comments":"PUBLIC REPORTED HAIL UP TO GOLF BALL SIZE AT THE EZ QUICK MART. (CAE)","time":"2300","county":"CHESTERFIELD","id":"a66p4wdch2vo","lat":34.57,"state":"SC","location":"6 S JEFFERSON"},"type":"Feature","geometry":{"type":"Point","coordinates":[-80.37,34.57]}},{"properties":{"lon":-80.67,"size":125,"comments":"COCORAHS OBSERVER REPORTED HALF DOLLAR SIZE HAIL. (GSP)","time":"2300","county":"UNION","id":"a66p4wfsfa6r","lat":34.99,"state":"NC","location":"6 NE WAXHAW"},"type":"Feature","geometry":{"type":"Point","coordinates":[-80.67,34.99]}},{"properties":{"lon":-82.01,"size":250,"comments":"FIREMANS PERSONAL TRUCK DAMAGED BY TENNIS BALL SIZE HAIL","time":"2300","county":"MCDOWELL","id":"a66p4wehabc0","lat":35.67,"state":"NC","location":"1 S MARION"},"type":"Feature","geometry":{"type":"Point","coordinates":[-82.01,35.67]}},{"properties":{"lon":-80.97,"size":100,"comments":"HARMONY CHURCH RD NEAR EDGEMOOR (GSP)","time":"2302","county":"CHESTER","id":"a66p4wlsxdhf","lat":34.81,"state":"SC","location":"5 SW CATAWBA"},"type":"Feature","geometry":{"type":"Point","coordinates":[-80.97,34.81]}},{"properties":{"lon":-80.54,"size":100,"comments":"(GSP)","time":"2302","county":"UNION","id":"a66p4w7g091q","lat":34.9,"state":"NC","location":"6 S MONROE"},"type":"Feature","geometry":{"type":"Point","coordinates":[-80.54,34.9]}},{"properties":{"lon":-82.02,"size":100,"comments":"COCORAHS REPORT (GSP)","time":"2303","county":"MCDOWELL","id":"a66p4w9t49ar","lat":35.71,"state":"NC","location":"2 NNW MARION"},"type":"Feature","geometry":{"type":"Point","coordinates":[-82.02,35.71]}},{"properties":{"lon":-82.03,"size":100,"comments":"COCORAHS OBSERVER (GSP)","time":"2303","county":"MCDOWELL","id":"a66p4wb9w4rg","lat":35.71,"state":"NC","location":"2 NNW MARION"},"type":"Feature","geometry":{"type":"Point","coordinates":[-82.03,35.71]}},{"properties":{"lon":-81.98,"size":150,"comments":"(GSP)","time":"2306","county":"MCDOWELL","id":"a66p4wa84h7g","lat":35.65,"state":"NC","location":"3 SE MARION"},"type":"Feature","geometry":{"type":"Point","coordinates":[-81.98,35.65]}},{"properties":{"lon":-80.78,"size":175,"comments":"SPOTTER REPORTS GOLF BALL SIZED HAIL IN LANCASTER (CAE)","time":"2307","county":"LANCASTER","id":"a66p4w5yqmb9","lat":34.72,"state":"SC","location":"LANCASTER"},"type":"Feature","geometry":{"type":"Point","coordinates":[-80.78,34.72]}},{"properties":{"lon":-80.8,"size":175,"comments":"COUNTY EM MEASURED GOLF BALL SIZED HAIL WITH DENTS COVERING HIS VEHICLE AND OTHERS. (CAE)","time":"2310","county":"LANCASTER","id":"a66p4wacwfje","lat":34.82,"state":"SC","location":"7 N LANCASTER"},"type":"Feature","geometry":{"type":"Point","coordinates":[-80.8,34.82]}},{"properties":{"lon":-82.01,"size":175,"comments":"(GSP)","time":"2310","county":"MCDOWELL","id":"a66p4whhc0gf","lat":35.68,"state":"NC","location":"MARION"},"type":"Feature","geometry":{"type":"Point","coordinates":[-82.01,35.68]}},{"properties":{"lon":-81.7,"size":200,"comments":"(GSP)","time":"2310","county":"BURKE","id":"a66p4wjldnjy","lat":35.74,"state":"NC","location":"MORGANTON"},"type":"Feature","geometry":{"type":"Point","coordinates":[-81.7,35.74]}},{"properties":{"lon":-83.15,"size":150,"comments":"PING PONG BALL SIZE HAIL AT HARTFORD. REPORTED BY SPOTTER. (MRX)","time":"2310","county":"COCKE","id":"a66p4wa79dzu","lat":35.81,"state":"TN","location":"HARTFORD"},"type":"Feature","geometry":{"type":"Point","coordinates":[-83.15,35.81]}},{"properties":{"lon":-82.74,"size":150,"comments":"(GSP)","time":"2312","county":"MADISON","id":"a66p4wejkgpc","lat":35.85,"state":"NC","location":"WALNUT"},"type":"Feature","geometry":{"type":"Point","coordinates":[-82.74,35.85]}},{"properties":{"lon":-97.46,"size":175,"comments":"(OAX)","time":"2313","county":"MADISON","id":"a66p4waocifw","lat":41.83,"state":"NE","location":"MADISON"},"type":"Feature","geometry":{"type":"Point","coordinates":[-97.46,41.83]}},{"properties":{"lon":-80.72,"size":125,"comments":"(CAE)","time":"2315","county":"LANCASTER","id":"a66p4wjvbizu","lat":34.75,"state":"SC","location":"LANCASTER"},"type":"Feature","geometry":{"type":"Point","coordinates":[-80.72,34.75]}},{"properties":{"lon":-95.79,"size":175,"comments":"(OAX)","time":"2317","county":"MONONA","id":"a66p4wh00465","lat":42.14,"state":"IA","location":"2 S MAPLETON"},"type":"Feature","geometry":{"type":"Point","coordinates":[-95.79,42.14]}},{"properties":{"lon":-97.31,"size":100,"comments":"(OAX)","time":"2319","county":"WAYNE","id":"a66p4w9ii5x9","lat":42.28,"state":"NE","location":"6 W CARROLL"},"type":"Feature","geometry":{"type":"Point","coordinates":[-97.31,42.28]}},{"properties":{"lon":-80.98,"size":175,"comments":"I-77/I-485 AREA (GSP)","time":"2320","county":"MECKLENBURG","id":"a66p4wk8dtfz","lat":35.14,"state":"NC","location":"5 ENE LAKE WYLIE"},"type":"Feature","geometry":{"type":"Point","coordinates":[-80.98,35.14]}},{"properties":{"lon":-82.4,"size":100,"comments":"QUARTER HAIL. TREE DOWN ON CRAGGY GARDENS ROAD. (GSP)","time":"2320","county":"BUNCOMBE","id":"a66p4wh3ll19","lat":35.74,"state":"NC","location":"4 SE BARNARDSVILLE"},"type":"Feature","geometry":{"type":"Point","coordinates":[-82.4,35.74]}},{"properties":{"lon":-82.3,"size":125,"comments":"HAIL QUARTER TO HALF DOLLAR NEAR LAUREL RIDGE. (GSP)","time":"2320","county":"YANCEY","id":"a66p4wgj1xa5","lat":35.8,"state":"NC","location":"8 S BURNSVILLE"},"type":"Feature","geometry":{"type":"Point","coordinates":[-82.3,35.8]}},{"properties":{"lon":-97.42,"size":175,"comments":"(OAX)","time":"2320","county":"MADISON","id":"a66p4wi5opne","lat":42.03,"state":"NE","location":"NORFOLK"},"type":"Feature","geometry":{"type":"Point","coordinates":[-97.42,42.03]}},{"properties":{"lon":-97.42,"size":125,"comments":"UP TO HALF DOLLAR SIZE HAIL ON BENJAMIN AVE. VIA NANCE COUNTY EM. (OAX)","time":"2321","county":"MADISON","id":"a66p4wa7t9ed","lat":42.03,"state":"NE","location":"NORFOLK"},"type":"Feature","geometry":{"type":"Point","coordinates":[-97.42,42.03]}},{"properties":{"lon":-80.26,"size":175,"comments":"MCBEE POLICE DEPARTMENT REPORTED GOLF BALL SIZE HAIL IN MCBEE. (CAE)","time":"2325","county":"CHESTERFIELD","id":"a66p4wh8dctn","lat":34.47,"state":"SC","location":"E MCBEE"},"type":"Feature","geometry":{"type":"Point","coordinates":[-80.26,34.47]}},{"properties":{"lon":-80.71,"size":100,"comments":"(GSP)","time":"2330","county":"MECKLENBURG","id":"a66p4wefyslg","lat":35.12,"state":"NC","location":"MATTHEWS"},"type":"Feature","geometry":{"type":"Point","coordinates":[-80.71,35.12]}},{"properties":{"lon":-81.66,"size":100,"comments":"(GSP)","time":"2330","county":"CLEVELAND","id":"a66p4wcyycpl","lat":35.48,"state":"NC","location":"3 SW CASAR"},"type":"Feature","geometry":{"type":"Point","coordinates":[-81.66,35.48]}},{"properties":{"lon":-96.16,"size":100,"comments":"(OAX)","time":"2332","county":"MONONA","id":"a66p4wc7sbpa","lat":42.14,"state":"IA","location":"1 NNW WHITING"},"type":"Feature","geometry":{"type":"Point","coordinates":[-96.16,42.14]}},{"properties":{"lon":-82.18,"size":100,"comments":"(GSP)","time":"2333","county":"MCDOWELL","id":"a66p4wf5bxkr","lat":35.63,"state":"NC","location":"OLD FORT"},"type":"Feature","geometry":{"type":"Point","coordinates":[-82.18,35.63]}},{"properties":{"lon":-96.14,"size":100,"comments":"(OAX)","time":"2333","county":"MONONA","id":"a66p4wjqcw2a","lat":42.12,"state":"IA","location":"1 SE WHITING"},"type":"Feature","geometry":{"type":"Point","coordinates":[-96.14,42.12]}},{"properties":{"lon":-80.1,"size":125,"comments":"HALF DOLLAR SIZE HAIL COVERING GROUND (ILM)","time":"2335","county":"DARLINGTON","id":"a66p4wcs9xhm","lat":34.38,"state":"SC","location":"1 NW HARTSVILLE"},"type":"Feature","geometry":{"type":"Point","coordinates":[-80.1,34.38]}},{"properties":{"lon":-97.85,"size":175,"comments":"(OAX)","time":"2336","county":"BOONE","id":"a66p4whht99y","lat":41.75,"state":"NE","location":"4 W NEWMAN GROVE"},"type":"Feature","geometry":{"type":"Point","coordinates":[-97.85,41.75]}},{"properties":{"lon":-96.16,"size":125,"comments":"(OAX)","time":"2336","county":"MONONA","id":"a66p4w7hlidd","lat":42.14,"state":"IA","location":"1 NNW WHITING"},"type":"Feature","geometry":{"type":"Point","coordinates":[-96.16,42.14]}},{"properties":{"lon":-97.82,"size":100,"comments":"(OAX)","time":"2338","county":"MADISON","id":"a66p4w6e3ezw","lat":41.75,"state":"NE","location":"2 W NEWMAN GROVE"},"type":"Feature","geometry":{"type":"Point","coordinates":[-97.82,41.75]}},{"properties":{"lon":-80.16,"size":100,"comments":"(ILM)","time":"2339","county":"DARLINGTON","id":"a66p4wfnk2x3","lat":34.43,"state":"SC","location":"6 NW HARTSVILLE"},"type":"Feature","geometry":{"type":"Point","coordinates":[-80.16,34.43]}},{"properties":{"lon":-80.59,"size":150,"comments":"STORM CHASER AND METEOROLOGIST REPORTED 1.50 INCH HAIL IN THE TOWN OF KERSHAW. (CAE)","time":"2340","county":"LANCASTER","id":"a66p4wdopjmy","lat":34.55,"state":"SC","location":"KERSHAW"},"type":"Feature","geometry":{"type":"Point","coordinates":[-80.59,34.55]}},{"properties":{"lon":-96.29,"size":100,"comments":"AT THE JUNCTION OF 290TH AVE AND K45 (FSD)","time":"2340","county":"WOODBURY","id":"a66p4w7hx6zt","lat":42.31,"state":"IA","location":"SALIX"},"type":"Feature","geometry":{"type":"Point","coordinates":[-96.29,42.31]}},{"properties":{"lon":-81.54,"size":100,"comments":"HW-226 FERNDALE (GSP)","time":"2342","county":"CLEVELAND","id":"a66p4wckk8z2","lat":35.4,"state":"NC","location":"8 N SHELBY"},"type":"Feature","geometry":{"type":"Point","coordinates":[-81.54,35.4]}},{"properties":{"lon":-96.1,"size":150,"comments":"(OAX)","time":"2343","county":"MONONA","id":"a66p4whb2hqm","lat":42.17,"state":"IA","location":"4 NE WHITING"},"type":"Feature","geometry":{"type":"Point","coordinates":[-96.1,42.17]}},{"properties":{"lon":-80.35,"size":175,"comments":"GOLF BALL SIZE HAIL REPORTED AT THE MINI MART IN BETHUNE. WINDSHIELD BROKE ON A CAR. (CAE)","time":"2345","county":"KERSHAW","id":"a66p4wci2tud","lat":34.41,"state":"SC","location":"BETHUNE"},"type":"Feature","geometry":{"type":"Point","coordinates":[-80.35,34.41]}},{"properties":{"lon":-96.29,"size":100,"comments":"(FSD)","time":"2346","county":"WOODBURY","id":"a66p4wdqaa7j","lat":42.31,"state":"IA","location":"SALIX"},"type":"Feature","geometry":{"type":"Point","coordinates":[-96.29,42.31]}},{"properties":{"lon":-80.59,"size":100,"comments":"(GSP)","time":"2347","county":"CABARRUS","id":"a66p4wlqap4v","lat":35.41,"state":"NC","location":"CONCORD"},"type":"Feature","geometry":{"type":"Point","coordinates":[-80.59,35.41]}},{"properties":{"lon":-80.21,"size":100,"comments":"LOCAL FARMER REPORTED HAIL DAMAGE TO STRAWBERRY FIELDS AND PEACHES KNOCKED OFF TREES (CAE)","time":"2348","county":"CHESTERFIELD","id":"a66p4w8ln65c","lat":34.45,"state":"SC","location":"3 ESE MCBEE"},"type":"Feature","geometry":{"type":"Point","coordinates":[-80.21,34.45]}},{"properties":{"lon":-96.29,"size":100,"comments":"MARBLE TO QUARTER SIZE HAIL (FSD)","time":"2349","county":"WOODBURY","id":"a66p4w92wzif","lat":42.31,"state":"IA","location":"SALIX"},"type":"Feature","geometry":{"type":"Point","coordinates":[-96.29,42.31]}},{"properties":{"lon":-81.54,"size":125,"comments":"(GSP)","time":"2350","county":"CLEVELAND","id":"a66p4whk2jvr","lat":35.29,"state":"NC","location":"SHELBY"},"type":"Feature","geometry":{"type":"Point","coordinates":[-81.54,35.29]}},{"properties":{"lon":-98.2,"size":100,"comments":"(FSD)","time":"2350","county":"CHARLES MIX","id":"a66p4we9qjvi","lat":43.05,"state":"SD","location":"1 NW DANTE"},"type":"Feature","geometry":{"type":"Point","coordinates":[-98.2,43.05]}},{"properties":{"lon":-82.78,"size":175,"comments":"GOLF BALL SIZE HAIL REPORTED ON SWEETWATER DR. (GSP)","time":"2352","county":"HAYWOOD","id":"a66p4wlitjfa","lat":35.56,"state":"NC","location":"4 ENE CANTON"},"type":"Feature","geometry":{"type":"Point","coordinates":[-82.78,35.56]}},{"properties":{"lon":-80.18,"size":100,"comments":"QUARTER SIZE HAIL COVERING THE GROUND. (ILM)","time":"2353","county":"DARLINGTON","id":"a66p4wdeohto","lat":34.38,"state":"SC","location":"CLYDE"},"type":"Feature","geometry":{"type":"Point","coordinates":[-80.18,34.38]}},{"properties":{"lon":-81.52,"size":125,"comments":"(GSP)","time":"2354","county":"CLEVELAND","id":"a66p4weuoeuo","lat":35.22,"state":"NC","location":"5 SSE SHELBY"},"type":"Feature","geometry":{"type":"Point","coordinates":[-81.52,35.22]}},{"properties":{"lon":-80.18,"size":125,"comments":"HALF DOLLAR SIZE HAIL (ILM)","time":"2355","county":"DARLINGTON","id":"a66p4w8zpjyc","lat":34.38,"state":"SC","location":"CLYDE"},"type":"Feature","geometry":{"type":"Point","coordinates":[-80.18,34.38]}},{"properties":{"lon":-82.01,"size":175,"comments":"GUTTER DAMAGED AND CAR WINDSHIELD SMASHED OUT (GSP)","time":"0000","county":"RUTHERFORD","id":"a66p4wb0at03","lat":35.41,"state":"NC","location":"4 NW RUTHERFORDTON"},"type":"Feature","geometry":{"type":"Point","coordinates":[-82.01,35.41]}},{"properties":{"lon":-95.93,"size":125,"comments":"(FSD)","time":"0000","county":"WOODBURY","id":"a66p4wkpd6zi","lat":42.23,"state":"IA","location":"SMITHLAND"},"type":"Feature","geometry":{"type":"Point","coordinates":[-95.93,42.23]}},{"properties":{"lon":-80.2,"size":100,"comments":"(ILM)","time":"0001","county":"DARLINGTON","id":"a66p4w90jc6t","lat":34.41,"state":"SC","location":"7 WNW HARTSVILLE"},"type":"Feature","geometry":{"type":"Point","coordinates":[-80.2,34.41]}},{"properties":{"lon":-80.15,"size":175,"comments":"(ILM)","time":"0002","county":"DARLINGTON","id":"a66p4weyo4ar","lat":34.35,"state":"SC","location":"4 WSW HARTSVILLE"},"type":"Feature","geometry":{"type":"Point","coordinates":[-80.15,34.35]}},{"properties":{"lon":-80.15,"size":275,"comments":"BASEBALL SIZE HAIL ON LAKE ROBINSON. PUBLIC REPORT RELAYED BY MEDIA. (ILM)","time":"0005","county":"DARLINGTON","id":"a66p4wgqxip2","lat":34.4,"state":"SC","location":"2 NE CLYDE"},"type":"Feature","geometry":{"type":"Point","coordinates":[-80.15,34.4]}},{"properties":{"lon":-80.21,"size":175,"comments":"THE EMERGENCY MANAGER REPORTED GOLF BALL SIZE HAIL COVERING THE GROUND ON HIGHWAY 15 AT THE LYNCHES RIVER BRIDGE. (CAE)","time":"0008","county":"LEE","id":"a66p4w7xbwne","lat":34.25,"state":"SC","location":"3 NE BISHOPVILLE"},"type":"Feature","geometry":{"type":"Point","coordinates":[-80.21,34.25]}},{"properties":{"lon":-79.87,"size":100,"comments":"HAIL COVERING GROUND (ILM)","time":"0008","county":"DARLINGTON","id":"a66p4wbdmcya","lat":34.32,"state":"SC","location":"1 N DARLINGTON"},"type":"Feature","geometry":{"type":"Point","coordinates":[-79.87,34.32]}},{"properties":{"lon":-97.52,"size":100,"comments":"RELAYED BY STANTON CO (OAX)","time":"0010","county":"MADISON","id":"a66p4wgbxtm4","lat":42.03,"state":"NE","location":"5 W NORFOLK"},"type":"Feature","geometry":{"type":"Point","coordinates":[-97.52,42.03]}},{"properties":{"lon":-81.78,"size":200,"comments":"ALONG HW-74 (GSP)","time":"0013","county":"RUTHERFORD","id":"a66p4wgpfkr3","lat":35.31,"state":"NC","location":"2 SW ELLENBORO"},"type":"Feature","geometry":{"type":"Point","coordinates":[-81.78,35.31]}},{"properties":{"lon":-97.49,"size":175,"comments":"(OAX)","time":"0013","county":"MADISON","id":"a66p4wlp6uca","lat":41.98,"state":"NE","location":"5 SW NORFOLK"},"type":"Feature","geometry":{"type":"Point","coordinates":[-97.49,41.98]}},{"properties":{"lon":-81.23,"size":175,"comments":"(GSP)","time":"0014","county":"YORK","id":"a66p4wh94cgm","lat":35.11,"state":"SC","location":"CLOVER"},"type":"Feature","geometry":{"type":"Point","coordinates":[-81.23,35.11]}},{"properties":{"lon":-80.07,"size":200,"comments":"(ILM)","time":"0015","county":"DARLINGTON","id":"a66p4w8rsbrf","lat":34.17,"state":"SC","location":"LAMAR"},"type":"Feature","geometry":{"type":"Point","coordinates":[-80.07,34.17]}},{"properties":{"lon":-82.65,"size":175,"comments":"(GSP)","time":"0016","county":"MADISON","id":"a66p4w5uzokd","lat":35.83,"state":"NC","location":"3 NE MARSHALL"},"type":"Feature","geometry":{"type":"Point","coordinates":[-82.65,35.83]}},{"properties":{"lon":-97.17,"size":100,"comments":"(OAX)","time":"0016","county":"WAYNE","id":"a66p4wevxd1g","lat":42.24,"state":"NE","location":"4 N WINSIDE"},"type":"Feature","geometry":{"type":"Point","coordinates":[-97.17,42.24]}},{"properties":{"lon":-95.79,"size":175,"comments":"(OAX)","time":"0017","county":"MONONA","id":"a66p4whtgoai","lat":42.14,"state":"IA","location":"2 S MAPLETON"},"type":"Feature","geometry":{"type":"Point","coordinates":[-95.79,42.14]}},{"properties":{"lon":-97.31,"size":100,"comments":"(OAX)","time":"0019","county":"WAYNE","id":"a66p4wdws7n9","lat":42.28,"state":"NE","location":"6 W CARROLL"},"type":"Feature","geometry":{"type":"Point","coordinates":[-97.31,42.28]}},{"properties":{"lon":-81.24,"size":175,"comments":"(GSP)","time":"0020","county":"YORK","id":"a66p4wcz9icr","lat":35.0,"state":"SC","location":"YORK"},"type":"Feature","geometry":{"type":"Point","coordinates":[-81.24,35.0]}},{"properties":{"lon":-97.42,"size":175,"comments":"(OAX)","time":"0020","county":"MADISON","id":"a66p4wgl66ct","lat":42.03,"state":"NE","location":"NORFOLK"},"type":"Feature","geometry":{"type":"Point","coordinates":[-97.42,42.03]}},{"properties":{"lon":-97.42,"size":125,"comments":"UP TO HALF DOLLAR SIZE HAIL ON BENJAMIN AVE. VIA NANCE COUNTY EM. (OAX)","time":"0021","county":"MADISON","id":"a66p4wlm6y9s","lat":42.03,"state":"NE","location":"NORFOLK"},"type":"Feature","geometry":{"type":"Point","coordinates":[-97.42,42.03]}},{"properties":{"lon":-97.26,"size":175,"comments":"(OAX)","time":"0022","county":"CEDAR","id":"a66p4wexwjdq","lat":42.62,"state":"NE","location":"HARTINGTON"},"type":"Feature","geometry":{"type":"Point","coordinates":[-97.26,42.62]}},{"properties":{"lon":-97.42,"size":300,"comments":"(OAX)","time":"0023","county":"MADISON","id":"a66p4weipoo5","lat":42.03,"state":"NE","location":"NORFOLK"},"type":"Feature","geometry":{"type":"Point","coordinates":[-97.42,42.03]}},{"properties":{"lon":-79.85,"size":175,"comments":"(ILM)","time":"0024","county":"FLORENCE","id":"a66p4wepe44j","lat":34.2,"state":"SC","location":"4 WNW FLORENCE"},"type":"Feature","geometry":{"type":"Point","coordinates":[-79.85,34.2]}},{"properties":{"lon":-97.16,"size":100,"comments":"(OAX)","time":"0027","county":"BUTLER","id":"a66p4war3s7d","lat":41.34,"state":"NE","location":"4 E BELLWOOD"},"type":"Feature","geometry":{"type":"Point","coordinates":[-97.16,41.34]}},{"properties":{"lon":-97.26,"size":175,"comments":"(OAX)","time":"0028","county":"CEDAR","id":"a66p4wew5g3i","lat":42.65,"state":"NE","location":"2 N HARTINGTON"},"type":"Feature","geometry":{"type":"Point","coordinates":[-97.26,42.65]}},{"properties":{"lon":-95.64,"size":100,"comments":"PEA TO QUARTER SIZE (FSD)","time":"0029","county":"IDA","id":"a66p4w7hta5p","lat":42.32,"state":"IA","location":"2 W BATTLE CREEK"},"type":"Feature","geometry":{"type":"Point","coordinates":[-95.64,42.32]}},{"properties":{"lon":-81.66,"size":175,"comments":"(GSP)","time":"0030","county":"CHEROKEE","id":"a66p4wkqqa98","lat":35.07,"state":"SC","location":"GAFFNEY"},"type":"Feature","geometry":{"type":"Point","coordinates":[-81.66,35.07]}},{"properties":{"lon":-81.62,"size":175,"comments":"NEAR THE INTERSECTION OF OLD MILL ROAD AND ROSS MILL ROAD. (GSP)","time":"0030","county":"CHEROKEE","id":"a66p4we6k9oj","lat":35.14,"state":"SC","location":"5 NNE GAFFNEY"},"type":"Feature","geometry":{"type":"Point","coordinates":[-81.62,35.14]}},{"properties":{"lon":-81.69,"size":175,"comments":"(GSP)","time":"0030","county":"CLEVELAND","id":"a66p4wa5loee","lat":35.22,"state":"NC","location":"2 SSW BOILING SPRINGS N"},"type":"Feature","geometry":{"type":"Point","coordinates":[-81.69,35.22]}},{"properties":{"lon":-97.95,"size":100,"comments":"HAIL FELL FOR ABOUT 20 MINUTES. LARGEST HAILSTONES WERE QUARTER SIZE. (FSD)","time":"0030","county":"HUTCHINSON","id":"a66p4w70i9sn","lat":43.33,"state":"SD","location":"4 SSE PARKSTON"},"type":"Feature","geometry":{"type":"Point","coordinates":[-97.95,43.33]}},{"properties":{"lon":-97.12,"size":175,"comments":"(OAX)","time":"0033","county":"COLFAX","id":"a66p4wafdp42","lat":41.62,"state":"NE","location":"7 S CLARKSON"},"type":"Feature","geometry":{"type":"Point","coordinates":[-97.12,41.62]}},{"properties":{"lon":-95.66,"size":150,"comments":"(FSD)","time":"0033","county":"IDA","id":"a66p4wh0je4o","lat":42.32,"state":"IA","location":"3 W BATTLE CREEK"},"type":"Feature","geometry":{"type":"Point","coordinates":[-95.66,42.32]}},{"properties":{"lon":-97.42,"size":300,"comments":"(OAX)","time":"0034","county":"MADISON","id":"a66p4wjefeo7","lat":42.03,"state":"NE","location":"NORFOLK"},"type":"Feature","geometry":{"type":"Point","coordinates":[-97.42,42.03]}},{"properties":{"lon":-81.87,"size":100,"comments":"(GSP)","time":"0035","county":"RUTHERFORD","id":"a66p4wefjemm","lat":35.34,"state":"NC","location":"FOREST CITY"},"type":"Feature","geometry":{"type":"Point","coordinates":[-81.87,35.34]}},{"properties":{"lon":-81.66,"size":175,"comments":"(GSP)","time":"0038","county":"CHEROKEE","id":"a66p4wajht5d","lat":35.07,"state":"SC","location":"GAFFNEY"},"type":"Feature","geometry":{"type":"Point","coordinates":[-81.66,35.07]}},{"properties":{"lon":-97.15,"size":100,"comments":"(OAX)","time":"0038","county":"WAYNE","id":"a66p4weo6j9a","lat":42.18,"state":"NE","location":"1 E WINSIDE"},"type":"Feature","geometry":{"type":"Point","coordinates":[-97.15,42.18]}},{"properties":{"lon":-80.02,"size":100,"comments":"SHERIFF DISPATCH REPORTED QUARTER SIZE HAIL JUST NORTH OF TURBEVILLE. (CAE)","time":"0043","county":"CLARENDON","id":"a66p4wlmso7b","lat":33.9,"state":"SC","location":"1 N TURBEVILLE"},"type":"Feature","geometry":{"type":"Point","coordinates":[-80.02,33.9]}},{"properties":{"lon":-81.67,"size":275,"comments":"DAMAGE TO ROOF IN GRASSY POND AREA (GSP)","time":"0043","county":"CHEROKEE","id":"a66p4wk416p8","lat":35.14,"state":"SC","location":"5 N GAFFNEY"},"type":"Feature","geometry":{"type":"Point","coordinates":[-81.67,35.14]}},{"properties":{"lon":-99.07,"size":100,"comments":"HAIL COVERED THE GROUND WITH THE LARGEST UP TO 1 INCH IN DIAMETER. (DDC)","time":"0044","county":"EDWARDS","id":"a66p4wkjsiw6","lat":37.87,"state":"KS","location":"5 N TROUSDALE"},"type":"Feature","geometry":{"type":"Point","coordinates":[-99.07,37.87]}},{"properties":{"lon":-81.02,"size":150,"comments":"QUARTER TO PING PONG BALL SIZED HAIL. (GSP)","time":"0045","county":"CHESTER","id":"a66p4w75il6b","lat":34.72,"state":"SC","location":"RICHBURG"},"type":"Feature","geometry":{"type":"Point","coordinates":[-81.02,34.72]}},{"properties":{"lon":-97.11,"size":100,"comments":"(FSD)","time":"0050","county":"CLAY","id":"a66p4whe7xld","lat":43.01,"state":"SD","location":"WAKONDA"},"type":"Feature","geometry":{"type":"Point","coordinates":[-97.11,43.01]}},{"properties":{"lon":-95.47,"size":150,"comments":"(FSD)","time":"0057","county":"IDA","id":"a66p4w5nxzsc","lat":42.34,"state":"IA","location":"IDA GROVE"},"type":"Feature","geometry":{"type":"Point","coordinates":[-95.47,42.34]}},{"properties":{"lon":-97.87,"size":100,"comments":"(FSD)","time":"0100","county":"HUTCHINSON","id":"a66p4whhtpmh","lat":43.48,"state":"SD","location":"6 E DIMOCK"},"type":"Feature","geometry":{"type":"Point","coordinates":[-97.87,43.48]}},{"properties":{"lon":-96.87,"size":125,"comments":"(OAX)","time":"0103","county":"WAYNE","id":"a66p4wdf1uyu","lat":42.2,"state":"NE","location":"5 S WAKEFIELD"},"type":"Feature","geometry":{"type":"Point","coordinates":[-96.87,42.2]}},{"properties":{"lon":-80.85,"size":175,"comments":"PUBLIC REPORTED GOLF BALL SIZE HAIL NEAR HIGHWAY 200 AND LLOYD REID ROAD. (CAE)","time":"0105","county":"LANCASTER","id":"a66p4w720se6","lat":34.62,"state":"SC","location":"6 SSW IRWIN"},"type":"Feature","geometry":{"type":"Point","coordinates":[-80.85,34.62]}},{"properties":{"lon":-98.87,"size":100,"comments":"(DDC)","time":"0105","county":"STAFFORD","id":"a66p4wd9fznw","lat":38.06,"state":"KS","location":"6 N DILLWYN"},"type":"Feature","geometry":{"type":"Point","coordinates":[-98.87,38.06]}},{"properties":{"lon":-79.79,"size":100,"comments":"(ILM)","time":"0106","county":"WILLIAMSBURG","id":"a66p4wehc05v","lat":33.77,"state":"SC","location":"1 SW CADES"},"type":"Feature","geometry":{"type":"Point","coordinates":[-79.79,33.77]}},{"properties":{"lon":-95.83,"size":100,"comments":"(FSD)","time":"0110","county":"WOODBURY","id":"a66p4w8s5pkw","lat":42.52,"state":"IA","location":"2 SE PIERSON"},"type":"Feature","geometry":{"type":"Point","coordinates":[-95.83,42.52]}},{"properties":{"lon":-80.75,"size":175,"comments":"GOLF BALL SIZE HAIL REPORTED IN LIBERTY HILL. (CAE)","time":"0115","county":"KERSHAW","id":"a66p4w8alyv9","lat":34.46,"state":"SC","location":"10 SSW HEATH SPRINGS"},"type":"Feature","geometry":{"type":"Point","coordinates":[-80.75,34.46]}},{"properties":{"lon":-80.61,"size":275,"comments":"SHERIFF DISPATCH REPORTED HAIL BETWEEN GOLF BALL AND BASEBALL SIZE IN CAMDEN. REPORTS OF SEVERAL VEHICLES DAMAGED ALONG WITH TREES DOWN. (CAE)","time":"0117","county":"KERSHAW","id":"a66p4wkjlevb","lat":34.26,"state":"SC","location":"CAMDEN"},"type":"Feature","geometry":{"type":"Point","coordinates":[-80.61,34.26]}},{"properties":{"lon":-80.78,"size":175,"comments":"GOLF BALL SIZE HAIL REPORTED FOR 5 MINUTES AT THE RIVER DECK STORE ON LAKE WATEREE. HAIL DAMAGED THE CANOPY AT THE STORE AND COVERED THE GROUND. (CAE)","time":"0117","county":"KERSHAW","id":"a66p4wgzjy5k","lat":34.44,"state":"SC","location":"12 SSW HEATH SPRINGS"},"type":"Feature","geometry":{"type":"Point","coordinates":[-80.78,34.44]}},{"properties":{"lon":-81.23,"size":100,"comments":"(GSP)","time":"0117","county":"CHESTER","id":"a66p4wfv6be0","lat":34.76,"state":"SC","location":"4 NNW CHESTER"},"type":"Feature","geometry":{"type":"Point","coordinates":[-81.23,34.76]}},{"properties":{"lon":-95.36,"size":100,"comments":"(FSD)","time":"0119","county":"IDA","id":"a66p4we33bmn","lat":42.41,"state":"IA","location":"5 N ARTHUR"},"type":"Feature","geometry":{"type":"Point","coordinates":[-95.36,42.41]}},{"properties":{"lon":-98.72,"size":125,"comments":"(DDC)","time":"0120","county":"STAFFORD","id":"a66p4w80ud4p","lat":38.15,"state":"KS","location":"5 NW HUDSON"},"type":"Feature","geometry":{"type":"Point","coordinates":[-98.72,38.15]}},{"properties":{"lon":-98.75,"size":150,"comments":"(DDC)","time":"0122","county":"STAFFORD","id":"a66p4wgs7mtp","lat":38.16,"state":"KS","location":"3 ESE SEWARD"},"type":"Feature","geometry":{"type":"Point","coordinates":[-98.75,38.16]}},{"properties":{"lon":-98.77,"size":175,"comments":"PENNY TO GOLFBALL SIZE HAIL WAS COVERING THE ROAD. (DDC)","time":"0122","county":"STAFFORD","id":"a66p4wc271uu","lat":38.16,"state":"KS","location":"2 SE SEWARD"},"type":"Feature","geometry":{"type":"Point","coordinates":[-98.77,38.16]}},{"properties":{"lon":-81.18,"size":100,"comments":"(GSP)","time":"0123","county":"CHESTER","id":"a66p4wir2nj2","lat":34.72,"state":"SC","location":"2 ENE CHESTER"},"type":"Feature","geometry":{"type":"Point","coordinates":[-81.18,34.72]}},{"properties":{"lon":-81.79,"size":125,"comments":"(GSP)","time":"0125","county":"RUTHERFORD","id":"a66p4w8novga","lat":35.29,"state":"NC","location":"3 SW ELLENBORO"},"type":"Feature","geometry":{"type":"Point","coordinates":[-81.79,35.29]}},{"properties":{"lon":-81.58,"size":150,"comments":"(GSP)","time":"0130","county":"CHEROKEE","id":"a66p4wgla97y","lat":35.01,"state":"SC","location":"6 SE GAFFNEY"},"type":"Feature","geometry":{"type":"Point","coordinates":[-81.58,35.01]}},{"properties":{"lon":-98.57,"size":125,"comments":"(ICT)","time":"0134","county":"BARTON","id":"a66p4wb6vcfn","lat":38.27,"state":"KS","location":"6 S ELLINWOOD"},"type":"Feature","geometry":{"type":"Point","coordinates":[-98.57,38.27]}},{"properties":{"lon":-98.49,"size":150,"comments":"(ICT)","time":"0135","county":"BARTON","id":"a66p4wl38v7q","lat":38.28,"state":"KS","location":"7 SE ELLINWOOD"},"type":"Feature","geometry":{"type":"Point","coordinates":[-98.49,38.28]}},{"properties":{"lon":-98.58,"size":175,"comments":"REPORT RELAYED BY DISPATCH. (ICT)","time":"0136","county":"BARTON","id":"a66p4w6afzp9","lat":38.27,"state":"KS","location":"6 S ELLINWOOD"},"type":"Feature","geometry":{"type":"Point","coordinates":[-98.58,38.27]}},{"properties":{"lon":-80.61,"size":200,"comments":"STORM CHASER REPORTED 2 INCH HAIL IN CAMDEN (CAE)","time":"0140","county":"KERSHAW","id":"a66p4wbgnoc8","lat":34.26,"state":"SC","location":"CAMDEN"},"type":"Feature","geometry":{"type":"Point","coordinates":[-80.61,34.26]}},{"properties":{"lon":-80.61,"size":275,"comments":"SHERIFF DISPATCH REPORTED HAIL BETWEEN GOLF BALL AND BASEBALL SIZE IN CAMDEN. REPORTS OF SEVERAL VEHICLES DAMAGED ALONG WITH TREES DOWN. (CAE)","time":"0141","county":"KERSHAW","id":"a66p4wi1j4d1","lat":34.26,"state":"SC","location":"CAMDEN"},"type":"Feature","geometry":{"type":"Point","coordinates":[-80.61,34.26]}},{"properties":{"lon":-96.54,"size":100,"comments":"(FSD)","time":"0141","county":"DAKOTA","id":"a66p4w8q4jzp","lat":42.38,"state":"NE","location":"3 E HUBBARD"},"type":"Feature","geometry":{"type":"Point","coordinates":[-96.54,42.38]}},{"properties":{"lon":-95.16,"size":175,"comments":"(DMX)","time":"0141","county":"SAC","id":"a66p4wjzbqky","lat":42.46,"state":"IA","location":"WNW EARLY"},"type":"Feature","geometry":{"type":"Point","coordinates":[-95.16,42.46]}},{"properties":{"lon":-97.39,"size":100,"comments":"(FSD)","time":"0144","county":"MCCOOK","id":"a66p4waxfu62","lat":43.68,"state":"SD","location":"3 S SALEM"},"type":"Feature","geometry":{"type":"Point","coordinates":[-97.39,43.68]}},{"properties":{"lon":-98.44,"size":100,"comments":"WINDS ESTIMATED AROUND 50 MPH (ICT)","time":"0145","county":"RICE","id":"a66p4wi8jfsm","lat":38.36,"state":"KS","location":"5 W CHASE"},"type":"Feature","geometry":{"type":"Point","coordinates":[-98.44,38.36]}},{"properties":{"lon":-96.61,"size":125,"comments":"(FSD)","time":"0145","county":"DAKOTA","id":"a66p4w8rcvf6","lat":42.33,"state":"NE","location":"4 SSW HUBBARD"},"type":"Feature","geometry":{"type":"Point","coordinates":[-96.61,42.33]}},{"properties":{"lon":-95.42,"size":100,"comments":"(FSD)","time":"0145","county":"IDA","id":"a66p4wkmipkm","lat":42.48,"state":"IA","location":"2 S GALVA"},"type":"Feature","geometry":{"type":"Point","coordinates":[-95.42,42.48]}},{"properties":{"lon":-98.47,"size":150,"comments":"(ICT)","time":"0146","county":"RICE","id":"a66p4w7aps1h","lat":38.36,"state":"KS","location":"6 E ELLINWOOD"},"type":"Feature","geometry":{"type":"Point","coordinates":[-98.47,38.36]}},{"properties":{"lon":-97.39,"size":150,"comments":"(FSD)","time":"0146","county":"MCCOOK","id":"a66p4wc580q3","lat":43.68,"state":"SD","location":"3 S SALEM"},"type":"Feature","geometry":{"type":"Point","coordinates":[-97.39,43.68]}},{"properties":{"lon":-80.61,"size":175,"comments":"GOLF BALL SIZE HAIL REPORTED BY PUBLIC NEAR CAMDEN. (CAE)","time":"0147","county":"KERSHAW","id":"a66p4whzj3md","lat":34.26,"state":"SC","location":"CAMDEN"},"type":"Feature","geometry":{"type":"Point","coordinates":[-80.61,34.26]}},{"properties":{"lon":-95.15,"size":125,"comments":"(DMX)","time":"0148","county":"SAC","id":"a66p4wjq3l26","lat":42.46,"state":"IA","location":"EARLY"},"type":"Feature","geometry":{"type":"Point","coordinates":[-95.15,42.46]}},{"properties":{"lon":-95.3,"size":175,"comments":"TREES AND POWER LINES DOWN (DMX)","time":"0148","county":"SAC","id":"a66p4wg73phb","lat":42.48,"state":"IA","location":"1 S SCHALLER"},"type":"Feature","geometry":{"type":"Point","coordinates":[-95.3,42.48]}},{"properties":{"lon":-79.05,"size":100,"comments":"(ILM)","time":"0150","county":"GEORGETOWN","id":"a66p4wh1qhqo","lat":33.55,"state":"SC","location":"MURRELLS INLET"},"type":"Feature","geometry":{"type":"Point","coordinates":[-79.05,33.55]}},{"properties":{"lon":-80.89,"size":175,"comments":"SPOTTER REPORTS GOLF BALL HAIL NEAR LAKE WATEREE (CAE)","time":"0155","county":"FAIRFIELD","id":"a66p4wj5zqox","lat":34.5,"state":"SC","location":"14 WSW HEATH SPRINGS"},"type":"Feature","geometry":{"type":"Point","coordinates":[-80.89,34.5]}},{"properties":{"lon":-98.31,"size":100,"comments":"(ICT)","time":"0156","county":"RICE","id":"a66p4wg9vjoo","lat":38.45,"state":"KS","location":"5 SSW FREDERICK"},"type":"Feature","geometry":{"type":"Point","coordinates":[-98.31,38.45]}},{"properties":{"lon":-80.43,"size":200,"comments":"PUBLIC REPORTED HAIL THAT LASTED 10 MINUTES AND COVERED THE GROUND. THE HAIL BEGAN AS PENNY SIZE AND INCREASED UP TO JUST LARGER THAN A GOLF BALL BEFORE ENDING. (CAE)","time":"0200","county":"SUMTER","id":"a66p4wkrfmvt","lat":34.02,"state":"SC","location":"5 NNW SUMTER"},"type":"Feature","geometry":{"type":"Point","coordinates":[-80.43,34.02]}},{"properties":{"lon":-96.31,"size":100,"comments":"(FSD)","time":"0203","county":"PIPESTONE","id":"a66p4wbegy3i","lat":44.0,"state":"MN","location":"PIPESTONE"},"type":"Feature","geometry":{"type":"Point","coordinates":[-96.31,44.0]}},{"properties":{"lon":-80.47,"size":100,"comments":"SHERIFF DISPATCH REPORTED QUARTER SIZE HAIL NEAR BROAD STREET AND CHERRYVALE DRIVE. (CAE)","time":"0204","county":"SUMTER","id":"a66p4w9dee5x","lat":33.96,"state":"SC","location":"4 WNW SUMTER"},"type":"Feature","geometry":{"type":"Point","coordinates":[-80.47,33.96]}},{"properties":{"lon":-80.84,"size":175,"comments":"NWS CO-OP OBSERVER REPORTS GOLF BALL HAIL IN LONGTOWN SC (CAE)","time":"0205","county":"FAIRFIELD","id":"a66p4w67eekw","lat":34.35,"state":"SC","location":"8 ENE RIDGEWAY"},"type":"Feature","geometry":{"type":"Point","coordinates":[-80.84,34.35]}},{"properties":{"lon":-95.15,"size":200,"comments":"WINDSHIELD BROKEN (DMX)","time":"0208","county":"SAC","id":"a66p4wimi8vd","lat":42.51,"state":"IA","location":"3 W NEMAHA"},"type":"Feature","geometry":{"type":"Point","coordinates":[-95.15,42.51]}},{"properties":{"lon":-80.39,"size":300,"comments":"PUBLIC REPORTED 3.0 INCH HAIL NEAR SUMTER. (CAE)","time":"0210","county":"SUMTER","id":"a66p4w5kwzvp","lat":33.94,"state":"SC","location":"SUMTER"},"type":"Feature","geometry":{"type":"Point","coordinates":[-80.39,33.94]}},{"properties":{"lon":-80.42,"size":200,"comments":"PUBLIC REPORTED HAIL FROM GOLF BALL TO HEN EGG SIZE NEAR SHAW AIR FORCE BASE. (CAE)","time":"0210","county":"SUMTER","id":"a66p4wa173br","lat":33.96,"state":"SC","location":"2 NW SUMTER"},"type":"Feature","geometry":{"type":"Point","coordinates":[-80.42,33.96]}},{"properties":{"lon":-80.5,"size":250,"comments":"PUBLIC REPORTED HAIL UP TO TENNIS BALL SIZE NEAR SHAW AIR FORCE BASE. (CAE)","time":"0210","county":"SUMTER","id":"a66p4wjl8eje","lat":33.96,"state":"SC","location":"2 S OAKLAND"},"type":"Feature","geometry":{"type":"Point","coordinates":[-80.5,33.96]}},{"properties":{"lon":-80.46,"size":175,"comments":"EVENT OCCURRED AT 1011 PM 04/09/2011 (CAE)","time":"0211","county":"SUMTER","id":"a66p4wcg94n9","lat":33.97,"state":"SC","location":"SHAW AFB"},"type":"Feature","geometry":{"type":"Point","coordinates":[-80.46,33.97]}},{"properties":{"lon":-80.39,"size":175,"comments":"SPOTTER REPORTED HAIL RANGING FROM QUARTER SIZE UP TO GOLF BALL SIZE AND COVERING THE GROUND IN SUMTER. (CAE)","time":"0212","county":"SUMTER","id":"a66p4wcph9z4","lat":33.94,"state":"SC","location":"SUMTER"},"type":"Feature","geometry":{"type":"Point","coordinates":[-80.39,33.94]}},{"properties":{"lon":-80.38,"size":175,"comments":"COCORAHS OBSERVER REPORTS GOLF BALL HAIL NEAR USC SUMTER CAMPUS. (CAE)","time":"0214","county":"SUMTER","id":"a66p4wlbdzrq","lat":33.93,"state":"SC","location":"4 NNW SOUTH SUMTER"},"type":"Feature","geometry":{"type":"Point","coordinates":[-80.38,33.93]}},{"properties":{"lon":-80.44,"size":200,"comments":"PUBLIC REPORT OF 2 INCH HAIL NEAR SHAW AFB (CAE)","time":"0215","county":"SUMTER","id":"a66p4wa4mc7o","lat":33.97,"state":"SC","location":"3 NW SUMTER"},"type":"Feature","geometry":{"type":"Point","coordinates":[-80.44,33.97]}},{"properties":{"lon":-80.71,"size":175,"comments":"(CAE)","time":"0225","county":"KERSHAW","id":"a66p4wb22wuj","lat":34.19,"state":"SC","location":"LUGOFF"},"type":"Feature","geometry":{"type":"Point","coordinates":[-80.71,34.19]}},{"properties":{"lon":-81.21,"size":150,"comments":"(GSP)","time":"0225","county":"CHESTER","id":"a66p4wl52m54","lat":34.71,"state":"SC","location":"CHESTER"},"type":"Feature","geometry":{"type":"Point","coordinates":[-81.21,34.71]}},{"properties":{"lon":-95.95,"size":150,"comments":"(FSD)","time":"0227","county":"LYON","id":"a66p4w7dc198","lat":44.32,"state":"MN","location":"RUSSELL"},"type":"Feature","geometry":{"type":"Point","coordinates":[-95.95,44.32]}},{"properties":{"lon":-80.68,"size":175,"comments":"PUBLIC REPORTED HALF DOLLAR SIZE HAIL UP TO GOLF BALL SIZE HAIL THAT COVERED THE DECK AT HIS HOUSE NEAR EXIT 92 ON INTERSTATE 20. (CAE)","time":"0230","county":"KERSHAW","id":"a66p4wdjl0zo","lat":34.23,"state":"SC","location":"LUGOFF"},"type":"Feature","geometry":{"type":"Point","coordinates":[-80.68,34.23]}},{"properties":{"lon":-81.16,"size":125,"comments":"(GSP)","time":"0230","county":"CHESTER","id":"a66p4wa73f5h","lat":34.68,"state":"SC","location":"4 ESE CHESTER"},"type":"Feature","geometry":{"type":"Point","coordinates":[-81.16,34.68]}},{"properties":{"lon":-80.88,"size":100,"comments":"PUBLIC REPORTED NICKEL TO QUARTER SIZE HAIL AT SUTTONS LANDING ON LAKE WATEREE. (CAE)","time":"0256","county":"FAIRFIELD","id":"a66p4wcp2ujs","lat":34.44,"state":"SC","location":"10 NNE RIDGEWAY"},"type":"Feature","geometry":{"type":"Point","coordinates":[-80.88,34.44]}},{"properties":{"lon":-96.31,"size":100,"comments":"(FSD)","time":"0300","county":"PIPESTONE","id":"a66p4wkhr7r4","lat":44.0,"state":"MN","location":"PIPESTONE"},"type":"Feature","geometry":{"type":"Point","coordinates":[-96.31,44.0]}},{"properties":{"lon":-94.8,"size":100,"comments":"(DMX)","time":"0303","county":"POCAHONTAS","id":"a66p4wc9gjk4","lat":42.83,"state":"IA","location":"2 ESE LAURENS"},"type":"Feature","geometry":{"type":"Point","coordinates":[-94.8,42.83]}},{"properties":{"lon":-95.18,"size":175,"comments":"(FSD)","time":"0304","county":"BUENA VISTA","id":"a66p4wbb4t8f","lat":42.73,"state":"IA","location":"TRUESDALE"},"type":"Feature","geometry":{"type":"Point","coordinates":[-95.18,42.73]}},{"properties":{"lon":-96.23,"size":275,"comments":"GOLFBALL TO BASEBALL SIZE HAIL NORTH OF MERRILL. (FSD)","time":"0308","county":"PLYMOUTH","id":"a66p4w891w9e","lat":42.74,"state":"IA","location":"4 SW LE MARS"},"type":"Feature","geometry":{"type":"Point","coordinates":[-96.23,42.74]}},{"properties":{"lon":-94.68,"size":150,"comments":"(DMX)","time":"0309","county":"POCAHONTAS","id":"a66p4w5qlvcl","lat":42.75,"state":"IA","location":"1 NW POCAHONTAS"},"type":"Feature","geometry":{"type":"Point","coordinates":[-94.68,42.75]}},{"properties":{"lon":-80.01,"size":175,"comments":"QUARTER TO GOLFBALL SIZE HAIL REPORTED IN PINEVILLE. (CHS)","time":"0312","county":"BERKELEY","id":"a66p4w8e88sb","lat":33.43,"state":"SC","location":"5 WNW SAINT STEPHEN"},"type":"Feature","geometry":{"type":"Point","coordinates":[-80.01,33.43]}},{"properties":{"lon":-96.17,"size":200,"comments":"(FSD)","time":"0313","county":"PLYMOUTH","id":"a66p4wce8s12","lat":42.79,"state":"IA","location":"LE MARS"},"type":"Feature","geometry":{"type":"Point","coordinates":[-96.17,42.79]}},{"properties":{"lon":-95.54,"size":275,"comments":"GOLFBALL TO BASEBALL SIZE HAIL (FSD)","time":"0315","county":"CHEROKEE","id":"a66p4wi2tdkk","lat":42.74,"state":"IA","location":"1 SE CHEROKEE"},"type":"Feature","geometry":{"type":"Point","coordinates":[-95.54,42.74]}},{"properties":{"lon":-95.55,"size":400,"comments":"3.5 INCH HAIL MEASURED (FSD)","time":"0315","county":"CHEROKEE","id":"a66p4weqbio3","lat":42.75,"state":"IA","location":"CHEROKEE"},"type":"Feature","geometry":{"type":"Point","coordinates":[-95.55,42.75]}},{"properties":{"lon":-96.16,"size":200,"comments":"ALSO REPORTED DAMAGED SIDING AND SHUTTERS ON HOUSE. (FSD)","time":"0316","county":"PLYMOUTH","id":"a66p4wfmvun9","lat":42.78,"state":"IA","location":"1 SE LE MARS"},"type":"Feature","geometry":{"type":"Point","coordinates":[-96.16,42.78]}},{"properties":{"lon":-79.97,"size":250,"comments":"GOLFBALL TO TENNIS BALL SIZE HAIL REPORTED NEAR RUSSELLVILLE. (CHS)","time":"0320","county":"BERKELEY","id":"a66p4wb3xkcn","lat":33.39,"state":"SC","location":"3 WSW SAINT STEPHEN"},"type":"Feature","geometry":{"type":"Point","coordinates":[-79.97,33.39]}},{"properties":{"lon":-79.96,"size":125,"comments":"QUARTER TO HALF DOLLAR SIZE HAIL REPORTED NEAR BONNEAU. (CHS)","time":"0325","county":"BERKELEY","id":"a66p4wd00fmv","lat":33.31,"state":"SC","location":"BONNEAU"},"type":"Feature","geometry":{"type":"Point","coordinates":[-79.96,33.31]}},{"properties":{"lon":-79.92,"size":175,"comments":"FIRE DEPARTMENT PERSONNEL REPORTS GOLF BALL SIZE HAIL BETWEEN SAINT STEPHEN AND BONNEAU. (CHS)","time":"0325","county":"BERKELEY","id":"a66p4wi9ohg1","lat":33.4,"state":"SC","location":"SAINT STEPHEN"},"type":"Feature","geometry":{"type":"Point","coordinates":[-79.92,33.4]}},{"properties":{"lon":-79.9,"size":175,"comments":"GOLFBALL SIZE HAIL FELL FOR 10 TO 15 MINUTES IN THE MACEDONIA AREA. (CHS)","time":"0328","county":"BERKELEY","id":"a66p4waiontk","lat":33.27,"state":"SC","location":"4 ESE BONNEAU"},"type":"Feature","geometry":{"type":"Point","coordinates":[-79.9,33.27]}},{"properties":{"lon":-79.9,"size":175,"comments":"GOLFBALL SIZE HAIL REPORTED BY SKYWARN SPOTTER. EAST OF BONNEAU. (CHS)","time":"0328","county":"BERKELEY","id":"a66p4w69vn94","lat":33.3,"state":"SC","location":"4 E BONNEAU"},"type":"Feature","geometry":{"type":"Point","coordinates":[-79.9,33.3]}},{"properties":{"lon":-79.87,"size":125,"comments":"QUARTER TO HALF DOLLAR SIZE HAIL REPORTED BY A SKYWARN SPOTTER. THE HAIL COMPLETELY COVERED THE GROUND. (CHS)","time":"0330","county":"BERKELEY","id":"a66p4whbt2e2","lat":33.27,"state":"SC","location":"6 ESE BONNEAU"},"type":"Feature","geometry":{"type":"Point","coordinates":[-79.87,33.27]}},{"properties":{"lon":-94.85,"size":275,"comments":"PUBLIC REPORTED BASEBALL SIZE HAIL AND URBAN FLOODING (DMX)","time":"0335","county":"POCAHONTAS","id":"a66p4wg3oxw9","lat":42.85,"state":"IA","location":"LAURENS"},"type":"Feature","geometry":{"type":"Point","coordinates":[-94.85,42.85]}},{"properties":{"lon":-95.15,"size":175,"comments":"PEA TO GOLF BALL SIZE HAIL (FSD)","time":"0354","county":"BUENA VISTA","id":"a66p4w8nzw2t","lat":42.89,"state":"IA","location":"SIOUX RAPIDS"},"type":"Feature","geometry":{"type":"Point","coordinates":[-95.15,42.89]}},{"properties":{"lon":-95.24,"size":150,"comments":"(FSD)","time":"0404","county":"BUENA VISTA","id":"a66p4wbzqno7","lat":42.89,"state":"IA","location":"LINN GROVE"},"type":"Feature","geometry":{"type":"Point","coordinates":[-95.24,42.89]}},{"properties":{"lon":-92.92,"size":200,"comments":"(ARX)","time":"0420","county":"MITCHELL","id":"a66p4wcizabi","lat":43.38,"state":"IA","location":"ST. ANSGAR"},"type":"Feature","geometry":{"type":"Point","coordinates":[-92.92,43.38]}},{"properties":{"lon":-94.68,"size":100,"comments":"NICKEL TO QUARTER SIZED HAIL. (DMX)","time":"0430","county":"PALO ALTO","id":"a66p4w7jjeb0","lat":43.11,"state":"IA","location":"S EMMETSBURG"},"type":"Feature","geometry":{"type":"Point","coordinates":[-94.68,43.11]}},{"properties":{"lon":-95.17,"size":100,"comments":"COVERING APPROXIMATELY HALF OF THE GROUND (FSD)","time":"0431","county":"CLAY","id":"a66p4whq412p","lat":42.97,"state":"IA","location":"3 SSW GREENVILLE"},"type":"Feature","geometry":{"type":"Point","coordinates":[-95.17,42.97]}},{"properties":{"lon":-94.23,"size":200,"comments":"FUNNEL CLOUD ALSO REPORTED AT THIS LOCATION (DMX)","time":"0432","county":"KOSSUTH","id":"a66p4wle4qxf","lat":43.06,"state":"IA","location":"1 S ALGONA"},"type":"Feature","geometry":{"type":"Point","coordinates":[-94.23,43.06]}},{"properties":{"lon":-79.83,"size":100,"comments":"(ILM)","time":"0444","county":"MARLBORO","id":"a66p4wkkvr98","lat":34.71,"state":"SC","location":"1 S WALLACE"},"type":"Feature","geometry":{"type":"Point","coordinates":[-79.83,34.71]}},{"properties":{"lon":-94.31,"size":100,"comments":"(DMX)","time":"0510","county":"KOSSUTH","id":"a66p4w5lgskl","lat":43.21,"state":"IA","location":"1 ESE LONE ROCK"},"type":"Feature","geometry":{"type":"Point","coordinates":[-94.31,43.21]}},{"properties":{"lon":-96.09,"size":100,"comments":"(OAX)","time":"0519","county":"MONONA","id":"a66p4w5tfgfq","lat":42.03,"state":"IA","location":"ONAWA"},"type":"Feature","geometry":{"type":"Point","coordinates":[-96.09,42.03]}},{"properties":{"lon":-94.22,"size":100,"comments":"(DMX)","time":"0521","county":"KOSSUTH","id":"a66p4wlixwjf","lat":43.29,"state":"IA","location":"BANCROFT"},"type":"Feature","geometry":{"type":"Point","coordinates":[-94.22,43.29]}},{"properties":{"lon":-96.14,"size":100,"comments":"(FSD)","time":"0525","county":"WOODBURY","id":"a66p4wiee458","lat":42.39,"state":"IA","location":"4 ESE BRONSON"},"type":"Feature","geometry":{"type":"Point","coordinates":[-96.14,42.39]}},{"properties":{"lon":-79.86,"size":175,"comments":"AT SOCIETY HILL POLICE DEPARTMENT...CORRECTED (ILM)","time":"0545","county":"DARLINGTON","id":"a66p4weipbjx","lat":34.5,"state":"SC","location":"1 SW SOCIETY HILL"},"type":"Feature","geometry":{"type":"Point","coordinates":[-79.86,34.5]}},{"properties":{"lon":-93.28,"size":125,"comments":"(MPX)","time":"0558","county":"FREEBORN","id":"a66p4w7pwfa6","lat":43.57,"state":"MN","location":"GLENVILLE"},"type":"Feature","geometry":{"type":"Point","coordinates":[-93.28,43.57]}},{"properties":{"lon":-85.84,"size":100,"comments":"ESTIMATED HAIL SIZE. (GRR)","time":"0945","county":"LAKE","id":"a66p4wjbri1r","lat":44.02,"state":"MI","location":"1 N WOLF LAKE"},"type":"Feature","geometry":{"type":"Point","coordinates":[-85.84,44.02]}},{"properties":{"lon":-84.49,"size":150,"comments":"(APX)","time":"1130","county":"GLADWIN","id":"a66p4wbaeuug","lat":43.98,"state":"MI","location":"GLADWIN"},"type":"Feature","geometry":{"type":"Point","coordinates":[-84.49,43.98]}},{"properties":{"lon":-84.37,"size":100,"comments":"(APX)","time":"1150","county":"GLADWIN","id":"a66p4w61ggx2","lat":43.98,"state":"MI","location":"6 E GLADWIN"},"type":"Feature","geometry":{"type":"Point","coordinates":[-84.37,43.98]}}],"is_temporal":false,"author":{"url":"","metadata":"","contact_name":"","contact_address":"","source":"","contact_phone":""},"source":"","pagination":{"sort":null,"start":0,"total":323,"limit":1000000},"state":"complete","tags":"","published":"2014-08-13T00:33:44-04:00","id":112282}