{"type":"FeatureCollection","data_type":"Dataset","url_type":null,"permissions":[{"permissions":{"download":true,"view":true},"group_id":"everyone"}],"classification":null,"title":"County Durham DSL","count":46,"stream_id":11283,"contributor":{"url":"http://geocommons.com/users/4049","name":"awooster"},"data_attributes":null,"calculation_params":null,"icon_link":null,"link":"http://geocommons.com/overlays/11283.json","extent":[-2.19495,54.5397,-1.33047,54.9149],"geometry_types":["point"],"unique_name":null,"name":"County Durham DSL","feature_count":46,"description":"ADSL market in County Durham","next_feature":null,"is_raster":false,"short_classification":"Y","stats":{"latitude":{"max":54.91494,"mean":54.7246106739131,"variance":0.0111319048564468,"stdev":0.105507842630047,"min":54.53975,"median":54.745183},"sky":{"max":1,"mean":0.217391304347826,"variance":0.173913043478261,"stdev":0.417028828114149,"min":0,"median":0},"talktalk":{"max":1,"mean":0.434782608695652,"variance":0.251207729468599,"stdev":0.501206274370741,"min":0,"median":0},"candw":{"max":1,"mean":0.0217391304347826,"variance":0.0217391304347826,"stdev":0.147441956154897,"min":0,"median":0},"o2":{"max":1,"mean":0.217391304347826,"variance":0.173913043478261,"stdev":0.417028828114149,"min":0,"median":0},"orange":{"max":1,"mean":0.326086956521739,"variance":0.22463768115942,"stdev":0.473959577558488,"min":0,"median":0},"tiscali":{"max":1,"mean":0.195652173913043,"variance":0.160869565217391,"stdev":0.40108548367822,"min":0,"median":0},"longitude":{"max":-1.33047,"mean":-1.70122926086957,"variance":0.0490719130835749,"stdev":0.221521811755806,"min":-2.194947,"median":-1.6937},"aol":{"max":1,"mean":0.260869565217391,"variance":0.197101449275362,"stdev":0.443961089821352,"min":0,"median":0},"count":{"max":8,"mean":2.67391304347826,"variance":5.78019323671497,"stdev":2.40420324363706,"min":1,"median":1},"adsl":{"max":1,"mean":1.0,"variance":0.0,"stdev":0.0,"min":1,"median":1},"sdsl":{"max":1,"mean":0.0652173913043478,"variance":0.0623188405797101,"stdev":0.249637418228338,"min":0,"median":0}},"features":[{"properties":{"latitude":54.61573,"sky":1,"postcode":"DL5 5HU","region":"North East","talktalk":1,"county":"Durham","candw":0,"o2":1,"exchange":"Aycliffe","orange":1,"tiscali":1,"longitude":-1.569119,"aol":1,"count":7,"id":"a6homw6hhy9t","adsl":1,"sdsl":0},"type":"Feature","geometry":{"type":"Point","coordinates":[-1.569119,54.61573]}},{"properties":{"latitude":54.549675,"sky":0,"postcode":"DL12 8DH","region":"North East","talktalk":0,"county":"Durham","candw":0,"o2":0,"exchange":"Barnard Castle","orange":0,"tiscali":0,"longitude":-1.912213,"aol":0,"count":1,"id":"a6homwirl39f","adsl":1,"sdsl":0},"type":"Feature","geometry":{"type":"Point","coordinates":[-1.912213,54.549675]}},{"properties":{"latitude":54.85193,"sky":0,"postcode":"DH9 6RT","region":"North East","talktalk":0,"county":"Durham","candw":0,"o2":0,"exchange":"Beamish","orange":0,"tiscali":0,"longitude":-1.668289,"aol":0,"count":1,"id":"a6homwju4ohd","adsl":1,"sdsl":0},"type":"Feature","geometry":{"type":"Point","coordinates":[-1.668289,54.85193]}},{"properties":{"latitude":54.661055,"sky":1,"postcode":"DL14 7AX","region":"North East","talktalk":1,"county":"Durham","candw":0,"o2":1,"exchange":"Bishop Auckland","orange":1,"tiscali":1,"longitude":-1.679259,"aol":1,"count":7,"id":"a6homw82tome","adsl":1,"sdsl":1},"type":"Feature","geometry":{"type":"Point","coordinates":[-1.679259,54.661055]}},{"properties":{"latitude":54.53975,"sky":0,"postcode":"DL12 9HR","region":"North East","talktalk":0,"county":"Durham","candw":0,"o2":0,"exchange":"Bowes","orange":0,"tiscali":0,"longitude":-1.941099,"aol":0,"count":1,"id":"a6homwhcjdf5","adsl":1,"sdsl":0},"type":"Feature","geometry":{"type":"Point","coordinates":[-1.941099,54.53975]}},{"properties":{"latitude":54.904497,"sky":0,"postcode":"NE16 6PT","region":"North East","talktalk":1,"county":"Durham","candw":0,"o2":0,"exchange":"Burnopfield","orange":0,"tiscali":0,"longitude":-1.728928,"aol":0,"count":2,"id":"a6homwiwdptt","adsl":1,"sdsl":0},"type":"Feature","geometry":{"type":"Point","coordinates":[-1.728928,54.904497]}},{"properties":{"latitude":54.85236,"sky":1,"postcode":"DH3 3DG","region":"North East","talktalk":1,"county":"Durham","candw":0,"o2":1,"exchange":"Chester Le Street","orange":1,"tiscali":1,"longitude":-1.572799,"aol":1,"count":7,"id":"a6homwmddwq8","adsl":1,"sdsl":0},"type":"Feature","geometry":{"type":"Point","coordinates":[-1.572799,54.85236]}},{"properties":{"latitude":54.62531,"sky":0,"postcode":"DL13 5DF","region":"North East","talktalk":0,"county":"Durham","candw":0,"o2":0,"exchange":"Cockfield","orange":0,"tiscali":0,"longitude":-1.829769,"aol":0,"count":1,"id":"a6homwg5zyjr","adsl":1,"sdsl":0},"type":"Feature","geometry":{"type":"Point","coordinates":[-1.829769,54.62531]}},{"properties":{"latitude":54.85474,"sky":1,"postcode":"DH8 5DH","region":"North East","talktalk":1,"county":"Durham","candw":0,"o2":1,"exchange":"Consett","orange":1,"tiscali":1,"longitude":-1.835809,"aol":1,"count":7,"id":"a6homwkzldl4","adsl":1,"sdsl":0},"type":"Feature","geometry":{"type":"Point","coordinates":[-1.835809,54.85474]}},{"properties":{"latitude":54.53975,"sky":0,"postcode":"DL12 9PD","region":"North East","talktalk":0,"county":"Durham","candw":0,"o2":0,"exchange":"Cotherstone","orange":0,"tiscali":0,"longitude":-1.941099,"aol":0,"count":1,"id":"a6homwjndp9h","adsl":1,"sdsl":0},"type":"Feature","geometry":{"type":"Point","coordinates":[-1.941099,54.53975]}},{"properties":{"latitude":54.718277,"sky":0,"postcode":"DH6 4PN","region":"North East","talktalk":0,"county":"Durham","candw":0,"o2":0,"exchange":"Coxhoe","orange":0,"tiscali":0,"longitude":-1.491174,"aol":0,"count":1,"id":"a6homwjiw1iw","adsl":1,"sdsl":0},"type":"Feature","geometry":{"type":"Point","coordinates":[-1.491174,54.718277]}},{"properties":{"latitude":54.702695,"sky":0,"postcode":"DL15 8NG","region":"North East","talktalk":1,"county":"Durham","candw":0,"o2":0,"exchange":"Crook","orange":1,"tiscali":0,"longitude":-1.748998,"aol":1,"count":4,"id":"a6homwhnrnlc","adsl":1,"sdsl":0},"type":"Feature","geometry":{"type":"Point","coordinates":[-1.748998,54.702695]}},{"properties":{"latitude":54.88492,"sky":0,"postcode":"DH9 9HX","region":"North East","talktalk":0,"county":"Durham","candw":0,"o2":0,"exchange":"Dipton","orange":0,"tiscali":0,"longitude":-1.733539,"aol":0,"count":1,"id":"a6homwe9eaih","adsl":1,"sdsl":0},"type":"Feature","geometry":{"type":"Point","coordinates":[-1.733539,54.88492]}},{"properties":{"latitude":54.790395,"sky":1,"postcode":"DH1 1RR","region":"North East","talktalk":1,"county":"Durham","candw":1,"o2":1,"exchange":"Durham","orange":1,"tiscali":1,"longitude":-1.526169,"aol":1,"count":8,"id":"a6homwfjv4md","adsl":1,"sdsl":1},"type":"Feature","geometry":{"type":"Point","coordinates":[-1.526169,54.790395]}},{"properties":{"latitude":54.78589,"sky":0,"postcode":"SR8 3NB","region":"North East","talktalk":0,"county":"Durham","candw":0,"o2":0,"exchange":"Easington","orange":0,"tiscali":0,"longitude":-1.339739,"aol":0,"count":1,"id":"a6homwcvgu2x","adsl":1,"sdsl":0},"type":"Feature","geometry":{"type":"Point","coordinates":[-1.339739,54.78589]}},{"properties":{"latitude":54.745183,"sky":0,"postcode":"DL13 1PE","region":"North East","talktalk":0,"county":"Durham","candw":0,"o2":0,"exchange":"Eastgate","orange":0,"tiscali":0,"longitude":-2.194947,"aol":0,"count":1,"id":"a6homwcjm3de","adsl":1,"sdsl":0},"type":"Feature","geometry":{"type":"Point","coordinates":[-2.194947,54.745183]}},{"properties":{"latitude":54.91494,"sky":0,"postcode":"NE17 7PD","region":"North East","talktalk":1,"county":"Durham","candw":0,"o2":0,"exchange":"Ebchester","orange":0,"tiscali":0,"longitude":-1.816659,"aol":0,"count":2,"id":"a6homwjhbf2g","adsl":1,"sdsl":0},"type":"Feature","geometry":{"type":"Point","coordinates":[-1.816659,54.91494]}},{"properties":{"latitude":54.85524,"sky":0,"postcode":"DH8 9NN","region":"North East","talktalk":0,"county":"Durham","candw":0,"o2":0,"exchange":"Edmundbyers","orange":0,"tiscali":0,"longitude":-1.917729,"aol":0,"count":1,"id":"a6homwjcc8mz","adsl":1,"sdsl":0},"type":"Feature","geometry":{"type":"Point","coordinates":[-1.917729,54.85524]}},{"properties":{"latitude":54.83765,"sky":0,"postcode":"DH4 6BW","region":"North East","talktalk":1,"county":"Durham","candw":0,"o2":0,"exchange":"Fencehouses","orange":1,"tiscali":0,"longitude":-1.501619,"aol":1,"count":4,"id":"a6homwe7e4il","adsl":1,"sdsl":0},"type":"Feature","geometry":{"type":"Point","coordinates":[-1.501619,54.83765]}},{"properties":{"latitude":54.68856,"sky":0,"postcode":"DL17 8BA","region":"North East","talktalk":1,"county":"Durham","candw":0,"o2":1,"exchange":"Ferryhill","orange":1,"tiscali":0,"longitude":-1.549239,"aol":1,"count":5,"id":"a6homwjeusmq","adsl":1,"sdsl":0},"type":"Feature","geometry":{"type":"Point","coordinates":[-1.549239,54.68856]}},{"properties":{"latitude":54.62736,"sky":0,"postcode":"DL12 0HA","region":"North East","talktalk":0,"county":"Durham","candw":0,"o2":0,"exchange":"Forest In Teesdale","orange":0,"tiscali":0,"longitude":-2.088389,"aol":0,"count":1,"id":"a6homw7jwksf","adsl":1,"sdsl":0},"type":"Feature","geometry":{"type":"Point","coordinates":[-2.088389,54.62736]}},{"properties":{"latitude":54.74574,"sky":0,"postcode":"DL13 2RH","region":"North East","talktalk":0,"county":"Durham","candw":0,"o2":0,"exchange":"Frosterley","orange":0,"tiscali":0,"longitude":-2.007477,"aol":0,"count":1,"id":"a6homwactaj1","adsl":1,"sdsl":0},"type":"Feature","geometry":{"type":"Point","coordinates":[-2.007477,54.74574]}},{"properties":{"latitude":54.56103,"sky":0,"postcode":"DL2 3EB","region":"North East","talktalk":0,"county":"Durham","candw":0,"o2":0,"exchange":"Gainford","orange":0,"tiscali":0,"longitude":-1.765429,"aol":0,"count":1,"id":"a6homwfcy3fk","adsl":1,"sdsl":0},"type":"Feature","geometry":{"type":"Point","coordinates":[-1.765429,54.56103]}},{"properties":{"latitude":54.82127,"sky":0,"postcode":"DH7 0PF","region":"North East","talktalk":1,"county":"Durham","candw":0,"o2":0,"exchange":"Lanchester","orange":0,"tiscali":0,"longitude":-1.741449,"aol":0,"count":2,"id":"a6homwbtkgbr","adsl":1,"sdsl":0},"type":"Feature","geometry":{"type":"Point","coordinates":[-1.741449,54.82127]}},{"properties":{"latitude":54.75087,"sky":0,"postcode":"DH7 8ND","region":"North East","talktalk":1,"county":"Durham","candw":0,"o2":0,"exchange":"Meadowfield","orange":1,"tiscali":0,"longitude":-1.631819,"aol":0,"count":3,"id":"a6homwc2xzvw","adsl":1,"sdsl":0},"type":"Feature","geometry":{"type":"Point","coordinates":[-1.631819,54.75087]}},{"properties":{"latitude":54.62736,"sky":0,"postcode":"DL12 0RR","region":"North East","talktalk":0,"county":"Durham","candw":0,"o2":0,"exchange":"Middleton In Teesdale","orange":0,"tiscali":0,"longitude":-2.088389,"aol":0,"count":1,"id":"a6homwl77k7b","adsl":1,"sdsl":0},"type":"Feature","geometry":{"type":"Point","coordinates":[-2.088389,54.62736]}},{"properties":{"latitude":54.77635,"sky":1,"postcode":"DH7 7PR","region":"North East","talktalk":1,"county":"Durham","candw":0,"o2":0,"exchange":"New Brancepeth","orange":1,"tiscali":0,"longitude":-1.640129,"aol":1,"count":5,"id":"a6homw7d7ffq","adsl":1,"sdsl":0},"type":"Feature","geometry":{"type":"Point","coordinates":[-1.640129,54.77635]}},{"properties":{"latitude":54.758221,"sky":1,"postcode":"SR8 1AP","region":"North East","talktalk":1,"county":"Durham","candw":0,"o2":1,"exchange":"Peterlee","orange":1,"tiscali":1,"longitude":-1.33047,"aol":1,"count":7,"id":"a6homwj8sdt4","adsl":1,"sdsl":0},"type":"Feature","geometry":{"type":"Point","coordinates":[-1.33047,54.758221]}},{"properties":{"latitude":54.66416,"sky":0,"postcode":"DL17 0LP","region":"North East","talktalk":0,"county":"Durham","candw":0,"o2":0,"exchange":"Rushyford","orange":0,"tiscali":0,"longitude":-1.550609,"aol":0,"count":1,"id":"a6homw84cf75","adsl":1,"sdsl":1},"type":"Feature","geometry":{"type":"Point","coordinates":[-1.550609,54.66416]}},{"properties":{"latitude":54.81815,"sky":0,"postcode":"DH7 6HH","region":"North East","talktalk":1,"county":"Durham","candw":0,"o2":0,"exchange":"Sacriston","orange":0,"tiscali":0,"longitude":-1.629609,"aol":0,"count":2,"id":"a6homwgrjmmo","adsl":1,"sdsl":0},"type":"Feature","geometry":{"type":"Point","coordinates":[-1.629609,54.81815]}},{"properties":{"latitude":54.83482,"sky":1,"postcode":"SR7 7AT","region":"North East","talktalk":1,"county":"Durham","candw":0,"o2":1,"exchange":"Seaham","orange":1,"tiscali":1,"longitude":-1.338749,"aol":1,"count":7,"id":"a6homwc1zji2","adsl":1,"sdsl":0},"type":"Feature","geometry":{"type":"Point","coordinates":[-1.338749,54.83482]}},{"properties":{"latitude":54.64769,"sky":0,"postcode":"TS21 3DW","region":"North East","talktalk":0,"county":"Durham","candw":0,"o2":0,"exchange":"Sedgefield","orange":0,"tiscali":0,"longitude":-1.436199,"aol":0,"count":1,"id":"a6homwbi3002","adsl":1,"sdsl":0},"type":"Feature","geometry":{"type":"Point","coordinates":[-1.436199,54.64769]}},{"properties":{"latitude":54.7737,"sky":0,"postcode":"DH6 1HD","region":"North East","talktalk":0,"county":"Durham","candw":0,"o2":0,"exchange":"Sherburn Hill","orange":0,"tiscali":0,"longitude":-1.483929,"aol":0,"count":1,"id":"a6homwj1eux5","adsl":1,"sdsl":0},"type":"Feature","geometry":{"type":"Point","coordinates":[-1.483929,54.7737]}},{"properties":{"latitude":54.63168,"sky":0,"postcode":"DL4 1JX","region":"North East","talktalk":1,"county":"Durham","candw":0,"o2":0,"exchange":"Shildon","orange":1,"tiscali":0,"longitude":-1.649749,"aol":0,"count":3,"id":"a6homwbkmebl","adsl":1,"sdsl":0},"type":"Feature","geometry":{"type":"Point","coordinates":[-1.649749,54.63168]}},{"properties":{"latitude":54.70439,"sky":1,"postcode":"DL16 6PX","region":"North East","talktalk":1,"county":"Durham","candw":0,"o2":1,"exchange":"Spennymoor","orange":1,"tiscali":1,"longitude":-1.596289,"aol":0,"count":6,"id":"a6homwd47x25","adsl":1,"sdsl":0},"type":"Feature","geometry":{"type":"Point","coordinates":[-1.596289,54.70439]}},{"properties":{"latitude":54.56103,"sky":0,"postcode":"DL2 3LX","region":"North East","talktalk":0,"county":"Durham","candw":0,"o2":0,"exchange":"Staindrop","orange":0,"tiscali":0,"longitude":-1.765429,"aol":0,"count":1,"id":"a6homwa9l32f","adsl":1,"sdsl":0},"type":"Feature","geometry":{"type":"Point","coordinates":[-1.765429,54.56103]}},{"properties":{"latitude":54.86452,"sky":1,"postcode":"DH9 8AF","region":"North East","talktalk":1,"county":"Durham","candw":0,"o2":1,"exchange":"Stanley","orange":1,"tiscali":1,"longitude":-1.737109,"aol":1,"count":7,"id":"a6homwlky1ff","adsl":1,"sdsl":0},"type":"Feature","geometry":{"type":"Point","coordinates":[-1.737109,54.86452]}},{"properties":{"latitude":54.75024,"sky":0,"postcode":"DH6 3NR","region":"North East","talktalk":0,"county":"Durham","candw":0,"o2":0,"exchange":"Thornley","orange":0,"tiscali":0,"longitude":-1.430309,"aol":0,"count":1,"id":"a6homw7x0ua0","adsl":1,"sdsl":0},"type":"Feature","geometry":{"type":"Point","coordinates":[-1.430309,54.75024]}},{"properties":{"latitude":54.749608,"sky":0,"postcode":"DL13 4DH","region":"North East","talktalk":0,"county":"Durham","candw":0,"o2":0,"exchange":"Tow Law","orange":0,"tiscali":0,"longitude":-1.812092,"aol":0,"count":1,"id":"a6homwd8evx7","adsl":1,"sdsl":0},"type":"Feature","geometry":{"type":"Point","coordinates":[-1.812092,54.749608]}},{"properties":{"latitude":54.711851,"sky":0,"postcode":"TS29 6BT","region":"North East","talktalk":0,"county":"Durham","candw":0,"o2":0,"exchange":"Trimdon","orange":0,"tiscali":0,"longitude":-1.423089,"aol":0,"count":1,"id":"a6homwmdl831","adsl":1,"sdsl":0},"type":"Feature","geometry":{"type":"Point","coordinates":[-1.423089,54.711851]}},{"properties":{"latitude":54.745183,"sky":0,"postcode":"DL13 1ED","region":"North East","talktalk":0,"county":"Durham","candw":0,"o2":0,"exchange":"Wearhead","orange":0,"tiscali":0,"longitude":-2.194947,"aol":0,"count":1,"id":"a6homw9qbu0v","adsl":1,"sdsl":0},"type":"Feature","geometry":{"type":"Point","coordinates":[-2.194947,54.745183]}},{"properties":{"latitude":54.73034,"sky":0,"postcode":"TS28 5BE","region":"North East","talktalk":1,"county":"Durham","candw":0,"o2":0,"exchange":"Wellfield","orange":0,"tiscali":0,"longitude":-1.372859,"aol":0,"count":2,"id":"a6homw8g0b4b","adsl":1,"sdsl":0},"type":"Feature","geometry":{"type":"Point","coordinates":[-1.372859,54.73034]}},{"properties":{"latitude":54.642038,"sky":0,"postcode":"DL14 9LD","region":"North East","talktalk":0,"county":"Durham","candw":0,"o2":0,"exchange":"West Auckland","orange":0,"tiscali":0,"longitude":-1.6937,"aol":0,"count":1,"id":"a6homw73md6b","adsl":1,"sdsl":0},"type":"Feature","geometry":{"type":"Point","coordinates":[-1.6937,54.642038]}},{"properties":{"latitude":54.549675,"sky":0,"postcode":"DL12 8XA","region":"North East","talktalk":0,"county":"Durham","candw":0,"o2":0,"exchange":"Whorlton","orange":0,"tiscali":0,"longitude":-1.912213,"aol":0,"count":1,"id":"a6homw64ub4f","adsl":1,"sdsl":0},"type":"Feature","geometry":{"type":"Point","coordinates":[-1.912213,54.549675]}},{"properties":{"latitude":54.709017,"sky":0,"postcode":"DL15 0DS","region":"North East","talktalk":0,"county":"Durham","candw":0,"o2":0,"exchange":"Willington","orange":0,"tiscali":0,"longitude":-1.69486,"aol":0,"count":1,"id":"a6homwdj6f78","adsl":1,"sdsl":0},"type":"Feature","geometry":{"type":"Point","coordinates":[-1.69486,54.709017]}},{"properties":{"latitude":54.657251,"sky":0,"postcode":"DL14 0BQ","region":"North East","talktalk":0,"county":"Durham","candw":0,"o2":0,"exchange":"Witton Le Wear","orange":0,"tiscali":0,"longitude":-1.74306,"aol":0,"count":1,"id":"a6homw7lr9ic","adsl":1,"sdsl":0},"type":"Feature","geometry":{"type":"Point","coordinates":[-1.74306,54.657251]}}],"is_temporal":false,"author":{"url":"","metadata":"","contact_name":"","contact_address":"","source":"","contact_phone":""},"source":"","pagination":{"sort":null,"start":0,"total":46,"limit":1000000},"state":"complete","tags":"","published":"2009-03-29T12:15:36Z","id":11283}