{"type":"FeatureCollection","data_type":"Dataset","url_type":null,"permissions":[{"permissions":{"download":true,"view":true},"group_id":"everyone"}],"classification":null,"title":"Chattanooga csv","count":45,"stream_id":113307,"contributor":{"url":"http://geocommons.com/users/26417","name":"billdavis"},"data_attributes":null,"calculation_params":null,"icon_link":null,"link":"http://geocommons.com/overlays/113307.json","extent":[0.0,0.0,0.0,0.0],"geometry_types":null,"unique_name":null,"name":"Chattanooga csv","feature_count":45,"description":"","next_feature":null,"is_raster":false,"short_classification":"Y","stats":{},"features":[{"properties":{"name":null,"st":"TN","geo_score":0.0,"town":"CHATTANOOGA","id":"a68vz6b5vawi","geo_precision":"unmatched","address":"2909 BERKLEY"},"type":"Feature","geometry":null},{"properties":{"name":null,"st":"TN","geo_score":0.0,"town":"CHATTANOOGA","id":"a68vz67blv0j","geo_precision":"unmatched","address":"9205 N HICKORY VALLEY RD"},"type":"Feature","geometry":null},{"properties":{"name":null,"st":"TN","geo_score":0.0,"town":"CHATTANOOGA","id":"a68vz6fh5e1j","geo_precision":"unmatched","address":"7048 PINEBROOK DR"},"type":"Feature","geometry":null},{"properties":{"name":null,"st":"TN","geo_score":0.0,"town":"CHATTANOOGA","id":"a68vz67zz46z","geo_precision":"unmatched","address":"3751 QUEENS RD"},"type":"Feature","geometry":null},{"properties":{"name":null,"st":"TN","geo_score":0.0,"town":"CHATTANOOGA","id":"a68vz667x6ki","geo_precision":"unmatched","address":"4803 MONTCREST CIR"},"type":"Feature","geometry":null},{"properties":{"name":"odom","st":"TN","geo_score":0.0,"town":"CHATTANOOGA","id":"a68vz689xqkx","geo_precision":"unmatched","address":"2508 kirby ave"},"type":"Feature","geometry":null},{"properties":{"name":null,"st":"TN","geo_score":0.0,"town":"CHATTANOOGA","id":"a68vz62nsd4l","geo_precision":"unmatched","address":"3917 WEBB RD"},"type":"Feature","geometry":null},{"properties":{"name":null,"st":"TN","geo_score":0.0,"town":"CHATTANOOGA","id":"a68vz6dzz0jc","geo_precision":"unmatched","address":"9123 EDGEWATER RD"},"type":"Feature","geometry":null},{"properties":{"name":null,"st":"TN","geo_score":0.0,"town":"hixson","id":"a68vz62vknhm","geo_precision":"unmatched","address":"1203 ECHO DR"},"type":"Feature","geometry":null},{"properties":{"name":null,"st":"TN","geo_score":0.0,"town":"signal mountain","id":"a68vz6avxxgl","geo_precision":"unmatched","address":"708 DANBURY DR"},"type":"Feature","geometry":null},{"properties":{"name":null,"st":"TN","geo_score":0.0,"town":"CHATTANOOGA","id":"a68vz652bjxu","geo_precision":"unmatched","address":"2436 NIMITZ ST"},"type":"Feature","geometry":null},{"properties":{"name":null,"st":"TN","geo_score":0.0,"town":"harrison","id":"a68vz65bryxo","geo_precision":"unmatched","address":"7726 LASATA LN"},"type":"Feature","geometry":null},{"properties":{"name":null,"st":"TN","geo_score":0.0,"town":"CHATTANOOGA","id":"a68vz69ie6yg","geo_precision":"unmatched","address":"7708 BASSWOOD DR"},"type":"Feature","geometry":null},{"properties":{"name":null,"st":"TN","geo_score":0.0,"town":"harrison","id":"a68vz6dgw3l6","geo_precision":"unmatched","address":"7501 SHORT TAIL SPRINGS RD"},"type":"Feature","geometry":null},{"properties":{"name":"biggers","st":"TN","geo_score":0.0,"town":"CHATTANOOGA","id":"a68vz6gfpkre","geo_precision":"unmatched","address":"3606 s central"},"type":"Feature","geometry":null},{"properties":{"name":null,"st":"TN","geo_score":0.0,"town":"CHATTANOOGA","id":"a68vz62ngr0h","geo_precision":"unmatched","address":"5720 RIVER GLADE DR"},"type":"Feature","geometry":null},{"properties":{"name":null,"st":"TN","geo_score":0.0,"town":"CHATTANOOGA","id":"a68vz63zdvqm","geo_precision":"unmatched","address":"4838 BELLBROOK DR"},"type":"Feature","geometry":null},{"properties":{"name":null,"st":"TN","geo_score":0.0,"town":"CHATTANOOGA","id":"a68vz68d7bu3","geo_precision":"unmatched","address":"1006 BRYNEWOOD TER"},"type":"Feature","geometry":null},{"properties":{"name":null,"st":"TN","geo_score":0.0,"town":"CHATTANOOGA","id":"a68vz6egp8dl","geo_precision":"unmatched","address":"2909 1/2 BERKLEY DRIVE"},"type":"Feature","geometry":null},{"properties":{"name":null,"st":"TN","geo_score":0.0,"town":"CHATTANOOGA","id":"a68vz6f0xkzt","geo_precision":"unmatched","address":"3311 BONNEVILLE CIR"},"type":"Feature","geometry":null},{"properties":{"name":"WOLF","st":"TN","geo_score":0.0,"town":"CHATTANOOGA","id":"a68vz6epd9lc","geo_precision":"unmatched","address":"4910 15TH AVE"},"type":"Feature","geometry":null},{"properties":{"name":"MCKAIG","st":"TN","geo_score":0.0,"town":"CHATTANOOGA","id":"a68vz6a8829c","geo_precision":"unmatched","address":"7508 BORISS DR"},"type":"Feature","geometry":null},{"properties":{"name":"LADD","st":"TN","geo_score":0.0,"town":"CHATTANOOGA","id":"a68vz6a2uw5o","geo_precision":"unmatched","address":"227 PEACE ST"},"type":"Feature","geometry":null},{"properties":{"name":"STEEN","st":"TN","geo_score":0.0,"town":"CHATTANOOGA","id":"a68vz6eqdw3t","geo_precision":"unmatched","address":"363 DAVID ST"},"type":"Feature","geometry":null},{"properties":{"name":"BOYD","st":"TN","geo_score":0.0,"town":"CHATTANOOGA","id":"a68vz6ejlv6e","geo_precision":"unmatched","address":"1202 E 35TH ST"},"type":"Feature","geometry":null},{"properties":{"name":"HOLT","st":"TN","geo_score":0.0,"town":"HIXSON","id":"a68vz6g17otu","geo_precision":"unmatched","address":"1912 COLONIAL WAY"},"type":"Feature","geometry":null},{"properties":{"name":"HANEY","st":"TN","geo_score":0.0,"town":"CHATTANOOGA","id":"a68vz66g0epo","geo_precision":"unmatched","address":"1815 CHAMBERLAIN AVE"},"type":"Feature","geometry":null},{"properties":{"name":"SMITH MARY","st":"TN","geo_score":0.0,"town":"CHATTANOOGA","id":"a68vz67duxp1","geo_precision":"unmatched","address":"312 GILLESPIE"},"type":"Feature","geometry":null},{"properties":{"name":"ADKINS","st":"TN","geo_score":0.0,"town":"CHATTANOOGA","id":"a68vz642y0bk","geo_precision":"unmatched","address":"406 ADKINS"},"type":"Feature","geometry":null},{"properties":{"name":"JACKSON THEO","st":"TN","geo_score":0.0,"town":"CHATTANOOGA","id":"a68vz633bq5s","geo_precision":"unmatched","address":"3545 COTTONWOOD LN"},"type":"Feature","geometry":null},{"properties":{"name":"MORRIS LINDA","st":"TN","geo_score":0.0,"town":"CHATTANOOGA","id":"a68vz6eqgpdo","geo_precision":"unmatched","address":"1813 CARSON AVE"},"type":"Feature","geometry":null},{"properties":{"name":"ADAMS BEV","st":"TN","geo_score":0.0,"town":"CHATTANOOGA","id":"a68vz67rsk06","geo_precision":"unmatched","address":"4123 VAUGHN RD"},"type":"Feature","geometry":null},{"properties":{"name":"FULCHER","st":"TN","geo_score":0.0,"town":"HIXSON","id":"a68vz61s3a2i","geo_precision":"unmatched","address":"1901 CRYSTAL LAKE LN"},"type":"Feature","geometry":null},{"properties":{"name":"MASSEY","st":"TN","geo_score":0.0,"town":"CHATTANOOGA","id":"a68vz68akvgz","geo_precision":"unmatched","address":"3725 ABERCROMBIE CIR"},"type":"Feature","geometry":null},{"properties":{"name":"TATUM","st":"TN","geo_score":0.0,"town":"CHATTANOOGA","id":"a68vz655fozq","geo_precision":"unmatched","address":"4811 GLENMAR CIR"},"type":"Feature","geometry":null},{"properties":{"name":"JONES ISAAC","st":"TN","geo_score":0.0,"town":"CHATTANOOGA","id":"a68vz65kcb5j","geo_precision":"unmatched","address":"5128 MIMOSA CIR"},"type":"Feature","geometry":null},{"properties":{"name":"HAYNES","st":"TN","geo_score":0.0,"town":"CHATTANOOGA","id":"a68vz67j2ztb","geo_precision":"unmatched","address":"6579 ORANGE PLANK DR"},"type":"Feature","geometry":null},{"properties":{"name":"ODUM","st":"TN","geo_score":0.0,"town":"CHATTANOOGA","id":"a68vz61zrxxy","geo_precision":"unmatched","address":"6575 ORANGE PLANK DR"},"type":"Feature","geometry":null},{"properties":{"name":"WATTS","st":"TN","geo_score":0.0,"town":"CHATTANOOGA","id":"a68vz66c5k3g","geo_precision":"unmatched","address":"908 N MOORE RD"},"type":"Feature","geometry":null},{"properties":{"name":"ROBINSON","st":"TN","geo_score":0.0,"town":"CHATTANOOGA","id":"a68vz626huni","geo_precision":"unmatched","address":"2311 N CHAMBERLAIN"},"type":"Feature","geometry":null},{"properties":{"name":"RICHARDSON","st":"TN","geo_score":0.0,"town":"CHATTANOOGA","id":"a68vz6fdg4gy","geo_precision":"unmatched","address":"4705 GLYNDON DR"},"type":"Feature","geometry":null},{"properties":{"name":"COOK","st":"TN","geo_score":0.0,"town":"LOOKOUT MOUNTAIN","id":"a68vz63o2qm9","geo_precision":"unmatched","address":"112 EASTVIEW DR"},"type":"Feature","geometry":null},{"properties":{"name":"YOUNG","st":"TN","geo_score":0.0,"town":"CHATTANOOGA","id":"a68vz6f9ekon","geo_precision":"unmatched","address":"110 W 45TH ST"},"type":"Feature","geometry":null},{"properties":{"name":"OLIVER BRIAN","st":"TN","geo_score":0.0,"town":"CHATTANOOGA","id":"a68vz65whte5","geo_precision":"unmatched","address":"4517 ST ELMO AVE"},"type":"Feature","geometry":null},{"properties":{"name":"MORTON","st":"TN","geo_score":0.0,"town":"CHATTANOOGA","id":"a68vz65pog9r","geo_precision":"unmatched","address":"708 N MOORE RD"},"type":"Feature","geometry":null}],"is_temporal":false,"author":{"url":"","metadata":"","contact_name":"","contact_address":"","source":"","contact_phone":""},"source":"","pagination":{"sort":null,"start":0,"total":45,"limit":1000000},"state":"complete","tags":"","published":"2014-08-13T01:59:27-04:00","id":113307}