{"type":"FeatureCollection","data_type":"Dataset","url_type":null,"permissions":[{"permissions":{"download":true,"view":true},"group_id":"everyone"}],"classification":null,"title":"Conventional Gas Turbine Power Plants, India, 2009","count":8,"stream_id":11447,"contributor":{"url":"http://geocommons.com/users/955","name":"williambenjaminiv"},"data_attributes":null,"calculation_params":null,"icon_link":null,"link":"http://geocommons.com/overlays/11447.json","extent":[70.0839,13.064,87.5374,34.0503],"geometry_types":["point"],"unique_name":null,"name":"Conventional Gas Turbine Power Plants, India, 2009","feature_count":8,"description":"This dataset includes all the geocoded locations for thermal-electric power plants in India (100 MW and Greater): Diesel Engine Power Plants.  ","next_feature":null,"is_raster":false,"short_classification":"Y","stats":{"latitude":{"max":34.050259,"mean":22.787913375,"variance":36.7899370808788,"stdev":6.06547088698634,"min":13.06397,"median":22.46542},"longitude":{"max":87.53738,"mean":76.77964025,"variance":34.3787460850825,"stdev":5.86333915828536,"min":70.08393,"median":76.766159},"capacity":{"max":216,"mean":146.0,"variance":1528.28571428571,"stdev":39.0932950042039,"min":100,"median":152}},"features":[{"properties":{"name":"Anola","city":"Anola","latitude":27.138439,"fuel":"Natural Gas","owner":"Indian Farmers Fertilizer Cooperative","longitude":80.86235,"capacity":100,"id":"a62d09j73o0h","state":"Uttar Pradesh"},"type":"Feature","geometry":{"type":"Point","coordinates":[80.86235,27.138439]}},{"properties":{"name":"Baroda GIPCL *","city":"Baroda","latitude":22.66755,"fuel":"Natural Gas","owner":"Gujarat Industrial Power Corp. Ltd. (GIPCL)","longitude":72.55271,"capacity":216,"id":"a62d09ow2ytg","state":"Gujarat"},"type":"Feature","geometry":{"type":"Point","coordinates":[72.55271,22.66755]}},{"properties":{"name":"Basin Bridge","city":"Chennai","latitude":13.06397,"fuel":"Naphtha","owner":"GMR Group","longitude":80.24311,"capacity":124,"id":"a62d09pgm2wa","state":"Tamil Nadu"},"type":"Feature","geometry":{"type":"Point","coordinates":[80.24311,13.06397]}},{"properties":{"name":"Haldia Chemicals *","city":"Haldia","latitude":21.68828,"fuel":"Natural Gas","owner":"Haldia Petrochemicals Ltd.","longitude":87.53738,"capacity":104,"id":"a62d09x30p6h","state":"West Bengal"},"type":"Feature","geometry":{"type":"Point","coordinates":[87.53738,21.68828]}},{"properties":{"name":"Hazira RIL *","city":"Hazira","latitude":22.40823,"fuel":"Natural Gas","owner":"Reliance Industries Ltd.","longitude":71.304619,"capacity":165,"id":"a62d09m376ac","state":"Gujarat"},"type":"Feature","geometry":{"type":"Point","coordinates":[71.304619,22.40823]}},{"properties":{"name":"Jamnagar RIL *","city":"Jamnagar","latitude":22.46542,"fuel":"Naphtha","owner":"Reliance Industries Ltd.","longitude":70.08393,"capacity":132,"id":"a62d09robpg6","state":"Gujarat"},"type":"Feature","geometry":{"type":"Point","coordinates":[70.08393,22.46542]}},{"properties":{"name":"Pampore","city":"Pampore","latitude":34.050259,"fuel":"Oil","owner":"Jammu &amp; Kashmir SEB","longitude":74.886864,"capacity":175,"id":"a62d09oah819","state":"Jammu &amp; Kashmir"},"type":"Feature","geometry":{"type":"Point","coordinates":[74.886864,34.050259]}},{"properties":{"name":"South Bassein","city":"Bassein","latitude":18.821159,"fuel":"Oil","owner":"ONGC","longitude":76.766159,"capacity":152,"id":"a62d09o0rfsy","state":"Maharashtra"},"type":"Feature","geometry":{"type":"Point","coordinates":[76.766159,18.821159]}}],"is_temporal":false,"author":{"url":"http://fossil.energy.gov/international/indiover.html","metadata":"http://www.energymanagertraining.com/power_plants/Power_stations.htm","contact_name":"","contact_address":"","source":"U.S. Department of Energy","contact_phone":""},"source":"http://fossil.energy.gov/international/indiover.html","pagination":{"sort":null,"start":0,"total":8,"limit":1000000},"state":"complete","tags":"conventional gas turbine,electricty,energy,environment,infrastructure,power,power plants,thermal,thermal energy","published":"2009-01-01T12:00:00Z","id":11447}