{"type":"FeatureCollection","data_type":"Dataset","url_type":null,"permissions":[{"permissions":{"download":true,"view":true},"group_id":"everyone"}],"classification":null,"title":"Windpower Facilities, India, 2009","count":16,"stream_id":11454,"contributor":{"url":"http://geocommons.com/users/955","name":"williambenjaminiv"},"data_attributes":null,"calculation_params":null,"icon_link":null,"link":"http://geocommons.com/overlays/11454.json","extent":[73.1607,8.94233,82.2557,22.9579],"geometry_types":["point"],"unique_name":null,"name":"Windpower Facilities, India, 2009","feature_count":16,"description":"This dataset includes all the geocoded locations for windpower facilities (10 MW and Greater)in India","next_feature":null,"is_raster":false,"short_classification":"Y","stats":{"latitude":{"max":22.95788,"mean":13.723611875,"variance":18.7267507386857,"stdev":4.32744159275266,"min":8.94233,"median":10.92159},"longitude":{"max":82.255653,"mean":77.472874125,"variance":4.65797674240532,"stdev":2.1582346356236,"min":73.160721,"median":77.774338},"capacity":{"max":259,"mean":32.5625,"variance":3697.4625,"stdev":60.8067636040597,"min":10,"median":15}},"features":[{"properties":{"name":"Cape Comorim","city":"Cape Comorim","latitude":10.82664,"owner":"Aban Lloyd Chiles Offshore Ltd.","longitude":78.297508,"capacity":33,"id":"a62ir74i6tmp","state":"Tamil Nadu"},"type":"Feature","geometry":{"type":"Point","coordinates":[78.297508,10.82664]}},{"properties":{"name":"Chennai Mohan","city":"Chennai","latitude":13.06397,"owner":"Mohan Breweries &amp; Distilleries Ltd.","longitude":80.24311,"capacity":15,"id":"a62ir7bf96r5","state":"Tamil Nadu"},"type":"Feature","geometry":{"type":"Point","coordinates":[80.24311,13.06397]}},{"properties":{"name":"Gujdimangalam","city":"Gujdimangalam","latitude":10.82664,"owner":"Gujdimangalam Wind Farm","longitude":78.297508,"capacity":21,"id":"a62ir78613rx","state":"Tamil Nadu"},"type":"Feature","geometry":{"type":"Point","coordinates":[78.297508,10.82664]}},{"properties":{"name":"Hyderabad APSRTC","city":"Hyderabad","latitude":17.4376,"owner":"Andhra Pradesh State Rapid Transit Corp.","longitude":78.4706,"capacity":10,"id":"a62ir7f8o0ps","state":"Andhra Pradesh"},"type":"Feature","geometry":{"type":"Point","coordinates":[78.4706,17.4376]}},{"properties":{"name":"Jamgudrani MP","city":"Dewas","latitude":22.95788,"owner":"MP Windfarms Ltd.","longitude":76.05794,"capacity":14,"id":"a62ir7blz860","state":"Madhya Pradesh"},"type":"Feature","geometry":{"type":"Point","coordinates":[76.05794,22.95788]}},{"properties":{"name":"Jogmatti BSES","city":"Chitradurga Dist.","latitude":14.21959,"owner":"BSES Ltd.","longitude":76.397972,"capacity":14,"id":"a62ir723w8nx","state":"Karnataka"},"type":"Feature","geometry":{"type":"Point","coordinates":[76.397972,14.21959]}},{"properties":{"name":"Kayathar Subhash","city":"Kayathar","latitude":8.94233,"owner":"Subhash Ltd.","longitude":77.774338,"capacity":30,"id":"a62ir70nrmw6","state":"Tamil Nadu"},"type":"Feature","geometry":{"type":"Point","coordinates":[77.774338,8.94233]}},{"properties":{"name":"Kethanur Wind Farm","city":"Kethanur","latitude":10.92159,"owner":"Kethanur Wind Farm","longitude":77.27123,"capacity":11,"id":"a62ir772pb55","state":"Tamil Nadu"},"type":"Feature","geometry":{"type":"Point","coordinates":[77.27123,10.92159]}},{"properties":{"name":"Lamda Danida","city":"Lamda","latitude":21.59621,"owner":"Danida India Ltd.","longitude":73.160721,"capacity":15,"id":"a62ir7a5jjdg","state":"Gujarat"},"type":"Feature","geometry":{"type":"Point","coordinates":[73.160721,21.59621]}},{"properties":{"name":"Muppandal Madras","city":"Muppandal","latitude":10.82664,"owner":"Madras Cements Ltd.","longitude":78.297508,"capacity":10,"id":"a62ir71n1aid","state":"Tamil Nadu"},"type":"Feature","geometry":{"type":"Point","coordinates":[78.297508,10.82664]}},{"properties":{"name":"Muppandal Wind","city":"Muppandal","latitude":10.82664,"owner":"Muppandal Wind Farm","longitude":78.297508,"capacity":22,"id":"a62ir73f2d4d","state":"Tamil Nadu"},"type":"Feature","geometry":{"type":"Point","coordinates":[78.297508,10.82664]}},{"properties":{"name":"Perungudi Newam","city":"Kethanur Wind Farm","latitude":10.92159,"owner":"Newam Power Company Ltd.","longitude":77.271233,"capacity":12,"id":"a62ir77vlrwx","state":"Tamil Nadu"},"type":"Feature","geometry":{"type":"Point","coordinates":[77.271233,10.92159]}},{"properties":{"name":"Poolavadi Chettinad","city":"Poolavadi","latitude":10.73898,"owner":"Chettinad Cement Corp. Ltd.","longitude":77.30763,"capacity":10,"id":"a62ir6zlou18","state":"Tamil Nadu"},"type":"Feature","geometry":{"type":"Point","coordinates":[77.30763,10.73898]}},{"properties":{"name":"Puthlur RCI","city":"Puthlur","latitude":17.243771,"owner":"Wescare (India) Ltd.","longitude":82.255653,"capacity":20,"id":"a62ir7347412","state":"Andhra Pradesh"},"type":"Feature","geometry":{"type":"Point","coordinates":[82.255653,17.243771]}},{"properties":{"name":"Ramakkalmedu","city":"Ramakkalmedu","latitude":10.54737,"owner":"Subhash Ltd.","longitude":76.138237,"capacity":25,"id":"a62ir7fjuvno","state":"Kerala"},"type":"Feature","geometry":{"type":"Point","coordinates":[76.138237,10.54737]}},{"properties":{"name":"Vankusawade Wind Park","city":"Satara Dist.","latitude":17.680349,"owner":"Suzlon Energy Ltd.","longitude":74.02729,"capacity":259,"id":"a62ir78r7mf2","state":"Maharashtra"},"type":"Feature","geometry":{"type":"Point","coordinates":[74.02729,17.680349]}}],"is_temporal":false,"author":{"url":"http://fossil.energy.gov/international/indiover.html","metadata":"http://www.energymanagertraining.com/power_plants/Power_stations.htm","contact_name":"","contact_address":"","source":"U.S. Department of Energy","contact_phone":""},"source":"http://fossil.energy.gov/international/indiover.html","pagination":{"sort":null,"start":0,"total":16,"limit":1000000},"state":"complete","tags":"electricty,energy,environment,infrastructure,power,thermal,wind","published":"2009-01-01T12:00:00Z","id":11454}