{"type":"FeatureCollection","data_type":"Dataset","url_type":null,"permissions":[{"permissions":{"download":true,"view":true},"group_id":"everyone"}],"classification":null,"title":"boral","count":9,"stream_id":11461,"contributor":{"url":"http://geocommons.com/users/3995","name":"amazon"},"data_attributes":null,"calculation_params":null,"icon_link":null,"link":"http://geocommons.com/overlays/11461.json","extent":[-88.5958,36.9946,-82.6436,38.8666],"geometry_types":["point"],"unique_name":null,"name":"boral","feature_count":9,"description":"boral","next_feature":null,"is_raster":false,"short_classification":"Y","stats":{"lat":{"max":38.866651,"mean":37.8078578888889,"variance":0.442616596111361,"stdev":0.66529436801416,"min":36.994625,"median":37.752545},"long":{"max":-82.643574,"mean":-85.1212736666667,"variance":3.25720276490474,"stdev":1.80477221967337,"min":-88.595834,"median":-84.611691}},"features":[{"properties":{"city":"Bowling Green","name":"Boral","id":"a665vjhfzddf","lat":36.994625,"state":"ky","long":-86.445584},"type":"Feature","geometry":{"type":"Point","coordinates":[-86.445584,36.994625]}},{"properties":{"city":"Elizabethtown","name":"Boral","id":"a665vjmyozqo","lat":37.693675,"state":"ky","long":-85.859124},"type":"Feature","geometry":{"type":"Point","coordinates":[-85.859124,37.693675]}},{"properties":{"city":"Lexington","name":"Clay Ingels","id":"a665vjjonmhu","lat":38.048595,"state":"ky","long":-84.500319},"type":"Feature","geometry":{"type":"Point","coordinates":[-84.500319,38.048595]}},{"properties":{"city":"Louisville","name":"Boral","id":"a665vjo1tmcm","lat":38.25486,"state":"ky","long":-85.766404},"type":"Feature","geometry":{"type":"Point","coordinates":[-85.766404,38.25486]}},{"properties":{"city":"Paducah","name":"Boral","id":"a665vjr1efdy","lat":37.08571,"state":"ky","long":-88.595834},"type":"Feature","geometry":{"type":"Point","coordinates":[-88.595834,37.08571]}},{"properties":{"city":"Salyersville","name":"Eagle Masonry","id":"a665vjldhcyu","lat":37.752545,"state":"ky","long":-83.068099},"type":"Feature","geometry":{"type":"Point","coordinates":[-83.068099,37.752545]}},{"properties":{"city":"Walton","name":"Boral","id":"a665vjjwflct","lat":38.866651,"state":"ky","long":-84.611691},"type":"Feature","geometry":{"type":"Point","coordinates":[-84.611691,38.866651]}},{"properties":{"city":"ashland","name":"Portsmouth Block","id":"a665vjnmtaf0","lat":38.480685,"state":"ky","long":-82.643574},"type":"Feature","geometry":{"type":"Point","coordinates":[-82.643574,38.480685]}},{"properties":{"city":"somerset","name":"Readymix","id":"a665vjpbns1t","lat":37.093375,"state":"ky","long":-84.600834},"type":"Feature","geometry":{"type":"Point","coordinates":[-84.600834,37.093375]}}],"is_temporal":false,"author":{"url":"","metadata":"","contact_name":"","contact_address":"","source":"","contact_phone":""},"source":"","pagination":{"sort":null,"start":0,"total":9,"limit":1000000},"state":"complete","tags":"boral","published":"2009-04-02T12:00:00Z","id":11461}