{"type":"FeatureCollection","data_type":"Dataset","url_type":null,"permissions":[{"permissions":{"download":true,"view":true},"group_id":"everyone"}],"classification":null,"title":"italy","count":513,"stream_id":114660,"contributor":{"url":"http://geocommons.com/users/26550","name":"seregus"},"data_attributes":null,"calculation_params":null,"icon_link":null,"link":"http://geocommons.com/overlays/114660.json","extent":[7.31,36.72,18.36,46.6691],"geometry_types":["point"],"unique_name":null,"name":"italy","feature_count":513,"description":"","next_feature":null,"is_raster":false,"short_classification":"Y","stats":{"latitude":{"max":46.6691,"mean":41.8349855360624,"variance":7.23640447285133,"stdev":2.69005659287148,"min":36.72,"median":41.47},"id":{"max":48488,"mean":45798.0233918129,"variance":3914019.45257676,"stdev":1978.38809452967,"min":40487,"median":46325},"users":{"max":791138,"mean":11142.0838206628,"variance":2508039986.75663,"stdev":50080.335329914,"min":1002,"median":2331},"longitude":{"max":18.36,"mean":13.1189698245614,"variance":7.76297316115837,"stdev":2.78621125565855,"min":7.31,"median":13.51}},"features":[{"properties":{"city":"Collegno","latitude":45.07,"id":"a62a7e2ctytl","users":1264,"longitude":7.58},"type":"Feature","geometry":{"type":"Point","coordinates":[7.58,45.07]}},{"properties":{"city":"Ivrea","latitude":45.4666,"id":"a62a7e271vf9","users":2305,"longitude":7.87594},"type":"Feature","geometry":{"type":"Point","coordinates":[7.87594,45.4666]}},{"properties":{"city":"Moncalieri","latitude":45.0,"id":"a62a7edstmqz","users":1270,"longitude":7.7},"type":"Feature","geometry":{"type":"Point","coordinates":[7.7,45.0]}},{"properties":{"city":"Nichelino","latitude":45.0,"id":"a62a7e8x1bne","users":1632,"longitude":7.65},"type":"Feature","geometry":{"type":"Point","coordinates":[7.65,45.0]}},{"properties":{"city":"Pinerolo","latitude":44.88,"id":"a62a7e81g0xa","users":1769,"longitude":7.33},"type":"Feature","geometry":{"type":"Point","coordinates":[7.33,44.88]}},{"properties":{"city":"Rivoli","latitude":45.07,"id":"a62a7e47jqfe","users":1245,"longitude":7.52},"type":"Feature","geometry":{"type":"Point","coordinates":[7.52,45.07]}},{"properties":{"city":"Settimo Torinese","latitude":45.14,"id":"a62a7e2rq7q9","users":1266,"longitude":7.77},"type":"Feature","geometry":{"type":"Point","coordinates":[7.77,45.14]}},{"properties":{"city":"Torino","latitude":45.07056,"id":"a62a7eer55a8","users":230091,"longitude":7.68661},"type":"Feature","geometry":{"type":"Point","coordinates":[7.68661,45.07056]}},{"properties":{"city":"Venaria Reale","latitude":45.13,"id":"a62a7e7es024","users":1023,"longitude":7.63},"type":"Feature","geometry":{"type":"Point","coordinates":[7.63,45.13]}},{"properties":{"city":"Acqui Terme","latitude":44.68,"id":"a62a7e9jxs8y","users":1497,"longitude":8.47},"type":"Feature","geometry":{"type":"Point","coordinates":[8.47,44.68]}},{"properties":{"city":"Alessandria","latitude":44.91,"id":"a62a7e63ve3i","users":15688,"longitude":8.61},"type":"Feature","geometry":{"type":"Point","coordinates":[8.61,44.91]}},{"properties":{"city":"Casale Monferrato","latitude":45.13,"id":"a62a7e131zpj","users":2685,"longitude":8.45},"type":"Feature","geometry":{"type":"Point","coordinates":[8.45,45.13]}},{"properties":{"city":"Novi Ligure","latitude":44.76,"id":"a62a7ee0daig","users":2098,"longitude":8.79},"type":"Feature","geometry":{"type":"Point","coordinates":[8.79,44.76]}},{"properties":{"city":"Tortona","latitude":44.9,"id":"a62a7e08pskp","users":1758,"longitude":8.86},"type":"Feature","geometry":{"type":"Point","coordinates":[8.86,44.9]}},{"properties":{"city":"Valenza","latitude":45.01,"id":"a62a7dzhkdt6","users":1151,"longitude":8.64},"type":"Feature","geometry":{"type":"Point","coordinates":[8.64,45.01]}},{"properties":{"city":"Asti","latitude":44.9,"id":"a62a7e1ntx09","users":10056,"longitude":8.21},"type":"Feature","geometry":{"type":"Point","coordinates":[8.21,44.9]}},{"properties":{"city":"Biella","latitude":45.57,"id":"a62a7e4q6cbs","users":8302,"longitude":8.05},"type":"Feature","geometry":{"type":"Point","coordinates":[8.05,45.57]}},{"properties":{"city":"Alba","latitude":44.69,"id":"a62a7edo7und","users":2975,"longitude":8.03},"type":"Feature","geometry":{"type":"Point","coordinates":[8.03,44.69]}},{"properties":{"city":"Bra","latitude":44.7,"id":"a62a7e67na98","users":1513,"longitude":7.85},"type":"Feature","geometry":{"type":"Point","coordinates":[7.85,44.7]}},{"properties":{"city":"Cuneo","latitude":44.38,"id":"a62a7ecjlq5q","users":9216,"longitude":7.54},"type":"Feature","geometry":{"type":"Point","coordinates":[7.54,44.38]}},{"properties":{"city":"Fossano","latitude":44.55,"id":"a62a7e6q81oy","users":1023,"longitude":7.72},"type":"Feature","geometry":{"type":"Point","coordinates":[7.72,44.55]}},{"properties":{"city":"Mondovì","latitude":44.39,"id":"a62a7ebi73f2","users":1130,"longitude":7.82},"type":"Feature","geometry":{"type":"Point","coordinates":[7.82,44.39]}},{"properties":{"city":"Arona","latitude":45.75,"id":"a62a7e8tkmci","users":1478,"longitude":8.56},"type":"Feature","geometry":{"type":"Point","coordinates":[8.56,45.75]}},{"properties":{"city":"Borgomanero","latitude":45.7,"id":"a62a7e70e2jg","users":1551,"longitude":8.46},"type":"Feature","geometry":{"type":"Point","coordinates":[8.46,45.7]}},{"properties":{"city":"Novara","latitude":45.45,"id":"a62a7eahzbw5","users":15854,"longitude":8.62},"type":"Feature","geometry":{"type":"Point","coordinates":[8.62,45.45]}},{"properties":{"city":"Domodossola","latitude":46.12,"id":"a62a7e3wje7w","users":2095,"longitude":8.29},"type":"Feature","geometry":{"type":"Point","coordinates":[8.29,46.12]}},{"properties":{"city":"Verbania","latitude":45.94,"id":"a62a7e1fuwt0","users":4271,"longitude":8.57},"type":"Feature","geometry":{"type":"Point","coordinates":[8.57,45.94]}},{"properties":{"city":"Vercelli","latitude":45.32,"id":"a62a7dyno515","users":6647,"longitude":8.42},"type":"Feature","geometry":{"type":"Point","coordinates":[8.42,45.32]}},{"properties":{"city":"Aosta","latitude":45.74,"id":"a62a7eb8miw4","users":5895,"longitude":7.31},"type":"Feature","geometry":{"type":"Point","coordinates":[7.31,45.74]}},{"properties":{"city":"Cinisello Balsamo","latitude":45.56,"id":"a62a7dz38v0a","users":1926,"longitude":9.21},"type":"Feature","geometry":{"type":"Point","coordinates":[9.21,45.56]}},{"properties":{"city":"Cologno Monzese","latitude":45.53,"id":"a62a7ed06oe4","users":1165,"longitude":9.28},"type":"Feature","geometry":{"type":"Point","coordinates":[9.28,45.53]}},{"properties":{"city":"Desio","latitude":45.62,"id":"a62a7dzn3swn","users":1188,"longitude":9.21},"type":"Feature","geometry":{"type":"Point","coordinates":[9.21,45.62]}},{"properties":{"city":"Legnano","latitude":45.59,"id":"a62a7edkkjak","users":3026,"longitude":8.92},"type":"Feature","geometry":{"type":"Point","coordinates":[8.92,45.59]}},{"properties":{"city":"Lissone","latitude":45.61,"id":"a62a7e298879","users":1091,"longitude":9.24},"type":"Feature","geometry":{"type":"Point","coordinates":[9.24,45.61]}},{"properties":{"city":"Milano","latitude":45.46368,"id":"a62a7ed4bdzi","users":523106,"longitude":9.18814},"type":"Feature","geometry":{"type":"Point","coordinates":[9.18814,45.46368]}},{"properties":{"city":"Monza","latitude":45.584,"id":"a62a7e9cx0c0","users":8854,"longitude":9.27301},"type":"Feature","geometry":{"type":"Point","coordinates":[9.27301,45.584]}},{"properties":{"city":"Rho","latitude":45.53,"id":"a62a7e5ygxy6","users":1495,"longitude":9.04},"type":"Feature","geometry":{"type":"Point","coordinates":[9.04,45.53]}},{"properties":{"city":"Seregno","latitude":45.65,"id":"a62a7e58wpxb","users":1345,"longitude":9.2},"type":"Feature","geometry":{"type":"Point","coordinates":[9.2,45.65]}},{"properties":{"city":"Sesto San Giovanni","latitude":45.53,"id":"a62a7edadvot","users":2944,"longitude":9.23},"type":"Feature","geometry":{"type":"Point","coordinates":[9.23,45.53]}},{"properties":{"city":"Bergamo","latitude":45.69,"id":"a62a7ebyoj8r","users":38572,"longitude":9.67},"type":"Feature","geometry":{"type":"Point","coordinates":[9.67,45.69]}},{"properties":{"city":"Romano di Lombardia","latitude":45.52,"id":"a62a7ee1xrml","users":1300,"longitude":9.76},"type":"Feature","geometry":{"type":"Point","coordinates":[9.76,45.52]}},{"properties":{"city":"Treviglio","latitude":45.52,"id":"a62a7e7kts0o","users":1317,"longitude":9.59},"type":"Feature","geometry":{"type":"Point","coordinates":[9.59,45.52]}},{"properties":{"city":"Brescia","latitude":45.54,"id":"a62a7ec5vhdx","users":52835,"longitude":10.21},"type":"Feature","geometry":{"type":"Point","coordinates":[10.21,45.54]}},{"properties":{"city":"Desenzano del Garda","latitude":45.46888,"id":"a62a7e26rzy2","users":2656,"longitude":10.53495},"type":"Feature","geometry":{"type":"Point","coordinates":[10.53495,45.46888]}},{"properties":{"city":"Cantù","latitude":45.74,"id":"a62a7e82cb06","users":1741,"longitude":9.13},"type":"Feature","geometry":{"type":"Point","coordinates":[9.13,45.74]}},{"properties":{"city":"Como","latitude":45.81,"id":"a62a7dyxkler","users":21200,"longitude":9.08},"type":"Feature","geometry":{"type":"Point","coordinates":[9.08,45.81]}},{"properties":{"city":"Crema","latitude":45.36,"id":"a62a7ee0dsic","users":3057,"longitude":9.69},"type":"Feature","geometry":{"type":"Point","coordinates":[9.69,45.36]}},{"properties":{"city":"Cremona","latitude":45.14,"id":"a62a7eabvbnb","users":8582,"longitude":10.02},"type":"Feature","geometry":{"type":"Point","coordinates":[10.02,45.14]}},{"properties":{"city":"Lecco","latitude":45.86,"id":"a62a7dyxoq7w","users":8442,"longitude":9.41},"type":"Feature","geometry":{"type":"Point","coordinates":[9.41,45.86]}},{"properties":{"city":"Lodi","latitude":45.31287,"id":"a62a7e7g3ulw","users":5027,"longitude":9.49785},"type":"Feature","geometry":{"type":"Point","coordinates":[9.49785,45.31287]}},{"properties":{"city":"Mantova","latitude":45.15,"id":"a62a7ebpdsfn","users":14963,"longitude":10.78},"type":"Feature","geometry":{"type":"Point","coordinates":[10.78,45.15]}},{"properties":{"city":"Pavia","latitude":45.19,"id":"a62a7e5rinzm","users":12856,"longitude":9.16},"type":"Feature","geometry":{"type":"Point","coordinates":[9.16,45.19]}},{"properties":{"city":"Vigevano","latitude":45.32,"id":"a62a7ed7n3n5","users":3979,"longitude":8.86},"type":"Feature","geometry":{"type":"Point","coordinates":[8.86,45.32]}},{"properties":{"city":"Voghera","latitude":44.99,"id":"a62a7e09e0l1","users":2328,"longitude":9.01},"type":"Feature","geometry":{"type":"Point","coordinates":[9.01,44.99]}},{"properties":{"city":"Sondrio","latitude":46.17,"id":"a62a7e116cmj","users":3171,"longitude":9.87},"type":"Feature","geometry":{"type":"Point","coordinates":[9.87,46.17]}},{"properties":{"city":"Busto Arsizio","latitude":45.61,"id":"a62a7eaq98wx","users":4210,"longitude":8.85},"type":"Feature","geometry":{"type":"Point","coordinates":[8.85,45.61]}},{"properties":{"city":"Gallarate","latitude":45.66,"id":"a62a7ed7re2b","users":3653,"longitude":8.79},"type":"Feature","geometry":{"type":"Point","coordinates":[8.79,45.66]}},{"properties":{"city":"Luino","latitude":46.0,"id":"a62a7dzqexas","users":1294,"longitude":8.75},"type":"Feature","geometry":{"type":"Point","coordinates":[8.75,46.0]}},{"properties":{"city":"Saronno","latitude":45.63,"id":"a62a7e5comp3","users":2396,"longitude":9.03},"type":"Feature","geometry":{"type":"Point","coordinates":[9.03,45.63]}},{"properties":{"city":"Varese","latitude":45.82,"id":"a62a7ed6tu2h","users":21007,"longitude":8.83},"type":"Feature","geometry":{"type":"Point","coordinates":[8.83,45.82]}},{"properties":{"city":"Arco","latitude":45.92,"id":"a62a7edsfv8k","users":1082,"longitude":10.88},"type":"Feature","geometry":{"type":"Point","coordinates":[10.88,45.92]}},{"properties":{"city":"Riva del Garda","latitude":45.89,"id":"a62a7e1rojh7","users":1380,"longitude":10.84},"type":"Feature","geometry":{"type":"Point","coordinates":[10.84,45.89]}},{"properties":{"city":"Rovereto","latitude":45.89,"id":"a62a7e3e4i68","users":3555,"longitude":11.04},"type":"Feature","geometry":{"type":"Point","coordinates":[11.04,45.89]}},{"properties":{"city":"Trento","latitude":46.06,"id":"a62a7e2f3irb","users":19311,"longitude":11.12},"type":"Feature","geometry":{"type":"Point","coordinates":[11.12,46.06]}},{"properties":{"city":"Bolzano-Bozen","latitude":46.5,"id":"a62a7e91oepe","users":12319,"longitude":11.35},"type":"Feature","geometry":{"type":"Point","coordinates":[11.35,46.5]}},{"properties":{"city":"Merano-Meran","latitude":46.6691,"id":"a62a7edtvyuw","users":2228,"longitude":11.16398},"type":"Feature","geometry":{"type":"Point","coordinates":[11.16398,46.6691]}},{"properties":{"city":"Chioggia","latitude":45.22,"id":"a62a7e27kfzm","users":2387,"longitude":12.28},"type":"Feature","geometry":{"type":"Point","coordinates":[12.28,45.22]}},{"properties":{"city":"Iesolo","latitude":45.54,"id":"a62a7e0zbhdv","users":1039,"longitude":12.64},"type":"Feature","geometry":{"type":"Point","coordinates":[12.64,45.54]}},{"properties":{"city":"Mira","latitude":45.43,"id":"a62a7e6c6s6v","users":1136,"longitude":12.13},"type":"Feature","geometry":{"type":"Point","coordinates":[12.13,45.43]}},{"properties":{"city":"Mirano","latitude":45.49,"id":"a62a7e0vccap","users":1088,"longitude":12.11},"type":"Feature","geometry":{"type":"Point","coordinates":[12.11,45.49]}},{"properties":{"city":"Portogruaro","latitude":45.78,"id":"a62a7e86ksyo","users":1487,"longitude":12.84},"type":"Feature","geometry":{"type":"Point","coordinates":[12.84,45.78]}},{"properties":{"city":"San Donà di Piave","latitude":45.63,"id":"a62a7e15vedy","users":1720,"longitude":12.57},"type":"Feature","geometry":{"type":"Point","coordinates":[12.57,45.63]}},{"properties":{"city":"Spinea","latitude":45.49,"id":"a62a7e7gngz4","users":1117,"longitude":12.17},"type":"Feature","geometry":{"type":"Point","coordinates":[12.17,45.49]}},{"properties":{"city":"Venezia","latitude":45.43433,"id":"a62a7e9xttaw","users":35263,"longitude":12.33878},"type":"Feature","geometry":{"type":"Point","coordinates":[12.33878,45.43433]}},{"properties":{"city":"Belluno","latitude":46.15,"id":"a62a7e2fwexg","users":5206,"longitude":12.22},"type":"Feature","geometry":{"type":"Point","coordinates":[12.22,46.15]}},{"properties":{"city":"Feltre","latitude":46.01652,"id":"a62a7eb33jpm","users":1213,"longitude":11.90572},"type":"Feature","geometry":{"type":"Point","coordinates":[11.90572,46.01652]}},{"properties":{"city":"Abano Terme","latitude":45.36,"id":"a62a7e99ouwe","users":1169,"longitude":11.79},"type":"Feature","geometry":{"type":"Point","coordinates":[11.79,45.36]}},{"properties":{"city":"Padova","latitude":45.40956,"id":"a62a7e1rd53w","users":45736,"longitude":11.87658},"type":"Feature","geometry":{"type":"Point","coordinates":[11.87658,45.40956]}},{"properties":{"city":"Rovigo","latitude":45.07,"id":"a62a7dzycu9w","users":6792,"longitude":11.79},"type":"Feature","geometry":{"type":"Point","coordinates":[11.79,45.07]}},{"properties":{"city":"Castelfranco Veneto","latitude":45.67,"id":"a62a7ecp3v0h","users":1838,"longitude":11.93},"type":"Feature","geometry":{"type":"Point","coordinates":[11.93,45.67]}},{"properties":{"city":"Conegliano","latitude":45.89,"id":"a62a7e1v2grb","users":2926,"longitude":12.3},"type":"Feature","geometry":{"type":"Point","coordinates":[12.3,45.89]}},{"properties":{"city":"Mogliano Veneto","latitude":45.56,"id":"a62a7e8ljd7q","users":1084,"longitude":12.23},"type":"Feature","geometry":{"type":"Point","coordinates":[12.23,45.56]}},{"properties":{"city":"Montebelluna","latitude":45.78,"id":"a62a7e131pxk","users":1528,"longitude":12.05},"type":"Feature","geometry":{"type":"Point","coordinates":[12.05,45.78]}},{"properties":{"city":"Treviso","latitude":45.66628,"id":"a62a7e6raa63","users":26578,"longitude":12.24207},"type":"Feature","geometry":{"type":"Point","coordinates":[12.24207,45.66628]}},{"properties":{"city":"Vittorio Veneto","latitude":45.98,"id":"a62a7e82l2hw","users":1237,"longitude":12.3},"type":"Feature","geometry":{"type":"Point","coordinates":[12.3,45.98]}},{"properties":{"city":"Legnago","latitude":45.19,"id":"a62a7e4cxagv","users":1084,"longitude":11.31},"type":"Feature","geometry":{"type":"Point","coordinates":[11.31,45.19]}},{"properties":{"city":"Verona","latitude":45.43836,"id":"a62a7e719rbq","users":51958,"longitude":10.99174},"type":"Feature","geometry":{"type":"Point","coordinates":[10.99174,45.43836]}},{"properties":{"city":"Villafranca di Verona","latitude":45.35,"id":"a62a7e57kna0","users":1241,"longitude":10.85},"type":"Feature","geometry":{"type":"Point","coordinates":[10.85,45.35]}},{"properties":{"city":"Bassano del Grappa","latitude":45.77,"id":"a62a7e76v63c","users":3825,"longitude":11.73},"type":"Feature","geometry":{"type":"Point","coordinates":[11.73,45.77]}},{"properties":{"city":"Schio","latitude":45.71,"id":"a62a7ebkxqhd","users":1453,"longitude":11.36},"type":"Feature","geometry":{"type":"Point","coordinates":[11.36,45.71]}},{"properties":{"city":"Thiene","latitude":45.71,"id":"a62a7eawm3td","users":1091,"longitude":11.48},"type":"Feature","geometry":{"type":"Point","coordinates":[11.48,45.71]}},{"properties":{"city":"Vicenza","latitude":45.55,"id":"a62a7ectwmc5","users":26668,"longitude":11.55},"type":"Feature","geometry":{"type":"Point","coordinates":[11.55,45.55]}},{"properties":{"city":"Trieste","latitude":45.66,"id":"a62a7dz0amr1","users":24485,"longitude":13.78},"type":"Feature","geometry":{"type":"Point","coordinates":[13.78,45.66]}},{"properties":{"city":"Gorizia","latitude":45.94,"id":"a62a7e6hbx76","users":4393,"longitude":13.62},"type":"Feature","geometry":{"type":"Point","coordinates":[13.62,45.94]}},{"properties":{"city":"Monfalcone","latitude":45.81,"id":"a62a7ebsu5jr","users":2302,"longitude":13.53},"type":"Feature","geometry":{"type":"Point","coordinates":[13.53,45.81]}},{"properties":{"city":"Pordenone","latitude":45.96,"id":"a62a7e70leik","users":10616,"longitude":12.66},"type":"Feature","geometry":{"type":"Point","coordinates":[12.66,45.96]}},{"properties":{"city":"Sacile","latitude":45.95,"id":"a62a7eeqgw9c","users":1033,"longitude":12.5},"type":"Feature","geometry":{"type":"Point","coordinates":[12.5,45.95]}},{"properties":{"city":"Udine","latitude":46.06,"id":"a62a7e2cxgb7","users":23033,"longitude":13.24},"type":"Feature","geometry":{"type":"Point","coordinates":[13.24,46.06]}},{"properties":{"city":"Chiavari","latitude":44.32,"id":"a62a7e3mxupa","users":2488,"longitude":9.32},"type":"Feature","geometry":{"type":"Point","coordinates":[9.32,44.32]}},{"properties":{"city":"Genova","latitude":44.42,"id":"a62a7e2xj0xe","users":67081,"longitude":8.9},"type":"Feature","geometry":{"type":"Point","coordinates":[8.9,44.42]}},{"properties":{"city":"Rapallo","latitude":44.35,"id":"a62a7eckheot","users":1851,"longitude":9.23},"type":"Feature","geometry":{"type":"Point","coordinates":[9.23,44.35]}},{"properties":{"city":"Sestri Levante","latitude":44.27,"id":"a62a7dz15zk7","users":1185,"longitude":9.39},"type":"Feature","geometry":{"type":"Point","coordinates":[9.39,44.27]}},{"properties":{"city":"Bordighera","latitude":43.78,"id":"a62a7e6cfqlf","users":1040,"longitude":7.66},"type":"Feature","geometry":{"type":"Point","coordinates":[7.66,43.78]}},{"properties":{"city":"Imperia","latitude":43.89,"id":"a62a7e3g1p54","users":6005,"longitude":8.03},"type":"Feature","geometry":{"type":"Point","coordinates":[8.03,43.89]}},{"properties":{"city":"San Remo","latitude":43.82,"id":"a62a7e7rleak","users":4883,"longitude":7.77},"type":"Feature","geometry":{"type":"Point","coordinates":[7.77,43.82]}},{"properties":{"city":"Ventimiglia","latitude":43.79,"id":"a62a7ecuafdx","users":2374,"longitude":7.61},"type":"Feature","geometry":{"type":"Point","coordinates":[7.61,43.79]}},{"properties":{"city":"La Spezia","latitude":44.1,"id":"a62a7dze7t47","users":15132,"longitude":9.82},"type":"Feature","geometry":{"type":"Point","coordinates":[9.82,44.1]}},{"properties":{"city":"Sarzana","latitude":44.11,"id":"a62a7ea58v5q","users":2104,"longitude":9.96},"type":"Feature","geometry":{"type":"Point","coordinates":[9.96,44.11]}},{"properties":{"city":"Albenga","latitude":44.05,"id":"a62a7e1av65w","users":1748,"longitude":8.21},"type":"Feature","geometry":{"type":"Point","coordinates":[8.21,44.05]}},{"properties":{"city":"Savona","latitude":44.31107,"id":"a62a7e1rziue","users":9398,"longitude":8.47724},"type":"Feature","geometry":{"type":"Point","coordinates":[8.47724,44.31107]}},{"properties":{"city":"Bologna","latitude":44.5,"id":"a62a7dz06k53","users":119332,"longitude":11.34},"type":"Feature","geometry":{"type":"Point","coordinates":[11.34,44.5]}},{"properties":{"city":"Imola","latitude":44.35,"id":"a62a7e6axov0","users":5106,"longitude":11.71},"type":"Feature","geometry":{"type":"Point","coordinates":[11.71,44.35]}},{"properties":{"city":"Cento","latitude":44.73,"id":"a62a7e8arfty","users":1343,"longitude":11.29},"type":"Feature","geometry":{"type":"Point","coordinates":[11.29,44.73]}},{"properties":{"city":"Ferrara","latitude":44.83789,"id":"a62a7e0rzm46","users":17127,"longitude":11.62044},"type":"Feature","geometry":{"type":"Point","coordinates":[11.62044,44.83789]}},{"properties":{"city":"Cesena","latitude":44.14,"id":"a62a7edydfar","users":9693,"longitude":12.24},"type":"Feature","geometry":{"type":"Point","coordinates":[12.24,44.14]}},{"properties":{"city":"Cesenatico","latitude":44.2,"id":"a62a7e4vec65","users":2486,"longitude":12.4},"type":"Feature","geometry":{"type":"Point","coordinates":[12.4,44.2]}},{"properties":{"city":"Forlì","latitude":44.22,"id":"a62a7e6s296r","users":12168,"longitude":12.05},"type":"Feature","geometry":{"type":"Point","coordinates":[12.05,44.22]}},{"properties":{"city":"Carpi","latitude":44.78,"id":"a62a7e0mq0cs","users":4405,"longitude":10.88},"type":"Feature","geometry":{"type":"Point","coordinates":[10.88,44.78]}},{"properties":{"city":"Castelfranco Emilia","latitude":44.59,"id":"a62a7eczwwvy","users":1112,"longitude":11.05},"type":"Feature","geometry":{"type":"Point","coordinates":[11.05,44.59]}},{"properties":{"city":"Fiorano Modenese","latitude":44.54,"id":"a62a7e19racy","users":1027,"longitude":10.81},"type":"Feature","geometry":{"type":"Point","coordinates":[10.81,44.54]}},{"properties":{"city":"Formigine","latitude":44.57,"id":"a62a7e6964r1","users":1380,"longitude":10.85},"type":"Feature","geometry":{"type":"Point","coordinates":[10.85,44.57]}},{"properties":{"city":"Maranello","latitude":44.53,"id":"a62a7e9ppqkg","users":1319,"longitude":10.87},"type":"Feature","geometry":{"type":"Point","coordinates":[10.87,44.53]}},{"properties":{"city":"Mirandola","latitude":44.89,"id":"a62a7e1p0wk1","users":1107,"longitude":11.07},"type":"Feature","geometry":{"type":"Point","coordinates":[11.07,44.89]}},{"properties":{"city":"Modena","latitude":44.65,"id":"a62a7dyrkjkq","users":38758,"longitude":10.93},"type":"Feature","geometry":{"type":"Point","coordinates":[10.93,44.65]}},{"properties":{"city":"Sassuolo","latitude":44.54,"id":"a62a7e0fp4xk","users":3833,"longitude":10.78},"type":"Feature","geometry":{"type":"Point","coordinates":[10.78,44.54]}},{"properties":{"city":"Vignola","latitude":44.48,"id":"a62a7dzygpb4","users":1174,"longitude":11.01},"type":"Feature","geometry":{"type":"Point","coordinates":[11.01,44.48]}},{"properties":{"city":"Fidenza","latitude":44.87,"id":"a62a7e3ewhuc","users":1290,"longitude":10.07},"type":"Feature","geometry":{"type":"Point","coordinates":[10.07,44.87]}},{"properties":{"city":"Parma","latitude":44.80786,"id":"a62a7ea4eja8","users":29271,"longitude":10.32954},"type":"Feature","geometry":{"type":"Point","coordinates":[10.32954,44.80786]}},{"properties":{"city":"Piacenza","latitude":45.05,"id":"a62a7e2af9nw","users":12853,"longitude":9.69},"type":"Feature","geometry":{"type":"Point","coordinates":[9.69,45.05]}},{"properties":{"city":"Cervia","latitude":44.26,"id":"a62a7e3xvq4a","users":2347,"longitude":12.35},"type":"Feature","geometry":{"type":"Point","coordinates":[12.35,44.26]}},{"properties":{"city":"Faenza","latitude":44.29,"id":"a62a7eauo5dl","users":3586,"longitude":11.88},"type":"Feature","geometry":{"type":"Point","coordinates":[11.88,44.29]}},{"properties":{"city":"Lugo","latitude":43.01208,"id":"a62a7ea89uo6","users":1588,"longitude":7.55585},"type":"Feature","geometry":{"type":"Point","coordinates":[7.55585,43.01208]}},{"properties":{"city":"Ravenna","latitude":44.42,"id":"a62a7dzc8f0m","users":17758,"longitude":12.2},"type":"Feature","geometry":{"type":"Point","coordinates":[12.2,44.42]}},{"properties":{"city":"Correggio","latitude":44.77,"id":"a62a7e5sw6wx","users":1258,"longitude":10.78},"type":"Feature","geometry":{"type":"Point","coordinates":[10.78,44.77]}},{"properties":{"city":"Reggio nell'Emilia","latitude":44.7,"id":"a62a7e5zjmjz","users":25664,"longitude":10.63},"type":"Feature","geometry":{"type":"Point","coordinates":[10.63,44.7]}},{"properties":{"city":"Rubiera","latitude":44.65,"id":"a62a7e7avrzf","users":1721,"longitude":10.78},"type":"Feature","geometry":{"type":"Point","coordinates":[10.78,44.65]}},{"properties":{"city":"Scandiano","latitude":44.6,"id":"a62a7e8yycb8","users":1223,"longitude":10.69},"type":"Feature","geometry":{"type":"Point","coordinates":[10.69,44.6]}},{"properties":{"city":"Bellaria-Igea Marina","latitude":44.15,"id":"a62a7e1tddtv","users":1062,"longitude":12.46},"type":"Feature","geometry":{"type":"Point","coordinates":[12.46,44.15]}},{"properties":{"city":"Cattolica","latitude":43.96,"id":"a62a7e3miybb","users":2286,"longitude":12.74},"type":"Feature","geometry":{"type":"Point","coordinates":[12.74,43.96]}},{"properties":{"city":"Riccione","latitude":44.0,"id":"a62a7e160dh2","users":5316,"longitude":12.66},"type":"Feature","geometry":{"type":"Point","coordinates":[12.66,44.0]}},{"properties":{"city":"Rimini","latitude":44.06,"id":"a62a7ee1cirq","users":29414,"longitude":12.57},"type":"Feature","geometry":{"type":"Point","coordinates":[12.57,44.06]}},{"properties":{"city":"Campi Bisenzio","latitude":43.82,"id":"a62a7ecaqc8l","users":1525,"longitude":11.14},"type":"Feature","geometry":{"type":"Point","coordinates":[11.14,43.82]}},{"properties":{"city":"Empoli","latitude":43.72,"id":"a62a7eegjhkj","users":4830,"longitude":10.95},"type":"Feature","geometry":{"type":"Point","coordinates":[10.95,43.72]}},{"properties":{"city":"Firenze","latitude":43.78,"id":"a62a7e5a25ee","users":87505,"longitude":11.25},"type":"Feature","geometry":{"type":"Point","coordinates":[11.25,43.78]}},{"properties":{"city":"Fucecchio","latitude":43.73,"id":"a62a7e7lufza","users":1353,"longitude":10.81},"type":"Feature","geometry":{"type":"Point","coordinates":[10.81,43.73]}},{"properties":{"city":"Scandicci","latitude":43.76,"id":"a62a7e71ac9r","users":1660,"longitude":11.18},"type":"Feature","geometry":{"type":"Point","coordinates":[11.18,43.76]}},{"properties":{"city":"Sesto Fiorentino","latitude":43.83,"id":"a62a7eevufxn","users":1795,"longitude":11.2},"type":"Feature","geometry":{"type":"Point","coordinates":[11.2,43.83]}},{"properties":{"city":"Arezzo","latitude":43.46,"id":"a62a7e01gxed","users":13714,"longitude":11.88},"type":"Feature","geometry":{"type":"Point","coordinates":[11.88,43.46]}},{"properties":{"city":"Montevarchi","latitude":43.52,"id":"a62a7e2nkygw","users":1197,"longitude":11.57},"type":"Feature","geometry":{"type":"Point","coordinates":[11.57,43.52]}},{"properties":{"city":"Sansepolcro","latitude":43.57,"id":"a62a7edmz9j8","users":1103,"longitude":12.14},"type":"Feature","geometry":{"type":"Point","coordinates":[12.14,43.57]}},{"properties":{"city":"Follonica","latitude":42.92,"id":"a62a7e8fkd8w","users":2392,"longitude":10.75},"type":"Feature","geometry":{"type":"Point","coordinates":[10.75,42.92]}},{"properties":{"city":"Grosseto","latitude":42.76,"id":"a62a7ee2fgub","users":13200,"longitude":11.11},"type":"Feature","geometry":{"type":"Point","coordinates":[11.11,42.76]}},{"properties":{"city":"Cecina","latitude":43.31,"id":"a62a7e7nk1qj","users":2817,"longitude":10.52},"type":"Feature","geometry":{"type":"Point","coordinates":[10.52,43.31]}},{"properties":{"city":"Livorno","latitude":43.55187,"id":"a62a7e1q1nvv","users":26315,"longitude":10.30801},"type":"Feature","geometry":{"type":"Point","coordinates":[10.30801,43.55187]}},{"properties":{"city":"Piombino","latitude":42.93,"id":"a62a7eevcss7","users":2754,"longitude":10.53},"type":"Feature","geometry":{"type":"Point","coordinates":[10.53,42.93]}},{"properties":{"city":"Rosignano Marittimo","latitude":43.41,"id":"a62a7e50iyan","users":1490,"longitude":10.47},"type":"Feature","geometry":{"type":"Point","coordinates":[10.47,43.41]}},{"properties":{"city":"Camaiore","latitude":43.94,"id":"a62a7e1j8xfj","users":1362,"longitude":10.3},"type":"Feature","geometry":{"type":"Point","coordinates":[10.3,43.94]}},{"properties":{"city":"Forte dei Marmi","latitude":43.96,"id":"a62a7e8y3oa0","users":1301,"longitude":10.17},"type":"Feature","geometry":{"type":"Point","coordinates":[10.17,43.96]}},{"properties":{"city":"Lucca","latitude":43.84,"id":"a62a7e516pio","users":16549,"longitude":10.51},"type":"Feature","geometry":{"type":"Point","coordinates":[10.51,43.84]}},{"properties":{"city":"Pietrasanta","latitude":43.96,"id":"a62a7e5wo7gq","users":1744,"longitude":10.23},"type":"Feature","geometry":{"type":"Point","coordinates":[10.23,43.96]}},{"properties":{"city":"Viareggio","latitude":43.87,"id":"a62a7e8d767e","users":9325,"longitude":10.25},"type":"Feature","geometry":{"type":"Point","coordinates":[10.25,43.87]}},{"properties":{"city":"Carrara","latitude":44.05,"id":"a62a7dz1tiv2","users":5863,"longitude":10.06},"type":"Feature","geometry":{"type":"Point","coordinates":[10.06,44.05]}},{"properties":{"city":"Massa","latitude":44.02,"id":"a62a7e07llyu","users":8357,"longitude":10.12},"type":"Feature","geometry":{"type":"Point","coordinates":[10.12,44.02]}},{"properties":{"city":"Cascina","latitude":43.68,"id":"a62a7e1cqa64","users":1614,"longitude":10.55},"type":"Feature","geometry":{"type":"Point","coordinates":[10.55,43.68]}},{"properties":{"city":"Pisa","latitude":43.72,"id":"a62a7e8q7mro","users":30520,"longitude":10.4},"type":"Feature","geometry":{"type":"Point","coordinates":[10.4,43.72]}},{"properties":{"city":"Pontedera","latitude":43.66,"id":"a62a7ed5z8r5","users":3302,"longitude":10.63},"type":"Feature","geometry":{"type":"Point","coordinates":[10.63,43.66]}},{"properties":{"city":"San Miniato","latitude":43.68,"id":"a62a7e83cd5w","users":1299,"longitude":10.85},"type":"Feature","geometry":{"type":"Point","coordinates":[10.85,43.68]}},{"properties":{"city":"Monsummano Terme","latitude":43.87,"id":"a62a7e8eym03","users":1452,"longitude":10.81},"type":"Feature","geometry":{"type":"Point","coordinates":[10.81,43.87]}},{"properties":{"city":"Montecatini-Terme","latitude":43.88,"id":"a62a7e80q9de","users":3923,"longitude":10.77},"type":"Feature","geometry":{"type":"Point","coordinates":[10.77,43.88]}},{"properties":{"city":"Pescia","latitude":43.89,"id":"a62a7e2o2efz","users":1485,"longitude":10.69},"type":"Feature","geometry":{"type":"Point","coordinates":[10.69,43.89]}},{"properties":{"city":"Pistoia","latitude":43.93,"id":"a62a7e6qr5gc","users":11989,"longitude":10.91},"type":"Feature","geometry":{"type":"Point","coordinates":[10.91,43.93]}},{"properties":{"city":"Prato","latitude":43.88,"id":"a62a7e5v3f7i","users":17170,"longitude":11.1},"type":"Feature","geometry":{"type":"Point","coordinates":[11.1,43.88]}},{"properties":{"city":"Poggibonsi","latitude":43.47,"id":"a62a7e43dfpt","users":1933,"longitude":11.15},"type":"Feature","geometry":{"type":"Point","coordinates":[11.15,43.47]}},{"properties":{"city":"Siena","latitude":43.32,"id":"a62a7e3834r4","users":13751,"longitude":11.33},"type":"Feature","geometry":{"type":"Point","coordinates":[11.33,43.32]}},{"properties":{"city":"Assisi","latitude":43.07,"id":"a62a7eacbdkm","users":1806,"longitude":12.62},"type":"Feature","geometry":{"type":"Point","coordinates":[12.62,43.07]}},{"properties":{"city":"Bastia Umbra","latitude":43.06,"id":"a62a7e9flse2","users":1367,"longitude":12.55},"type":"Feature","geometry":{"type":"Point","coordinates":[12.55,43.06]}},{"properties":{"city":"Campello sul Clitunno","latitude":42.82035,"id":"a62a7e3w0pff","users":7787,"longitude":12.77677},"type":"Feature","geometry":{"type":"Point","coordinates":[12.77677,42.82035]}},{"properties":{"city":"Città di Castello","latitude":43.46,"id":"a62a7e6lr5t8","users":3009,"longitude":12.24},"type":"Feature","geometry":{"type":"Point","coordinates":[12.24,43.46]}},{"properties":{"city":"Foligno","latitude":42.96,"id":"a62a7ebimwcx","users":4825,"longitude":12.7},"type":"Feature","geometry":{"type":"Point","coordinates":[12.7,42.96]}},{"properties":{"city":"Gubbio","latitude":43.35,"id":"a62a7e9qskfi","users":1339,"longitude":12.58},"type":"Feature","geometry":{"type":"Point","coordinates":[12.58,43.35]}},{"properties":{"city":"Perugia","latitude":43.1107,"id":"a62a7e1wqoro","users":33395,"longitude":12.38917},"type":"Feature","geometry":{"type":"Point","coordinates":[12.38917,43.1107]}},{"properties":{"city":"Spoleto","latitude":42.73,"id":"a62a7e5bu689","users":2651,"longitude":12.74},"type":"Feature","geometry":{"type":"Point","coordinates":[12.74,42.73]}},{"properties":{"city":"Orvieto","latitude":42.72,"id":"a62a7e4hkk9w","users":1218,"longitude":12.11},"type":"Feature","geometry":{"type":"Point","coordinates":[12.11,42.72]}},{"properties":{"city":"Terni","latitude":42.56,"id":"a62a7eb1lj23","users":11286,"longitude":12.65},"type":"Feature","geometry":{"type":"Point","coordinates":[12.65,42.56]}},{"properties":{"city":"Ancona","latitude":43.6,"id":"a62a7eadop3s","users":26146,"longitude":13.51},"type":"Feature","geometry":{"type":"Point","coordinates":[13.51,43.6]}},{"properties":{"city":"Castelfidardo","latitude":43.46,"id":"a62a7e4wfzdy","users":1113,"longitude":13.55},"type":"Feature","geometry":{"type":"Point","coordinates":[13.55,43.46]}},{"properties":{"city":"Chiaravalle","latitude":43.6,"id":"a62a7e3qw2j3","users":1002,"longitude":13.33},"type":"Feature","geometry":{"type":"Point","coordinates":[13.33,43.6]}},{"properties":{"city":"Fabriano","latitude":43.34,"id":"a62a7e3d2ia6","users":2462,"longitude":12.91},"type":"Feature","geometry":{"type":"Point","coordinates":[12.91,43.34]}},{"properties":{"city":"Falconara Marittima","latitude":43.63,"id":"a62a7eako1l9","users":1827,"longitude":13.4},"type":"Feature","geometry":{"type":"Point","coordinates":[13.4,43.63]}},{"properties":{"city":"Jesi","latitude":43.52,"id":"a62a7e6ptut6","users":4038,"longitude":13.24},"type":"Feature","geometry":{"type":"Point","coordinates":[13.24,43.52]}},{"properties":{"city":"Osimo","latitude":43.49,"id":"a62a7e988783","users":2459,"longitude":13.48},"type":"Feature","geometry":{"type":"Point","coordinates":[13.48,43.49]}},{"properties":{"city":"Senigallia","latitude":43.71,"id":"a62a7ed81uit","users":4232,"longitude":13.22},"type":"Feature","geometry":{"type":"Point","coordinates":[13.22,43.71]}},{"properties":{"city":"Ascoli Piceno","latitude":42.85,"id":"a62a7e9m9ptc","users":10132,"longitude":13.58},"type":"Feature","geometry":{"type":"Point","coordinates":[13.58,42.85]}},{"properties":{"city":"Fermo","latitude":43.16,"id":"a62a7e0qww39","users":3775,"longitude":13.72},"type":"Feature","geometry":{"type":"Point","coordinates":[13.72,43.16]}},{"properties":{"city":"Grottammare","latitude":42.98,"id":"a62a7ec49z0y","users":1061,"longitude":13.87},"type":"Feature","geometry":{"type":"Point","coordinates":[13.87,42.98]}},{"properties":{"city":"Porto San Giorgio","latitude":43.18,"id":"a62a7e3a49za","users":1716,"longitude":13.79},"type":"Feature","geometry":{"type":"Point","coordinates":[13.79,43.18]}},{"properties":{"city":"Porto Sant'Elpidio","latitude":43.26,"id":"a62a7e1mhjte","users":1903,"longitude":13.76},"type":"Feature","geometry":{"type":"Point","coordinates":[13.76,43.26]}},{"properties":{"city":"San Benedetto del Tronto","latitude":42.93,"id":"a62a7e7n8zdk","users":7273,"longitude":13.89},"type":"Feature","geometry":{"type":"Point","coordinates":[13.89,42.93]}},{"properties":{"city":"Civitanova Marche","latitude":43.31,"id":"a62a7dyuctkq","users":4761,"longitude":13.73},"type":"Feature","geometry":{"type":"Point","coordinates":[13.73,43.31]}},{"properties":{"city":"Macerata","latitude":43.3,"id":"a62a7dz9khug","users":9199,"longitude":13.45},"type":"Feature","geometry":{"type":"Point","coordinates":[13.45,43.3]}},{"properties":{"city":"Porto Recanati","latitude":43.43,"id":"a62a7ec6qt6f","users":1045,"longitude":13.67},"type":"Feature","geometry":{"type":"Point","coordinates":[13.67,43.43]}},{"properties":{"city":"Recanati","latitude":43.4,"id":"a62a7ec85wvx","users":1383,"longitude":13.55},"type":"Feature","geometry":{"type":"Point","coordinates":[13.55,43.4]}},{"properties":{"city":"Tolentino","latitude":43.21,"id":"a62a7ebd5o2h","users":1412,"longitude":13.28},"type":"Feature","geometry":{"type":"Point","coordinates":[13.28,43.21]}},{"properties":{"city":"Fano","latitude":43.84,"id":"a62a7eemtcu4","users":5759,"longitude":13.02},"type":"Feature","geometry":{"type":"Point","coordinates":[13.02,43.84]}},{"properties":{"city":"Pesaro","latitude":43.9,"id":"a62a7dz4wa9e","users":12371,"longitude":12.91},"type":"Feature","geometry":{"type":"Point","coordinates":[12.91,43.9]}},{"properties":{"city":"Urbino","latitude":43.73,"id":"a62a7e45mlli","users":1800,"longitude":12.64},"type":"Feature","geometry":{"type":"Point","coordinates":[12.64,43.73]}},{"properties":{"city":"Anzio","latitude":41.47,"id":"a62a7e3fs8ej","users":2012,"longitude":12.61},"type":"Feature","geometry":{"type":"Point","coordinates":[12.61,41.47]}},{"properties":{"city":"Ciampino","latitude":41.8,"id":"a62a7dzxi10a","users":2533,"longitude":12.61},"type":"Feature","geometry":{"type":"Point","coordinates":[12.61,41.8]}},{"properties":{"city":"Civitavecchia","latitude":42.09,"id":"a62a7eduiy38","users":4146,"longitude":11.8},"type":"Feature","geometry":{"type":"Point","coordinates":[11.8,42.09]}},{"properties":{"city":"Colleferro","latitude":41.73,"id":"a62a7e70zjzu","users":1252,"longitude":13.01},"type":"Feature","geometry":{"type":"Point","coordinates":[13.01,41.73]}},{"properties":{"city":"Fiumicino","latitude":41.77153,"id":"a62a7dyfs5f3","users":2451,"longitude":12.23},"type":"Feature","geometry":{"type":"Point","coordinates":[12.23,41.77153]}},{"properties":{"city":"Frascati","latitude":41.81,"id":"a62a7e7ov1b4","users":1155,"longitude":12.68},"type":"Feature","geometry":{"type":"Point","coordinates":[12.68,41.81]}},{"properties":{"city":"Guidonia Montecelio","latitude":41.99,"id":"a62a7e0bghhv","users":1083,"longitude":12.72},"type":"Feature","geometry":{"type":"Point","coordinates":[12.72,41.99]}},{"properties":{"city":"Ladispoli","latitude":41.95,"id":"a62a7e1ysm5y","users":1202,"longitude":12.08},"type":"Feature","geometry":{"type":"Point","coordinates":[12.08,41.95]}},{"properties":{"city":"Nettuno","latitude":41.46,"id":"a62a7e9w5gjr","users":2145,"longitude":12.66},"type":"Feature","geometry":{"type":"Point","coordinates":[12.66,41.46]}},{"properties":{"city":"Pomezia","latitude":41.68,"id":"a62a7eetx9yx","users":1997,"longitude":12.5},"type":"Feature","geometry":{"type":"Point","coordinates":[12.5,41.68]}},{"properties":{"city":"Roma","latitude":41.89546,"id":"a62a7eaqzgn0","users":791138,"longitude":12.48232},"type":"Feature","geometry":{"type":"Point","coordinates":[12.48232,41.89546]}},{"properties":{"city":"Tivoli","latitude":41.96,"id":"a62a7e2opy9y","users":2042,"longitude":12.8},"type":"Feature","geometry":{"type":"Point","coordinates":[12.8,41.96]}},{"properties":{"city":"Velletri","latitude":41.69,"id":"a62a7e4r9aug","users":1918,"longitude":12.78},"type":"Feature","geometry":{"type":"Point","coordinates":[12.78,41.69]}},{"properties":{"city":"Alatri","latitude":41.73,"id":"a62a7edervr2","users":1595,"longitude":13.34},"type":"Feature","geometry":{"type":"Point","coordinates":[13.34,41.73]}},{"properties":{"city":"Anagni","latitude":41.74,"id":"a62a7e2kpi79","users":1462,"longitude":13.16},"type":"Feature","geometry":{"type":"Point","coordinates":[13.16,41.74]}},{"properties":{"city":"Cassino","latitude":41.49,"id":"a62a7eb0um31","users":6000,"longitude":13.83},"type":"Feature","geometry":{"type":"Point","coordinates":[13.83,41.49]}},{"properties":{"city":"Ceccano","latitude":41.57,"id":"a62a7eeas6w9","users":1508,"longitude":13.33},"type":"Feature","geometry":{"type":"Point","coordinates":[13.33,41.57]}},{"properties":{"city":"Ferentino","latitude":41.69,"id":"a62a7edndoke","users":1239,"longitude":13.25},"type":"Feature","geometry":{"type":"Point","coordinates":[13.25,41.69]}},{"properties":{"city":"Frosinone","latitude":41.64,"id":"a62a7e3oqnpm","users":12672,"longitude":13.34},"type":"Feature","geometry":{"type":"Point","coordinates":[13.34,41.64]}},{"properties":{"city":"Sora","latitude":41.72,"id":"a62a7dzvf54k","users":2123,"longitude":13.61},"type":"Feature","geometry":{"type":"Point","coordinates":[13.61,41.72]}},{"properties":{"city":"Aprilia","latitude":41.59,"id":"a62a7e8degl4","users":3304,"longitude":12.65},"type":"Feature","geometry":{"type":"Point","coordinates":[12.65,41.59]}},{"properties":{"city":"Cisterna di Latina","latitude":41.59,"id":"a62a7eb6ihe9","users":1652,"longitude":12.83},"type":"Feature","geometry":{"type":"Point","coordinates":[12.83,41.59]}},{"properties":{"city":"Fondi","latitude":41.36,"id":"a62a7eaevejs","users":3581,"longitude":13.43},"type":"Feature","geometry":{"type":"Point","coordinates":[13.43,41.36]}},{"properties":{"city":"Formia","latitude":41.26,"id":"a62a7ee6qt7a","users":4676,"longitude":13.62},"type":"Feature","geometry":{"type":"Point","coordinates":[13.62,41.26]}},{"properties":{"city":"Gaeta","latitude":41.22,"id":"a62a7e42vc3s","users":2208,"longitude":13.57},"type":"Feature","geometry":{"type":"Point","coordinates":[13.57,41.22]}},{"properties":{"city":"Latina","latitude":41.47,"id":"a62a7e9hjrsi","users":21656,"longitude":12.9},"type":"Feature","geometry":{"type":"Point","coordinates":[12.9,41.47]}},{"properties":{"city":"Minturno","latitude":41.26,"id":"a62a7e5g15tf","users":1323,"longitude":13.75},"type":"Feature","geometry":{"type":"Point","coordinates":[13.75,41.26]}},{"properties":{"city":"Sezze","latitude":41.5,"id":"a62a7eaumned","users":1010,"longitude":13.06},"type":"Feature","geometry":{"type":"Point","coordinates":[13.06,41.5]}},{"properties":{"city":"Terracina","latitude":41.29,"id":"a62a7eb0r2fw","users":3092,"longitude":13.23},"type":"Feature","geometry":{"type":"Point","coordinates":[13.23,41.29]}},{"properties":{"city":"Rieti","latitude":42.4,"id":"a62a7e997b36","users":4720,"longitude":12.87},"type":"Feature","geometry":{"type":"Point","coordinates":[12.87,42.4]}},{"properties":{"city":"Viterbo","latitude":42.42,"id":"a62a7e69n2x6","users":11022,"longitude":12.11},"type":"Feature","geometry":{"type":"Point","coordinates":[12.11,42.42]}},{"properties":{"city":"Avezzano","latitude":42.03,"id":"a62a7e599plv","users":4630,"longitude":13.43},"type":"Feature","geometry":{"type":"Point","coordinates":[13.43,42.03]}},{"properties":{"city":"L'Aquila","latitude":42.36,"id":"a62a7e3qg3sh","users":7753,"longitude":13.4},"type":"Feature","geometry":{"type":"Point","coordinates":[13.4,42.36]}},{"properties":{"city":"Sulmona","latitude":42.05,"id":"a62a7e7uk28f","users":2064,"longitude":13.93},"type":"Feature","geometry":{"type":"Point","coordinates":[13.93,42.05]}},{"properties":{"city":"Chieti","latitude":42.35,"id":"a62a7e3ye4zr","users":11502,"longitude":14.17},"type":"Feature","geometry":{"type":"Point","coordinates":[14.17,42.35]}},{"properties":{"city":"Francavilla al Mare","latitude":42.41,"id":"a62a7e97rdpp","users":1910,"longitude":14.3},"type":"Feature","geometry":{"type":"Point","coordinates":[14.3,42.41]}},{"properties":{"city":"Lanciano","latitude":42.23,"id":"a62a7dzjia14","users":4517,"longitude":14.39},"type":"Feature","geometry":{"type":"Point","coordinates":[14.39,42.23]}},{"properties":{"city":"Ortona","latitude":42.35,"id":"a62a7e8fwevf","users":2128,"longitude":14.4},"type":"Feature","geometry":{"type":"Point","coordinates":[14.4,42.35]}},{"properties":{"city":"San Salvo","latitude":42.05,"id":"a62a7dz3gw7e","users":1582,"longitude":14.73},"type":"Feature","geometry":{"type":"Point","coordinates":[14.73,42.05]}},{"properties":{"city":"Vasto","latitude":42.12,"id":"a62a7e3gzlcx","users":4880,"longitude":14.71},"type":"Feature","geometry":{"type":"Point","coordinates":[14.71,42.12]}},{"properties":{"city":"Bolognano","latitude":42.22,"id":"a62a7e56eysf","users":2482,"longitude":13.96},"type":"Feature","geometry":{"type":"Point","coordinates":[13.96,42.22]}},{"properties":{"city":"Montesilvano","latitude":42.52,"id":"a62a7eadgdcg","users":3687,"longitude":14.15},"type":"Feature","geometry":{"type":"Point","coordinates":[14.15,42.52]}},{"properties":{"city":"Pescara","latitude":42.46482,"id":"a62a7e4bv7yy","users":39197,"longitude":14.21409},"type":"Feature","geometry":{"type":"Point","coordinates":[14.21409,42.46482]}},{"properties":{"city":"Alba Adriatica","latitude":42.83,"id":"a62a7e56arn1","users":1482,"longitude":13.93},"type":"Feature","geometry":{"type":"Point","coordinates":[13.93,42.83]}},{"properties":{"city":"Giulianova","latitude":42.75,"id":"a62a7e3welei","users":2180,"longitude":13.96},"type":"Feature","geometry":{"type":"Point","coordinates":[13.96,42.75]}},{"properties":{"city":"Martinsicuro","latitude":42.88,"id":"a62a7e6lo1is","users":1127,"longitude":13.91},"type":"Feature","geometry":{"type":"Point","coordinates":[13.91,42.88]}},{"properties":{"city":"Roseto degli Abruzzi","latitude":42.67,"id":"a62a7e4bqdiz","users":1868,"longitude":14.02},"type":"Feature","geometry":{"type":"Point","coordinates":[14.02,42.67]}},{"properties":{"city":"Silvi","latitude":42.54674,"id":"a62a7ea0qvv5","users":1141,"longitude":14.12298},"type":"Feature","geometry":{"type":"Point","coordinates":[14.12298,42.54674]}},{"properties":{"city":"Teramo","latitude":42.66,"id":"a62a7eaxkcju","users":10882,"longitude":13.7},"type":"Feature","geometry":{"type":"Point","coordinates":[13.7,42.66]}},{"properties":{"city":"Campobasso","latitude":41.56,"id":"a62a7e90wptb","users":7537,"longitude":14.67},"type":"Feature","geometry":{"type":"Point","coordinates":[14.67,41.56]}},{"properties":{"city":"Termoli","latitude":42.0,"id":"a62a7e7qwjfp","users":3803,"longitude":14.99},"type":"Feature","geometry":{"type":"Point","coordinates":[14.99,42.0]}},{"properties":{"city":"Isernia","latitude":41.59,"id":"a62a7e14df0d","users":3690,"longitude":14.23},"type":"Feature","geometry":{"type":"Point","coordinates":[14.23,41.59]}},{"properties":{"city":"Venafro","latitude":41.49,"id":"a62a7dz36dmm","users":1198,"longitude":14.04},"type":"Feature","geometry":{"type":"Point","coordinates":[14.04,41.49]}},{"properties":{"city":"Acerra","latitude":40.94,"id":"a62a7ea35ax6","users":2199,"longitude":14.37},"type":"Feature","geometry":{"type":"Point","coordinates":[14.37,40.94]}},{"properties":{"city":"Afragola","latitude":40.64,"id":"a62a7ee0yur7","users":1891,"longitude":14.54},"type":"Feature","geometry":{"type":"Point","coordinates":[14.54,40.64]}},{"properties":{"city":"Caivano","latitude":40.96,"id":"a62a7e4no4ga","users":1206,"longitude":14.3},"type":"Feature","geometry":{"type":"Point","coordinates":[14.3,40.96]}},{"properties":{"city":"Casalnuovo di Napoli","latitude":40.91,"id":"a62a7e8ghb4u","users":1540,"longitude":14.35},"type":"Feature","geometry":{"type":"Point","coordinates":[14.35,40.91]}},{"properties":{"city":"Casoria","latitude":40.91,"id":"a62a7e0ncyc7","users":2295,"longitude":14.29},"type":"Feature","geometry":{"type":"Point","coordinates":[14.29,40.91]}},{"properties":{"city":"Castellammare di Stabia","latitude":40.7,"id":"a62a7e89x55o","users":6482,"longitude":14.49},"type":"Feature","geometry":{"type":"Point","coordinates":[14.49,40.7]}},{"properties":{"city":"Ercolano","latitude":40.81,"id":"a62a7e3a8t07","users":1811,"longitude":14.35},"type":"Feature","geometry":{"type":"Point","coordinates":[14.35,40.81]}},{"properties":{"city":"Frattamaggiore","latitude":40.94,"id":"a62a7ebbarj8","users":1636,"longitude":14.27},"type":"Feature","geometry":{"type":"Point","coordinates":[14.27,40.94]}},{"properties":{"city":"Giugliano in Campania","latitude":40.93,"id":"a62a7eb27sqo","users":2655,"longitude":14.2},"type":"Feature","geometry":{"type":"Point","coordinates":[14.2,40.93]}},{"properties":{"city":"Gragnano","latitude":40.69,"id":"a62a7e836r1s","users":1316,"longitude":14.52},"type":"Feature","geometry":{"type":"Point","coordinates":[14.52,40.69]}},{"properties":{"city":"Ischia","latitude":40.74,"id":"a62a7ealv7u6","users":2547,"longitude":13.94},"type":"Feature","geometry":{"type":"Point","coordinates":[13.94,40.74]}},{"properties":{"city":"Marano di Napoli","latitude":40.9,"id":"a62a7eenkfg7","users":1264,"longitude":14.19},"type":"Feature","geometry":{"type":"Point","coordinates":[14.19,40.9]}},{"properties":{"city":"Marigliano","latitude":40.92,"id":"a62a7e4nv423","users":1223,"longitude":14.46},"type":"Feature","geometry":{"type":"Point","coordinates":[14.46,40.92]}},{"properties":{"city":"Napoli","latitude":40.84009,"id":"a62a7e4jwhb0","users":479938,"longitude":14.25163},"type":"Feature","geometry":{"type":"Point","coordinates":[14.25163,40.84009]}},{"properties":{"city":"Nola","latitude":40.93,"id":"a62a7dzkaie7","users":3003,"longitude":14.53},"type":"Feature","geometry":{"type":"Point","coordinates":[14.53,40.93]}},{"properties":{"city":"Pomigliano d'Arco","latitude":40.9089,"id":"a62a7e6f9aw0","users":1882,"longitude":14.3872},"type":"Feature","geometry":{"type":"Point","coordinates":[14.3872,40.9089]}},{"properties":{"city":"Pompei","latitude":40.75,"id":"a62a7dymrl31","users":3287,"longitude":14.5},"type":"Feature","geometry":{"type":"Point","coordinates":[14.5,40.75]}},{"properties":{"city":"Portici","latitude":40.82,"id":"a62a7e3kyhyc","users":2062,"longitude":14.34},"type":"Feature","geometry":{"type":"Point","coordinates":[14.34,40.82]}},{"properties":{"city":"Pozzuoli","latitude":40.82,"id":"a62a7ec71lv9","users":3023,"longitude":14.12},"type":"Feature","geometry":{"type":"Point","coordinates":[14.12,40.82]}},{"properties":{"city":"Quarto","latitude":40.88,"id":"a62a7e1lkqlv","users":1009,"longitude":14.15},"type":"Feature","geometry":{"type":"Point","coordinates":[14.15,40.88]}},{"properties":{"city":"San Giorgio a Cremano","latitude":40.83,"id":"a62a7e3n0pce","users":1390,"longitude":14.34},"type":"Feature","geometry":{"type":"Point","coordinates":[14.34,40.83]}},{"properties":{"city":"Sorrento","latitude":40.62,"id":"a62a7e8l2twm","users":2226,"longitude":14.38},"type":"Feature","geometry":{"type":"Point","coordinates":[14.38,40.62]}},{"properties":{"city":"Torre Annunziata","latitude":40.75,"id":"a62a7ebmvmyn","users":2597,"longitude":14.46},"type":"Feature","geometry":{"type":"Point","coordinates":[14.46,40.75]}},{"properties":{"city":"Torre del Greco","latitude":40.78721,"id":"a62a7dyov9js","users":4614,"longitude":14.36802},"type":"Feature","geometry":{"type":"Point","coordinates":[14.36802,40.78721]}},{"properties":{"city":"Ariano Irpino","latitude":41.15,"id":"a62a7e9fprbn","users":1498,"longitude":15.09},"type":"Feature","geometry":{"type":"Point","coordinates":[15.09,41.15]}},{"properties":{"city":"Avellino","latitude":40.91,"id":"a62a7dyf4qcg","users":27370,"longitude":14.79},"type":"Feature","geometry":{"type":"Point","coordinates":[14.79,40.91]}},{"properties":{"city":"Solofra","latitude":40.83,"id":"a62a7e5zz3u5","users":1057,"longitude":14.85},"type":"Feature","geometry":{"type":"Point","coordinates":[14.85,40.83]}},{"properties":{"city":"Benevento","latitude":41.13,"id":"a62a7e27m91j","users":16646,"longitude":14.78},"type":"Feature","geometry":{"type":"Point","coordinates":[14.78,41.13]}},{"properties":{"city":"Montesarchio","latitude":41.06,"id":"a62a7e1yhzss","users":1049,"longitude":14.64},"type":"Feature","geometry":{"type":"Point","coordinates":[14.64,41.06]}},{"properties":{"city":"Aversa","latitude":40.97,"id":"a62a7e392e5e","users":8876,"longitude":14.21},"type":"Feature","geometry":{"type":"Point","coordinates":[14.21,40.97]}},{"properties":{"city":"Capua","latitude":41.11,"id":"a62a7e8cg21a","users":1977,"longitude":14.21},"type":"Feature","geometry":{"type":"Point","coordinates":[14.21,41.11]}},{"properties":{"city":"Casal di Principe","latitude":41.01,"id":"a62a7e9j76z4","users":1589,"longitude":14.13},"type":"Feature","geometry":{"type":"Point","coordinates":[14.13,41.01]}},{"properties":{"city":"Caserta","latitude":41.07541,"id":"a62a7e4dj3wa","users":42075,"longitude":14.33219},"type":"Feature","geometry":{"type":"Point","coordinates":[14.33219,41.07541]}},{"properties":{"city":"Maddaloni","latitude":41.04,"id":"a62a7e25nzfy","users":2649,"longitude":14.39},"type":"Feature","geometry":{"type":"Point","coordinates":[14.39,41.04]}},{"properties":{"city":"Marcianise","latitude":41.03,"id":"a62a7e9n9c2l","users":3354,"longitude":14.29},"type":"Feature","geometry":{"type":"Point","coordinates":[14.29,41.03]}},{"properties":{"city":"Mondragone","latitude":41.11516,"id":"a62a7ed0gufg","users":2916,"longitude":13.89455},"type":"Feature","geometry":{"type":"Point","coordinates":[13.89455,41.11516]}},{"properties":{"city":"Santa Maria Capua Vetere","latitude":41.08,"id":"a62a7e5d2u7o","users":2940,"longitude":14.26},"type":"Feature","geometry":{"type":"Point","coordinates":[14.26,41.08]}},{"properties":{"city":"Sessa Aurunca","latitude":41.24,"id":"a62a7e9jchj8","users":1007,"longitude":13.93},"type":"Feature","geometry":{"type":"Point","coordinates":[13.93,41.24]}},{"properties":{"city":"Agropoli","latitude":40.35,"id":"a62a7dyox5re","users":2406,"longitude":14.99},"type":"Feature","geometry":{"type":"Point","coordinates":[14.99,40.35]}},{"properties":{"city":"Angri","latitude":40.74,"id":"a62a7edrjenp","users":3107,"longitude":14.57},"type":"Feature","geometry":{"type":"Point","coordinates":[14.57,40.74]}},{"properties":{"city":"Battipaglia","latitude":40.61,"id":"a62a7e4mi4ir","users":7369,"longitude":14.98},"type":"Feature","geometry":{"type":"Point","coordinates":[14.98,40.61]}},{"properties":{"city":"Bellizzi","latitude":40.62096,"id":"a62a7eatdu8q","users":1104,"longitude":14.94783},"type":"Feature","geometry":{"type":"Point","coordinates":[14.94783,40.62096]}},{"properties":{"city":"Capaccio","latitude":40.42,"id":"a62a7e6jx3o7","users":1503,"longitude":15.08},"type":"Feature","geometry":{"type":"Point","coordinates":[15.08,40.42]}},{"properties":{"city":"Cava de' Tirreni","latitude":40.7,"id":"a62a7e25toh3","users":5937,"longitude":14.71},"type":"Feature","geometry":{"type":"Point","coordinates":[14.71,40.7]}},{"properties":{"city":"Eboli","latitude":40.62,"id":"a62a7e1eg29g","users":3893,"longitude":15.05},"type":"Feature","geometry":{"type":"Point","coordinates":[15.05,40.62]}},{"properties":{"city":"Mercato San Severino","latitude":40.79,"id":"a62a7e4gf0sz","users":1332,"longitude":14.76},"type":"Feature","geometry":{"type":"Point","coordinates":[14.76,40.79]}},{"properties":{"city":"Nocera Inferiore","latitude":40.74,"id":"a62a7ea3h2oz","users":6031,"longitude":14.64},"type":"Feature","geometry":{"type":"Point","coordinates":[14.64,40.74]}},{"properties":{"city":"Nocera Superiore","latitude":40.74,"id":"a62a7e9vow2u","users":2254,"longitude":14.67},"type":"Feature","geometry":{"type":"Point","coordinates":[14.67,40.74]}},{"properties":{"city":"Pagani","latitude":40.74,"id":"a62a7ea6e3sf","users":4023,"longitude":14.62},"type":"Feature","geometry":{"type":"Point","coordinates":[14.62,40.74]}},{"properties":{"city":"Pontecagnano Faiano","latitude":40.65,"id":"a62a7e3fct3h","users":1512,"longitude":14.87},"type":"Feature","geometry":{"type":"Point","coordinates":[14.87,40.65]}},{"properties":{"city":"Salerno","latitude":40.68,"id":"a62a7e333yjv","users":71181,"longitude":14.77},"type":"Feature","geometry":{"type":"Point","coordinates":[14.77,40.68]}},{"properties":{"city":"Sarno","latitude":40.81,"id":"a62a7e4fh0pm","users":2842,"longitude":14.62},"type":"Feature","geometry":{"type":"Point","coordinates":[14.62,40.81]}},{"properties":{"city":"Scafati","latitude":40.75,"id":"a62a7e8waoay","users":4223,"longitude":14.53},"type":"Feature","geometry":{"type":"Point","coordinates":[14.53,40.75]}},{"properties":{"city":"Acquaviva delle Fonti","latitude":40.9,"id":"a62a7e1flyyh","users":2159,"longitude":16.84},"type":"Feature","geometry":{"type":"Point","coordinates":[16.84,40.9]}},{"properties":{"city":"Adelfia","latitude":41.0,"id":"a62a7e04s099","users":1365,"longitude":16.87},"type":"Feature","geometry":{"type":"Point","coordinates":[16.87,41.0]}},{"properties":{"city":"Altamura","latitude":40.83,"id":"a62a7e4h79iu","users":8193,"longitude":16.55},"type":"Feature","geometry":{"type":"Point","coordinates":[16.55,40.83]}},{"properties":{"city":"Andria","latitude":41.23168,"id":"a62a7e4be768","users":6881,"longitude":16.29173},"type":"Feature","geometry":{"type":"Point","coordinates":[16.29173,41.23168]}},{"properties":{"city":"Bari","latitude":41.126,"id":"a62a7e5l9miv","users":120707,"longitude":16.86837},"type":"Feature","geometry":{"type":"Point","coordinates":[16.86837,41.126]}},{"properties":{"city":"Barletta","latitude":41.32,"id":"a62a7ebi3eyy","users":11548,"longitude":16.28},"type":"Feature","geometry":{"type":"Point","coordinates":[16.28,41.32]}},{"properties":{"city":"Bisceglie","latitude":41.24,"id":"a62a7eawfliv","users":5615,"longitude":16.5},"type":"Feature","geometry":{"type":"Point","coordinates":[16.5,41.24]}},{"properties":{"city":"Bitonto","latitude":41.11,"id":"a62a7e3k95gg","users":6082,"longitude":16.69},"type":"Feature","geometry":{"type":"Point","coordinates":[16.69,41.11]}},{"properties":{"city":"Canosa di Puglia","latitude":41.22,"id":"a62a7e2iei4h","users":2199,"longitude":16.07},"type":"Feature","geometry":{"type":"Point","coordinates":[16.07,41.22]}},{"properties":{"city":"Casamassima","latitude":40.95,"id":"a62a7e834n4g","users":1452,"longitude":16.92},"type":"Feature","geometry":{"type":"Point","coordinates":[16.92,40.95]}},{"properties":{"city":"Cassano delle Murge","latitude":40.89,"id":"a62a7e8jmghf","users":1114,"longitude":16.77},"type":"Feature","geometry":{"type":"Point","coordinates":[16.77,40.89]}},{"properties":{"city":"Castellana Grotte","latitude":40.88,"id":"a62a7dzccobj","users":1860,"longitude":17.17},"type":"Feature","geometry":{"type":"Point","coordinates":[17.17,40.88]}},{"properties":{"city":"Conversano","latitude":40.97,"id":"a62a7e7m8v75","users":2214,"longitude":17.11},"type":"Feature","geometry":{"type":"Point","coordinates":[17.11,40.97]}},{"properties":{"city":"Corato","latitude":41.15,"id":"a62a7e85ejfw","users":3853,"longitude":16.41},"type":"Feature","geometry":{"type":"Point","coordinates":[16.41,41.15]}},{"properties":{"city":"Gioia del Colle","latitude":40.8,"id":"a62a7eed5b72","users":2234,"longitude":16.92},"type":"Feature","geometry":{"type":"Point","coordinates":[16.92,40.8]}},{"properties":{"city":"Giovinazzo","latitude":41.19,"id":"a62a7e6gfz6n","users":1877,"longitude":16.67},"type":"Feature","geometry":{"type":"Point","coordinates":[16.67,41.19]}},{"properties":{"city":"Gravina in Puglia","latitude":40.82,"id":"a62a7e4o07kk","users":4491,"longitude":16.42},"type":"Feature","geometry":{"type":"Point","coordinates":[16.42,40.82]}},{"properties":{"city":"Locorotondo","latitude":40.76,"id":"a62a7eepovfw","users":1152,"longitude":17.32},"type":"Feature","geometry":{"type":"Point","coordinates":[17.32,40.76]}},{"properties":{"city":"Modugno","latitude":41.08,"id":"a62a7e9xaaln","users":2889,"longitude":16.78},"type":"Feature","geometry":{"type":"Point","coordinates":[16.78,41.08]}},{"properties":{"city":"Mola di Bari","latitude":41.06,"id":"a62a7echclpb","users":2149,"longitude":17.09},"type":"Feature","geometry":{"type":"Point","coordinates":[17.09,41.06]}},{"properties":{"city":"Molfetta","latitude":41.2,"id":"a62a7e9qxyb2","users":6889,"longitude":16.6},"type":"Feature","geometry":{"type":"Point","coordinates":[16.6,41.2]}},{"properties":{"city":"Monopoli","latitude":40.95,"id":"a62a7e5dsc2y","users":5975,"longitude":17.3},"type":"Feature","geometry":{"type":"Point","coordinates":[17.3,40.95]}},{"properties":{"city":"Noci","latitude":40.79,"id":"a62a7e248h14","users":1308,"longitude":17.12},"type":"Feature","geometry":{"type":"Point","coordinates":[17.12,40.79]}},{"properties":{"city":"Noicattaro","latitude":41.03,"id":"a62a7e30jlo9","users":1692,"longitude":16.99},"type":"Feature","geometry":{"type":"Point","coordinates":[16.99,41.03]}},{"properties":{"city":"Palo del Colle","latitude":41.06,"id":"a62a7edpmtcr","users":1454,"longitude":16.7},"type":"Feature","geometry":{"type":"Point","coordinates":[16.7,41.06]}},{"properties":{"city":"Polignano a Mare","latitude":40.99,"id":"a62a7e4gw45z","users":1867,"longitude":17.22},"type":"Feature","geometry":{"type":"Point","coordinates":[17.22,40.99]}},{"properties":{"city":"Putignano","latitude":40.85,"id":"a62a7e9i98zg","users":2369,"longitude":17.12},"type":"Feature","geometry":{"type":"Point","coordinates":[17.12,40.85]}},{"properties":{"city":"Rutigliano","latitude":41.01,"id":"a62a7e2gk5al","users":1277,"longitude":17.0},"type":"Feature","geometry":{"type":"Point","coordinates":[17.0,41.01]}},{"properties":{"city":"Ruvo di Puglia","latitude":41.12,"id":"a62a7e1xpfud","users":1986,"longitude":16.49},"type":"Feature","geometry":{"type":"Point","coordinates":[16.49,41.12]}},{"properties":{"city":"Santeramo in Colle","latitude":40.79,"id":"a62a7e9ciwdr","users":2366,"longitude":16.76},"type":"Feature","geometry":{"type":"Point","coordinates":[16.76,40.79]}},{"properties":{"city":"Terlizzi","latitude":41.13,"id":"a62a7ecp4jbf","users":2516,"longitude":16.54},"type":"Feature","geometry":{"type":"Point","coordinates":[16.54,41.13]}},{"properties":{"city":"Trani","latitude":41.28,"id":"a62a7dyt7wkw","users":7688,"longitude":16.42},"type":"Feature","geometry":{"type":"Point","coordinates":[16.42,41.28]}},{"properties":{"city":"Triggiano","latitude":41.06,"id":"a62a7eer0itj","users":2055,"longitude":16.92},"type":"Feature","geometry":{"type":"Point","coordinates":[16.92,41.06]}},{"properties":{"city":"Valenzano","latitude":41.04,"id":"a62a7e87oys5","users":1292,"longitude":16.88},"type":"Feature","geometry":{"type":"Point","coordinates":[16.88,41.04]}},{"properties":{"city":"Brindisi","latitude":40.64,"id":"a62a7ecwoiym","users":26986,"longitude":17.95},"type":"Feature","geometry":{"type":"Point","coordinates":[17.95,40.64]}},{"properties":{"city":"Carovigno","latitude":40.71,"id":"a62a7e3zaah1","users":1156,"longitude":17.66},"type":"Feature","geometry":{"type":"Point","coordinates":[17.66,40.71]}},{"properties":{"city":"Ceglie Messapica","latitude":40.65,"id":"a62a7e763nst","users":1197,"longitude":17.52},"type":"Feature","geometry":{"type":"Point","coordinates":[17.52,40.65]}},{"properties":{"city":"Cisternino","latitude":40.74,"id":"a62a7ec6khyv","users":1127,"longitude":17.43},"type":"Feature","geometry":{"type":"Point","coordinates":[17.43,40.74]}},{"properties":{"city":"Fasano","latitude":40.83,"id":"a62a7e76a90g","users":4057,"longitude":17.36},"type":"Feature","geometry":{"type":"Point","coordinates":[17.36,40.83]}},{"properties":{"city":"Francavilla Fontana","latitude":40.53,"id":"a62a7e9df3a5","users":3227,"longitude":17.58},"type":"Feature","geometry":{"type":"Point","coordinates":[17.58,40.53]}},{"properties":{"city":"Latiano","latitude":40.55,"id":"a62a7e1waw44","users":1124,"longitude":17.72},"type":"Feature","geometry":{"type":"Point","coordinates":[17.72,40.55]}},{"properties":{"city":"Mesagne","latitude":40.56,"id":"a62a7e3af1j6","users":2776,"longitude":17.81},"type":"Feature","geometry":{"type":"Point","coordinates":[17.81,40.56]}},{"properties":{"city":"Oria","latitude":40.5,"id":"a62a7e14z56j","users":1448,"longitude":17.64},"type":"Feature","geometry":{"type":"Point","coordinates":[17.64,40.5]}},{"properties":{"city":"Ostuni","latitude":40.73,"id":"a62a7e9w285z","users":3044,"longitude":17.58},"type":"Feature","geometry":{"type":"Point","coordinates":[17.58,40.73]}},{"properties":{"city":"San Vito dei Normanni","latitude":40.66,"id":"a62a7edpihwf","users":1578,"longitude":17.71},"type":"Feature","geometry":{"type":"Point","coordinates":[17.71,40.66]}},{"properties":{"city":"Cerignola","latitude":41.26,"id":"a62a7dzw6sqe","users":4252,"longitude":15.9},"type":"Feature","geometry":{"type":"Point","coordinates":[15.9,41.26]}},{"properties":{"city":"Foggia","latitude":41.46,"id":"a62a7ed3j4n9","users":30655,"longitude":15.55},"type":"Feature","geometry":{"type":"Point","coordinates":[15.55,41.46]}},{"properties":{"city":"Lucera","latitude":41.51,"id":"a62a7e5n30dn","users":2611,"longitude":15.34},"type":"Feature","geometry":{"type":"Point","coordinates":[15.34,41.51]}},{"properties":{"city":"Manfredonia","latitude":41.62,"id":"a62a7e6osey4","users":4883,"longitude":15.91},"type":"Feature","geometry":{"type":"Point","coordinates":[15.91,41.62]}},{"properties":{"city":"San Giovanni Rotondo","latitude":41.71,"id":"a62a7eerb09d","users":1749,"longitude":15.73},"type":"Feature","geometry":{"type":"Point","coordinates":[15.73,41.71]}},{"properties":{"city":"San Severo","latitude":41.69,"id":"a62a7e73e710","users":5197,"longitude":15.38},"type":"Feature","geometry":{"type":"Point","coordinates":[15.38,41.69]}},{"properties":{"city":"Vieste","latitude":41.88,"id":"a62a7ee1g0wj","users":1140,"longitude":16.18},"type":"Feature","geometry":{"type":"Point","coordinates":[16.18,41.88]}},{"properties":{"city":"Casarano","latitude":40.01,"id":"a62a7e6qxdxi","users":2321,"longitude":18.16},"type":"Feature","geometry":{"type":"Point","coordinates":[18.16,40.01]}},{"properties":{"city":"Copertino","latitude":40.27,"id":"a62a7e7lym6g","users":1607,"longitude":18.05},"type":"Feature","geometry":{"type":"Point","coordinates":[18.05,40.27]}},{"properties":{"city":"Galatina","latitude":40.18,"id":"a62a7e7uso4z","users":2249,"longitude":18.17},"type":"Feature","geometry":{"type":"Point","coordinates":[18.17,40.18]}},{"properties":{"city":"Galatone","latitude":40.15,"id":"a62a7dzbpoxm","users":1093,"longitude":18.07},"type":"Feature","geometry":{"type":"Point","coordinates":[18.07,40.15]}},{"properties":{"city":"Gallipoli","latitude":40.06,"id":"a62a7dyjpvpz","users":2359,"longitude":17.99},"type":"Feature","geometry":{"type":"Point","coordinates":[17.99,40.06]}},{"properties":{"city":"Lecce","latitude":40.35,"id":"a62a7e2pycdo","users":50198,"longitude":18.17},"type":"Feature","geometry":{"type":"Point","coordinates":[18.17,40.35]}},{"properties":{"city":"Maglie","latitude":40.12,"id":"a62a7dzb1q3d","users":1472,"longitude":18.3},"type":"Feature","geometry":{"type":"Point","coordinates":[18.3,40.12]}},{"properties":{"city":"Nardò","latitude":40.18,"id":"a62a7e6qeqkw","users":2437,"longitude":18.03},"type":"Feature","geometry":{"type":"Point","coordinates":[18.03,40.18]}},{"properties":{"city":"Tricase","latitude":39.93,"id":"a62a7e41u6xt","users":1181,"longitude":18.36},"type":"Feature","geometry":{"type":"Point","coordinates":[18.36,39.93]}},{"properties":{"city":"Castellaneta","latitude":40.63,"id":"a62a7e7x6xtz","users":1476,"longitude":16.94},"type":"Feature","geometry":{"type":"Point","coordinates":[16.94,40.63]}},{"properties":{"city":"Crispiano","latitude":40.6,"id":"a62a7ebvl1v1","users":1040,"longitude":17.23},"type":"Feature","geometry":{"type":"Point","coordinates":[17.23,40.6]}},{"properties":{"city":"Ginosa","latitude":40.58,"id":"a62a7ec1gydy","users":1460,"longitude":16.76},"type":"Feature","geometry":{"type":"Point","coordinates":[16.76,40.58]}},{"properties":{"city":"Grottaglie","latitude":40.53,"id":"a62a7ecwec3t","users":3001,"longitude":17.43},"type":"Feature","geometry":{"type":"Point","coordinates":[17.43,40.53]}},{"properties":{"city":"Laterza","latitude":40.62,"id":"a62a7dyfymw9","users":1028,"longitude":16.8},"type":"Feature","geometry":{"type":"Point","coordinates":[16.8,40.62]}},{"properties":{"city":"Manduria","latitude":40.4,"id":"a62a7dyzytf9","users":2986,"longitude":17.63},"type":"Feature","geometry":{"type":"Point","coordinates":[17.63,40.4]}},{"properties":{"city":"Martina Franca","latitude":40.7,"id":"a62a7ecbo7bu","users":4893,"longitude":17.34},"type":"Feature","geometry":{"type":"Point","coordinates":[17.34,40.7]}},{"properties":{"city":"Massafra","latitude":40.59,"id":"a62a7e0fgc6w","users":2636,"longitude":17.11},"type":"Feature","geometry":{"type":"Point","coordinates":[17.11,40.59]}},{"properties":{"city":"Mottola","latitude":40.63,"id":"a62a7e4gaj1x","users":1036,"longitude":17.04},"type":"Feature","geometry":{"type":"Point","coordinates":[17.04,40.63]}},{"properties":{"city":"Sava","latitude":40.4,"id":"a62a7e1axibz","users":1212,"longitude":17.56},"type":"Feature","geometry":{"type":"Point","coordinates":[17.56,40.4]}},{"properties":{"city":"Taranto","latitude":40.46,"id":"a62a7e25dpjp","users":46776,"longitude":17.25},"type":"Feature","geometry":{"type":"Point","coordinates":[17.25,40.46]}},{"properties":{"city":"Melfi","latitude":40.99,"id":"a62a7e2sfcea","users":1311,"longitude":15.65},"type":"Feature","geometry":{"type":"Point","coordinates":[15.65,40.99]}},{"properties":{"city":"Potenza","latitude":40.64,"id":"a62a7e40crg8","users":14745,"longitude":15.81},"type":"Feature","geometry":{"type":"Point","coordinates":[15.81,40.64]}},{"properties":{"city":"Bernalda","latitude":40.41,"id":"a62a7e6vkalq","users":1049,"longitude":16.69},"type":"Feature","geometry":{"type":"Point","coordinates":[16.69,40.41]}},{"properties":{"city":"Matera","latitude":40.66,"id":"a62a7ebj268j","users":12623,"longitude":16.61},"type":"Feature","geometry":{"type":"Point","coordinates":[16.61,40.66]}},{"properties":{"city":"Pisticci","latitude":40.39,"id":"a62a7e4v12nj","users":1014,"longitude":16.56},"type":"Feature","geometry":{"type":"Point","coordinates":[16.56,40.39]}},{"properties":{"city":"Policoro","latitude":40.21,"id":"a62a7dylp4x1","users":1528,"longitude":16.68},"type":"Feature","geometry":{"type":"Point","coordinates":[16.68,40.21]}},{"properties":{"city":"Catanzaro","latitude":38.91,"id":"a62a7e2bj6dq","users":24349,"longitude":16.59},"type":"Feature","geometry":{"type":"Point","coordinates":[16.59,38.91]}},{"properties":{"city":"Lamezia Terme","latitude":38.97,"id":"a62a7e85w62z","users":8999,"longitude":16.32},"type":"Feature","geometry":{"type":"Point","coordinates":[16.32,38.97]}},{"properties":{"city":"Soverato","latitude":38.69,"id":"a62a7e0tenus","users":1854,"longitude":16.55},"type":"Feature","geometry":{"type":"Point","coordinates":[16.55,38.69]}},{"properties":{"city":"Acri","latitude":39.49,"id":"a62a7dzimv74","users":1213,"longitude":16.39},"type":"Feature","geometry":{"type":"Point","coordinates":[16.39,39.49]}},{"properties":{"city":"Amantea","latitude":39.13,"id":"a62a7e3s9f4e","users":1509,"longitude":16.08},"type":"Feature","geometry":{"type":"Point","coordinates":[16.08,39.13]}},{"properties":{"city":"Cassano allo Ionio","latitude":39.78,"id":"a62a7e6agywo","users":1072,"longitude":16.32},"type":"Feature","geometry":{"type":"Point","coordinates":[16.32,39.78]}},{"properties":{"city":"Castrovillari","latitude":39.81,"id":"a62a7e6zhf0o","users":2331,"longitude":16.2},"type":"Feature","geometry":{"type":"Point","coordinates":[16.2,39.81]}},{"properties":{"city":"Corigliano Calabro","latitude":39.6,"id":"a62a7eefsg4k","users":3982,"longitude":16.52},"type":"Feature","geometry":{"type":"Point","coordinates":[16.52,39.6]}},{"properties":{"city":"Cosenza","latitude":39.3,"id":"a62a7eer3172","users":40929,"longitude":16.25},"type":"Feature","geometry":{"type":"Point","coordinates":[16.25,39.3]}},{"properties":{"city":"Paola","latitude":39.36,"id":"a62a7e1jzbzh","users":1901,"longitude":16.04},"type":"Feature","geometry":{"type":"Point","coordinates":[16.04,39.36]}},{"properties":{"city":"Rende","latitude":39.33,"id":"a62a7ebgdtpk","users":3320,"longitude":16.18},"type":"Feature","geometry":{"type":"Point","coordinates":[16.18,39.33]}},{"properties":{"city":"Rossano","latitude":39.57,"id":"a62a7eb08owl","users":4232,"longitude":16.64},"type":"Feature","geometry":{"type":"Point","coordinates":[16.64,39.57]}},{"properties":{"city":"San Giovanni in Fiore","latitude":39.25,"id":"a62a7e1fdngy","users":1712,"longitude":16.7},"type":"Feature","geometry":{"type":"Point","coordinates":[16.7,39.25]}},{"properties":{"city":"Scalea","latitude":39.81,"id":"a62a7ebblbed","users":1183,"longitude":15.79},"type":"Feature","geometry":{"type":"Point","coordinates":[15.79,39.81]}},{"properties":{"city":"Cirò Marina","latitude":39.37,"id":"a62a7eer2qhr","users":1613,"longitude":17.13},"type":"Feature","geometry":{"type":"Point","coordinates":[17.13,39.37]}},{"properties":{"city":"Crotone","latitude":39.08,"id":"a62a7dyybm8k","users":13297,"longitude":17.13},"type":"Feature","geometry":{"type":"Point","coordinates":[17.13,39.08]}},{"properties":{"city":"Gioia Tauro","latitude":38.43,"id":"a62a7e8qxjmy","users":2312,"longitude":15.9},"type":"Feature","geometry":{"type":"Point","coordinates":[15.9,38.43]}},{"properties":{"city":"Locri","latitude":38.23,"id":"a62a7dyrmwhw","users":1373,"longitude":16.26},"type":"Feature","geometry":{"type":"Point","coordinates":[16.26,38.23]}},{"properties":{"city":"Palmi","latitude":38.36,"id":"a62a7e46chcw","users":2157,"longitude":15.85},"type":"Feature","geometry":{"type":"Point","coordinates":[15.85,38.36]}},{"properties":{"city":"Polistena","latitude":38.41,"id":"a62a7dyromw2","users":1071,"longitude":16.08},"type":"Feature","geometry":{"type":"Point","coordinates":[16.08,38.41]}},{"properties":{"city":"Reggio di Calabria","latitude":38.11,"id":"a62a7e4sejx1","users":43420,"longitude":15.65},"type":"Feature","geometry":{"type":"Point","coordinates":[15.65,38.11]}},{"properties":{"city":"Siderno","latitude":38.27,"id":"a62a7e9j62jo","users":1844,"longitude":16.29},"type":"Feature","geometry":{"type":"Point","coordinates":[16.29,38.27]}},{"properties":{"city":"Taurianova","latitude":38.35,"id":"a62a7dzu7glf","users":1233,"longitude":16.01},"type":"Feature","geometry":{"type":"Point","coordinates":[16.01,38.35]}},{"properties":{"city":"Villa San Giovanni","latitude":38.22,"id":"a62a7e44twpq","users":1083,"longitude":15.64},"type":"Feature","geometry":{"type":"Point","coordinates":[15.64,38.22]}},{"properties":{"city":"Pizzo","latitude":38.73,"id":"a62a7dyvyw0d","users":1056,"longitude":16.16},"type":"Feature","geometry":{"type":"Point","coordinates":[16.16,38.73]}},{"properties":{"city":"Tropea","latitude":38.67,"id":"a62a7dyzvje6","users":1352,"longitude":15.9},"type":"Feature","geometry":{"type":"Point","coordinates":[15.9,38.67]}},{"properties":{"city":"Vibo Valentia","latitude":38.67,"id":"a62a7e2hyy07","users":7592,"longitude":16.1},"type":"Feature","geometry":{"type":"Point","coordinates":[16.1,38.67]}},{"properties":{"city":"Bagheria","latitude":38.08,"id":"a62a7e3lhaf3","users":4722,"longitude":13.51},"type":"Feature","geometry":{"type":"Point","coordinates":[13.51,38.08]}},{"properties":{"city":"Carini","latitude":38.13,"id":"a62a7e7yw5zc","users":1960,"longitude":13.18},"type":"Feature","geometry":{"type":"Point","coordinates":[13.18,38.13]}},{"properties":{"city":"Cefalù","latitude":38.04,"id":"a62a7edq8bni","users":2044,"longitude":14.02},"type":"Feature","geometry":{"type":"Point","coordinates":[14.02,38.04]}},{"properties":{"city":"Monreale","latitude":38.08,"id":"a62a7dyqlnhj","users":1411,"longitude":13.29},"type":"Feature","geometry":{"type":"Point","coordinates":[13.29,38.08]}},{"properties":{"city":"Palermo","latitude":38.11561,"id":"a62a7ec9css4","users":196905,"longitude":13.36137},"type":"Feature","geometry":{"type":"Point","coordinates":[13.36137,38.11561]}},{"properties":{"city":"Partinico","latitude":38.05,"id":"a62a7e8vdtgc","users":2377,"longitude":13.12},"type":"Feature","geometry":{"type":"Point","coordinates":[13.12,38.05]}},{"properties":{"city":"Termini Imerese","latitude":37.98,"id":"a62a7e4ib9hw","users":2763,"longitude":13.7},"type":"Feature","geometry":{"type":"Point","coordinates":[13.7,37.98]}},{"properties":{"city":"Villabate","latitude":38.08,"id":"a62a7e2uayz3","users":1262,"longitude":13.44},"type":"Feature","geometry":{"type":"Point","coordinates":[13.44,38.08]}},{"properties":{"city":"Agrigento","latitude":37.31,"id":"a62a7e6q39m6","users":19986,"longitude":13.59},"type":"Feature","geometry":{"type":"Point","coordinates":[13.59,37.31]}},{"properties":{"city":"Canicattì","latitude":37.36,"id":"a62a7ebj2ogo","users":3003,"longitude":13.85},"type":"Feature","geometry":{"type":"Point","coordinates":[13.85,37.36]}},{"properties":{"city":"Favara","latitude":37.31,"id":"a62a7e7xasqm","users":1802,"longitude":13.66},"type":"Feature","geometry":{"type":"Point","coordinates":[13.66,37.31]}},{"properties":{"city":"Licata","latitude":37.1,"id":"a62a7e1p6bxs","users":3532,"longitude":13.94},"type":"Feature","geometry":{"type":"Point","coordinates":[13.94,37.1]}},{"properties":{"city":"Palma di Montechiaro","latitude":37.19,"id":"a62a7e9dto5r","users":1405,"longitude":13.76},"type":"Feature","geometry":{"type":"Point","coordinates":[13.76,37.19]}},{"properties":{"city":"Porto Empedocle","latitude":37.29,"id":"a62a7e2zxzeh","users":1160,"longitude":13.53},"type":"Feature","geometry":{"type":"Point","coordinates":[13.53,37.29]}},{"properties":{"city":"Ribera","latitude":37.5,"id":"a62a7e2w1qp7","users":1334,"longitude":13.27},"type":"Feature","geometry":{"type":"Point","coordinates":[13.27,37.5]}},{"properties":{"city":"Sciacca","latitude":37.51,"id":"a62a7e9bzd3w","users":4087,"longitude":13.08},"type":"Feature","geometry":{"type":"Point","coordinates":[13.08,37.51]}},{"properties":{"city":"Caltanissetta","latitude":37.49,"id":"a62a7e8aghm7","users":12159,"longitude":14.06},"type":"Feature","geometry":{"type":"Point","coordinates":[14.06,37.49]}},{"properties":{"city":"Gela","latitude":37.07,"id":"a62a7e1zdbs5","users":8815,"longitude":14.24},"type":"Feature","geometry":{"type":"Point","coordinates":[14.24,37.07]}},{"properties":{"city":"Niscemi","latitude":37.15,"id":"a62a7dzn8ob3","users":1910,"longitude":14.39},"type":"Feature","geometry":{"type":"Point","coordinates":[14.39,37.15]}},{"properties":{"city":"San Cataldo","latitude":37.48,"id":"a62a7e6u5pla","users":1748,"longitude":13.99},"type":"Feature","geometry":{"type":"Point","coordinates":[13.99,37.48]}},{"properties":{"city":"Aci Castello","latitude":37.55,"id":"a62a7ecsy7z7","users":1383,"longitude":15.15},"type":"Feature","geometry":{"type":"Point","coordinates":[15.15,37.55]}},{"properties":{"city":"Aci Catena","latitude":37.6,"id":"a62a7e5e3hwx","users":1439,"longitude":15.14},"type":"Feature","geometry":{"type":"Point","coordinates":[15.14,37.6]}},{"properties":{"city":"Acireale","latitude":37.61,"id":"a62a7ea2bi4l","users":6599,"longitude":15.17},"type":"Feature","geometry":{"type":"Point","coordinates":[15.17,37.61]}},{"properties":{"city":"Adrano","latitude":37.67,"id":"a62a7e0le0s1","users":2396,"longitude":14.83},"type":"Feature","geometry":{"type":"Point","coordinates":[14.83,37.67]}},{"properties":{"city":"Belpasso","latitude":37.59,"id":"a62a7dyl88hd","users":1330,"longitude":14.98},"type":"Feature","geometry":{"type":"Point","coordinates":[14.98,37.59]}},{"properties":{"city":"Biancavilla","latitude":37.64,"id":"a62a7edhnkfb","users":1407,"longitude":14.87},"type":"Feature","geometry":{"type":"Point","coordinates":[14.87,37.64]}},{"properties":{"city":"Bronte","latitude":37.79,"id":"a62a7e4ecgu2","users":1258,"longitude":15.67},"type":"Feature","geometry":{"type":"Point","coordinates":[15.67,37.79]}},{"properties":{"city":"Caltagirone","latitude":37.23,"id":"a62a7e0wf8y0","users":4321,"longitude":14.52},"type":"Feature","geometry":{"type":"Point","coordinates":[14.52,37.23]}},{"properties":{"city":"Catania","latitude":37.50248,"id":"a62a7e9oyq9l","users":143078,"longitude":15.08783},"type":"Feature","geometry":{"type":"Point","coordinates":[15.08783,37.50248]}},{"properties":{"city":"Fiumefreddo di Sicilia","latitude":37.79,"id":"a62a7e24v93y","users":1099,"longitude":15.2},"type":"Feature","geometry":{"type":"Point","coordinates":[15.2,37.79]}},{"properties":{"city":"Giarre","latitude":37.72,"id":"a62a7e2sd8y9","users":4632,"longitude":15.18},"type":"Feature","geometry":{"type":"Point","coordinates":[15.18,37.72]}},{"properties":{"city":"Grammichele","latitude":37.21,"id":"a62a7e73iy6t","users":1008,"longitude":14.64},"type":"Feature","geometry":{"type":"Point","coordinates":[14.64,37.21]}},{"properties":{"city":"Gravina di Catania","latitude":37.56,"id":"a62a7dzq4jq3","users":1336,"longitude":15.07},"type":"Feature","geometry":{"type":"Point","coordinates":[15.07,37.56]}},{"properties":{"city":"Mascalucia","latitude":37.57,"id":"a62a7edrx5ye","users":1806,"longitude":15.05},"type":"Feature","geometry":{"type":"Point","coordinates":[15.05,37.57]}},{"properties":{"city":"Misterbianco","latitude":37.52,"id":"a62a7e53n4x4","users":2104,"longitude":15.01},"type":"Feature","geometry":{"type":"Point","coordinates":[15.01,37.52]}},{"properties":{"city":"Paternò","latitude":37.57,"id":"a62a7e2fb7h7","users":3846,"longitude":14.9},"type":"Feature","geometry":{"type":"Point","coordinates":[14.9,37.57]}},{"properties":{"city":"Riposto","latitude":37.73,"id":"a62a7dyd7er8","users":1396,"longitude":15.2},"type":"Feature","geometry":{"type":"Point","coordinates":[15.2,37.73]}},{"properties":{"city":"San Giovanni la Punta","latitude":37.58,"id":"a62a7dyty49b","users":1126,"longitude":15.09},"type":"Feature","geometry":{"type":"Point","coordinates":[15.09,37.58]}},{"properties":{"city":"Scordia","latitude":37.3,"id":"a62a7e1cmt4y","users":1383,"longitude":14.84},"type":"Feature","geometry":{"type":"Point","coordinates":[14.84,37.3]}},{"properties":{"city":"Enna","latitude":37.57,"id":"a62a7e2byg0k","users":6549,"longitude":14.28},"type":"Feature","geometry":{"type":"Point","coordinates":[14.28,37.57]}},{"properties":{"city":"Piazza Armerina","latitude":37.38,"id":"a62a7edvwth5","users":1704,"longitude":14.37},"type":"Feature","geometry":{"type":"Point","coordinates":[14.37,37.38]}},{"properties":{"city":"Barcellona Pozzo di Gotto","latitude":38.15,"id":"a62a7e3ozjmt","users":5182,"longitude":15.21},"type":"Feature","geometry":{"type":"Point","coordinates":[15.21,38.15]}},{"properties":{"city":"Capo d'Orlando","latitude":38.16,"id":"a62a7e5x3ff5","users":1793,"longitude":14.74},"type":"Feature","geometry":{"type":"Point","coordinates":[14.74,38.16]}},{"properties":{"city":"Giardini-Naxos","latitude":37.83,"id":"a62a7ebxtwf0","users":1409,"longitude":15.27},"type":"Feature","geometry":{"type":"Point","coordinates":[15.27,37.83]}},{"properties":{"city":"Itala","latitude":38.05,"id":"a62a7e6wst0j","users":10372,"longitude":15.44},"type":"Feature","geometry":{"type":"Point","coordinates":[15.44,38.05]}},{"properties":{"city":"Lipari","latitude":38.47,"id":"a62a7e756r6w","users":1243,"longitude":14.73},"type":"Feature","geometry":{"type":"Point","coordinates":[14.73,38.47]}},{"properties":{"city":"Messina","latitude":38.19,"id":"a62a7e3vzrxz","users":56204,"longitude":15.55},"type":"Feature","geometry":{"type":"Point","coordinates":[15.55,38.19]}},{"properties":{"city":"Milazzo","latitude":38.22,"id":"a62a7e7izs3u","users":6300,"longitude":15.24},"type":"Feature","geometry":{"type":"Point","coordinates":[15.24,38.22]}},{"properties":{"city":"Patti","latitude":38.14,"id":"a62a7dz6b36c","users":1346,"longitude":14.97},"type":"Feature","geometry":{"type":"Point","coordinates":[14.97,38.14]}},{"properties":{"city":"Taormina","latitude":37.85,"id":"a62a7edylone","users":2338,"longitude":15.29},"type":"Feature","geometry":{"type":"Point","coordinates":[15.29,37.85]}},{"properties":{"city":"Comiso","latitude":36.95,"id":"a62a7e08ooyf","users":3119,"longitude":14.61},"type":"Feature","geometry":{"type":"Point","coordinates":[14.61,36.95]}},{"properties":{"city":"Ispica","latitude":36.79,"id":"a62a7eechv5g","users":1614,"longitude":14.91},"type":"Feature","geometry":{"type":"Point","coordinates":[14.91,36.79]}},{"properties":{"city":"Modica","latitude":36.86,"id":"a62a7e1k3epp","users":6703,"longitude":14.76},"type":"Feature","geometry":{"type":"Point","coordinates":[14.76,36.86]}},{"properties":{"city":"Pozzallo","latitude":36.73,"id":"a62a7e0u2rli","users":2650,"longitude":14.84},"type":"Feature","geometry":{"type":"Point","coordinates":[14.84,36.73]}},{"properties":{"city":"Ragusa","latitude":36.93,"id":"a62a7e4u48w4","users":17555,"longitude":14.73},"type":"Feature","geometry":{"type":"Point","coordinates":[14.73,36.93]}},{"properties":{"city":"Scicli","latitude":36.79,"id":"a62a7e3eoqud","users":2195,"longitude":14.71},"type":"Feature","geometry":{"type":"Point","coordinates":[14.71,36.79]}},{"properties":{"city":"Vittoria","latitude":36.95,"id":"a62a7e9rqws0","users":7591,"longitude":14.53},"type":"Feature","geometry":{"type":"Point","coordinates":[14.53,36.95]}},{"properties":{"city":"Augusta","latitude":37.23,"id":"a62a7e2gpd6z","users":5165,"longitude":15.22},"type":"Feature","geometry":{"type":"Point","coordinates":[15.22,37.23]}},{"properties":{"city":"Avola","latitude":36.91,"id":"a62a7e9kxtj8","users":3570,"longitude":15.13},"type":"Feature","geometry":{"type":"Point","coordinates":[15.13,36.91]}},{"properties":{"city":"Carlentini","latitude":37.27,"id":"a62a7eadggts","users":1354,"longitude":15.02},"type":"Feature","geometry":{"type":"Point","coordinates":[15.02,37.27]}},{"properties":{"city":"Floridia","latitude":37.08,"id":"a62a7e355252","users":2670,"longitude":15.15},"type":"Feature","geometry":{"type":"Point","coordinates":[15.15,37.08]}},{"properties":{"city":"Francofonte","latitude":37.23,"id":"a62a7e8xdkpb","users":1184,"longitude":14.88},"type":"Feature","geometry":{"type":"Point","coordinates":[14.88,37.23]}},{"properties":{"city":"Lentini","latitude":37.28,"id":"a62a7e14s4on","users":4268,"longitude":15.0},"type":"Feature","geometry":{"type":"Point","coordinates":[15.0,37.28]}},{"properties":{"city":"Noto","latitude":36.89,"id":"a62a7e52w8b6","users":2555,"longitude":15.07},"type":"Feature","geometry":{"type":"Point","coordinates":[15.07,36.89]}},{"properties":{"city":"Pachino","latitude":36.72,"id":"a62a7e3ppicl","users":3064,"longitude":15.09},"type":"Feature","geometry":{"type":"Point","coordinates":[15.09,36.72]}},{"properties":{"city":"Priolo Gargallo","latitude":37.16,"id":"a62a7eer4m8b","users":1479,"longitude":15.19},"type":"Feature","geometry":{"type":"Point","coordinates":[15.19,37.16]}},{"properties":{"city":"Rosolini","latitude":36.82,"id":"a62a7e6smxfi","users":2687,"longitude":14.95},"type":"Feature","geometry":{"type":"Point","coordinates":[14.95,36.82]}},{"properties":{"city":"Siracusa","latitude":37.08,"id":"a62a7e44or51","users":35323,"longitude":15.29},"type":"Feature","geometry":{"type":"Point","coordinates":[15.29,37.08]}},{"properties":{"city":"Alcamo","latitude":37.98,"id":"a62a7edrl9yr","users":5392,"longitude":12.96},"type":"Feature","geometry":{"type":"Point","coordinates":[12.96,37.98]}},{"properties":{"city":"Castellammare del Golfo","latitude":38.02,"id":"a62a7ecao6o0","users":1415,"longitude":12.88},"type":"Feature","geometry":{"type":"Point","coordinates":[12.88,38.02]}},{"properties":{"city":"Castelvetrano","latitude":37.68,"id":"a62a7e4x1w3k","users":3583,"longitude":12.79},"type":"Feature","geometry":{"type":"Point","coordinates":[12.79,37.68]}},{"properties":{"city":"Erice","latitude":38.04,"id":"a62a7ec52xuh","users":1393,"longitude":12.59},"type":"Feature","geometry":{"type":"Point","coordinates":[12.59,38.04]}},{"properties":{"city":"Marsala","latitude":37.8,"id":"a62a7e02nk19","users":9907,"longitude":12.45},"type":"Feature","geometry":{"type":"Point","coordinates":[12.45,37.8]}},{"properties":{"city":"Mazara del Vallo","latitude":37.66,"id":"a62a7dzrou0p","users":5682,"longitude":12.6},"type":"Feature","geometry":{"type":"Point","coordinates":[12.6,37.66]}},{"properties":{"city":"Pantelleria","latitude":36.83,"id":"a62a7e1fjrex","users":1265,"longitude":11.94},"type":"Feature","geometry":{"type":"Point","coordinates":[11.94,36.83]}},{"properties":{"city":"Salemi","latitude":37.82,"id":"a62a7e9ctc7o","users":1067,"longitude":12.8},"type":"Feature","geometry":{"type":"Point","coordinates":[12.8,37.82]}},{"properties":{"city":"Trapani","latitude":38.02,"id":"a62a7e2ilnua","users":21670,"longitude":12.54},"type":"Feature","geometry":{"type":"Point","coordinates":[12.54,38.02]}},{"properties":{"city":"Assemini","latitude":39.29,"id":"a62a7ebbn2ra","users":2537,"longitude":9.0},"type":"Feature","geometry":{"type":"Point","coordinates":[9.0,39.29]}},{"properties":{"city":"Cagliari","latitude":39.22,"id":"a62a7e62dvwj","users":77033,"longitude":9.12},"type":"Feature","geometry":{"type":"Point","coordinates":[9.12,39.22]}},{"properties":{"city":"Carbonia","latitude":39.16,"id":"a62a7e9sicjd","users":4645,"longitude":8.52},"type":"Feature","geometry":{"type":"Point","coordinates":[8.52,39.16]}},{"properties":{"city":"Iglesias","latitude":39.31,"id":"a62a7ecmqenf","users":3320,"longitude":8.53},"type":"Feature","geometry":{"type":"Point","coordinates":[8.53,39.31]}},{"properties":{"city":"Monastir","latitude":39.39,"id":"a62a7easqehd","users":1022,"longitude":9.04},"type":"Feature","geometry":{"type":"Point","coordinates":[9.04,39.39]}},{"properties":{"city":"Monserrato","latitude":39.25581,"id":"a62a7ebqq7zl","users":1574,"longitude":9.14056},"type":"Feature","geometry":{"type":"Point","coordinates":[9.14056,39.25581]}},{"properties":{"city":"Quartu Sant'Elena","latitude":39.24,"id":"a62a7e44gefr","users":5614,"longitude":9.19},"type":"Feature","geometry":{"type":"Point","coordinates":[9.19,39.24]}},{"properties":{"city":"Sant'Antioco","latitude":39.07,"id":"a62a7e8u7uea","users":1110,"longitude":8.45},"type":"Feature","geometry":{"type":"Point","coordinates":[8.45,39.07]}},{"properties":{"city":"Selargius","latitude":39.26,"id":"a62a7eay5chw","users":1832,"longitude":9.17},"type":"Feature","geometry":{"type":"Point","coordinates":[9.17,39.26]}},{"properties":{"city":"Sestu","latitude":39.3,"id":"a62a7e17uqr6","users":1258,"longitude":9.09},"type":"Feature","geometry":{"type":"Point","coordinates":[9.09,39.3]}},{"properties":{"city":"Nuoro","latitude":40.32,"id":"a62a7e0wbz2g","users":6918,"longitude":9.33},"type":"Feature","geometry":{"type":"Point","coordinates":[9.33,40.32]}},{"properties":{"city":"Oristano","latitude":39.9,"id":"a62a7e03197c","users":7299,"longitude":8.59},"type":"Feature","geometry":{"type":"Point","coordinates":[8.59,39.9]}},{"properties":{"city":"Alghero","latitude":40.56,"id":"a62a7ead16od","users":5686,"longitude":8.32},"type":"Feature","geometry":{"type":"Point","coordinates":[8.32,40.56]}},{"properties":{"city":"Arzachena","latitude":41.08,"id":"a62a7e6fn7zs","users":1231,"longitude":9.39},"type":"Feature","geometry":{"type":"Point","coordinates":[9.39,41.08]}},{"properties":{"city":"Olbia","latitude":40.92,"id":"a62a7eankkxm","users":11812,"longitude":9.5},"type":"Feature","geometry":{"type":"Point","coordinates":[9.5,40.92]}},{"properties":{"city":"Porto Torres","latitude":40.83,"id":"a62a7eb8uzlv","users":2680,"longitude":8.4},"type":"Feature","geometry":{"type":"Point","coordinates":[8.4,40.83]}},{"properties":{"city":"Romana","latitude":40.48,"id":"a62a7ecvvslk","users":3151,"longitude":8.59},"type":"Feature","geometry":{"type":"Point","coordinates":[8.59,40.48]}},{"properties":{"city":"Sassari","latitude":40.72716,"id":"a62a7e1c4efg","users":30010,"longitude":8.55846},"type":"Feature","geometry":{"type":"Point","coordinates":[8.55846,40.72716]}},{"properties":{"city":"Tempio Pausania","latitude":40.9,"id":"a62a7ebw82eu","users":1085,"longitude":9.1},"type":"Feature","geometry":{"type":"Point","coordinates":[9.1,40.9]}}],"is_temporal":false,"author":{"url":"","metadata":"","contact_name":"","contact_address":"","source":"","contact_phone":""},"source":"","pagination":{"sort":null,"start":0,"total":513,"limit":1000000},"state":"complete","tags":"","published":"2014-08-13T03:51:35-04:00","id":114660}