{"type":"FeatureCollection","data_type":"Dataset","url_type":null,"permissions":[{"permissions":{"download":true,"view":true},"group_id":"everyone"}],"classification":null,"title":"czech","count":160,"stream_id":114664,"contributor":{"url":"http://geocommons.com/users/26550","name":"seregus"},"data_attributes":null,"calculation_params":null,"icon_link":null,"link":"http://geocommons.com/overlays/114664.json","extent":[12.1833,48.7333,18.7667,50.95],"geometry_types":["point"],"unique_name":null,"name":"czech","feature_count":160,"description":"","next_feature":null,"is_raster":false,"short_classification":"Y","stats":{"latitude":{"max":50.95,"mean":49.852085875,"variance":0.258678578801745,"stdev":0.508604540681407,"min":48.73333,"median":49.8333},"id":{"max":900828,"mean":892679.225,"variance":24362215.4333333,"stdev":4935.80950132127,"min":884480,"median":892930},"users":{"max":352484,"mean":8475.56875,"variance":924929208.724804,"stdev":30412.6488278283,"min":1012,"median":2490},"longitude":{"max":18.7667,"mean":15.6421448125,"variance":2.7585782789094,"stdev":1.66089682970057,"min":12.1833,"median":15.6328}},"features":[{"properties":{"city":"Čáslav","latitude":49.9167,"id":"a645kfe5fdca","users":1012,"longitude":15.4},"type":"Feature","geometry":{"type":"Point","coordinates":[15.4,49.9167]}},{"properties":{"city":"Nové Město nad Metují","latitude":50.3333,"id":"a645kfbvhg17","users":1018,"longitude":16.1667},"type":"Feature","geometry":{"type":"Point","coordinates":[16.1667,50.3333]}},{"properties":{"city":"Přelouč","latitude":50.0347,"id":"a645kfizf2lg","users":1033,"longitude":15.5661},"type":"Feature","geometry":{"type":"Point","coordinates":[15.5661,50.0347]}},{"properties":{"city":"Choceň","latitude":50.0,"id":"a645kfn9n25g","users":1041,"longitude":16.2333},"type":"Feature","geometry":{"type":"Point","coordinates":[16.2333,50.0]}},{"properties":{"city":"Hlinsko","latitude":49.76666,"id":"a645kfo4gul7","users":1042,"longitude":15.9},"type":"Feature","geometry":{"type":"Point","coordinates":[15.9,49.76666]}},{"properties":{"city":"Blatná","latitude":49.4333,"id":"a645kflapkiz","users":1049,"longitude":13.8833},"type":"Feature","geometry":{"type":"Point","coordinates":[13.8833,49.4333]}},{"properties":{"city":"Bílina","latitude":50.5333,"id":"a645kfl0cnr8","users":1055,"longitude":13.8},"type":"Feature","geometry":{"type":"Point","coordinates":[13.8,50.5333]}},{"properties":{"city":"Nové Město na Moravě","latitude":49.5667,"id":"a645kfmrhrpx","users":1056,"longitude":16.0833},"type":"Feature","geometry":{"type":"Point","coordinates":[16.0833,49.5667]}},{"properties":{"city":"Žamberk","latitude":50.1,"id":"a645kfiig7dh","users":1060,"longitude":16.4667},"type":"Feature","geometry":{"type":"Point","coordinates":[16.4667,50.1]}},{"properties":{"city":"Frýdlant","latitude":50.92,"id":"a645kfko1jwh","users":1076,"longitude":15.075},"type":"Feature","geometry":{"type":"Point","coordinates":[15.075,50.92]}},{"properties":{"city":"Bystřice pod Hostýnem","latitude":49.4,"id":"a645kfljvnl5","users":1080,"longitude":17.6833},"type":"Feature","geometry":{"type":"Point","coordinates":[17.6833,49.4]}},{"properties":{"city":"Chotěboř","latitude":49.7167,"id":"a645kfpz86hg","users":1081,"longitude":15.6667},"type":"Feature","geometry":{"type":"Point","coordinates":[15.6667,49.7167]}},{"properties":{"city":"Brandýs na Labe","latitude":50.1833,"id":"a645kfnt0g01","users":1102,"longitude":14.6667},"type":"Feature","geometry":{"type":"Point","coordinates":[14.6667,50.1833]}},{"properties":{"city":"Stříbro","latitude":49.7525,"id":"a645kffm4dvo","users":1112,"longitude":12.9983},"type":"Feature","geometry":{"type":"Point","coordinates":[12.9983,49.7525]}},{"properties":{"city":"Vimperk","latitude":49.05,"id":"a645kfdtwxa7","users":1120,"longitude":13.78333},"type":"Feature","geometry":{"type":"Point","coordinates":[13.78333,49.05]}},{"properties":{"city":"Milevsko","latitude":49.45,"id":"a645kflcxtgw","users":1131,"longitude":14.3667},"type":"Feature","geometry":{"type":"Point","coordinates":[14.3667,49.45]}},{"properties":{"city":"Tišnov","latitude":49.35,"id":"a645kfj22gha","users":1161,"longitude":16.4333},"type":"Feature","geometry":{"type":"Point","coordinates":[16.4333,49.35]}},{"properties":{"city":"Hořice","latitude":50.3664,"id":"a645kfbb8hsu","users":1172,"longitude":15.6328},"type":"Feature","geometry":{"type":"Point","coordinates":[15.6328,50.3664]}},{"properties":{"city":"Rýmařov","latitude":49.9333,"id":"a645kfpbd72m","users":1176,"longitude":17.2667},"type":"Feature","geometry":{"type":"Point","coordinates":[17.2667,49.9333]}},{"properties":{"city":"Frýdlant nad Ostravicí","latitude":49.5833,"id":"a645kfhbcg8h","users":1186,"longitude":18.35},"type":"Feature","geometry":{"type":"Point","coordinates":[18.35,49.5833]}},{"properties":{"city":"Krupka","latitude":50.6833,"id":"a645kfdde9eg","users":1219,"longitude":13.8667},"type":"Feature","geometry":{"type":"Point","coordinates":[13.8667,50.6833]}},{"properties":{"city":"Vlašim","latitude":49.7,"id":"a645kfpclk0b","users":1225,"longitude":14.9},"type":"Feature","geometry":{"type":"Point","coordinates":[14.9,49.7]}},{"properties":{"city":"Chomoutov","latitude":49.63333,"id":"a645kfnuwyq0","users":1239,"longitude":17.2},"type":"Feature","geometry":{"type":"Point","coordinates":[17.2,49.63333]}},{"properties":{"city":"Kaplice","latitude":48.73333,"id":"a645kfcc1dip","users":1245,"longitude":14.48333},"type":"Feature","geometry":{"type":"Point","coordinates":[14.48333,48.73333]}},{"properties":{"city":"Týn nad Vltavou","latitude":49.2333,"id":"a645kfm04gug","users":1328,"longitude":14.4167},"type":"Feature","geometry":{"type":"Point","coordinates":[14.4167,49.2333]}},{"properties":{"city":"Litovel","latitude":49.7167,"id":"a645kfejynlv","users":1342,"longitude":17.0833},"type":"Feature","geometry":{"type":"Point","coordinates":[17.0833,49.7167]}},{"properties":{"city":"Holešov","latitude":49.3333,"id":"a645kffetd7d","users":1342,"longitude":17.5833},"type":"Feature","geometry":{"type":"Point","coordinates":[17.5833,49.3333]}},{"properties":{"city":"Jablunkov","latitude":49.5833,"id":"a645kflv67fk","users":1345,"longitude":18.7667},"type":"Feature","geometry":{"type":"Point","coordinates":[18.7667,49.5833]}},{"properties":{"city":"Benešov","latitude":49.5,"id":"a645kfq51s7l","users":1384,"longitude":16.7667},"type":"Feature","geometry":{"type":"Point","coordinates":[16.7667,49.5]}},{"properties":{"city":"Šternberk","latitude":49.7333,"id":"a645kfqatq5p","users":1390,"longitude":17.3},"type":"Feature","geometry":{"type":"Point","coordinates":[17.3,49.7333]}},{"properties":{"city":"Zábřeh","latitude":49.8833,"id":"a645kff4ch7e","users":1395,"longitude":16.8667},"type":"Feature","geometry":{"type":"Point","coordinates":[16.8667,49.8833]}},{"properties":{"city":"Broumov","latitude":50.58333,"id":"a645kfjb8roe","users":1440,"longitude":16.33333},"type":"Feature","geometry":{"type":"Point","coordinates":[16.33333,50.58333]}},{"properties":{"city":"Polička","latitude":49.7167,"id":"a645kfg1xg05","users":1448,"longitude":16.2667},"type":"Feature","geometry":{"type":"Point","coordinates":[16.2667,49.7167]}},{"properties":{"city":"Náchod","latitude":49.4333,"id":"a645kfki1q8c","users":1452,"longitude":14.6667},"type":"Feature","geometry":{"type":"Point","coordinates":[14.6667,49.4333]}},{"properties":{"city":"Sušice","latitude":49.2333,"id":"a645kflhkqx5","users":1455,"longitude":13.5167},"type":"Feature","geometry":{"type":"Point","coordinates":[13.5167,49.2333]}},{"properties":{"city":"Frenštát pod Radhoštěm","latitude":49.55,"id":"a645kfgzoztk","users":1486,"longitude":18.2167},"type":"Feature","geometry":{"type":"Point","coordinates":[18.2167,49.55]}},{"properties":{"city":"Uničov","latitude":49.7667,"id":"a645kfapvg9u","users":1519,"longitude":17.1333},"type":"Feature","geometry":{"type":"Point","coordinates":[17.1333,49.7667]}},{"properties":{"city":"Hranice","latitude":49.75,"id":"a645kfh9xj8q","users":1528,"longitude":14.25},"type":"Feature","geometry":{"type":"Point","coordinates":[14.25,49.75]}},{"properties":{"city":"Humpolec","latitude":49.55,"id":"a645kfq07457","users":1555,"longitude":15.3667},"type":"Feature","geometry":{"type":"Point","coordinates":[15.3667,49.55]}},{"properties":{"city":"Poděbrady","latitude":50.1472,"id":"a645kfkutrrd","users":1587,"longitude":15.1158},"type":"Feature","geometry":{"type":"Point","coordinates":[15.1158,50.1472]}},{"properties":{"city":"Nový Bor","latitude":50.7667,"id":"a645kfcpdb5j","users":1648,"longitude":14.5833},"type":"Feature","geometry":{"type":"Point","coordinates":[14.5833,50.7667]}},{"properties":{"city":"Hranice","latitude":49.55,"id":"a645kff0vi62","users":1668,"longitude":17.7333},"type":"Feature","geometry":{"type":"Point","coordinates":[17.7333,49.55]}},{"properties":{"city":"Moravská Třebová","latitude":49.75,"id":"a645kfmlmj0z","users":1701,"longitude":16.6667},"type":"Feature","geometry":{"type":"Point","coordinates":[16.6667,49.75]}},{"properties":{"city":"Veselí nad Moravou","latitude":48.95,"id":"a645kfkl63wn","users":1709,"longitude":17.4},"type":"Feature","geometry":{"type":"Point","coordinates":[17.4,48.95]}},{"properties":{"city":"Velké Meziříčí","latitude":49.35,"id":"a645kfhwz4yf","users":1710,"longitude":16.0167},"type":"Feature","geometry":{"type":"Point","coordinates":[16.0167,49.35]}},{"properties":{"city":"Chodov","latitude":50.25,"id":"a645kfonb44g","users":1732,"longitude":12.75},"type":"Feature","geometry":{"type":"Point","coordinates":[12.75,50.25]}},{"properties":{"city":"Vysočina","latitude":49.4167,"id":"a645kfg3t65m","users":1747,"longitude":15.5},"type":"Feature","geometry":{"type":"Point","coordinates":[15.5,49.4167]}},{"properties":{"city":"Aš","latitude":50.2167,"id":"a645kfq7n4fz","users":1799,"longitude":12.1833},"type":"Feature","geometry":{"type":"Point","coordinates":[12.1833,50.2167]}},{"properties":{"city":"Jaroměř","latitude":50.3511,"id":"a645kfgbzbo0","users":1818,"longitude":15.9192},"type":"Feature","geometry":{"type":"Point","coordinates":[15.9192,50.3511]}},{"properties":{"city":"Vrchlabí","latitude":50.6222,"id":"a645kfnxkcu2","users":1832,"longitude":15.6075},"type":"Feature","geometry":{"type":"Point","coordinates":[15.6075,50.6222]}},{"properties":{"city":"Hradecko","latitude":50.01666,"id":"a645kfj3tyjk","users":1837,"longitude":13.5},"type":"Feature","geometry":{"type":"Point","coordinates":[13.5,50.01666]}},{"properties":{"city":"Domažlice","latitude":49.4403,"id":"a645kfaywuhp","users":1860,"longitude":12.9272},"type":"Feature","geometry":{"type":"Point","coordinates":[12.9272,49.4403]}},{"properties":{"city":"Česká","latitude":49.2833,"id":"a645kfdb3p4j","users":1871,"longitude":16.5667},"type":"Feature","geometry":{"type":"Point","coordinates":[16.5667,49.2833]}},{"properties":{"city":"Vysoké Mýto","latitude":49.95,"id":"a645kfcex72d","users":1887,"longitude":16.1667},"type":"Feature","geometry":{"type":"Point","coordinates":[16.1667,49.95]}},{"properties":{"city":"Klášterec nad Ohří","latitude":50.3833,"id":"a645kffunvj8","users":1893,"longitude":13.15},"type":"Feature","geometry":{"type":"Point","coordinates":[13.15,50.3833]}},{"properties":{"city":"Lovosice","latitude":50.5167,"id":"a645kfl1yl5g","users":1895,"longitude":14.0667},"type":"Feature","geometry":{"type":"Point","coordinates":[14.0667,50.5167]}},{"properties":{"city":"Lanškroun","latitude":49.9167,"id":"a645kfe2pkmm","users":1923,"longitude":16.6167},"type":"Feature","geometry":{"type":"Point","coordinates":[16.6167,49.9167]}},{"properties":{"city":"Rumburk","latitude":50.95,"id":"a645kfaekp4r","users":1964,"longitude":14.5667},"type":"Feature","geometry":{"type":"Point","coordinates":[14.5667,50.95]}},{"properties":{"city":"Rožnov pod Radhoštěm","latitude":49.4667,"id":"a645kflyyak2","users":1986,"longitude":18.1333},"type":"Feature","geometry":{"type":"Point","coordinates":[18.1333,49.4667]}},{"properties":{"city":"Boskovice","latitude":49.4833,"id":"a645kfmxjtq3","users":1998,"longitude":16.6667},"type":"Feature","geometry":{"type":"Point","coordinates":[16.6667,49.4833]}},{"properties":{"city":"Litomyšl","latitude":49.8667,"id":"a645kfq5pj9p","users":2014,"longitude":16.3167},"type":"Feature","geometry":{"type":"Point","coordinates":[16.3167,49.8667]}},{"properties":{"city":"Pelhřimov","latitude":49.4333,"id":"a645kfpjsxa4","users":2023,"longitude":15.2333},"type":"Feature","geometry":{"type":"Point","coordinates":[15.2333,49.4333]}},{"properties":{"city":"Kyjov","latitude":49.0167,"id":"a645kfcpcqoo","users":2039,"longitude":17.1167},"type":"Feature","geometry":{"type":"Point","coordinates":[17.1167,49.0167]}},{"properties":{"city":"Otrokovice","latitude":49.21666,"id":"a645kfmuf626","users":2072,"longitude":17.51666},"type":"Feature","geometry":{"type":"Point","coordinates":[17.51666,49.21666]}},{"properties":{"city":"Turnov","latitude":50.58583,"id":"a645kfkmv70r","users":2092,"longitude":15.14833},"type":"Feature","geometry":{"type":"Point","coordinates":[15.14833,50.58583]}},{"properties":{"city":"Kopřivnice","latitude":49.6,"id":"a645kffro3o6","users":2105,"longitude":18.15},"type":"Feature","geometry":{"type":"Point","coordinates":[18.15,49.6]}},{"properties":{"city":"Krnov","latitude":49.7,"id":"a645kfe10a5e","users":2108,"longitude":17.2},"type":"Feature","geometry":{"type":"Point","coordinates":[17.2,49.7]}},{"properties":{"city":"Mariánské Lázně","latitude":49.9725,"id":"a645kfcwrgzi","users":2117,"longitude":12.7044},"type":"Feature","geometry":{"type":"Point","coordinates":[12.7044,49.9725]}},{"properties":{"city":"Neratovice","latitude":50.2667,"id":"a645kfhgkyxo","users":2124,"longitude":14.5167},"type":"Feature","geometry":{"type":"Point","coordinates":[14.5167,50.2667]}},{"properties":{"city":"Rychnov nad Kněžnou","latitude":50.1667,"id":"a645kfgsdbfx","users":2150,"longitude":16.2833},"type":"Feature","geometry":{"type":"Point","coordinates":[16.2833,50.1667]}},{"properties":{"city":"Semily","latitude":50.605,"id":"a645kfids204","users":2152,"longitude":15.32555},"type":"Feature","geometry":{"type":"Point","coordinates":[15.32555,50.605]}},{"properties":{"city":"Kralupy nad Vltavou","latitude":50.23333,"id":"a645kfc2x0m4","users":2254,"longitude":14.31666},"type":"Feature","geometry":{"type":"Point","coordinates":[14.31666,50.23333]}},{"properties":{"city":"Bohumín","latitude":49.9333,"id":"a645kfggsatk","users":2324,"longitude":18.3667},"type":"Feature","geometry":{"type":"Point","coordinates":[18.3667,49.9333]}},{"properties":{"city":"Jirkov","latitude":50.5,"id":"a645kfb9ydlw","users":2357,"longitude":13.45},"type":"Feature","geometry":{"type":"Point","coordinates":[13.45,50.5]}},{"properties":{"city":"Prachatice","latitude":49.01666,"id":"a645kfhtr48q","users":2372,"longitude":14.0},"type":"Feature","geometry":{"type":"Point","coordinates":[14.0,49.01666]}},{"properties":{"city":"Krnov","latitude":50.1,"id":"a645kfam7qil","users":2386,"longitude":17.7167},"type":"Feature","geometry":{"type":"Point","coordinates":[17.7167,50.1]}},{"properties":{"city":"Ráj","latitude":49.8333,"id":"a645kficwnyo","users":2396,"longitude":18.5667},"type":"Feature","geometry":{"type":"Point","coordinates":[18.5667,49.8333]}},{"properties":{"city":"Roudnice","latitude":50.4167,"id":"a645kflfpwec","users":2414,"longitude":14.25},"type":"Feature","geometry":{"type":"Point","coordinates":[14.25,50.4167]}},{"properties":{"city":"Uherský Brod","latitude":49.0333,"id":"a645kfo6vn8b","users":2479,"longitude":17.65},"type":"Feature","geometry":{"type":"Point","coordinates":[17.65,49.0333]}},{"properties":{"city":"Tachov","latitude":49.79666,"id":"a645kfl6390w","users":2483,"longitude":12.63277},"type":"Feature","geometry":{"type":"Point","coordinates":[12.63277,49.79666]}},{"properties":{"city":"Varnsdorf","latitude":50.9167,"id":"a645kfeigo94","users":2490,"longitude":14.6167},"type":"Feature","geometry":{"type":"Point","coordinates":[14.6167,50.9167]}},{"properties":{"city":"Dvůr Králové nad Labem","latitude":50.4314,"id":"a645kfk9w731","users":2503,"longitude":15.8139},"type":"Feature","geometry":{"type":"Point","coordinates":[15.8139,50.4314]}},{"properties":{"city":"Rokycany","latitude":49.73333,"id":"a645kfc5c72w","users":2528,"longitude":13.6},"type":"Feature","geometry":{"type":"Point","coordinates":[13.6,49.73333]}},{"properties":{"city":"Náchod","latitude":50.4167,"id":"a645kfb0i8su","users":2569,"longitude":16.1667},"type":"Feature","geometry":{"type":"Point","coordinates":[16.1667,50.4167]}},{"properties":{"city":"Benešov","latitude":49.7833,"id":"a645kfganwyv","users":2569,"longitude":14.6833},"type":"Feature","geometry":{"type":"Point","coordinates":[14.6833,49.7833]}},{"properties":{"city":"Kadaň","latitude":50.3833,"id":"a645kfkwlc47","users":2707,"longitude":13.2667},"type":"Feature","geometry":{"type":"Point","coordinates":[13.2667,50.3833]}},{"properties":{"city":"Česká Třebová","latitude":49.9,"id":"a645kfq1l8xo","users":2730,"longitude":16.45},"type":"Feature","geometry":{"type":"Point","coordinates":[16.45,49.9]}},{"properties":{"city":"Český Krumlov","latitude":48.8167,"id":"a645kfp2n5nf","users":2740,"longitude":14.3167},"type":"Feature","geometry":{"type":"Point","coordinates":[14.3167,48.8167]}},{"properties":{"city":"Český Těšín","latitude":49.75,"id":"a645kfemtirl","users":2787,"longitude":18.6167},"type":"Feature","geometry":{"type":"Point","coordinates":[18.6167,49.75]}},{"properties":{"city":"Ústí nad Orlicí","latitude":49.9833,"id":"a645kfjeik0f","users":2863,"longitude":16.4},"type":"Feature","geometry":{"type":"Point","coordinates":[16.4,49.9833]}},{"properties":{"city":"Slaný","latitude":50.2333,"id":"a645kfb1mo8i","users":2897,"longitude":14.1},"type":"Feature","geometry":{"type":"Point","coordinates":[14.1,50.2333]}},{"properties":{"city":"Žatec","latitude":50.3333,"id":"a645kflhhnjg","users":3104,"longitude":13.55},"type":"Feature","geometry":{"type":"Point","coordinates":[13.55,50.3333]}},{"properties":{"city":"Blansko","latitude":49.36666,"id":"a645kfn2sspc","users":3149,"longitude":16.66666},"type":"Feature","geometry":{"type":"Point","coordinates":[16.66666,49.36666]}},{"properties":{"city":"Litvínov","latitude":50.6,"id":"a645kfneqsn1","users":3327,"longitude":13.6167},"type":"Feature","geometry":{"type":"Point","coordinates":[13.6167,50.6]}},{"properties":{"city":"Habry","latitude":49.75616,"id":"a645kfbgorg2","users":3478,"longitude":15.48543},"type":"Feature","geometry":{"type":"Point","coordinates":[15.48543,49.75616]}},{"properties":{"city":"Jeseník","latitude":50.2333,"id":"a645kfe7pt6q","users":3609,"longitude":17.2},"type":"Feature","geometry":{"type":"Point","coordinates":[17.2,50.2333]}},{"properties":{"city":"Valašské Meziříčí","latitude":49.4667,"id":"a645kfo5yah6","users":3809,"longitude":17.9667},"type":"Feature","geometry":{"type":"Point","coordinates":[17.9667,49.4667]}},{"properties":{"city":"Svitavy","latitude":49.75,"id":"a645kflq7w8u","users":3857,"longitude":16.46666},"type":"Feature","geometry":{"type":"Point","coordinates":[16.46666,49.75]}},{"properties":{"city":"Nymburk","latitude":50.185,"id":"a645kfnw2l2w","users":3889,"longitude":15.0342},"type":"Feature","geometry":{"type":"Point","coordinates":[15.0342,50.185]}},{"properties":{"city":"Kutná Hora","latitude":49.95,"id":"a645kfn4dymp","users":3995,"longitude":15.2667},"type":"Feature","geometry":{"type":"Point","coordinates":[15.2667,49.95]}},{"properties":{"city":"Jindřichŭv Hradec","latitude":49.15,"id":"a645kfihqs71","users":4064,"longitude":15.0},"type":"Feature","geometry":{"type":"Point","coordinates":[15.0,49.15]}},{"properties":{"city":"Mělník","latitude":49.9,"id":"a645kfpzhv8w","users":4179,"longitude":14.91666},"type":"Feature","geometry":{"type":"Point","coordinates":[14.91666,49.9]}},{"properties":{"city":"Vyškov","latitude":49.28333,"id":"a645kfh2gjfo","users":4297,"longitude":17.0},"type":"Feature","geometry":{"type":"Point","coordinates":[17.0,49.28333]}},{"properties":{"city":"Kladno","latitude":49.78333,"id":"a645kfpg9wwq","users":4326,"longitude":15.98333},"type":"Feature","geometry":{"type":"Point","coordinates":[15.98333,49.78333]}},{"properties":{"city":"Břeclav","latitude":48.7667,"id":"a645kfdwuopv","users":4364,"longitude":16.8833},"type":"Feature","geometry":{"type":"Point","coordinates":[16.8833,48.7667]}},{"properties":{"city":"Havlíčkŭv Brod","latitude":49.6167,"id":"a645kfafmbez","users":4369,"longitude":15.5833},"type":"Feature","geometry":{"type":"Point","coordinates":[15.5833,49.6167]}},{"properties":{"city":"Orlová","latitude":49.85,"id":"a645kfcy51wm","users":4484,"longitude":18.4333},"type":"Feature","geometry":{"type":"Point","coordinates":[18.4333,49.85]}},{"properties":{"city":"Strakonice","latitude":49.2667,"id":"a645kfmvxetb","users":4508,"longitude":13.9},"type":"Feature","geometry":{"type":"Point","coordinates":[13.9,49.2667]}},{"properties":{"city":"Jičín","latitude":50.4333,"id":"a645kfaluvs0","users":4564,"longitude":15.3547},"type":"Feature","geometry":{"type":"Point","coordinates":[15.3547,50.4333]}},{"properties":{"city":"Bruntál","latitude":49.9833,"id":"a645kfbvgm9t","users":4619,"longitude":17.4667},"type":"Feature","geometry":{"type":"Point","coordinates":[17.4667,49.9833]}},{"properties":{"city":"Rakovník","latitude":50.1,"id":"a645kfdq8fbu","users":4657,"longitude":13.75},"type":"Feature","geometry":{"type":"Point","coordinates":[13.75,50.1]}},{"properties":{"city":"Klatovy","latitude":49.4,"id":"a645kflahu96","users":4764,"longitude":13.3},"type":"Feature","geometry":{"type":"Point","coordinates":[13.3,49.4]}},{"properties":{"city":"Beroun","latitude":49.95,"id":"a645kfjxpucw","users":4819,"longitude":14.08333},"type":"Feature","geometry":{"type":"Point","coordinates":[14.08333,49.95]}},{"properties":{"city":"Žďár nad Sázavou","latitude":49.5667,"id":"a645kfammmh1","users":4981,"longitude":15.95},"type":"Feature","geometry":{"type":"Point","coordinates":[15.95,49.5667]}},{"properties":{"city":"Nový Jičín","latitude":49.6,"id":"a645kfm470yl","users":5287,"longitude":18.0167},"type":"Feature","geometry":{"type":"Point","coordinates":[18.0167,49.6]}},{"properties":{"city":"Třinec","latitude":49.6833,"id":"a645kfisrt0a","users":5416,"longitude":18.65},"type":"Feature","geometry":{"type":"Point","coordinates":[18.65,49.6833]}},{"properties":{"city":"Cheb","latitude":50.0667,"id":"a645kfhtyldg","users":5631,"longitude":12.3667},"type":"Feature","geometry":{"type":"Point","coordinates":[12.3667,50.0667]}},{"properties":{"city":"Písek","latitude":49.3,"id":"a645kfo0jwof","users":5825,"longitude":14.15},"type":"Feature","geometry":{"type":"Point","coordinates":[14.15,49.3]}},{"properties":{"city":"Hodonín","latitude":48.8667,"id":"a645kfkdtu2h","users":5985,"longitude":17.1333},"type":"Feature","geometry":{"type":"Point","coordinates":[17.1333,48.8667]}},{"properties":{"city":"Louny","latitude":50.35,"id":"a645kfcewq7x","users":6064,"longitude":13.8},"type":"Feature","geometry":{"type":"Point","coordinates":[13.8,50.35]}},{"properties":{"city":"Falknov","latitude":50.1833,"id":"a645kflrs9za","users":6093,"longitude":12.6333},"type":"Feature","geometry":{"type":"Point","coordinates":[12.6333,50.1833]}},{"properties":{"city":"Uherské Hradiště","latitude":49.0667,"id":"a645kfdiam2z","users":6164,"longitude":17.45},"type":"Feature","geometry":{"type":"Point","coordinates":[17.45,49.0667]}},{"properties":{"city":"Vsetín","latitude":49.3333,"id":"a645kfnvquk7","users":6172,"longitude":18.0},"type":"Feature","geometry":{"type":"Point","coordinates":[18.0,49.3333]}},{"properties":{"city":"Chrudim","latitude":49.95,"id":"a645kfhpbwwp","users":6290,"longitude":15.8},"type":"Feature","geometry":{"type":"Point","coordinates":[15.8,49.95]}},{"properties":{"city":"Příbram","latitude":49.7,"id":"a645kfcfnz3l","users":6293,"longitude":14.01666},"type":"Feature","geometry":{"type":"Point","coordinates":[14.01666,49.7]}},{"properties":{"city":"Karviná","latitude":49.8667,"id":"a645kfkn34en","users":6468,"longitude":18.55},"type":"Feature","geometry":{"type":"Point","coordinates":[18.55,49.8667]}},{"properties":{"city":"Jablonec nad Nisou","latitude":50.7292,"id":"a645kfi529z9","users":6738,"longitude":15.1681},"type":"Feature","geometry":{"type":"Point","coordinates":[15.1681,50.7292]}},{"properties":{"city":"Kroměříž","latitude":49.3,"id":"a645kfmvp943","users":6750,"longitude":17.4},"type":"Feature","geometry":{"type":"Point","coordinates":[17.4,49.3]}},{"properties":{"city":"Litoměřice","latitude":50.5333,"id":"a645kfe9w4w9","users":6782,"longitude":14.1333},"type":"Feature","geometry":{"type":"Point","coordinates":[14.1333,50.5333]}},{"properties":{"city":"Šumperk","latitude":49.96666,"id":"a645kfmy9bsz","users":7448,"longitude":16.96666},"type":"Feature","geometry":{"type":"Point","coordinates":[16.96666,49.96666]}},{"properties":{"city":"Kladno","latitude":50.15,"id":"a645kfki6brv","users":7881,"longitude":14.1},"type":"Feature","geometry":{"type":"Point","coordinates":[14.1,50.15]}},{"properties":{"city":"Tábor","latitude":49.4167,"id":"a645kfikv07y","users":8243,"longitude":14.6667},"type":"Feature","geometry":{"type":"Point","coordinates":[14.6667,49.4167]}},{"properties":{"city":"Kolín","latitude":50.0239,"id":"a645kfo6egxi","users":8489,"longitude":15.2044},"type":"Feature","geometry":{"type":"Point","coordinates":[15.2044,50.0239]}},{"properties":{"city":"Trutnov","latitude":50.5606,"id":"a645kfdco3nf","users":8726,"longitude":15.9103},"type":"Feature","geometry":{"type":"Point","coordinates":[15.9103,50.5606]}},{"properties":{"city":"Přerov","latitude":49.45,"id":"a645kfh4rot9","users":8827,"longitude":17.45},"type":"Feature","geometry":{"type":"Point","coordinates":[17.45,49.45]}},{"properties":{"city":"Třebíč","latitude":49.2167,"id":"a645kfgvst4r","users":8943,"longitude":15.8833},"type":"Feature","geometry":{"type":"Point","coordinates":[15.8833,49.2167]}},{"properties":{"city":"Česká Lípa","latitude":50.6833,"id":"a645kff28v26","users":9160,"longitude":14.55},"type":"Feature","geometry":{"type":"Point","coordinates":[14.55,50.6833]}},{"properties":{"city":"Znojmo","latitude":48.85,"id":"a645kfn3x48k","users":10098,"longitude":16.05},"type":"Feature","geometry":{"type":"Point","coordinates":[16.05,48.85]}},{"properties":{"city":"Chomutov","latitude":50.45,"id":"a645kfpur7b2","users":10119,"longitude":13.4333},"type":"Feature","geometry":{"type":"Point","coordinates":[13.4333,50.45]}},{"properties":{"city":"Frýdek","latitude":49.6833,"id":"a645kfnrdr8l","users":10301,"longitude":18.35},"type":"Feature","geometry":{"type":"Point","coordinates":[18.35,49.6833]}},{"properties":{"city":"Děčín","latitude":50.78333,"id":"a645kfiddpb2","users":10468,"longitude":14.21666},"type":"Feature","geometry":{"type":"Point","coordinates":[14.21666,50.78333]}},{"properties":{"city":"Prostějov","latitude":49.46666,"id":"a645kfq13wq6","users":10556,"longitude":17.11666},"type":"Feature","geometry":{"type":"Point","coordinates":[17.11666,49.46666]}},{"properties":{"city":"Jihlava","latitude":49.4,"id":"a645kff7pjou","users":11463,"longitude":15.5833},"type":"Feature","geometry":{"type":"Point","coordinates":[15.5833,49.4]}},{"properties":{"city":"Mladá Boleslav","latitude":50.4167,"id":"a645kflzum5d","users":11646,"longitude":14.9},"type":"Feature","geometry":{"type":"Point","coordinates":[14.9,50.4167]}},{"properties":{"city":"Havířov","latitude":49.8,"id":"a645kff40kwj","users":11739,"longitude":18.4},"type":"Feature","geometry":{"type":"Point","coordinates":[18.4,49.8]}},{"properties":{"city":"Karlovy Vary","latitude":50.2167,"id":"a645kfdrlba7","users":12159,"longitude":12.9},"type":"Feature","geometry":{"type":"Point","coordinates":[12.9,50.2167]}},{"properties":{"city":"Teplice","latitude":50.6333,"id":"a645kfg12bdp","users":13339,"longitude":13.8333},"type":"Feature","geometry":{"type":"Point","coordinates":[13.8333,50.6333]}},{"properties":{"city":"Opava","latitude":49.95,"id":"a645kffflkrn","users":13599,"longitude":17.9167},"type":"Feature","geometry":{"type":"Point","coordinates":[17.9167,49.95]}},{"properties":{"city":"Most","latitude":50.5333,"id":"a645kfjwnfj8","users":14634,"longitude":13.65},"type":"Feature","geometry":{"type":"Point","coordinates":[13.65,50.5333]}},{"properties":{"city":"Zlín","latitude":49.2333,"id":"a645kfhcsw9x","users":17984,"longitude":17.6667},"type":"Feature","geometry":{"type":"Point","coordinates":[17.6667,49.2333]}},{"properties":{"city":"Hradec Králové","latitude":50.2117,"id":"a645kfg43bog","users":18845,"longitude":15.8442},"type":"Feature","geometry":{"type":"Point","coordinates":[15.8442,50.2117]}},{"properties":{"city":"Ústí","latitude":50.6667,"id":"a645kfmehy6x","users":20502,"longitude":14.0333},"type":"Feature","geometry":{"type":"Point","coordinates":[14.0333,50.6667]}},{"properties":{"city":"Pardubice","latitude":50.0278,"id":"a645kfcds8hj","users":22618,"longitude":15.7758},"type":"Feature","geometry":{"type":"Point","coordinates":[15.7758,50.0278]}},{"properties":{"city":"Olomouc","latitude":49.5833,"id":"a645kfqt29b8","users":28820,"longitude":17.25},"type":"Feature","geometry":{"type":"Point","coordinates":[17.25,49.5833]}},{"properties":{"city":"České Budějovice","latitude":48.9833,"id":"a645kfetby7p","users":29244,"longitude":14.4667},"type":"Feature","geometry":{"type":"Point","coordinates":[14.4667,48.9833]}},{"properties":{"city":"Liberec","latitude":50.7639,"id":"a645kfgjox91","users":39091,"longitude":15.0653},"type":"Feature","geometry":{"type":"Point","coordinates":[15.0653,50.7639]}},{"properties":{"city":"Plzeň","latitude":49.75,"id":"a645kfjkrrj4","users":60296,"longitude":13.3667},"type":"Feature","geometry":{"type":"Point","coordinates":[13.3667,49.75]}},{"properties":{"city":"Ostrava","latitude":49.83333,"id":"a645kfg003gk","users":101113,"longitude":18.28333},"type":"Feature","geometry":{"type":"Point","coordinates":[18.28333,49.83333]}},{"properties":{"city":"Brno","latitude":49.2,"id":"a645kfcvebrp","users":110077,"longitude":16.6333},"type":"Feature","geometry":{"type":"Point","coordinates":[16.6333,49.2]}},{"properties":{"city":"Prague","latitude":50.0833,"id":"a645kfpjg2ly","users":352484,"longitude":14.41667},"type":"Feature","geometry":{"type":"Point","coordinates":[14.41667,50.0833]}}],"is_temporal":false,"author":{"url":"","metadata":"","contact_name":"","contact_address":"","source":"","contact_phone":""},"source":"","pagination":{"sort":null,"start":0,"total":160,"limit":1000000},"state":"complete","tags":"","published":"2014-08-13T03:51:39-04:00","id":114664}