{"type":"FeatureCollection","data_type":"Dataset","url_type":null,"permissions":[{"permissions":{"download":true,"view":true},"group_id":"everyone"}],"classification":null,"title":"poland","count":239,"stream_id":114667,"contributor":{"url":"http://geocommons.com/users/26550","name":"seregus"},"data_attributes":null,"calculation_params":null,"icon_link":null,"link":"http://geocommons.com/overlays/114667.json","extent":[14.25,49.3,23.4167,54.6167],"geometry_types":["point"],"unique_name":null,"name":"poland","feature_count":239,"description":"","next_feature":null,"is_raster":false,"short_classification":"Y","stats":{"latitude":{"max":54.61667,"mean":51.8035979916318,"variance":2.04455120715309,"stdev":1.42987803925828,"min":49.3,"median":51.68333},"id":{"max":1043207,"mean":373256.066945607,"variance":15613670041.6762,"stdev":124954.671948176,"min":324334,"median":352808},"users":{"max":409177,"mean":7487.38493723849,"variance":857205404.565487,"stdev":29278.0703695699,"min":1002,"median":2324},"longitude":{"max":23.4167,"mean":19.1366778242678,"variance":4.91114576630113,"stdev":2.21611050408167,"min":14.25,"median":19.03333}},"features":[{"properties":{"city":"Przeworsk","latitude":50.06667,"id":"a62r46f20hmq","users":1002,"longitude":22.5},"type":"Feature","geometry":{"type":"Point","coordinates":[22.5,50.06667]}},{"properties":{"city":"Ostrzeszow","latitude":51.41667,"id":"a62r46gmmzp2","users":1004,"longitude":17.95},"type":"Feature","geometry":{"type":"Point","coordinates":[17.95,51.41667]}},{"properties":{"city":"Avgustov","latitude":53.85,"id":"a62r46c1bmun","users":1009,"longitude":23.0},"type":"Feature","geometry":{"type":"Point","coordinates":[23.0,53.85]}},{"properties":{"city":"Limanowa","latitude":49.7,"id":"a62r469wq856","users":1020,"longitude":20.43333},"type":"Feature","geometry":{"type":"Point","coordinates":[20.43333,49.7]}},{"properties":{"city":"Olsztyn","latitude":50.75,"id":"a62r46osvqtr","users":1020,"longitude":19.26667},"type":"Feature","geometry":{"type":"Point","coordinates":[19.26667,50.75]}},{"properties":{"city":"Grodzisk Wielkopolski","latitude":52.2333,"id":"a62r46ko4xzi","users":1022,"longitude":16.3667},"type":"Feature","geometry":{"type":"Point","coordinates":[16.3667,52.2333]}},{"properties":{"city":"Prudnik","latitude":50.31667,"id":"a62r46j5ty0i","users":1032,"longitude":17.58333},"type":"Feature","geometry":{"type":"Point","coordinates":[17.58333,50.31667]}},{"properties":{"city":"Plonsk","latitude":52.63333,"id":"a62r46fcr7vt","users":1045,"longitude":20.38333},"type":"Feature","geometry":{"type":"Point","coordinates":[20.38333,52.63333]}},{"properties":{"city":"Polkwitz Kreis Glogau","latitude":51.5,"id":"a62r46dpf72m","users":1050,"longitude":16.0667},"type":"Feature","geometry":{"type":"Point","coordinates":[16.0667,51.5]}},{"properties":{"city":"Pleszew","latitude":51.9,"id":"a62r46dritt9","users":1053,"longitude":17.8},"type":"Feature","geometry":{"type":"Point","coordinates":[17.8,51.9]}},{"properties":{"city":"Ustka","latitude":54.58333,"id":"a62r46kdzaep","users":1057,"longitude":16.85},"type":"Feature","geometry":{"type":"Point","coordinates":[16.85,54.58333]}},{"properties":{"city":"Nowy Tomysl","latitude":52.3167,"id":"a62r46f0uzri","users":1066,"longitude":16.15},"type":"Feature","geometry":{"type":"Point","coordinates":[16.15,52.3167]}},{"properties":{"city":"Lyubartov","latitude":51.4667,"id":"a62r46li482z","users":1072,"longitude":22.6333},"type":"Feature","geometry":{"type":"Point","coordinates":[22.6333,51.4667]}},{"properties":{"city":"Swiebodzin","latitude":50.26667,"id":"a62r46lp73r4","users":1075,"longitude":20.91667},"type":"Feature","geometry":{"type":"Point","coordinates":[20.91667,50.26667]}},{"properties":{"city":"Kolmar","latitude":52.9833,"id":"a62r46liu5gl","users":1095,"longitude":16.9167},"type":"Feature","geometry":{"type":"Point","coordinates":[16.9167,52.9833]}},{"properties":{"city":"Zgorzelice","latitude":51.15,"id":"a62r46lk0p8y","users":1097,"longitude":15.0167},"type":"Feature","geometry":{"type":"Point","coordinates":[15.0167,51.15]}},{"properties":{"city":"Ostrow Mazowiecki","latitude":52.8,"id":"a62r46gro6df","users":1098,"longitude":21.9},"type":"Feature","geometry":{"type":"Point","coordinates":[21.9,52.8]}},{"properties":{"city":"Kartuzy","latitude":54.33333,"id":"a62r46hd4h81","users":1099,"longitude":18.2},"type":"Feature","geometry":{"type":"Point","coordinates":[18.2,54.33333]}},{"properties":{"city":"Sroda Wielkopolska","latitude":52.2333,"id":"a62r46k8rmcp","users":1102,"longitude":17.2833},"type":"Feature","geometry":{"type":"Point","coordinates":[17.2833,52.2333]}},{"properties":{"city":"Choszczno","latitude":53.1667,"id":"a62r46ir9f59","users":1103,"longitude":15.4167},"type":"Feature","geometry":{"type":"Point","coordinates":[15.4167,53.1667]}},{"properties":{"city":"Landsberg","latitude":51.0333,"id":"a62r46j8ixm0","users":1103,"longitude":18.4333},"type":"Feature","geometry":{"type":"Point","coordinates":[18.4333,51.0333]}},{"properties":{"city":"Naklo","latitude":50.45,"id":"a62r46gh89n6","users":1110,"longitude":18.91667},"type":"Feature","geometry":{"type":"Point","coordinates":[18.91667,50.45]}},{"properties":{"city":"Zabki","latitude":52.28333,"id":"a62r46knn906","users":1125,"longitude":21.11667},"type":"Feature","geometry":{"type":"Point","coordinates":[21.11667,52.28333]}},{"properties":{"city":"Kozienice","latitude":51.5833,"id":"a62r46p80yq3","users":1129,"longitude":21.5667},"type":"Feature","geometry":{"type":"Point","coordinates":[21.5667,51.5833]}},{"properties":{"city":"Knurow","latitude":50.21667,"id":"a62r469cgw9z","users":1130,"longitude":18.66667},"type":"Feature","geometry":{"type":"Point","coordinates":[18.66667,50.21667]}},{"properties":{"city":"Lezajsk","latitude":50.26667,"id":"a62r46j9ll7c","users":1146,"longitude":22.41667},"type":"Feature","geometry":{"type":"Point","coordinates":[22.41667,50.26667]}},{"properties":{"city":"Miedzyrzecz","latitude":52.4333,"id":"a62r46k97bu1","users":1148,"longitude":15.5833},"type":"Feature","geometry":{"type":"Point","coordinates":[15.5833,52.4333]}},{"properties":{"city":"Wieliczka","latitude":49.98333,"id":"a62r46awfwht","users":1155,"longitude":20.06667},"type":"Feature","geometry":{"type":"Point","coordinates":[20.06667,49.98333]}},{"properties":{"city":"Debica","latitude":51.65,"id":"a62r46g2fhou","users":1160,"longitude":22.56667},"type":"Feature","geometry":{"type":"Point","coordinates":[22.56667,51.65]}},{"properties":{"city":"Szczecin Gumience","latitude":53.4167,"id":"a62r46co1t5j","users":1187,"longitude":14.5},"type":"Feature","geometry":{"type":"Point","coordinates":[14.5,53.4167]}},{"properties":{"city":"Opoczno","latitude":51.36667,"id":"a62r46hasz07","users":1188,"longitude":20.28333},"type":"Feature","geometry":{"type":"Point","coordinates":[20.28333,51.36667]}},{"properties":{"city":"Tomoshuv Lyubel'ski","latitude":50.45,"id":"a62r46ahbdl6","users":1188,"longitude":23.4167},"type":"Feature","geometry":{"type":"Point","coordinates":[23.4167,50.45]}},{"properties":{"city":"Kreuzburg","latitude":50.9833,"id":"a62r469uqnv6","users":1232,"longitude":18.2167},"type":"Feature","geometry":{"type":"Point","coordinates":[18.2167,50.9833]}},{"properties":{"city":"Mlawa","latitude":53.1167,"id":"a62r46lg7gl3","users":1235,"longitude":20.3833},"type":"Feature","geometry":{"type":"Point","coordinates":[20.3833,53.1167]}},{"properties":{"city":"Podlaski","latitude":52.7667,"id":"a62r46ogm952","users":1257,"longitude":23.2},"type":"Feature","geometry":{"type":"Point","coordinates":[23.2,52.7667]}},{"properties":{"city":"Poppelwitz","latitude":51.13333,"id":"a62r46ni5o0c","users":1257,"longitude":17.0},"type":"Feature","geometry":{"type":"Point","coordinates":[17.0,51.13333]}},{"properties":{"city":"Soldau","latitude":53.2333,"id":"a62r46gly8hq","users":1260,"longitude":20.1833},"type":"Feature","geometry":{"type":"Point","coordinates":[20.1833,53.2333]}},{"properties":{"city":"Swidnik Duzy","latitude":51.25,"id":"a62r46o3vlpj","users":1273,"longitude":22.6833},"type":"Feature","geometry":{"type":"Point","coordinates":[22.6833,51.25]}},{"properties":{"city":"Swiecie","latitude":53.4167,"id":"a62r46gdrih5","users":1274,"longitude":18.45},"type":"Feature","geometry":{"type":"Point","coordinates":[18.45,53.4167]}},{"properties":{"city":"Zambrow","latitude":52.9833,"id":"a62r46lhbc17","users":1277,"longitude":22.25},"type":"Feature","geometry":{"type":"Point","coordinates":[22.25,52.9833]}},{"properties":{"city":"Wagrowiec","latitude":52.8,"id":"a62r46f42xkc","users":1320,"longitude":17.2},"type":"Feature","geometry":{"type":"Point","coordinates":[17.2,52.8]}},{"properties":{"city":"Wolsztyn","latitude":52.11667,"id":"a62r46elc1ee","users":1327,"longitude":16.13333},"type":"Feature","geometry":{"type":"Point","coordinates":[16.13333,52.11667]}},{"properties":{"city":"Myslenice","latitude":49.83333,"id":"a62r469mfbcq","users":1328,"longitude":19.93333},"type":"Feature","geometry":{"type":"Point","coordinates":[19.93333,49.83333]}},{"properties":{"city":"Nowa Sol","latitude":51.8,"id":"a62r46k2j6jn","users":1366,"longitude":15.7167},"type":"Feature","geometry":{"type":"Point","coordinates":[15.7167,51.8]}},{"properties":{"city":"Grodzisk Mazowiecki","latitude":52.11667,"id":"a62r46dn04i8","users":1369,"longitude":20.63333},"type":"Feature","geometry":{"type":"Point","coordinates":[20.63333,52.11667]}},{"properties":{"city":"Wrzesnia","latitude":52.3167,"id":"a62r46i7pcag","users":1375,"longitude":17.5833},"type":"Feature","geometry":{"type":"Point","coordinates":[17.5833,52.3167]}},{"properties":{"city":"Lowicz","latitude":52.11667,"id":"a62r46ela8b7","users":1375,"longitude":19.93333},"type":"Feature","geometry":{"type":"Point","coordinates":[19.93333,52.11667]}},{"properties":{"city":"Turek","latitude":52.03333,"id":"a62r46986qt7","users":1377,"longitude":18.5},"type":"Feature","geometry":{"type":"Point","coordinates":[18.5,52.03333]}},{"properties":{"city":"Konskie","latitude":51.2,"id":"a62r46okq11m","users":1396,"longitude":20.4167},"type":"Feature","geometry":{"type":"Point","coordinates":[20.4167,51.2]}},{"properties":{"city":"Myszkow Nowy","latitude":50.5833,"id":"a62r46abzuta","users":1398,"longitude":19.35},"type":"Feature","geometry":{"type":"Point","coordinates":[19.35,50.5833]}},{"properties":{"city":"Bialogrod","latitude":54.0,"id":"a62r46darjla","users":1400,"longitude":16.0},"type":"Feature","geometry":{"type":"Point","coordinates":[16.0,54.0]}},{"properties":{"city":"Wielun","latitude":51.2167,"id":"a62r46nmt739","users":1400,"longitude":18.55},"type":"Feature","geometry":{"type":"Point","coordinates":[18.55,51.2167]}},{"properties":{"city":"Skawina","latitude":49.98333,"id":"a62r46h1yn6k","users":1402,"longitude":19.83333},"type":"Feature","geometry":{"type":"Point","coordinates":[19.83333,49.98333]}},{"properties":{"city":"Zegan","latitude":51.6167,"id":"a62r46cwo3r9","users":1403,"longitude":15.3167},"type":"Feature","geometry":{"type":"Point","coordinates":[15.3167,51.6167]}},{"properties":{"city":"Koscierzyna","latitude":54.11667,"id":"a62r46dhdggu","users":1406,"longitude":17.98333},"type":"Feature","geometry":{"type":"Point","coordinates":[17.98333,54.11667]}},{"properties":{"city":"Sokolow Podlaski","latitude":52.4,"id":"a62r46l3gudd","users":1406,"longitude":22.25},"type":"Feature","geometry":{"type":"Point","coordinates":[22.25,52.4]}},{"properties":{"city":"Tesin","latitude":49.7667,"id":"a62r46hozjl1","users":1419,"longitude":18.6},"type":"Feature","geometry":{"type":"Point","coordinates":[18.6,49.7667]}},{"properties":{"city":"Lubliniec","latitude":50.6667,"id":"a62r46c8vgk6","users":1441,"longitude":18.6833},"type":"Feature","geometry":{"type":"Point","coordinates":[18.6833,50.6667]}},{"properties":{"city":"Kos'tsyan","latitude":52.1,"id":"a62r46dm5srm","users":1444,"longitude":16.6333},"type":"Feature","geometry":{"type":"Point","coordinates":[16.6333,52.1]}},{"properties":{"city":"Reda","latitude":54.61667,"id":"a62r46d650l4","users":1449,"longitude":18.35},"type":"Feature","geometry":{"type":"Point","coordinates":[18.35,54.61667]}},{"properties":{"city":"Gollnow","latitude":53.5667,"id":"a62r46gcskqz","users":1472,"longitude":14.8167},"type":"Feature","geometry":{"type":"Point","coordinates":[14.8167,53.5667]}},{"properties":{"city":"Myslowice","latitude":50.23333,"id":"a62r46bog1fm","users":1472,"longitude":19.15},"type":"Feature","geometry":{"type":"Point","coordinates":[19.15,50.23333]}},{"properties":{"city":"Ols","latitude":51.2,"id":"a62r46dr8d2p","users":1497,"longitude":17.3833},"type":"Feature","geometry":{"type":"Point","coordinates":[17.3833,51.2]}},{"properties":{"city":"Zoraw","latitude":51.6333,"id":"a62r46e6sfgj","users":1502,"longitude":15.15},"type":"Feature","geometry":{"type":"Point","coordinates":[15.15,51.6333]}},{"properties":{"city":"Krasnik","latitude":50.91667,"id":"a62r46ja2ns8","users":1505,"longitude":22.23333},"type":"Feature","geometry":{"type":"Point","coordinates":[22.23333,50.91667]}},{"properties":{"city":"Wolomin","latitude":52.35,"id":"a62r46hos4py","users":1511,"longitude":21.25},"type":"Feature","geometry":{"type":"Point","coordinates":[21.25,52.35]}},{"properties":{"city":"Czeladz Piaski","latitude":50.3167,"id":"a62r46b6xvk1","users":1531,"longitude":19.1},"type":"Feature","geometry":{"type":"Point","coordinates":[19.1,50.3167]}},{"properties":{"city":"Rawitsch","latitude":51.6167,"id":"a62r46h8d4b6","users":1539,"longitude":16.8667},"type":"Feature","geometry":{"type":"Point","coordinates":[16.8667,51.6167]}},{"properties":{"city":"Zadzbork","latitude":53.8667,"id":"a62r46gcfjpm","users":1559,"longitude":21.3},"type":"Feature","geometry":{"type":"Point","coordinates":[21.3,53.8667]}},{"properties":{"city":"Skarzysko","latitude":51.11667,"id":"a62r46kz7ubs","users":1569,"longitude":20.9},"type":"Feature","geometry":{"type":"Point","coordinates":[20.9,51.11667]}},{"properties":{"city":"Wroclawki","latitude":53.25,"id":"a62r46b0gw3y","users":1574,"longitude":18.6},"type":"Feature","geometry":{"type":"Point","coordinates":[18.6,53.25]}},{"properties":{"city":"Szczyton","latitude":53.5667,"id":"a62r46mes7lm","users":1601,"longitude":21.0},"type":"Feature","geometry":{"type":"Point","coordinates":[21.0,53.5667]}},{"properties":{"city":"Rybniki","latitude":53.2833,"id":"a62r46pfpdz2","users":1612,"longitude":23.15},"type":"Feature","geometry":{"type":"Point","coordinates":[23.15,53.2833]}},{"properties":{"city":"Politz","latitude":53.55,"id":"a62r46feihtp","users":1659,"longitude":14.5667},"type":"Feature","geometry":{"type":"Point","coordinates":[14.5667,53.55]}},{"properties":{"city":"Srem","latitude":52.08333,"id":"a62r46eevzcu","users":1664,"longitude":17.01667},"type":"Feature","geometry":{"type":"Point","coordinates":[17.01667,52.08333]}},{"properties":{"city":"Bartoszyce","latitude":54.25583,"id":"a62r46ck4lqo","users":1683,"longitude":20.81139},"type":"Feature","geometry":{"type":"Point","coordinates":[20.81139,54.25583]}},{"properties":{"city":"Jarocin","latitude":51.96667,"id":"a62r46b37nmy","users":1687,"longitude":17.51667},"type":"Feature","geometry":{"type":"Point","coordinates":[17.51667,51.96667]}},{"properties":{"city":"Krotoszyn","latitude":51.7,"id":"a62r46nn6kpw","users":1698,"longitude":17.45},"type":"Feature","geometry":{"type":"Point","coordinates":[17.45,51.7]}},{"properties":{"city":"Walcz","latitude":53.2667,"id":"a62r46ho4pj2","users":1700,"longitude":16.4667},"type":"Feature","geometry":{"type":"Point","coordinates":[16.4667,53.2667]}},{"properties":{"city":"Kedzierzyn","latitude":50.35,"id":"a62r46f3w8gz","users":1718,"longitude":18.2},"type":"Feature","geometry":{"type":"Point","coordinates":[18.2,50.35]}},{"properties":{"city":"Sandomir","latitude":50.6833,"id":"a62r46mj3v05","users":1728,"longitude":21.75},"type":"Feature","geometry":{"type":"Point","coordinates":[21.75,50.6833]}},{"properties":{"city":"Lukow","latitude":51.9167,"id":"a62r46k65646","users":1735,"longitude":22.3833},"type":"Feature","geometry":{"type":"Point","coordinates":[22.3833,51.9167]}},{"properties":{"city":"Otwock","latitude":52.1333,"id":"a62r46kq2vkf","users":1737,"longitude":21.3167},"type":"Feature","geometry":{"type":"Point","coordinates":[21.3167,52.1333]}},{"properties":{"city":"Lancut","latitude":50.06667,"id":"a62r46gn8tm9","users":1756,"longitude":22.23333},"type":"Feature","geometry":{"type":"Point","coordinates":[22.23333,50.06667]}},{"properties":{"city":"Bilgoray","latitude":50.55,"id":"a62r46edsdtw","users":1760,"longitude":22.7},"type":"Feature","geometry":{"type":"Point","coordinates":[22.7,50.55]}},{"properties":{"city":"Wadowice","latitude":49.88333,"id":"a62r46g35wzg","users":1776,"longitude":19.48333},"type":"Feature","geometry":{"type":"Point","coordinates":[19.48333,49.88333]}},{"properties":{"city":"Zakopane","latitude":49.3,"id":"a62r46i09rz5","users":1777,"longitude":19.96667},"type":"Feature","geometry":{"type":"Point","coordinates":[19.96667,49.3]}},{"properties":{"city":"Brodnica","latitude":53.25,"id":"a62r46nb8s2n","users":1789,"longitude":19.4},"type":"Feature","geometry":{"type":"Point","coordinates":[19.4,53.25]}},{"properties":{"city":"Nowy Targ","latitude":49.4833,"id":"a62r46ne5u8w","users":1794,"longitude":20.0333},"type":"Feature","geometry":{"type":"Point","coordinates":[20.0333,49.4833]}},{"properties":{"city":"Zyrardow","latitude":52.06667,"id":"a62r46m2w7rt","users":1813,"longitude":20.43333},"type":"Feature","geometry":{"type":"Point","coordinates":[20.43333,52.06667]}},{"properties":{"city":"Olawa","latitude":50.9333,"id":"a62r46ex0w5q","users":1823,"longitude":17.3},"type":"Feature","geometry":{"type":"Point","coordinates":[17.3,50.9333]}},{"properties":{"city":"Wyszkow","latitude":52.6,"id":"a62r46hfdv4r","users":1829,"longitude":21.4667},"type":"Feature","geometry":{"type":"Point","coordinates":[21.4667,52.6]}},{"properties":{"city":"Lembork","latitude":54.55,"id":"a62r46a0s94w","users":1845,"longitude":17.75},"type":"Feature","geometry":{"type":"Point","coordinates":[17.75,54.55]}},{"properties":{"city":"Tsekhanov","latitude":52.8833,"id":"a62r46evd5e0","users":1848,"longitude":20.6167},"type":"Feature","geometry":{"type":"Point","coordinates":[20.6167,52.8833]}},{"properties":{"city":"Ruda Talubska","latitude":51.8667,"id":"a62r46amupic","users":1871,"longitude":21.5833},"type":"Feature","geometry":{"type":"Point","coordinates":[21.5833,51.8667]}},{"properties":{"city":"Pruszcz Gdanski","latitude":54.2667,"id":"a62r46c6nnmb","users":1901,"longitude":18.6333},"type":"Feature","geometry":{"type":"Point","coordinates":[18.6333,54.2667]}},{"properties":{"city":"Bolesławiec","latitude":51.2667,"id":"a62r46jdacy8","users":1909,"longitude":15.5667},"type":"Feature","geometry":{"type":"Point","coordinates":[15.5667,51.2667]}},{"properties":{"city":"Brzeg","latitude":50.85,"id":"a62r46ipvyj0","users":1922,"longitude":17.46667},"type":"Feature","geometry":{"type":"Point","coordinates":[17.46667,50.85]}},{"properties":{"city":"Bokhnya","latitude":49.9667,"id":"a62r46mx3983","users":1928,"longitude":20.4333},"type":"Feature","geometry":{"type":"Point","coordinates":[20.4333,49.9667]}},{"properties":{"city":"Ilawa","latitude":53.6,"id":"a62r46n7xyn8","users":1949,"longitude":19.5667},"type":"Feature","geometry":{"type":"Point","coordinates":[19.5667,53.6]}},{"properties":{"city":"Pszczyna","latitude":49.9667,"id":"a62r46mbw4c3","users":1962,"longitude":18.95},"type":"Feature","geometry":{"type":"Point","coordinates":[18.95,49.9667]}},{"properties":{"city":"Szczecin Pomorzany","latitude":53.3833,"id":"a62r46cdksy3","users":1966,"longitude":14.5167},"type":"Feature","geometry":{"type":"Point","coordinates":[14.5167,53.3833]}},{"properties":{"city":"Lutsany","latitude":54.0425,"id":"a62r46e7k5ay","users":1976,"longitude":21.7694},"type":"Feature","geometry":{"type":"Point","coordinates":[21.7694,54.0425]}},{"properties":{"city":"Rumja","latitude":54.5833,"id":"a62r46e9nawr","users":1983,"longitude":18.4},"type":"Feature","geometry":{"type":"Point","coordinates":[18.4,54.5833]}},{"properties":{"city":"Gorlice","latitude":49.66667,"id":"a62r46l5uitr","users":1988,"longitude":21.16667},"type":"Feature","geometry":{"type":"Point","coordinates":[21.16667,49.66667]}},{"properties":{"city":"Klodzko","latitude":50.4333,"id":"a62r46o1nrwn","users":2006,"longitude":16.65},"type":"Feature","geometry":{"type":"Point","coordinates":[16.65,50.4333]}},{"properties":{"city":"Rastenburg","latitude":54.0781,"id":"a62r4698cufy","users":2007,"longitude":21.3764},"type":"Feature","geometry":{"type":"Point","coordinates":[21.3764,54.0781]}},{"properties":{"city":"Rychbach","latitude":50.7167,"id":"a62r46m1d77r","users":2028,"longitude":16.65},"type":"Feature","geometry":{"type":"Point","coordinates":[16.65,50.7167]}},{"properties":{"city":"Psie Pole","latitude":51.15,"id":"a62r46doysjs","users":2070,"longitude":17.1},"type":"Feature","geometry":{"type":"Point","coordinates":[17.1,51.15]}},{"properties":{"city":"Piekary Wielkie","latitude":50.4,"id":"a62r46l2appg","users":2097,"longitude":18.95},"type":"Feature","geometry":{"type":"Point","coordinates":[18.95,50.4]}},{"properties":{"city":"Minsk Mazowiecki","latitude":52.1833,"id":"a62r46au9ncj","users":2110,"longitude":21.5667},"type":"Feature","geometry":{"type":"Point","coordinates":[21.5667,52.1833]}},{"properties":{"city":"Ostrowiec Swietokrzyski","latitude":50.9333,"id":"a62r469bp4jo","users":2111,"longitude":21.4},"type":"Feature","geometry":{"type":"Point","coordinates":[21.4,50.9333]}},{"properties":{"city":"Swarzedz","latitude":52.41667,"id":"a62r46adg4e1","users":2171,"longitude":17.08333},"type":"Feature","geometry":{"type":"Point","coordinates":[17.08333,52.41667]}},{"properties":{"city":"Swietochlowice","latitude":50.2833,"id":"a62r46mad6f3","users":2177,"longitude":18.9167},"type":"Feature","geometry":{"type":"Point","coordinates":[18.9167,50.2833]}},{"properties":{"city":"Brzesko","latitude":49.96667,"id":"a62r46hodktx","users":2207,"longitude":20.61667},"type":"Feature","geometry":{"type":"Point","coordinates":[20.61667,49.96667]}},{"properties":{"city":"Zdunska Wola","latitude":51.6,"id":"a62r46gqtxre","users":2216,"longitude":18.93333},"type":"Feature","geometry":{"type":"Point","coordinates":[18.93333,51.6]}},{"properties":{"city":"Radomsko","latitude":51.0667,"id":"a62r46bb13v3","users":2222,"longitude":19.45},"type":"Feature","geometry":{"type":"Point","coordinates":[19.45,51.0667]}},{"properties":{"city":"Zawiercie","latitude":50.5,"id":"a62r46fjyk01","users":2259,"longitude":19.4333},"type":"Feature","geometry":{"type":"Point","coordinates":[19.4333,50.5]}},{"properties":{"city":"Ostroda","latitude":53.7,"id":"a62r46gi3ypi","users":2302,"longitude":19.9833},"type":"Feature","geometry":{"type":"Point","coordinates":[19.9833,53.7]}},{"properties":{"city":"Wodzislaw Slaski","latitude":50.0,"id":"a62r46ixdqob","users":2324,"longitude":18.4667},"type":"Feature","geometry":{"type":"Point","coordinates":[18.4667,50.0]}},{"properties":{"city":"Lubin","latitude":53.8667,"id":"a62r46hwj7ss","users":2361,"longitude":14.4333},"type":"Feature","geometry":{"type":"Point","coordinates":[14.4333,53.8667]}},{"properties":{"city":"Tarnowskie Gory","latitude":50.45,"id":"a62r46opw7fy","users":2374,"longitude":18.86667},"type":"Feature","geometry":{"type":"Point","coordinates":[18.86667,50.45]}},{"properties":{"city":"Myslowice","latitude":53.88333,"id":"a62r46hzfm7y","users":2384,"longitude":15.63333},"type":"Feature","geometry":{"type":"Point","coordinates":[15.63333,53.88333]}},{"properties":{"city":"Swinoujscie","latitude":53.9167,"id":"a62r46oimlhn","users":2430,"longitude":14.25},"type":"Feature","geometry":{"type":"Point","coordinates":[14.25,53.9167]}},{"properties":{"city":"Poznan","latitude":51.68333,"id":"a62r468zs5j8","users":2454,"longitude":22.31667},"type":"Feature","geometry":{"type":"Point","coordinates":[22.31667,51.68333]}},{"properties":{"city":"Zywiec","latitude":49.6833,"id":"a62r46geo9gg","users":2457,"longitude":19.2167},"type":"Feature","geometry":{"type":"Point","coordinates":[19.2167,49.6833]}},{"properties":{"city":"Sochaczew","latitude":52.23333,"id":"a62r46gcfdrr","users":2472,"longitude":20.25},"type":"Feature","geometry":{"type":"Point","coordinates":[20.25,52.23333]}},{"properties":{"city":"Konitz","latitude":53.7,"id":"a62r46gy8ed9","users":2476,"longitude":17.5667},"type":"Feature","geometry":{"type":"Point","coordinates":[17.5667,53.7]}},{"properties":{"city":"Starachowice","latitude":51.06667,"id":"a62r46fpvp06","users":2488,"longitude":21.06667},"type":"Feature","geometry":{"type":"Point","coordinates":[21.06667,51.06667]}},{"properties":{"city":"Olkusz","latitude":50.2833,"id":"a62r46c1iesd","users":2500,"longitude":19.5667},"type":"Feature","geometry":{"type":"Point","coordinates":[19.5667,50.2833]}},{"properties":{"city":"Legionowo","latitude":52.4,"id":"a62r46g8o3wh","users":2522,"longitude":20.93333},"type":"Feature","geometry":{"type":"Point","coordinates":[20.93333,52.4]}},{"properties":{"city":"Zgierz","latitude":51.85,"id":"a62r46dqqip0","users":2526,"longitude":19.41667},"type":"Feature","geometry":{"type":"Point","coordinates":[19.41667,51.85]}},{"properties":{"city":"Ostrolenka","latitude":53.0833,"id":"a62r46a7bwl3","users":2549,"longitude":21.5667},"type":"Feature","geometry":{"type":"Point","coordinates":[21.5667,53.0833]}},{"properties":{"city":"Mikolow","latitude":50.16667,"id":"a62r46okfq0l","users":2570,"longitude":18.9},"type":"Feature","geometry":{"type":"Point","coordinates":[18.9,50.16667]}},{"properties":{"city":"Kutno","latitude":52.23333,"id":"a62r46cz339u","users":2593,"longitude":19.36667},"type":"Feature","geometry":{"type":"Point","coordinates":[19.36667,52.23333]}},{"properties":{"city":"Starogard Gdanski","latitude":53.96667,"id":"a62r469ge0b1","users":2606,"longitude":18.55},"type":"Feature","geometry":{"type":"Point","coordinates":[18.55,53.96667]}},{"properties":{"city":"Lobody","latitude":54.3,"id":"a62r46hol2zr","users":2680,"longitude":22.2},"type":"Feature","geometry":{"type":"Point","coordinates":[22.2,54.3]}},{"properties":{"city":"Marienwerder","latitude":53.7333,"id":"a62r46czwbak","users":2686,"longitude":18.9167},"type":"Feature","geometry":{"type":"Point","coordinates":[18.9167,53.7333]}},{"properties":{"city":"Krakow","latitude":51.73333,"id":"a62r46f4dpta","users":2690,"longitude":18.51667},"type":"Feature","geometry":{"type":"Point","coordinates":[18.51667,51.73333]}},{"properties":{"city":"Szczecin","latitude":51.91667,"id":"a62r46etq7lw","users":2693,"longitude":19.71667},"type":"Feature","geometry":{"type":"Point","coordinates":[19.71667,51.91667]}},{"properties":{"city":"Putawy","latitude":51.4167,"id":"a62r46fba0rg","users":2725,"longitude":21.9667},"type":"Feature","geometry":{"type":"Point","coordinates":[21.9667,51.4167]}},{"properties":{"city":"Yaslo","latitude":49.75,"id":"a62r46n9yhhv","users":2737,"longitude":21.4667},"type":"Feature","geometry":{"type":"Point","coordinates":[21.4667,49.75]}},{"properties":{"city":"Sieradz","latitude":51.6,"id":"a62r46drdtzn","users":2744,"longitude":18.75},"type":"Feature","geometry":{"type":"Point","coordinates":[18.75,51.6]}},{"properties":{"city":"Ratihor","latitude":50.0833,"id":"a62r46gm3it8","users":2803,"longitude":18.2},"type":"Feature","geometry":{"type":"Point","coordinates":[18.2,50.0833]}},{"properties":{"city":"Jacochow","latitude":51.98333,"id":"a62r46f898qr","users":2806,"longitude":19.98333},"type":"Feature","geometry":{"type":"Point","coordinates":[19.98333,51.98333]}},{"properties":{"city":"Lodz","latitude":52.2667,"id":"a62r46f0qgw6","users":2834,"longitude":16.75},"type":"Feature","geometry":{"type":"Point","coordinates":[16.75,52.2667]}},{"properties":{"city":"Sunok","latitude":49.5667,"id":"a62r46ew1p0k","users":2853,"longitude":22.2},"type":"Feature","geometry":{"type":"Point","coordinates":[22.2,49.5667]}},{"properties":{"city":"Dembitsa","latitude":50.05,"id":"a62r46an5gar","users":2867,"longitude":21.4167},"type":"Feature","geometry":{"type":"Point","coordinates":[21.4167,50.05]}},{"properties":{"city":"Zory","latitude":50.05,"id":"a62r46hoobmj","users":2881,"longitude":18.7},"type":"Feature","geometry":{"type":"Point","coordinates":[18.7,50.05]}},{"properties":{"city":"Bendin","latitude":50.3333,"id":"a62r46m20dan","users":2920,"longitude":19.15},"type":"Feature","geometry":{"type":"Point","coordinates":[19.15,50.3333]}},{"properties":{"city":"Glogow","latitude":51.6667,"id":"a62r46aa9oe0","users":2930,"longitude":16.1},"type":"Feature","geometry":{"type":"Point","coordinates":[16.1,51.6667]}},{"properties":{"city":"Marienburg","latitude":54.0333,"id":"a62r46iu2q60","users":2931,"longitude":19.05},"type":"Feature","geometry":{"type":"Point","coordinates":[19.05,54.0333]}},{"properties":{"city":"Torun Wloscianski","latitude":52.5167,"id":"a62r46p05epd","users":2972,"longitude":20.7167},"type":"Feature","geometry":{"type":"Point","coordinates":[20.7167,52.5167]}},{"properties":{"city":"Tomaszow Mazowiecki","latitude":51.5333,"id":"a62r46b419qx","users":2979,"longitude":20.0167},"type":"Feature","geometry":{"type":"Point","coordinates":[20.0167,51.5333]}},{"properties":{"city":"Yaroslav","latitude":50.0167,"id":"a62r46ezenjb","users":3006,"longitude":22.6833},"type":"Feature","geometry":{"type":"Point","coordinates":[22.6833,50.0167]}},{"properties":{"city":"Nysa","latitude":50.46667,"id":"a62r46i34jl8","users":3140,"longitude":17.33333},"type":"Feature","geometry":{"type":"Point","coordinates":[17.33333,50.46667]}},{"properties":{"city":"Chelm","latitude":50.06667,"id":"a62r46mgo3ro","users":3234,"longitude":19.85},"type":"Feature","geometry":{"type":"Point","coordinates":[19.85,50.06667]}},{"properties":{"city":"Skierniewice","latitude":51.9667,"id":"a62r46hj95x8","users":3252,"longitude":20.15},"type":"Feature","geometry":{"type":"Point","coordinates":[20.15,51.9667]}},{"properties":{"city":"Tarnobrzeg","latitude":50.58333,"id":"a62r46fa9qrw","users":3419,"longitude":21.68333},"type":"Feature","geometry":{"type":"Point","coordinates":[21.68333,50.58333]}},{"properties":{"city":"Szczecinek","latitude":53.7167,"id":"a62r46dpk34c","users":3427,"longitude":16.7},"type":"Feature","geometry":{"type":"Point","coordinates":[16.7,53.7167]}},{"properties":{"city":"Wroclaw Pracze","latitude":51.16667,"id":"a62r46ogjazv","users":3450,"longitude":16.91667},"type":"Feature","geometry":{"type":"Point","coordinates":[16.91667,51.16667]}},{"properties":{"city":"Lubin","latitude":51.4,"id":"a62r46k3j8x0","users":3486,"longitude":16.2},"type":"Feature","geometry":{"type":"Point","coordinates":[16.2,51.4]}},{"properties":{"city":"Pshemys'l'","latitude":49.7833,"id":"a62r46dtp67h","users":3490,"longitude":22.7833},"type":"Feature","geometry":{"type":"Point","coordinates":[22.7833,49.7833]}},{"properties":{"city":"Siemianowitz","latitude":50.3,"id":"a62r46cx1pcf","users":3510,"longitude":19.0333},"type":"Feature","geometry":{"type":"Point","coordinates":[19.0333,50.3]}},{"properties":{"city":"Piotrkow Trybunalski","latitude":51.4,"id":"a62r46k1ea9n","users":3525,"longitude":19.6833},"type":"Feature","geometry":{"type":"Point","coordinates":[19.6833,51.4]}},{"properties":{"city":"Belchatow","latitude":51.36667,"id":"a62r46ne7qng","users":3551,"longitude":19.38333},"type":"Feature","geometry":{"type":"Point","coordinates":[19.38333,51.36667]}},{"properties":{"city":"Suwalkie","latitude":54.0994,"id":"a62r46m431w5","users":3590,"longitude":22.9331},"type":"Feature","geometry":{"type":"Point","coordinates":[22.9331,54.0994]}},{"properties":{"city":"Jaworzyna","latitude":50.2167,"id":"a62r46k4kx5n","users":3603,"longitude":19.2833},"type":"Feature","geometry":{"type":"Point","coordinates":[19.2833,50.2167]}},{"properties":{"city":"Sosnowiec","latitude":53.13333,"id":"a62r46bxehkx","users":3603,"longitude":21.8},"type":"Feature","geometry":{"type":"Point","coordinates":[21.8,53.13333]}},{"properties":{"city":"Piaseczno","latitude":52.08333,"id":"a62r46lk25nc","users":3661,"longitude":21.03333},"type":"Feature","geometry":{"type":"Point","coordinates":[21.03333,52.08333]}},{"properties":{"city":"Oswiecim","latitude":50.0333,"id":"a62r46i54b6j","users":3671,"longitude":19.2333},"type":"Feature","geometry":{"type":"Point","coordinates":[19.2333,50.0333]}},{"properties":{"city":"Ruda Slaska","latitude":50.3167,"id":"a62r46lrg493","users":3709,"longitude":18.85},"type":"Feature","geometry":{"type":"Point","coordinates":[18.85,50.3167]}},{"properties":{"city":"Pruszkow","latitude":52.1667,"id":"a62r46l4hi66","users":3757,"longitude":20.8333},"type":"Feature","geometry":{"type":"Point","coordinates":[20.8333,52.1667]}},{"properties":{"city":"Biala Podlaska","latitude":52.03333,"id":"a62r46dwdhww","users":3758,"longitude":23.13333},"type":"Feature","geometry":{"type":"Point","coordinates":[23.13333,52.03333]}},{"properties":{"city":"Lomzha","latitude":53.1833,"id":"a62r46boup7e","users":3772,"longitude":22.0833},"type":"Feature","geometry":{"type":"Point","coordinates":[22.0833,53.1833]}},{"properties":{"city":"Lyck","latitude":53.8333,"id":"a62r46b6ywni","users":3826,"longitude":22.35},"type":"Feature","geometry":{"type":"Point","coordinates":[22.35,53.8333]}},{"properties":{"city":"Wejherowo","latitude":54.6,"id":"a62r46i4c24n","users":3845,"longitude":18.2333},"type":"Feature","geometry":{"type":"Point","coordinates":[18.2333,54.6]}},{"properties":{"city":"Kolobrzeg","latitude":54.1833,"id":"a62r469t33sx","users":3923,"longitude":15.5833},"type":"Feature","geometry":{"type":"Point","coordinates":[15.5833,54.1833]}},{"properties":{"city":"Swidnica","latitude":50.85,"id":"a62r46jk4lit","users":3923,"longitude":16.5},"type":"Feature","geometry":{"type":"Point","coordinates":[16.5,50.85]}},{"properties":{"city":"Szczecin Pogodno","latitude":53.45,"id":"a62r46di3yzw","users":4044,"longitude":14.5167},"type":"Feature","geometry":{"type":"Point","coordinates":[14.5167,53.45]}},{"properties":{"city":"Pab'yanitsy","latitude":51.66667,"id":"a62r46fpi7fo","users":4184,"longitude":19.36667},"type":"Feature","geometry":{"type":"Point","coordinates":[19.36667,51.66667]}},{"properties":{"city":"Zoppot","latitude":54.45,"id":"a62r46jf9kar","users":4190,"longitude":18.5667},"type":"Feature","geometry":{"type":"Point","coordinates":[18.5667,54.45]}},{"properties":{"city":"Zamosc","latitude":50.83333,"id":"a62r469vc7vc","users":4214,"longitude":23.18333},"type":"Feature","geometry":{"type":"Point","coordinates":[23.18333,50.83333]}},{"properties":{"city":"Tczew","latitude":54.1,"id":"a62r46hxq1qq","users":4410,"longitude":18.8},"type":"Feature","geometry":{"type":"Point","coordinates":[18.8,54.1]}},{"properties":{"city":"Mielec","latitude":50.2833,"id":"a62r46ngqmz3","users":4470,"longitude":21.4167},"type":"Feature","geometry":{"type":"Point","coordinates":[21.4167,50.2833]}},{"properties":{"city":"Jastrzebie Zdroj","latitude":49.95,"id":"a62r46k7ed2n","users":4472,"longitude":18.58333},"type":"Feature","geometry":{"type":"Point","coordinates":[18.58333,49.95]}},{"properties":{"city":"Irownoclaw","latitude":52.8,"id":"a62r46cvhsye","users":4539,"longitude":18.2667},"type":"Feature","geometry":{"type":"Point","coordinates":[18.2667,52.8]}},{"properties":{"city":"Gniezno","latitude":52.55,"id":"a62r46f3nsuz","users":4642,"longitude":17.6},"type":"Feature","geometry":{"type":"Point","coordinates":[17.6,52.55]}},{"properties":{"city":"Lissa","latitude":51.85,"id":"a62r46oxjt4z","users":4692,"longitude":16.5833},"type":"Feature","geometry":{"type":"Point","coordinates":[16.5833,51.85]}},{"properties":{"city":"Krosno","latitude":49.68333,"id":"a62r46gee6f8","users":4760,"longitude":21.78333},"type":"Feature","geometry":{"type":"Point","coordinates":[21.78333,49.68333]}},{"properties":{"city":"Stalowa Wola","latitude":50.56667,"id":"a62r46nu126k","users":4827,"longitude":22.05},"type":"Feature","geometry":{"type":"Point","coordinates":[22.05,50.56667]}},{"properties":{"city":"Starogrod","latitude":53.3333,"id":"a62r46gaac16","users":4962,"longitude":15.05},"type":"Feature","geometry":{"type":"Point","coordinates":[15.05,53.3333]}},{"properties":{"city":"Grudziadz","latitude":53.4833,"id":"a62r46ihf67c","users":5062,"longitude":18.7667},"type":"Feature","geometry":{"type":"Point","coordinates":[18.7667,53.4833]}},{"properties":{"city":"Krolewska Huta","latitude":50.3,"id":"a62r46fygikq","users":5072,"longitude":18.9667},"type":"Feature","geometry":{"type":"Point","coordinates":[18.9667,50.3]}},{"properties":{"city":"Siedlce","latitude":52.1667,"id":"a62r46e1nos8","users":5246,"longitude":22.3},"type":"Feature","geometry":{"type":"Point","coordinates":[22.3,52.1667]}},{"properties":{"city":"Ostrow Wielkopolski","latitude":51.65,"id":"a62r46g3fyxc","users":5252,"longitude":17.8167},"type":"Feature","geometry":{"type":"Point","coordinates":[17.8167,51.65]}},{"properties":{"city":"Konin","latitude":52.21667,"id":"a62r469qv5me","users":5548,"longitude":18.26667},"type":"Feature","geometry":{"type":"Point","coordinates":[18.26667,52.21667]}},{"properties":{"city":"Nowy Sacz","latitude":49.6333,"id":"a62r46l3h02a","users":5610,"longitude":20.7167},"type":"Feature","geometry":{"type":"Point","coordinates":[20.7167,49.6333]}},{"properties":{"city":"Pila","latitude":51.95,"id":"a62r46g1bjmi","users":5841,"longitude":17.9167},"type":"Feature","geometry":{"type":"Point","coordinates":[17.9167,51.95]}},{"properties":{"city":"Dombrowa","latitude":50.3333,"id":"a62r46mxy49p","users":6018,"longitude":19.2},"type":"Feature","geometry":{"type":"Point","coordinates":[19.2,50.3333]}},{"properties":{"city":"Kalisz","latitude":51.75,"id":"a62r46lec3q0","users":6144,"longitude":18.08333},"type":"Feature","geometry":{"type":"Point","coordinates":[18.08333,51.75]}},{"properties":{"city":"Jelenia Gora","latitude":50.9008,"id":"a62r46jr17ew","users":6431,"longitude":15.7253},"type":"Feature","geometry":{"type":"Point","coordinates":[15.7253,50.9008]}},{"properties":{"city":"Wloclawek","latitude":52.65,"id":"a62r46glel6q","users":6718,"longitude":19.0333},"type":"Feature","geometry":{"type":"Point","coordinates":[19.0333,52.65]}},{"properties":{"city":"Landsberg an der Warthe","latitude":52.7333,"id":"a62r46h5fth1","users":6924,"longitude":15.2333},"type":"Feature","geometry":{"type":"Point","coordinates":[15.2333,52.7333]}},{"properties":{"city":"Rybnik","latitude":50.11667,"id":"a62r46i6w7lw","users":7056,"longitude":18.53333},"type":"Feature","geometry":{"type":"Point","coordinates":[18.53333,50.11667]}},{"properties":{"city":"Walbrzych","latitude":50.7667,"id":"a62r46iwubft","users":7157,"longitude":16.2833},"type":"Feature","geometry":{"type":"Point","coordinates":[16.2833,50.7667]}},{"properties":{"city":"Lignica","latitude":51.2,"id":"a62r46fw5dyf","users":7355,"longitude":16.2},"type":"Feature","geometry":{"type":"Point","coordinates":[16.2,51.2]}},{"properties":{"city":"Stolp in Pommern","latitude":54.45,"id":"a62r46nhi8zp","users":7538,"longitude":17.0333},"type":"Feature","geometry":{"type":"Point","coordinates":[17.0333,54.45]}},{"properties":{"city":"Plotsk","latitude":52.55,"id":"a62r46p2b4dz","users":8263,"longitude":19.7},"type":"Feature","geometry":{"type":"Point","coordinates":[19.7,52.55]}},{"properties":{"city":"Zabrze","latitude":50.31667,"id":"a62r46m4kwr5","users":8272,"longitude":18.78333},"type":"Feature","geometry":{"type":"Point","coordinates":[18.78333,50.31667]}},{"properties":{"city":"Sosnowiec","latitude":50.3,"id":"a62r46b8j9h9","users":8432,"longitude":19.1667},"type":"Feature","geometry":{"type":"Point","coordinates":[19.1667,50.3]}},{"properties":{"city":"Elblong","latitude":54.1667,"id":"a62r46p7nujt","users":8617,"longitude":19.3833},"type":"Feature","geometry":{"type":"Point","coordinates":[19.3833,54.1667]}},{"properties":{"city":"Byala","latitude":49.81666,"id":"a62r469hy5r5","users":8833,"longitude":19.03333},"type":"Feature","geometry":{"type":"Point","coordinates":[19.03333,49.81666]}},{"properties":{"city":"Tychy","latitude":50.13333,"id":"a62r46f3z6rk","users":8935,"longitude":18.98333},"type":"Feature","geometry":{"type":"Point","coordinates":[18.98333,50.13333]}},{"properties":{"city":"Bytom","latitude":50.35,"id":"a62r46eqxv6d","users":9673,"longitude":18.96667},"type":"Feature","geometry":{"type":"Point","coordinates":[18.96667,50.35]}},{"properties":{"city":"Tarnow","latitude":50.0167,"id":"a62r46i28e49","users":9885,"longitude":20.9833},"type":"Feature","geometry":{"type":"Point","coordinates":[20.9833,50.0167]}},{"properties":{"city":"Koszalin","latitude":54.2,"id":"a62r46b96vw1","users":10060,"longitude":16.1833},"type":"Feature","geometry":{"type":"Point","coordinates":[16.1833,54.2]}},{"properties":{"city":"Zielona Gora","latitude":51.9333,"id":"a62r46acbqqo","users":12048,"longitude":15.5},"type":"Feature","geometry":{"type":"Point","coordinates":[15.5,51.9333]}},{"properties":{"city":"Radom","latitude":51.41667,"id":"a62r46pdpcon","users":13739,"longitude":21.15},"type":"Feature","geometry":{"type":"Point","coordinates":[21.15,51.41667]}},{"properties":{"city":"Gliwice","latitude":50.28333,"id":"a62r46k5tihp","users":14334,"longitude":18.66667},"type":"Feature","geometry":{"type":"Point","coordinates":[18.66667,50.28333]}},{"properties":{"city":"Oppeln","latitude":50.6667,"id":"a62r46fj8j6s","users":14863,"longitude":17.95},"type":"Feature","geometry":{"type":"Point","coordinates":[17.95,50.6667]}},{"properties":{"city":"Tschenstochau","latitude":50.8,"id":"a62r46dul6em","users":15833,"longitude":19.1167},"type":"Feature","geometry":{"type":"Point","coordinates":[19.1167,50.8]}},{"properties":{"city":"Torun","latitude":53.0333,"id":"a62r46ip9lmu","users":17852,"longitude":18.6},"type":"Feature","geometry":{"type":"Point","coordinates":[18.6,53.0333]}},{"properties":{"city":"Kielce","latitude":50.8333,"id":"a62r46a95olx","users":19757,"longitude":20.6667},"type":"Feature","geometry":{"type":"Point","coordinates":[20.6667,50.8333]}},{"properties":{"city":"Olsztyn","latitude":53.7833,"id":"a62r4697u3c8","users":21637,"longitude":20.4833},"type":"Feature","geometry":{"type":"Point","coordinates":[20.4833,53.7833]}},{"properties":{"city":"Warzachewka Polska","latitude":52.6,"id":"a62r46mjx52w","users":22969,"longitude":19.1},"type":"Feature","geometry":{"type":"Point","coordinates":[19.1,52.6]}},{"properties":{"city":"Gdańsk","latitude":54.5,"id":"a62r46l7zq6f","users":23257,"longitude":18.55},"type":"Feature","geometry":{"type":"Point","coordinates":[18.55,54.5]}},{"properties":{"city":"Bialystok","latitude":53.1333,"id":"a62r46l6yd8k","users":24299,"longitude":23.15},"type":"Feature","geometry":{"type":"Point","coordinates":[23.15,53.1333]}},{"properties":{"city":"Rzeszow","latitude":50.05,"id":"a62r46bag3t5","users":24460,"longitude":22.0},"type":"Feature","geometry":{"type":"Point","coordinates":[22.0,50.05]}},{"properties":{"city":"Szczecin","latitude":53.41667,"id":"a62r46ezrwyi","users":26989,"longitude":14.58333},"type":"Feature","geometry":{"type":"Point","coordinates":[14.58333,53.41667]}},{"properties":{"city":"Katowice","latitude":50.2667,"id":"a62r46icte08","users":30811,"longitude":19.0167},"type":"Feature","geometry":{"type":"Point","coordinates":[19.0167,50.2667]}},{"properties":{"city":"Bydgoszcz","latitude":53.15,"id":"a62r46mv6w0l","users":32849,"longitude":18.0},"type":"Feature","geometry":{"type":"Point","coordinates":[18.0,53.15]}},{"properties":{"city":"Lyublin","latitude":51.25,"id":"a62r46atfzmv","users":38061,"longitude":22.5667},"type":"Feature","geometry":{"type":"Point","coordinates":[22.5667,51.25]}},{"properties":{"city":"Lodz","latitude":51.75,"id":"a62r46nxlo49","users":57456,"longitude":19.4667},"type":"Feature","geometry":{"type":"Point","coordinates":[19.4667,51.75]}},{"properties":{"city":"Gdansk","latitude":54.35,"id":"a62r46btrt49","users":62631,"longitude":18.6667},"type":"Feature","geometry":{"type":"Point","coordinates":[18.6667,54.35]}},{"properties":{"city":"Wroclaw","latitude":51.1,"id":"a62r46ol5uar","users":83935,"longitude":17.0333},"type":"Feature","geometry":{"type":"Point","coordinates":[17.0333,51.1]}},{"properties":{"city":"Poznan","latitude":52.4167,"id":"a62r46kme54v","users":104035,"longitude":16.9667},"type":"Feature","geometry":{"type":"Point","coordinates":[16.9667,52.4167]}},{"properties":{"city":"Krakow","latitude":50.0833,"id":"a62r46p5ajip","users":117340,"longitude":19.9167},"type":"Feature","geometry":{"type":"Point","coordinates":[19.9167,50.0833]}},{"properties":{"city":"Warszawa","latitude":52.25,"id":"a62r46iio3bo","users":409177,"longitude":21.0},"type":"Feature","geometry":{"type":"Point","coordinates":[21.0,52.25]}}],"is_temporal":false,"author":{"url":"","metadata":"","contact_name":"","contact_address":"","source":"","contact_phone":""},"source":"","pagination":{"sort":null,"start":0,"total":239,"limit":1000000},"state":"complete","tags":"","published":"2014-08-13T03:51:41-04:00","id":114667}