{"type":"FeatureCollection","data_type":"Dataset","url_type":null,"permissions":[{"permissions":{"download":true,"view":true},"group_id":"everyone"}],"classification":null,"title":"84 Closings","count":81,"stream_id":11475,"contributor":{"url":"http://geocommons.com/users/3995","name":"amazon"},"data_attributes":null,"calculation_params":null,"icon_link":null,"link":"http://geocommons.com/overlays/11475.json","extent":[-123.111,26.1323,-74.6926,45.519],"geometry_types":["point"],"unique_name":null,"name":"84 Closings","feature_count":81,"description":"84 Closings","next_feature":null,"is_raster":false,"short_classification":"Y","stats":{"lat":{"max":45.519015,"mean":37.2005992716049,"variance":22.2586874952822,"stdev":4.71791134881552,"min":26.132302,"median":38.810295},"long":{"max":-74.692598,"mean":-88.9482275432099,"variance":165.463102400909,"stdev":12.8632461844166,"min":-123.111169,"median":-84.116939}},"features":[{"properties":{"name":"Eighty Four","city":"Albertville","id":"a6nakzew2zc2","lat":34.269515,"state":"AL","long":-86.207944},"type":"Feature","geometry":{"type":"Point","coordinates":[-86.207944,34.269515]}},{"properties":{"name":"Eighty Four","city":"Chelsea","id":"a6nakzcoj6fp","lat":33.34106,"state":"AL","long":-86.630419},"type":"Feature","geometry":{"type":"Point","coordinates":[-86.630419,33.34106]}},{"properties":{"name":"Eighty Four","city":"Tucson","id":"a6nakzg8o7wc","lat":32.221553,"state":"AZ","long":-110.969754},"type":"Feature","geometry":{"type":"Point","coordinates":[-110.969754,32.221553]}},{"properties":{"name":"Eighty Four","city":"Gilroy","id":"a6nakzavciu7","lat":37.004385,"state":"CA","long":-121.571669},"type":"Feature","geometry":{"type":"Point","coordinates":[-121.571669,37.004385]}},{"properties":{"name":"Eighty Four","city":"Sacramento","id":"a6nakzft1gvi","lat":38.57906,"state":"CA","long":-121.490999},"type":"Feature","geometry":{"type":"Point","coordinates":[-121.490999,38.57906]}},{"properties":{"name":"Eighty Four","city":"Santa Rose","id":"a6nakzj97xfe","lat":38.437731,"state":"CA","long":-122.712427},"type":"Feature","geometry":{"type":"Point","coordinates":[-122.712427,38.437731]}},{"properties":{"name":"Eighty Four","city":"Visalia","id":"a6nakzja50pd","lat":36.33377,"state":"CA","long":-119.292914},"type":"Feature","geometry":{"type":"Point","coordinates":[-119.292914,36.33377]}},{"properties":{"name":"Eighty Four","city":"Colorado Springs","id":"a6nakzjcftr3","lat":38.83311,"state":"CO","long":-104.821729},"type":"Feature","geometry":{"type":"Point","coordinates":[-104.821729,38.83311]}},{"properties":{"name":"Eighty Four","city":"Henderson","id":"a6nakzl6m85u","lat":39.91766,"state":"CO","long":-104.868083},"type":"Feature","geometry":{"type":"Point","coordinates":[-104.868083,39.91766]}},{"properties":{"name":"Eighty Four","city":"Loveland","id":"a6nakzcrrkwv","lat":40.39272,"state":"CO","long":-105.073899},"type":"Feature","geometry":{"type":"Point","coordinates":[-105.073899,40.39272]}},{"properties":{"name":"Eighty Four","city":"Georgetown","id":"a6nakzejml1l","lat":38.690725,"state":"DE","long":-75.386744},"type":"Feature","geometry":{"type":"Point","coordinates":[-75.386744,38.690725]}},{"properties":{"name":"Eighty Four","city":"Milton","id":"a6nakzb3vv51","lat":30.633602,"state":"FL","long":-87.038158},"type":"Feature","geometry":{"type":"Point","coordinates":[-87.038158,30.633602]}},{"properties":{"name":"Eighty Four","city":"Ocala","id":"a6nakzevn7sn","lat":29.187525,"state":"FL","long":-82.140379},"type":"Feature","geometry":{"type":"Point","coordinates":[-82.140379,29.187525]}},{"properties":{"name":"Eighty Four","city":"Riviera Beach","id":"a6nakzccvv29","lat":26.783074,"state":"FL","long":-80.065283},"type":"Feature","geometry":{"type":"Point","coordinates":[-80.065283,26.783074]}},{"properties":{"name":"Eighty Four","city":"Sarasota","id":"a6nakzk6136z","lat":27.33888,"state":"FL","long":-82.539629},"type":"Feature","geometry":{"type":"Point","coordinates":[-82.539629,27.33888]}},{"properties":{"name":"Eighty Four","city":"Tampa","id":"a6nakzd9rkfn","lat":27.94653,"state":"FL","long":-82.459269},"type":"Feature","geometry":{"type":"Point","coordinates":[-82.459269,27.94653]}},{"properties":{"name":"Eighty Four","city":"Dawsonville","id":"a6nakzj5mam5","lat":34.421275,"state":"GA","long":-84.116939},"type":"Feature","geometry":{"type":"Point","coordinates":[-84.116939,34.421275]}},{"properties":{"name":"Eighty Four","city":"Covington","id":"a6nakza6uj4b","lat":33.59683,"state":"GA","long":-83.861634},"type":"Feature","geometry":{"type":"Point","coordinates":[-83.861634,33.59683]}},{"properties":{"name":"Eighty Four","city":"Kingsland","id":"a6nakzg2w4oa","lat":30.800575,"state":"GA","long":-81.690326},"type":"Feature","geometry":{"type":"Point","coordinates":[-81.690326,30.800575]}},{"properties":{"name":"Eighty Four","city":"Monroe","id":"a6nakzk3iqr3","lat":33.795445,"state":"GA","long":-83.713354},"type":"Feature","geometry":{"type":"Point","coordinates":[-83.713354,33.795445]}},{"properties":{"name":"Eighty Four","city":"Newnan","id":"a6nakzgy71k0","lat":33.37485,"state":"GA","long":-84.800469},"type":"Feature","geometry":{"type":"Point","coordinates":[-84.800469,33.37485]}},{"properties":{"name":"Eighty Four","city":"Savannah","id":"a6nakzd7gpmi","lat":32.08078,"state":"GA","long":-81.090719},"type":"Feature","geometry":{"type":"Point","coordinates":[-81.090719,32.08078]}},{"properties":{"name":"Eighty Four","city":"Lansing","id":"a6nakzlqwtot","lat":42.73202,"state":"MI","long":-84.552279},"type":"Feature","geometry":{"type":"Point","coordinates":[-84.552279,42.73202]}},{"properties":{"name":"Eighty Four","city":"O'Fallon","id":"a6nakzivgjls","lat":38.810295,"state":"MO","long":-90.699944},"type":"Feature","geometry":{"type":"Point","coordinates":[-90.699944,38.810295]}},{"properties":{"name":"Eighty Four","city":"Meridian","id":"a6nakzm96i08","lat":43.611025,"state":"ID","long":-116.392524},"type":"Feature","geometry":{"type":"Point","coordinates":[-116.392524,43.611025]}},{"properties":{"name":"Eighty Four","city":"Crystal Lake","id":"a6nakzdsfal5","lat":42.245221,"state":"IL","long":-88.321916},"type":"Feature","geometry":{"type":"Point","coordinates":[-88.321916,42.245221]}},{"properties":{"name":"Eighty Four","city":"Lafayette","id":"a6nakz8cdhq5","lat":40.41737,"state":"IN","long":-86.876554},"type":"Feature","geometry":{"type":"Point","coordinates":[-86.876554,40.41737]}},{"properties":{"name":"Eighty Four","city":"Lakeville","id":"a6nakzcrbui6","lat":41.525095,"state":"IN","long":-86.274129},"type":"Feature","geometry":{"type":"Point","coordinates":[-86.274129,41.525095]}},{"properties":{"name":"Eighty Four","city":"New Castle","id":"a6nakz6vtqjk","lat":39.93123,"state":"IN","long":-85.370929},"type":"Feature","geometry":{"type":"Point","coordinates":[-85.370929,39.93123]}},{"properties":{"name":"Eighty Four","city":"Shelbyville","id":"a6nakzdf13vs","lat":38.21229,"state":"KY","long":-85.224417},"type":"Feature","geometry":{"type":"Point","coordinates":[-85.224417,38.21229]}},{"properties":{"name":"Eighty Four","city":"Lafayette","id":"a6nakzityn1w","lat":30.220325,"state":"LA","long":-92.017054},"type":"Feature","geometry":{"type":"Point","coordinates":[-92.017054,30.220325]}},{"properties":{"name":"Eighty Four","city":"Frederick","id":"a6nakzkiptsm","lat":39.415745,"state":"MD","long":-77.412034},"type":"Feature","geometry":{"type":"Point","coordinates":[-77.412034,39.415745]}},{"properties":{"name":"Eighty Four","city":"Pocomoke City","id":"a6nakzgokdwz","lat":38.07532,"state":"MD","long":-75.568419},"type":"Feature","geometry":{"type":"Point","coordinates":[-75.568419,38.07532]}},{"properties":{"name":"Eighty Four","city":"Seabrook","id":"a6nakzhtqty0","lat":38.967615,"state":"MD","long":-76.844304},"type":"Feature","geometry":{"type":"Point","coordinates":[-76.844304,38.967615]}},{"properties":{"name":"Eighty Four","city":"Ann Arbor","id":"a6nakzbaa0ia","lat":42.281875,"state":"MI","long":-83.748479},"type":"Feature","geometry":{"type":"Point","coordinates":[-83.748479,42.281875]}},{"properties":{"name":"Eighty Four","city":"Flint","id":"a6nakzcw87oy","lat":43.010745,"state":"MI","long":-83.686019},"type":"Feature","geometry":{"type":"Point","coordinates":[-83.686019,43.010745]}},{"properties":{"name":"Eighty Four","city":"South Kansas City","id":"a6nakz6r7dhm","lat":39.14131,"state":"MO","long":-94.517569},"type":"Feature","geometry":{"type":"Point","coordinates":[-94.517569,39.14131]}},{"properties":{"name":"Eighty Four","city":"Bolivar","id":"a6nakzj0wmz2","lat":33.659895,"state":"MS","long":-91.053659},"type":"Feature","geometry":{"type":"Point","coordinates":[-91.053659,33.659895]}},{"properties":{"name":"Eighty Four","city":"Apex","id":"a6nakzileqol","lat":35.732626,"state":"NC","long":-78.853193},"type":"Feature","geometry":{"type":"Point","coordinates":[-78.853193,35.732626]}},{"properties":{"name":"Eighty Four","city":"Gastonia","id":"a6nakz81b1i8","lat":35.26217,"state":"NC","long":-81.186384},"type":"Feature","geometry":{"type":"Point","coordinates":[-81.186384,35.26217]}},{"properties":{"name":"Eighty Four","city":"Greensboro","id":"a6nakzkqp839","lat":36.068994,"state":"NC","long":-79.794704},"type":"Feature","geometry":{"type":"Point","coordinates":[-79.794704,36.068994]}},{"properties":{"name":"Eighty Four","city":"Omaha","id":"a6nakzjl4ngj","lat":41.260645,"state":"NE","long":-95.940469},"type":"Feature","geometry":{"type":"Point","coordinates":[-95.940469,41.260645]}},{"properties":{"name":"Eighty Four","city":"Burlington","id":"a6nakzb1fe1b","lat":40.076235,"state":"NJ","long":-74.857459},"type":"Feature","geometry":{"type":"Point","coordinates":[-74.857459,40.076235]}},{"properties":{"name":"Eighty Four","city":"Lafayette","id":"a6nakzhkb48d","lat":41.100826,"state":"NJ","long":-74.692598},"type":"Feature","geometry":{"type":"Point","coordinates":[-74.692598,41.100826]}},{"properties":{"name":"Eighty Four","city":"Pennington","id":"a6nakzla7b6g","lat":40.329931,"state":"NJ","long":-74.791542},"type":"Feature","geometry":{"type":"Point","coordinates":[-74.791542,40.329931]}},{"properties":{"name":"Eighty Four","city":"Vineland","id":"a6nakzhjxeqy","lat":39.486195,"state":"NJ","long":-75.026109},"type":"Feature","geometry":{"type":"Point","coordinates":[-75.026109,39.486195]}},{"properties":{"name":"Eighty Four","city":"Austintown","id":"a6nakzlxqb62","lat":41.097504,"state":"OH","long":-80.763625},"type":"Feature","geometry":{"type":"Point","coordinates":[-80.763625,41.097504]}},{"properties":{"name":"Eighty Four","city":"Circleville","id":"a6nakzf34st1","lat":39.60089,"state":"OH","long":-82.941834},"type":"Feature","geometry":{"type":"Point","coordinates":[-82.941834,39.60089]}},{"properties":{"name":"Eighty Four","city":"Copley","id":"a6nakzhcgdzs","lat":41.09921,"state":"OH","long":-81.645654},"type":"Feature","geometry":{"type":"Point","coordinates":[-81.645654,41.09921]}},{"properties":{"name":"Eighty Four","city":"Greenville","id":"a6nakz6s4w65","lat":40.10308,"state":"OH","long":-84.634049},"type":"Feature","geometry":{"type":"Point","coordinates":[-84.634049,40.10308]}},{"properties":{"name":"Eighty Four","city":"Marysville","id":"a6nakzkwqahg","lat":40.235295,"state":"OH","long":-83.366404},"type":"Feature","geometry":{"type":"Point","coordinates":[-83.366404,40.235295]}},{"properties":{"name":"Eighty Four","city":"Massillon","id":"a6nakzemi5ty","lat":40.794635,"state":"OH","long":-81.522834},"type":"Feature","geometry":{"type":"Point","coordinates":[-81.522834,40.794635]}},{"properties":{"name":"Eighty Four","city":"Sandusky","id":"a6nakzavdedy","lat":41.44876,"state":"OH","long":-82.707374},"type":"Feature","geometry":{"type":"Point","coordinates":[-82.707374,41.44876]}},{"properties":{"name":"Eighty Four","city":"Sidney","id":"a6nakzihe0jr","lat":40.28688,"state":"OH","long":-84.15427},"type":"Feature","geometry":{"type":"Point","coordinates":[-84.15427,40.28688]}},{"properties":{"name":"Eighty Four","city":"Washington Courthouse","id":"a6nakz9joi7m","lat":39.535357,"state":"OH","long":-83.440477},"type":"Feature","geometry":{"type":"Point","coordinates":[-83.440477,39.535357]}},{"properties":{"name":"Eighty Four","city":"Zanesville","id":"a6nakzaci79i","lat":39.940549,"state":"OH","long":-82.001389},"type":"Feature","geometry":{"type":"Point","coordinates":[-82.001389,39.940549]}},{"properties":{"name":"Eighty Four","city":"Forest Grove","id":"a6nakzhkjusg","lat":45.519015,"state":"OR","long":-123.111169},"type":"Feature","geometry":{"type":"Point","coordinates":[-123.111169,45.519015]}},{"properties":{"name":"Eighty Four","city":"Redmond","id":"a6nakzl653fb","lat":44.27257,"state":"OR","long":-121.175874},"type":"Feature","geometry":{"type":"Point","coordinates":[-121.175874,44.27257]}},{"properties":{"name":"Eighty Four","city":"Dubois","id":"a6nakz9fky5g","lat":41.11978,"state":"PA","long":-78.759747},"type":"Feature","geometry":{"type":"Point","coordinates":[-78.759747,41.11978]}},{"properties":{"name":"Eighty Four","city":"Falls Creek","id":"a6nakzlqh7gb","lat":41.145215,"state":"PA","long":-78.803614},"type":"Feature","geometry":{"type":"Point","coordinates":[-78.803614,41.145215]}},{"properties":{"name":"Eighty Four","city":"Mount Pocono","id":"a6nakzcj77ca","lat":41.12162,"state":"PA","long":-75.356544},"type":"Feature","geometry":{"type":"Point","coordinates":[-75.356544,41.12162]}},{"properties":{"name":"Eighty Four","city":"New Oxford","id":"a6nakza40lyt","lat":39.86363,"state":"PA","long":-77.056729},"type":"Feature","geometry":{"type":"Point","coordinates":[-77.056729,39.86363]}},{"properties":{"name":"Eighty Four","city":"Stockerton","id":"a6nakzf2uekh","lat":40.75568,"state":"PA","long":-75.262949},"type":"Feature","geometry":{"type":"Point","coordinates":[-75.262949,40.75568]}},{"properties":{"name":"Eighty Four","city":"Bluff City","id":"a6nakz6umhlr","lat":36.472927,"state":"TN","long":-82.26419},"type":"Feature","geometry":{"type":"Point","coordinates":[-82.26419,36.472927]}},{"properties":{"name":"Eighty Four","city":"Knoxville","id":"a6nakzbms1vp","lat":35.960495,"state":"TN","long":-83.920914},"type":"Feature","geometry":{"type":"Point","coordinates":[-83.920914,35.960495]}},{"properties":{"name":"Eighty Four","city":"Corpus Christi","id":"a6nakzh0d2ff","lat":27.79635,"state":"TX","long":-97.403564},"type":"Feature","geometry":{"type":"Point","coordinates":[-97.403564,27.79635]}},{"properties":{"name":"Eighty Four","city":"Deer Park","id":"a6nakzltr6sa","lat":29.68964,"state":"TX","long":-95.117019},"type":"Feature","geometry":{"type":"Point","coordinates":[-95.117019,29.68964]}},{"properties":{"name":"Eighty Four","city":"Gonzales","id":"a6nakzitqwvh","lat":29.499855,"state":"TX","long":-97.452094},"type":"Feature","geometry":{"type":"Point","coordinates":[-97.452094,29.499855]}},{"properties":{"name":"Eighty Four","city":"Houston","id":"a6nakzmd0bq0","lat":29.76045,"state":"TX","long":-95.369784},"type":"Feature","geometry":{"type":"Point","coordinates":[-95.369784,29.76045]}},{"properties":{"name":"Eighty Four","city":"McKinney","id":"a6nakzkzr556","lat":33.19895,"state":"TX","long":-96.614994},"type":"Feature","geometry":{"type":"Point","coordinates":[-96.614994,33.19895]}},{"properties":{"name":"Eighty Four","city":"Saginaw","id":"a6nakzh43rwd","lat":32.858562,"state":"TX","long":-97.369887},"type":"Feature","geometry":{"type":"Point","coordinates":[-97.369887,32.858562]}},{"properties":{"name":"Eighty Four","city":"San Benito","id":"a6nakzm5z6qb","lat":26.132302,"state":"TX","long":-97.631425},"type":"Feature","geometry":{"type":"Point","coordinates":[-97.631425,26.132302]}},{"properties":{"name":"Eighty Four","city":"Stafford","id":"a6nakz8l4vv8","lat":29.614528,"state":"TX","long":-95.555512},"type":"Feature","geometry":{"type":"Point","coordinates":[-95.555512,29.614528]}},{"properties":{"name":"Eighty Four","city":"West Jordan","id":"a6nakzmb0m3i","lat":40.60675,"state":"UT","long":-111.938754},"type":"Feature","geometry":{"type":"Point","coordinates":[-111.938754,40.60675]}},{"properties":{"name":"Eighty Four","city":"Harrisonburg","id":"a6nakzgvkdt4","lat":38.451534,"state":"VA","long":-78.869047},"type":"Feature","geometry":{"type":"Point","coordinates":[-78.869047,38.451534]}},{"properties":{"name":"Eighty Four","city":"Lynchburg","id":"a6nakzlx0iw2","lat":37.41402,"state":"VA","long":-79.142839},"type":"Feature","geometry":{"type":"Point","coordinates":[-79.142839,37.41402]}},{"properties":{"name":"Eighty Four","city":"McFarland","id":"a6nakzbxykqv","lat":43.013365,"state":"WI","long":-89.287404},"type":"Feature","geometry":{"type":"Point","coordinates":[-89.287404,43.013365]}},{"properties":{"name":"Eighty Four","city":"McFarland","id":"a6nakzlqpg6e","lat":43.013365,"state":"WI","long":-89.287404},"type":"Feature","geometry":{"type":"Point","coordinates":[-89.287404,43.013365]}},{"properties":{"name":"Eighty Four","city":"Mount Hope","id":"a6nakzemjl0r","lat":37.89372,"state":"WV","long":-81.165829},"type":"Feature","geometry":{"type":"Point","coordinates":[-81.165829,37.89372]}},{"properties":{"name":"Eighty Four","city":"Williamston","id":"a6nakzex4xys","lat":39.40271,"state":"WV","long":-81.448309},"type":"Feature","geometry":{"type":"Point","coordinates":[-81.448309,39.40271]}},{"properties":{"name":"Eighty Four","city":"Cabot","id":"a6nakzknid5q","lat":34.973695,"state":"AR","long":-92.017499},"type":"Feature","geometry":{"type":"Point","coordinates":[-92.017499,34.973695]}}],"is_temporal":false,"author":{"url":"","metadata":"","contact_name":"","contact_address":"","source":"","contact_phone":""},"source":"","pagination":{"sort":null,"start":0,"total":81,"limit":1000000},"state":"complete","tags":"84","published":"2009-04-02T12:00:00Z","id":11475}