{"type":"FeatureCollection","data_type":"Dataset","url_type":null,"permissions":[{"permissions":{"download":true,"view":true},"group_id":"everyone"}],"classification":null,"title":"Other USA Closings","count":336,"stream_id":11477,"contributor":{"url":"http://geocommons.com/users/3995","name":"amazon"},"data_attributes":null,"calculation_params":null,"icon_link":null,"link":"http://geocommons.com/overlays/11477.json","extent":[-166.529,0.0,0.0,64.8452],"geometry_types":["point"],"unique_name":null,"name":"Other USA Closings","feature_count":336,"description":"Other USA Closings","next_feature":null,"is_raster":false,"short_classification":"Y","stats":{"lat":{"max":64.845202,"mean":38.2247678065476,"variance":33.2870503416373,"stdev":5.76949307492758,"min":0,"median":39.106441},"long":{"max":0,"mean":-91.8598746488097,"variance":295.954553482917,"stdev":17.2033297208103,"min":-166.529174,"median":-85.078446}},"features":[{"properties":{"city":"Ahoskie","company name":"Contractors Corner","id":"a648ebcacgjt","lat":36.289345,"state":"NC","long":-76.989794},"type":"Feature","geometry":{"type":"Point","coordinates":[-76.989794,36.289345]}},{"properties":{"city":"Albert Lea","company name":"Doors &amp; Floors","id":"a648ebjduyez","lat":43.64733,"state":"MN","long":-93.368709},"type":"Feature","geometry":{"type":"Point","coordinates":[-93.368709,43.64733]}},{"properties":{"city":"Albertville (M)","company name":"Scherer Bros.","id":"a648ebdpnrnj","lat":45.238255,"state":"MN","long":-93.65305},"type":"Feature","geometry":{"type":"Point","coordinates":[-93.65305,45.238255]}},{"properties":{"city":"Alpharetta","company name":"North Georgia Building Materials","id":"a648eb8vzzvg","lat":34.07537,"state":"GA","long":-84.294554},"type":"Feature","geometry":{"type":"Point","coordinates":[-84.294554,34.07537]}},{"properties":{"city":"Alpharetta","company name":"PlyMart","id":"a648eb9o5r8v","lat":34.07537,"state":"GA","long":-84.294554},"type":"Feature","geometry":{"type":"Point","coordinates":[-84.294554,34.07537]}},{"properties":{"city":"Alton","company name":"Great Central Lumber Co.","id":"a648ebgp60sr","lat":38.89086,"state":"IL","long":-90.183834},"type":"Feature","geometry":{"type":"Point","coordinates":[-90.183834,38.89086]}},{"properties":{"city":"Anderson","company name":"Stock Building Supply","id":"a648ebhmq31n","lat":34.50044,"state":"SC","long":-82.649579},"type":"Feature","geometry":{"type":"Point","coordinates":[-82.649579,34.50044]}},{"properties":{"city":"Arlington","company name":"ProBuild","id":"a648ebh4n5ju","lat":48.194295,"state":"WA","long":-122.126414},"type":"Feature","geometry":{"type":"Point","coordinates":[-122.126414,48.194295]}},{"properties":{"city":"Ashland","company name":"Forslund Building Supply","id":"a648eb9au7h8","lat":46.585402,"state":"WI","long":-90.88631},"type":"Feature","geometry":{"type":"Point","coordinates":[-90.88631,46.585402]}},{"properties":{"city":"Athens","company name":"Farmers Hardware","id":"a648eb677dvk","lat":33.958132,"state":"GA","long":-83.373255},"type":"Feature","geometry":{"type":"Point","coordinates":[-83.373255,33.958132]}},{"properties":{"city":"Athens","company name":"Armstrong &amp; Dobbs","id":"a648eb41ss0o","lat":33.958132,"state":"GA","long":-83.373255},"type":"Feature","geometry":{"type":"Point","coordinates":[-83.373255,33.958132]}},{"properties":{"city":"Atlanta","company name":"ProBuild","id":"a648eb5ufnxk","lat":33.748315,"state":"GA","long":-84.391109},"type":"Feature","geometry":{"type":"Point","coordinates":[-84.391109,33.748315]}},{"properties":{"city":"Atlanta","company name":"Wheeler's Building Materials","id":"a648eb5gv2vo","lat":33.748315,"state":"GA","long":-84.391109},"type":"Feature","geometry":{"type":"Point","coordinates":[-84.391109,33.748315]}},{"properties":{"city":"Atlanta","company name":"ProBuild","id":"a648eb7rezsr","lat":33.748315,"state":"GA","long":-84.391109},"type":"Feature","geometry":{"type":"Point","coordinates":[-84.391109,33.748315]}},{"properties":{"city":"Atlanta","company name":"ProBuild","id":"a648ebb3jann","lat":33.748315,"state":"GA","long":-84.391109},"type":"Feature","geometry":{"type":"Point","coordinates":[-84.391109,33.748315]}},{"properties":{"city":"Atlanta","company name":"ProBuild","id":"a648eb9e15i2","lat":33.748315,"state":"GA","long":-84.391109},"type":"Feature","geometry":{"type":"Point","coordinates":[-84.391109,33.748315]}},{"properties":{"city":"Atlanta","company name":"ProBuild","id":"a648eb76iasr","lat":33.748315,"state":"GA","long":-84.391109},"type":"Feature","geometry":{"type":"Point","coordinates":[-84.391109,33.748315]}},{"properties":{"city":"Atlanta","company name":"ProBuild","id":"a648ebcs67p1","lat":33.748315,"state":"GA","long":-84.391109},"type":"Feature","geometry":{"type":"Point","coordinates":[-84.391109,33.748315]}},{"properties":{"city":"Atlanta","company name":"ProBuild","id":"a648ebghjg94","lat":33.748315,"state":"GA","long":-84.391109},"type":"Feature","geometry":{"type":"Point","coordinates":[-84.391109,33.748315]}},{"properties":{"city":"Atlanta","company name":"ProBuild","id":"a648ebg6lpkf","lat":33.748315,"state":"GA","long":-84.391109},"type":"Feature","geometry":{"type":"Point","coordinates":[-84.391109,33.748315]}},{"properties":{"city":"Atlanta","company name":"ProBuild","id":"a648eb9ra180","lat":33.748315,"state":"GA","long":-84.391109},"type":"Feature","geometry":{"type":"Point","coordinates":[-84.391109,33.748315]}},{"properties":{"city":"Atlanta","company name":"ProBuild","id":"a648ebiydmq7","lat":33.748315,"state":"GA","long":-84.391109},"type":"Feature","geometry":{"type":"Point","coordinates":[-84.391109,33.748315]}},{"properties":{"city":"Atlanta","company name":"ProBuild","id":"a648eb6ap34u","lat":33.748315,"state":"GA","long":-84.391109},"type":"Feature","geometry":{"type":"Point","coordinates":[-84.391109,33.748315]}},{"properties":{"city":"Atlanta","company name":"ProBuild","id":"a648ebdx5kqu","lat":33.748315,"state":"GA","long":-84.391109},"type":"Feature","geometry":{"type":"Point","coordinates":[-84.391109,33.748315]}},{"properties":{"city":"Atlanta","company name":"ProBuild","id":"a648eb63eh9l","lat":33.748315,"state":"GA","long":-84.391109},"type":"Feature","geometry":{"type":"Point","coordinates":[-84.391109,33.748315]}},{"properties":{"city":"Atlanta","company name":"ProBuild","id":"a648eb5p63p6","lat":33.748315,"state":"GA","long":-84.391109},"type":"Feature","geometry":{"type":"Point","coordinates":[-84.391109,33.748315]}},{"properties":{"city":"Atlanta","company name":"ProBuild","id":"a648eb91pnqg","lat":33.748315,"state":"GA","long":-84.391109},"type":"Feature","geometry":{"type":"Point","coordinates":[-84.391109,33.748315]}},{"properties":{"city":"Atlanta","company name":"ProBuild","id":"a648eb5dl74m","lat":33.748315,"state":"GA","long":-84.391109},"type":"Feature","geometry":{"type":"Point","coordinates":[-84.391109,33.748315]}},{"properties":{"city":"Atlanta","company name":"ProBuild","id":"a648ebe4pmhl","lat":33.748315,"state":"GA","long":-84.391109},"type":"Feature","geometry":{"type":"Point","coordinates":[-84.391109,33.748315]}},{"properties":{"city":"Atlanta","company name":"ProBuild","id":"a648ebbqxhyh","lat":33.748315,"state":"GA","long":-84.391109},"type":"Feature","geometry":{"type":"Point","coordinates":[-84.391109,33.748315]}},{"properties":{"city":"Atlanta","company name":"ProBuild","id":"a648eb4y1idn","lat":33.748315,"state":"GA","long":-84.391109},"type":"Feature","geometry":{"type":"Point","coordinates":[-84.391109,33.748315]}},{"properties":{"city":"Atlanta","company name":"ProBuild","id":"a648eb4q75wo","lat":33.748315,"state":"GA","long":-84.391109},"type":"Feature","geometry":{"type":"Point","coordinates":[-84.391109,33.748315]}},{"properties":{"city":"Atlanta","company name":"ProBuild","id":"a648ebf5j42o","lat":33.748315,"state":"GA","long":-84.391109},"type":"Feature","geometry":{"type":"Point","coordinates":[-84.391109,33.748315]}},{"properties":{"city":"Atlanta","company name":"ProBuild","id":"a648eb3raz1k","lat":33.748315,"state":"GA","long":-84.391109},"type":"Feature","geometry":{"type":"Point","coordinates":[-84.391109,33.748315]}},{"properties":{"city":"Bakersfield","company name":"BMHC","id":"a648ebaioz2u","lat":35.366975,"state":"CA","long":-119.018844},"type":"Feature","geometry":{"type":"Point","coordinates":[-119.018844,35.366975]}},{"properties":{"city":"Bakersfield","company name":"Hayward Lumber","id":"a648ebcskj04","lat":35.366975,"state":"CA","long":-119.018844},"type":"Feature","geometry":{"type":"Point","coordinates":[-119.018844,35.366975]}},{"properties":{"city":"Bakersfield","company name":"Stock Building Supply","id":"a648eb4cl4kf","lat":35.366975,"state":"CA","long":-119.018844},"type":"Feature","geometry":{"type":"Point","coordinates":[-119.018844,35.366975]}},{"properties":{"city":"Battle Creek","company name":"Carter Lumber","id":"a648ebcbghxd","lat":42.31617,"state":"MI","long":-85.180224},"type":"Feature","geometry":{"type":"Point","coordinates":[-85.180224,42.31617]}},{"properties":{"city":"Baxter","company name":"Stock Building Supply","id":"a648eb6t7idm","lat":46.35586,"state":"MN","long":-94.244234},"type":"Feature","geometry":{"type":"Point","coordinates":[-94.244234,46.35586]}},{"properties":{"city":"Beaver Dam","company name":"Fullerton Lumber","id":"a648eb428954","lat":43.456331,"state":"WI","long":-88.830239},"type":"Feature","geometry":{"type":"Point","coordinates":[-88.830239,43.456331]}},{"properties":{"city":"Bellefontaine","company name":"Stock Building Supply","id":"a648eb5y8cag","lat":40.362255,"state":"OH","long":-83.759594},"type":"Feature","geometry":{"type":"Point","coordinates":[-83.759594,40.362255]}},{"properties":{"city":"Bellevue","company name":"Pardee Sales","id":"a648ebf6jst0","lat":47.61002,"state":"WA","long":-122.187549},"type":"Feature","geometry":{"type":"Point","coordinates":[-122.187549,47.61002]}},{"properties":{"city":"Bellingham","company name":"BB Lumber &amp; Hardware","id":"a648eb7hutiz","lat":48.75235,"state":"WA","long":-122.471219},"type":"Feature","geometry":{"type":"Point","coordinates":[-122.471219,48.75235]}},{"properties":{"city":"Bessemer","company name":"Stock Building Supply","id":"a648eb6kx4ub","lat":33.40203,"state":"AL","long":-86.953994},"type":"Feature","geometry":{"type":"Point","coordinates":[-86.953994,33.40203]}},{"properties":{"city":"Birmingham","company name":"Wheeler's Building Materials","id":"a648eb6t1br6","lat":33.520295,"state":"AL","long":-86.811504},"type":"Feature","geometry":{"type":"Point","coordinates":[-86.811504,33.520295]}},{"properties":{"city":"Blue Springs","company name":"ProBuild","id":"a648ebg8t0za","lat":39.018265,"state":"MO","long":-94.274809},"type":"Feature","geometry":{"type":"Point","coordinates":[-94.274809,39.018265]}},{"properties":{"city":"Boise","company name":"Stock Building Supply","id":"a648ebeowrct","lat":43.60698,"state":"ID","long":-116.193409},"type":"Feature","geometry":{"type":"Point","coordinates":[-116.193409,43.60698]}},{"properties":{"city":"Boise","company name":"Stock Building Supply","id":"a648eb4hq29n","lat":43.60698,"state":"ID","long":-116.193409},"type":"Feature","geometry":{"type":"Point","coordinates":[-116.193409,43.60698]}},{"properties":{"city":"Boise","company name":"BMHC","id":"a648eb7fypyj","lat":43.60698,"state":"ID","long":-116.193409},"type":"Feature","geometry":{"type":"Point","coordinates":[-116.193409,43.60698]}},{"properties":{"city":"Boise","company name":"Stock Building Supply","id":"a648eb7mi21w","lat":43.60698,"state":"ID","long":-116.193409},"type":"Feature","geometry":{"type":"Point","coordinates":[-116.193409,43.60698]}},{"properties":{"city":"Boise","company name":"Stock Building Supply","id":"a648ebcfiygb","lat":43.60698,"state":"ID","long":-116.193409},"type":"Feature","geometry":{"type":"Point","coordinates":[-116.193409,43.60698]}},{"properties":{"city":"Bonita Springs","company name":"Causeway Lumber","id":"a648eb52bkxe","lat":26.330597,"state":"FL","long":-81.800719},"type":"Feature","geometry":{"type":"Point","coordinates":[-81.800719,26.330597]}},{"properties":{"city":"Bristol","company name":"JT's Lumber","id":"a648ebhjxhpw","lat":41.6699,"state":"RI","long":-71.276354},"type":"Feature","geometry":{"type":"Point","coordinates":[-71.276354,41.6699]}},{"properties":{"city":"Buffalo","company name":"Frontier Lumber","id":"a648ebap8gk9","lat":42.88544,"state":"NY","long":-78.878464},"type":"Feature","geometry":{"type":"Point","coordinates":[-78.878464,42.88544]}},{"properties":{"city":"Bunker Hill","company name":"Landreth Lumber","id":"a648ebi6kat3","lat":39.042405,"state":"IL","long":-89.951549},"type":"Feature","geometry":{"type":"Point","coordinates":[-89.951549,39.042405]}},{"properties":{"city":"Calhoun","company name":"Wheeler's Building Materials","id":"a648eb454cuq","lat":34.505243,"state":"GA","long":-84.95088},"type":"Feature","geometry":{"type":"Point","coordinates":[-84.95088,34.505243]}},{"properties":{"city":"Canby","company name":"Border City Building &amp; Supply","id":"a648ebbi0xxi","lat":44.708275,"state":"MN","long":-96.277029},"type":"Feature","geometry":{"type":"Point","coordinates":[-96.277029,44.708275]}},{"properties":{"city":"Canton","company name":"Modern Building Supply","id":"a648ebbc3cxf","lat":32.555975,"state":"TX","long":-95.861294},"type":"Feature","geometry":{"type":"Point","coordinates":[-95.861294,32.555975]}},{"properties":{"city":"Cape Coral","company name":"ProBuild","id":"a648ebatd96t","lat":26.62982,"state":"FL","long":-81.956939},"type":"Feature","geometry":{"type":"Point","coordinates":[-81.956939,26.62982]}},{"properties":{"city":"Carl Junction","company name":"Carl Junction Home Center","id":"a648eb3m0ar2","lat":37.180644,"state":"MO","long":-94.567738},"type":"Feature","geometry":{"type":"Point","coordinates":[-94.567738,37.180644]}},{"properties":{"city":"Carlisle","company name":"TBH Lumber","id":"a648ebacazsv","lat":40.20118,"state":"IL","long":-77.18911},"type":"Feature","geometry":{"type":"Point","coordinates":[-77.18911,40.20118]}},{"properties":{"city":"Carrollton","company name":"Wheeler's Building Materials","id":"a648eb5pnq1y","lat":33.580904,"state":"GA","long":-85.078446},"type":"Feature","geometry":{"type":"Point","coordinates":[-85.078446,33.580904]}},{"properties":{"city":"Carrollton","company name":"PlyMart","id":"a648eb7gsjlq","lat":33.580904,"state":"GA","long":-85.078446},"type":"Feature","geometry":{"type":"Point","coordinates":[-85.078446,33.580904]}},{"properties":{"city":"Carson City","company name":"DHC Supplies","id":"a648ebav71ih","lat":39.164885,"state":"NV","long":-119.766999},"type":"Feature","geometry":{"type":"Point","coordinates":[-119.766999,39.164885]}},{"properties":{"city":"Cartersville","company name":"Wheeler's Building Materials","id":"a648ebdbqk2u","lat":34.165154,"state":"GA","long":-84.795688},"type":"Feature","geometry":{"type":"Point","coordinates":[-84.795688,34.165154]}},{"properties":{"city":"Casa Grande","company name":"Alliance Lumber","id":"a648eb7d37bx","lat":32.879545,"state":"AZ","long":-111.750324},"type":"Feature","geometry":{"type":"Point","coordinates":[-111.750324,32.879545]}},{"properties":{"city":"Castleton","company name":"Butz Lumber","id":"a648eb9vo5il","lat":39.90754,"state":"IN","long":-86.053197},"type":"Feature","geometry":{"type":"Point","coordinates":[-86.053197,39.90754]}},{"properties":{"city":"Catskill","company name":"Herrington's","id":"a648ebfp6pjn","lat":42.217682,"state":"NY","long":-73.86452},"type":"Feature","geometry":{"type":"Point","coordinates":[-73.86452,42.217682]}},{"properties":{"city":"Cedar","company name":"Stock Building Supply","id":"a648ebgw2l1j","lat":45.320136,"state":"MN","long":-93.285449},"type":"Feature","geometry":{"type":"Point","coordinates":[-93.285449,45.320136]}},{"properties":{"city":"Celina","company name":"Stock Building Supply","id":"a648eb953j87","lat":40.55338,"state":"OH","long":-84.570784},"type":"Feature","geometry":{"type":"Point","coordinates":[-84.570784,40.55338]}},{"properties":{"city":"Central Point","company name":"Westside Lumber","id":"a648ebcx4o2x","lat":42.375845,"state":"OR","long":-122.914079},"type":"Feature","geometry":{"type":"Point","coordinates":[-122.914079,42.375845]}},{"properties":{"city":"Chadron","company name":"Chadron Home Center","id":"a648ebjjmolz","lat":42.83175,"state":"NE","long":-103.000209},"type":"Feature","geometry":{"type":"Point","coordinates":[-103.000209,42.83175]}},{"properties":{"city":"Charlotte","company name":"Wheeler's Building Materials","id":"a648eb8617qo","lat":35.2225,"state":"NC","long":-80.837539},"type":"Feature","geometry":{"type":"Point","coordinates":[-80.837539,35.2225]}},{"properties":{"city":"Chaska","company name":"Chaska Building Supply","id":"a648eb9ogbum","lat":44.787195,"state":"MN","long":-93.601824},"type":"Feature","geometry":{"type":"Point","coordinates":[-93.601824,44.787195]}},{"properties":{"city":"Chester","company name":"ProBuild","id":"a648ebf3wode","lat":41.361492,"state":"NY","long":-74.273625},"type":"Feature","geometry":{"type":"Point","coordinates":[-74.273625,41.361492]}},{"properties":{"city":"Chicago","company name":"Stock Building Supply","id":"a648eb7hfkba","lat":41.88415,"state":"IL","long":-87.632409},"type":"Feature","geometry":{"type":"Point","coordinates":[-87.632409,41.88415]}},{"properties":{"city":"Christiansburg","company name":"Reed Lumber","id":"a648eb980f91","lat":37.130145,"state":"VA","long":-80.408409},"type":"Feature","geometry":{"type":"Point","coordinates":[-80.408409,37.130145]}},{"properties":{"city":"Cincinnati","company name":"Stock Building Supply","id":"a648eb3j9hgp","lat":39.106441,"state":"OH","long":-84.504694},"type":"Feature","geometry":{"type":"Point","coordinates":[-84.504694,39.106441]}},{"properties":{"city":"Cincinnati","company name":"Riemeier Lumber Co.","id":"a648ebbzdhc3","lat":39.106441,"state":"OH","long":-84.504694},"type":"Feature","geometry":{"type":"Point","coordinates":[-84.504694,39.106441]}},{"properties":{"city":"Cincinnati","company name":"Builders FirstSource","id":"a648ebg2w78h","lat":39.106441,"state":"OH","long":-84.504694},"type":"Feature","geometry":{"type":"Point","coordinates":[-84.504694,39.106441]}},{"properties":{"city":"Coeur d'Alene","company name":"Stock Building Supply","id":"a648eb9tz74o","lat":47.671866,"state":"ID","long":-116.776166},"type":"Feature","geometry":{"type":"Point","coordinates":[-116.776166,47.671866]}},{"properties":{"city":"Columbia","company name":"Boozer Lumber","id":"a648ebfyxnr3","lat":33.99855,"state":"SC","long":-81.045249},"type":"Feature","geometry":{"type":"Point","coordinates":[-81.045249,33.99855]}},{"properties":{"city":"Columbia","company name":"Shapard Lumber","id":"a648ebda4xf6","lat":35.615725,"state":"TN","long":-87.035447},"type":"Feature","geometry":{"type":"Point","coordinates":[-87.035447,35.615725]}},{"properties":{"city":"Columbus","company name":"PlyMart","id":"a648ebemcy60","lat":32.462925,"state":"GA","long":-84.987629},"type":"Feature","geometry":{"type":"Point","coordinates":[-84.987629,32.462925]}},{"properties":{"city":"Colusa","company name":"Colusa Lumber","id":"a648eb3rccs6","lat":39.21418,"state":"CA","long":-122.008594},"type":"Feature","geometry":{"type":"Point","coordinates":[-122.008594,39.21418]}},{"properties":{"city":"Cordova","company name":"Schaefer Sash &amp; Door","id":"a648eb5nbabb","lat":35.155877,"state":"TN","long":-89.776917},"type":"Feature","geometry":{"type":"Point","coordinates":[-89.776917,35.155877]}},{"properties":{"city":"Corvallis","company name":"Keith Brown Building Materials","id":"a648eb7ggts5","lat":44.56504,"state":"OR","long":-123.263534},"type":"Feature","geometry":{"type":"Point","coordinates":[-123.263534,44.56504]}},{"properties":{"city":"Cottage Hills","company name":"Landreth Lumber","id":"a648eb4qio3v","lat":38.903215,"state":"IL","long":-90.071289},"type":"Feature","geometry":{"type":"Point","coordinates":[-90.071289,38.903215]}},{"properties":{"city":"Cottonwood","company name":"Foxworth-Galbraith","id":"a648ebhqgxvk","lat":34.73996,"state":"AZ","long":-112.009744},"type":"Feature","geometry":{"type":"Point","coordinates":[-112.009744,34.73996]}},{"properties":{"city":"Covington","company name":"PlyMart","id":"a648ebiqpc9a","lat":33.59683,"state":"GA","long":-83.861634},"type":"Feature","geometry":{"type":"Point","coordinates":[-83.861634,33.59683]}},{"properties":{"city":"Crosby","company name":"ProBuild","id":"a648eb3rqkr2","lat":46.48243,"state":"MN","long":-93.956789},"type":"Feature","geometry":{"type":"Point","coordinates":[-93.956789,46.48243]}},{"properties":{"city":"Cumming","company name":"Lumber Depot","id":"a648ebiesx8t","lat":34.203574,"state":"GA","long":-84.139944},"type":"Feature","geometry":{"type":"Point","coordinates":[-84.139944,34.203574]}},{"properties":{"city":"Cumming","company name":"PlyMart","id":"a648eb3ql8em","lat":34.203574,"state":"GA","long":-84.139944},"type":"Feature","geometry":{"type":"Point","coordinates":[-84.139944,34.203574]}},{"properties":{"city":"Dalton","company name":"Wheeler's Building Materials","id":"a648eb4ln4vp","lat":34.76145,"state":"GA","long":-84.972179},"type":"Feature","geometry":{"type":"Point","coordinates":[-84.972179,34.76145]}},{"properties":{"city":"Danville","company name":"Home Lumber","id":"a648eb7s9awj","lat":39.76078,"state":"IN","long":-86.526799},"type":"Feature","geometry":{"type":"Point","coordinates":[-86.526799,39.76078]}},{"properties":{"city":"Darrington","company name":"Oso Lumber","id":"a648ebcbytrv","lat":48.25431,"state":"WA","long":-121.604209},"type":"Feature","geometry":{"type":"Point","coordinates":[-121.604209,48.25431]}},{"properties":{"city":"Dayton","company name":"Stock Building Supply","id":"a648eb6oomr2","lat":39.759055,"state":"OH","long":-84.194439},"type":"Feature","geometry":{"type":"Point","coordinates":[-84.194439,39.759055]}},{"properties":{"city":"Delta","company name":"Foxworth-Galbraith","id":"a648ebctlmoc","lat":38.74479,"state":"CO","long":-108.070869},"type":"Feature","geometry":{"type":"Point","coordinates":[-108.070869,38.74479]}},{"properties":{"city":"Denver","company name":"MillTech","id":"a648ebaso5xi","lat":39.74001,"state":"CO","long":-104.992259},"type":"Feature","geometry":{"type":"Point","coordinates":[-104.992259,39.74001]}},{"properties":{"city":"Douglasville","company name":"PlyMart","id":"a648ebeq3dt5","lat":33.75018,"state":"GA","long":-84.749124},"type":"Feature","geometry":{"type":"Point","coordinates":[-84.749124,33.75018]}},{"properties":{"city":"Dover","company name":"Stock Building Supply","id":"a648ebbnuiwm","lat":39.158035,"state":"DE","long":-75.524734},"type":"Feature","geometry":{"type":"Point","coordinates":[-75.524734,39.158035]}},{"properties":{"city":"Duluth","company name":"Parsons-Andrews Builders Supply","id":"a648ebjgj5yd","lat":34.003365,"state":"GA","long":-84.144964},"type":"Feature","geometry":{"type":"Point","coordinates":[-84.144964,34.003365]}},{"properties":{"city":"Durham","company name":"Stock Building Supply","id":"a648ebgmzpvp","lat":35.995275,"state":"NC","long":-78.896014},"type":"Feature","geometry":{"type":"Point","coordinates":[-78.896014,35.995275]}},{"properties":{"city":"East Brunswick","company name":"Builders FirstSource","id":"a648ebf9lowr","lat":40.417592,"state":"NJ","long":-74.420076},"type":"Feature","geometry":{"type":"Point","coordinates":[-74.420076,40.417592]}},{"properties":{"city":"East Brunswick","company name":"Builders FirstSource","id":"a648eb8hmlqg","lat":40.417592,"state":"NJ","long":-74.420076},"type":"Feature","geometry":{"type":"Point","coordinates":[-74.420076,40.417592]}},{"properties":{"city":"East Freetown","company name":"RI Millwork","id":"a648ebg670m2","lat":41.773296,"state":"MA","long":-70.957614},"type":"Feature","geometry":{"type":"Point","coordinates":[-70.957614,41.773296]}},{"properties":{"city":"East Point","company name":"PlyMart","id":"a648ebbrklmq","lat":33.67944,"state":"GA","long":-84.441814},"type":"Feature","geometry":{"type":"Point","coordinates":[-84.441814,33.67944]}},{"properties":{"city":"Elk Grove","company name":"Meek's Lumber","id":"a648ebi6oqte","lat":38.40901,"state":"CA","long":-121.365619},"type":"Feature","geometry":{"type":"Point","coordinates":[-121.365619,38.40901]}},{"properties":{"city":"Elyria","company name":"Del Lumber","id":"a648ebdklibm","lat":41.36768,"state":"OH","long":-82.105839},"type":"Feature","geometry":{"type":"Point","coordinates":[-82.105839,41.36768]}},{"properties":{"city":"Empire","company name":"Keith Brown Building Materials","id":"a648eb67wgjx","lat":37.638275,"state":"CA","long":-120.902764},"type":"Feature","geometry":{"type":"Point","coordinates":[-120.902764,37.638275]}},{"properties":{"city":"Exeter","company name":"Wentworth Lumber","id":"a648eb3h5vq7","lat":42.9814,"state":"NH","long":-70.946379},"type":"Feature","geometry":{"type":"Point","coordinates":[-70.946379,42.9814]}},{"properties":{"city":"Exmore","company name":"Stock Building Supply","id":"a648eb9hsxy4","lat":37.53176,"state":"VA","long":-75.822809},"type":"Feature","geometry":{"type":"Point","coordinates":[-75.822809,37.53176]}},{"properties":{"city":"Fairbanks","company name":"OK Lumber","id":"a648ebd5y3y9","lat":64.845202,"state":"AK","long":-147.72212},"type":"Feature","geometry":{"type":"Point","coordinates":[-147.72212,64.845202]}},{"properties":{"city":"Fallon","company name":"Kent's Supply Center","id":"a648ebcxzvdx","lat":39.474905,"state":"NV","long":-118.777624},"type":"Feature","geometry":{"type":"Point","coordinates":[-118.777624,39.474905]}},{"properties":{"city":"Fishers","company name":"Stock Building Supply","id":"a648eb8aytgz","lat":39.9582,"state":"IN","long":-86.017089},"type":"Feature","geometry":{"type":"Point","coordinates":[-86.017089,39.9582]}},{"properties":{"city":"Fishkill","company name":"Stevenson Group","id":"a648ebi6qj9v","lat":41.535335,"state":"NY","long":-73.902919},"type":"Feature","geometry":{"type":"Point","coordinates":[-73.902919,41.535335]}},{"properties":{"city":"Florence","company name":"Stock Building Supply","id":"a648eb4qmxq7","lat":34.19363,"state":"SC","long":-79.769059},"type":"Feature","geometry":{"type":"Point","coordinates":[-79.769059,34.19363]}},{"properties":{"city":"Flowery Branch","company name":"PlyMart","id":"a648ebauj5qg","lat":34.184895,"state":"GA","long":-83.924534},"type":"Feature","geometry":{"type":"Point","coordinates":[-83.924534,34.184895]}},{"properties":{"city":"Fort Collins","company name":"BMHC","id":"a648eb5kyz7d","lat":40.581505,"state":"CO","long":-105.076264},"type":"Feature","geometry":{"type":"Point","coordinates":[-105.076264,40.581505]}},{"properties":{"city":"Fort Myers","company name":"Stock Building Supply","id":"a648ebe9dw98","lat":26.640845,"state":"FL","long":-81.868194},"type":"Feature","geometry":{"type":"Point","coordinates":[-81.868194,26.640845]}},{"properties":{"city":"Fort Myers","company name":"BMHC","id":"a648eb6khnme","lat":26.640845,"state":"FL","long":-81.868194},"type":"Feature","geometry":{"type":"Point","coordinates":[-81.868194,26.640845]}},{"properties":{"city":"Fort Pierce","company name":"BMHC","id":"a648eb3bupt2","lat":27.44865,"state":"FL","long":-80.326614},"type":"Feature","geometry":{"type":"Point","coordinates":[-80.326614,27.44865]}},{"properties":{"city":"Frankfort","company name":"Oakley Millwork","id":"a648ebh5xkce","lat":41.497529,"state":"IL","long":-87.860586},"type":"Feature","geometry":{"type":"Point","coordinates":[-87.860586,41.497529]}},{"properties":{"city":"Franklin","company name":"ProBuild","id":"a648ebdkvafn","lat":41.116716,"state":"NJ","long":-74.591547},"type":"Feature","geometry":{"type":"Point","coordinates":[-74.591547,41.116716]}},{"properties":{"city":"Fredericksburg","company name":"BMHC","id":"a648eb676q5u","lat":38.30089,"state":"VA","long":-77.459144},"type":"Feature","geometry":{"type":"Point","coordinates":[-77.459144,38.30089]}},{"properties":{"city":"Fredonia","company name":"Schoolcraft Lumber","id":"a648ebd1ng9x","lat":37.530165,"state":"KS","long":-95.831874},"type":"Feature","geometry":{"type":"Point","coordinates":[-95.831874,37.530165]}},{"properties":{"city":"Freetown","company name":"Heritage Woodwrights","id":"a648ebea2vsc","lat":41.79796,"state":"MA","long":-71.069111},"type":"Feature","geometry":{"type":"Point","coordinates":[-71.069111,41.79796]}},{"properties":{"city":"Gainesville","company name":"PlyMart","id":"a648eb4hxcah","lat":34.297274,"state":"GA","long":-83.825503},"type":"Feature","geometry":{"type":"Point","coordinates":[-83.825503,34.297274]}},{"properties":{"city":"Galesburg","company name":"Alexander Lumber","id":"a648ebjfn8a7","lat":40.946915,"state":"IL","long":-90.364659},"type":"Feature","geometry":{"type":"Point","coordinates":[-90.364659,40.946915]}},{"properties":{"city":"Galveston","company name":"Prets Lumber","id":"a648eb4iw6d8","lat":29.29533,"state":"TX","long":-94.807864},"type":"Feature","geometry":{"type":"Point","coordinates":[-94.807864,29.29533]}},{"properties":{"city":"Glastonbury","company name":"Stock Building Supply","id":"a648ebjj18ve","lat":41.706495,"state":"CT","long":-72.608074},"type":"Feature","geometry":{"type":"Point","coordinates":[-72.608074,41.706495]}},{"properties":{"city":"Glendale","company name":"American Lumber","id":"a648eb4qn68p","lat":33.53858,"state":"AZ","long":-112.186279},"type":"Feature","geometry":{"type":"Point","coordinates":[-112.186279,33.53858]}},{"properties":{"city":"Glennville","company name":"VNS Corp.","id":"a648eb4k5r45","lat":31.936525,"state":"GA","long":-81.928484},"type":"Feature","geometry":{"type":"Point","coordinates":[-81.928484,31.936525]}},{"properties":{"city":"Grand Junction","company name":"Foxworth-Galbraith","id":"a648ebhvim8j","lat":39.06879,"state":"CO","long":-108.564454},"type":"Feature","geometry":{"type":"Point","coordinates":[-108.564454,39.06879]}},{"properties":{"city":"Grand Rapids","company name":"Stock Building Supply","id":"a648eb82m0qf","lat":42.96641,"state":"MI","long":-85.671179},"type":"Feature","geometry":{"type":"Point","coordinates":[-85.671179,42.96641]}},{"properties":{"city":"Grandview","company name":"McCray Lumber","id":"a648eb5wlblk","lat":38.88926,"state":"MO","long":-94.532539},"type":"Feature","geometry":{"type":"Point","coordinates":[-94.532539,38.88926]}},{"properties":{"city":"Greeley","company name":"BMHC","id":"a648eb7euebh","lat":40.42328,"state":"CO","long":-104.694464},"type":"Feature","geometry":{"type":"Point","coordinates":[-104.694464,40.42328]}},{"properties":{"city":"Gulf Coast","company name":"Stock Building Supply","id":"a648ebh9q7mo","lat":29.92803,"state":"LA","long":-85.213692},"type":"Feature","geometry":{"type":"Point","coordinates":[-85.213692,29.92803]}},{"properties":{"city":"Gulfport","company name":"New South Supply","id":"a648ebc8vgql","lat":30.38032,"state":"MS","long":-89.092354},"type":"Feature","geometry":{"type":"Point","coordinates":[-89.092354,30.38032]}},{"properties":{"city":"Gulfport","company name":"Bailey Lumber &amp; Supply","id":"a648eb8lu7oz","lat":30.38032,"state":"MS","long":-89.092354},"type":"Feature","geometry":{"type":"Point","coordinates":[-89.092354,30.38032]}},{"properties":{"city":"Hackensack","company name":"Fairmount Coal &amp; Lumber","id":"a648ebi2wxkt","lat":40.88606,"state":"NJ","long":-74.044464},"type":"Feature","geometry":{"type":"Point","coordinates":[-74.044464,40.88606]}},{"properties":{"city":"Hamilton","company name":"ProBuild","id":"a648ebipheys","lat":46.248715,"state":"MT","long":-114.155868},"type":"Feature","geometry":{"type":"Point","coordinates":[-114.155868,46.248715]}},{"properties":{"city":"Harrisonville","company name":"McCray Lumber","id":"a648eb4syron","lat":38.65316,"state":"MO","long":-94.349169},"type":"Feature","geometry":{"type":"Point","coordinates":[-94.349169,38.65316]}},{"properties":{"city":"Hattiesburg","company name":"Bailey Lumber &amp; Supply","id":"a648eb3jleup","lat":31.327357,"state":"MS","long":-89.290719},"type":"Feature","geometry":{"type":"Point","coordinates":[-89.290719,31.327357]}},{"properties":{"city":"Hays","company name":"Home Lumber","id":"a648eb4tyfdp","lat":38.87094,"state":"KS","long":-99.332239},"type":"Feature","geometry":{"type":"Point","coordinates":[-99.332239,38.87094]}},{"properties":{"city":"Heber Springs","company name":"National Home Centers","id":"a648eb7w2604","lat":35.491915,"state":"AR","long":-92.036874},"type":"Feature","geometry":{"type":"Point","coordinates":[-92.036874,35.491915]}},{"properties":{"city":"Henning","company name":"Homestead Building Supplies","id":"a648eb561x7q","lat":46.321935,"state":"MN","long":-95.446114},"type":"Feature","geometry":{"type":"Point","coordinates":[-95.446114,46.321935]}},{"properties":{"city":"Holland","company name":"Wickes Lumber","id":"a648ebgo2li0","lat":41.618668,"state":"OH","long":-83.709798},"type":"Feature","geometry":{"type":"Point","coordinates":[-83.709798,41.618668]}},{"properties":{"city":"Holland","company name":"Standard Lumber","id":"a648ebcyv931","lat":42.77309,"state":"MI","long":-86.101754},"type":"Feature","geometry":{"type":"Point","coordinates":[-86.101754,42.77309]}},{"properties":{"city":"Hosmer","company name":"Hosmer Lumber","id":"a648eb79owhy","lat":45.578775,"state":"SD","long":-99.474164},"type":"Feature","geometry":{"type":"Point","coordinates":[-99.474164,45.578775]}},{"properties":{"city":"Hudsonville","company name":"Carter Lumber","id":"a648eb83bp8u","lat":42.865918,"state":"MI","long":-85.863672},"type":"Feature","geometry":{"type":"Point","coordinates":[-85.863672,42.865918]}},{"properties":{"city":"Hyden","company name":"Begley Lumber","id":"a648eb9twh8m","lat":37.162375,"state":"KY","long":-83.373674},"type":"Feature","geometry":{"type":"Point","coordinates":[-83.373674,37.162375]}},{"properties":{"city":"Ionia","company name":"Standard Lumber","id":"a648eb7t2ipo","lat":42.9831,"state":"MI","long":-85.064194},"type":"Feature","geometry":{"type":"Point","coordinates":[-85.064194,42.9831]}},{"properties":{"city":"Jackson","company name":"Carter Lumber","id":"a648eb34blwf","lat":42.244765,"state":"MI","long":-84.400524},"type":"Feature","geometry":{"type":"Point","coordinates":[-84.400524,42.244765]}},{"properties":{"city":"Jacksonville","company name":"Stock Building Supply","id":"a648ebj10ic5","lat":30.33138,"state":"FL","long":-81.655799},"type":"Feature","geometry":{"type":"Point","coordinates":[-81.655799,30.33138]}},{"properties":{"city":"Jarrell","company name":"ProBuild","id":"a648eb47ory6","lat":30.82448,"state":"TX","long":-97.605789},"type":"Feature","geometry":{"type":"Point","coordinates":[-97.605789,30.82448]}},{"properties":{"city":"Jenison","company name":"Kenowa Lumber","id":"a648eb3gjahw","lat":42.90444,"state":"MI","long":-85.785669},"type":"Feature","geometry":{"type":"Point","coordinates":[-85.785669,42.90444]}},{"properties":{"city":"Jerseyville","company name":"Landreth Lumber","id":"a648eb6r9xfc","lat":39.12059,"state":"IL","long":-90.328244},"type":"Feature","geometry":{"type":"Point","coordinates":[-90.328244,39.12059]}},{"properties":{"city":"Jupiter","company name":"BMHC","id":"a648ebfmjykz","lat":26.931985,"state":"FL","long":-80.101914},"type":"Feature","geometry":{"type":"Point","coordinates":[-80.101914,26.931985]}},{"properties":{"city":"Kent","company name":"BMHC","id":"a648ebb3r8cd","lat":47.380285,"state":"WA","long":-122.237419},"type":"Feature","geometry":{"type":"Point","coordinates":[-122.237419,47.380285]}},{"properties":{"city":"Kent","company name":"Oso Lumber","id":"a648eb9s70bp","lat":47.380285,"state":"WA","long":-122.237419},"type":"Feature","geometry":{"type":"Point","coordinates":[-122.237419,47.380285]}},{"properties":{"city":"Kirksville","company name":"Bayview Building Supply","id":"a648eb3omneb","lat":40.19426,"state":"MO","long":-92.571994},"type":"Feature","geometry":{"type":"Point","coordinates":[-92.571994,40.19426]}},{"properties":{"city":"Kittaning","company name":"Clay-Wood Lumber","id":"a648ebj0olaa","lat":40.81434,"state":"PA","long":-79.519484},"type":"Feature","geometry":{"type":"Point","coordinates":[-79.519484,40.81434]}},{"properties":{"city":"La Marque","company name":"Bison Building Supply","id":"a648eb5sfs9h","lat":29.370125,"state":"TX","long":-94.971739},"type":"Feature","geometry":{"type":"Point","coordinates":[-94.971739,29.370125]}},{"properties":{"city":"Lagrange","company name":"PlyMart","id":"a648eb893ot0","lat":33.041415,"state":"GA","long":-85.031084},"type":"Feature","geometry":{"type":"Point","coordinates":[-85.031084,33.041415]}},{"properties":{"city":"Lanoka Harbor","company name":"Builders FirstSource","id":"a648ebdudxdo","lat":39.865297,"state":"NJ","long":-74.158597},"type":"Feature","geometry":{"type":"Point","coordinates":[-74.158597,39.865297]}},{"properties":{"city":"Lansing","company name":"Stock Building Supply","id":"a648eb87bsm2","lat":42.73202,"state":"MI","long":-84.552279},"type":"Feature","geometry":{"type":"Point","coordinates":[-84.552279,42.73202]}},{"properties":{"city":"Lawrenceville","company name":"PlyMart","id":"a648eb8od4aa","lat":33.952465,"state":"GA","long":-83.987994},"type":"Feature","geometry":{"type":"Point","coordinates":[-83.987994,33.952465]}},{"properties":{"city":"Lebanon","company name":"Stock Building Supply","id":"a648eb9z3x08","lat":40.330195,"state":"PA","long":-76.425934},"type":"Feature","geometry":{"type":"Point","coordinates":[-76.425934,40.330195]}},{"properties":{"city":"Lenox","company name":"Herrington's","id":"a648ebe5b3am","lat":42.356468,"state":"MA","long":-73.284221},"type":"Feature","geometry":{"type":"Point","coordinates":[-73.284221,42.356468]}},{"properties":{"city":"Lexington","company name":"Stock Building Supply","id":"a648ebam48nl","lat":38.048595,"state":"KY","long":-84.500319},"type":"Feature","geometry":{"type":"Point","coordinates":[-84.500319,38.048595]}},{"properties":{"city":"Lindsey","company name":"Gordon Lumber Co.","id":"a648ebid6pt0","lat":41.419785,"state":"OH","long":-83.220824},"type":"Feature","geometry":{"type":"Point","coordinates":[-83.220824,41.419785]}},{"properties":{"city":"Lineboro","company name":"Kopp's Co.","id":"a648ebbd897v","lat":39.71816,"state":"MD","long":-76.845189},"type":"Feature","geometry":{"type":"Point","coordinates":[-76.845189,39.71816]}},{"properties":{"city":"Longview","company name":"Lyman Lumber","id":"a648ebhbstrv","lat":46.14682,"state":"WA","long":-122.9505},"type":"Feature","geometry":{"type":"Point","coordinates":[-122.9505,46.14682]}},{"properties":{"city":"Longview","company name":"Tri-County Truss","id":"a648eb8d2vyq","lat":46.14682,"state":"WA","long":-122.9505},"type":"Feature","geometry":{"type":"Point","coordinates":[-122.9505,46.14682]}},{"properties":{"city":"Lorain County","company name":"Bradco-Wickes Lumber","id":"a648eb493bnd","lat":41.289631,"state":"OH","long":-82.112549},"type":"Feature","geometry":{"type":"Point","coordinates":[-82.112549,41.289631]}},{"properties":{"city":"Louisville","company name":"Boland Maloney Lumber","id":"a648eb9eqr8h","lat":38.25486,"state":"KY","long":-85.766404},"type":"Feature","geometry":{"type":"Point","coordinates":[-85.766404,38.25486]}},{"properties":{"city":"Lubbock","company name":"Capital Lumber","id":"a648ebimac7n","lat":33.59233,"state":"TX","long":-101.855869},"type":"Feature","geometry":{"type":"Point","coordinates":[-101.855869,33.59233]}},{"properties":{"city":"Madison","company name":"Stock Bulding Supply","id":"a648ebb7huwo","lat":33.59588,"state":"GA","long":-83.467734},"type":"Feature","geometry":{"type":"Point","coordinates":[-83.467734,33.59588]}},{"properties":{"city":"Madras","company name":"Parr Lumber","id":"a648ebdh37gz","lat":44.63353,"state":"OR","long":-121.130099},"type":"Feature","geometry":{"type":"Point","coordinates":[-121.130099,44.63353]}},{"properties":{"city":"Madras","company name":"Keith Brown Building Materials","id":"a648eb855oiu","lat":44.63353,"state":"OR","long":-121.130099},"type":"Feature","geometry":{"type":"Point","coordinates":[-121.130099,44.63353]}},{"properties":{"city":"Magnolia","company name":"Magnolia Lumber Co.","id":"a648ebfl3l7d","lat":40.65461,"state":"OH","long":-81.292994},"type":"Feature","geometry":{"type":"Point","coordinates":[-81.292994,40.65461]}},{"properties":{"city":"Manteno","company name":"Hundman Lumber","id":"a648eb5806kc","lat":41.25063,"state":"IL","long":-87.834409},"type":"Feature","geometry":{"type":"Point","coordinates":[-87.834409,41.25063]}},{"properties":{"city":"Maple Shade","company name":"Builders FirstSource","id":"a648ebabmoyr","lat":39.955445,"state":"NJ","long":-75.001269},"type":"Feature","geometry":{"type":"Point","coordinates":[-75.001269,39.955445]}},{"properties":{"city":"Marietta","company name":"PlyMart","id":"a648eb3nhali","lat":33.953195,"state":"GA","long":-84.545879},"type":"Feature","geometry":{"type":"Point","coordinates":[-84.545879,33.953195]}},{"properties":{"city":"Marietta","company name":"Wheeler's Building Materials","id":"a648ebj85xqn","lat":0,"state":"GA","long":0},"type":"Feature","geometry":{"type":"Point","coordinates":[0.0,0.0]}},{"properties":{"city":"Medford","company name":"Keith Brown Building Materials","id":"a648ebizr1i6","lat":42.32356,"state":"OR","long":-122.875614},"type":"Feature","geometry":{"type":"Point","coordinates":[-122.875614,42.32356]}},{"properties":{"city":"Medina","company name":"James Lumber","id":"a648eb3zgilj","lat":41.14032,"state":"OH","long":-81.864019},"type":"Feature","geometry":{"type":"Point","coordinates":[-81.864019,41.14032]}},{"properties":{"city":"Medina","company name":"Somerset Lumber","id":"a648ebdt0nip","lat":43.219735,"state":"NY","long":-78.386918},"type":"Feature","geometry":{"type":"Point","coordinates":[-78.386918,43.219735]}},{"properties":{"city":"Memphis","company name":"Jordan Windows &amp; Doors","id":"a648eb5oi0l1","lat":35.149657,"state":"TN","long":-90.048913},"type":"Feature","geometry":{"type":"Point","coordinates":[-90.048913,35.149657]}},{"properties":{"city":"Memphis","company name":"Owen Lumber","id":"a648ebh1rvso","lat":35.149657,"state":"TN","long":-90.048913},"type":"Feature","geometry":{"type":"Point","coordinates":[-90.048913,35.149657]}},{"properties":{"city":"Memphis","company name":"Memphis Sash &amp; Door","id":"a648eb6yhak3","lat":35.149657,"state":"TN","long":-90.048913},"type":"Feature","geometry":{"type":"Point","coordinates":[-90.048913,35.149657]}},{"properties":{"city":"Merced","company name":"BMHC","id":"a648eb6v19fv","lat":37.30127,"state":"CA","long":-120.486199},"type":"Feature","geometry":{"type":"Point","coordinates":[-120.486199,37.30127]}},{"properties":{"city":"Methuen","company name":"Tibo Lumber","id":"a648ebda7yv4","lat":42.73011,"state":"MA","long":-71.183679},"type":"Feature","geometry":{"type":"Point","coordinates":[-71.183679,42.73011]}},{"properties":{"city":"Middleton","company name":"JR Lumber","id":"a648eb34q4zj","lat":43.706955,"state":"ID","long":-116.619654},"type":"Feature","geometry":{"type":"Point","coordinates":[-116.619654,43.706955]}},{"properties":{"city":"Middletown","company name":"Ingalls Lumber &amp; Supply","id":"a648eb4gd05t","lat":39.4439,"state":"MD","long":-77.546399},"type":"Feature","geometry":{"type":"Point","coordinates":[-77.546399,39.4439]}},{"properties":{"city":"Milford","company name":"Smith Lumber","id":"a648ebb2lnfq","lat":43.328505,"state":"IA","long":-95.149994},"type":"Feature","geometry":{"type":"Point","coordinates":[-95.149994,43.328505]}},{"properties":{"city":"Milford","company name":"Iverson's Lumber","id":"a648eb6tnuak","lat":42.58795,"state":"MI","long":-83.587904},"type":"Feature","geometry":{"type":"Point","coordinates":[-83.587904,42.58795]}},{"properties":{"city":"Minden","company name":"BMHC","id":"a648ebfjenvh","lat":38.95498,"state":"NV","long":-119.765709},"type":"Feature","geometry":{"type":"Point","coordinates":[-119.765709,38.95498]}},{"properties":{"city":"Mission","company name":"Stock Building Supply","id":"a648ebjn3e9d","lat":26.215335,"state":"TX","long":-98.325794},"type":"Feature","geometry":{"type":"Point","coordinates":[-98.325794,26.215335]}},{"properties":{"city":"Modesto","company name":"Yard Lumber &amp; Fence Supply","id":"a648eb3fa8s7","lat":37.6383,"state":"CA","long":-120.999589},"type":"Feature","geometry":{"type":"Point","coordinates":[-120.999589,37.6383]}},{"properties":{"city":"Molalla","company name":"Keith Brown Building Materials","id":"a648ebfoglj9","lat":45.14761,"state":"OR","long":-122.577699},"type":"Feature","geometry":{"type":"Point","coordinates":[-122.577699,45.14761]}},{"properties":{"city":"Monroe Township","company name":"Builders FirstSource","id":"a648ebgjd02p","lat":39.66686,"state":"NJ","long":-74.970864},"type":"Feature","geometry":{"type":"Point","coordinates":[-74.970864,39.66686]}},{"properties":{"city":"Montgomery","company name":"ProBuild","id":"a648eb9w80f6","lat":41.52723,"state":"NY","long":-74.237204},"type":"Feature","geometry":{"type":"Point","coordinates":[-74.237204,41.52723]}},{"properties":{"city":"Monticello","company name":"Hundman Lumber","id":"a648eb3cbmgb","lat":40.025285,"state":"IL","long":-88.573709},"type":"Feature","geometry":{"type":"Point","coordinates":[-88.573709,40.025285]}},{"properties":{"city":"Montrose","company name":"Lyman Lumber","id":"a648eb4rkbpz","lat":45.064891,"state":"MN","long":-93.912434},"type":"Feature","geometry":{"type":"Point","coordinates":[-93.912434,45.064891]}},{"properties":{"city":"Montrose","company name":"Stock Building Supply","id":"a648eb6g5fxu","lat":45.064891,"state":"MN","long":-93.912434},"type":"Feature","geometry":{"type":"Point","coordinates":[-93.912434,45.064891]}},{"properties":{"city":"Morrow","company name":"Wheeler's Building Materials","id":"a648ebg9bgx5","lat":33.58335,"state":"GA","long":-84.340534},"type":"Feature","geometry":{"type":"Point","coordinates":[-84.340534,33.58335]}},{"properties":{"city":"Mukwonago","company name":"Brittingham &amp; Hixon","id":"a648eb7g3ebf","lat":42.85822,"state":"WI","long":-88.329284},"type":"Feature","geometry":{"type":"Point","coordinates":[-88.329284,42.85822]}},{"properties":{"city":"Nampa","company name":"Idaho Truss &amp; Components","id":"a648eb8jzuz9","lat":43.582635,"state":"ID","long":-116.569624},"type":"Feature","geometry":{"type":"Point","coordinates":[-116.569624,43.582635]}},{"properties":{"city":"Naples","company name":"ProBuild","id":"a648eb7305oy","lat":26.139094,"state":"FL","long":-81.795793},"type":"Feature","geometry":{"type":"Point","coordinates":[-81.795793,26.139094]}},{"properties":{"city":"Navasota","company name":"Youens &amp; Co.","id":"a648eb4sq1l9","lat":30.388154,"state":"TX","long":-96.087802},"type":"Feature","geometry":{"type":"Point","coordinates":[-96.087802,30.388154]}},{"properties":{"city":"New Bedford","company name":"Beacon Lumber","id":"a648ebdscgj9","lat":41.637655,"state":"MA","long":-70.930864},"type":"Feature","geometry":{"type":"Point","coordinates":[-70.930864,41.637655]}},{"properties":{"city":"New Jersey","company name":"BMHC","id":"a648eb82c2um","lat":40.69789,"state":"NJ","long":-74.090139},"type":"Feature","geometry":{"type":"Point","coordinates":[-74.090139,40.69789]}},{"properties":{"city":"New Ulm","company name":"Hilltop Lumber","id":"a648eb8ymwil","lat":44.312225,"state":"MN","long":-94.461114},"type":"Feature","geometry":{"type":"Point","coordinates":[-94.461114,44.312225]}},{"properties":{"city":"New Windsor","company name":"Stevenson Group","id":"a648ebhjrwo8","lat":41.477375,"state":"NY","long":-74.022789},"type":"Feature","geometry":{"type":"Point","coordinates":[-74.022789,41.477375]}},{"properties":{"city":"Newnan","company name":"Wheeler's Building Materials","id":"a648eb6hkdut","lat":33.37485,"state":"GA","long":-84.800469},"type":"Feature","geometry":{"type":"Point","coordinates":[-84.800469,33.37485]}},{"properties":{"city":"Newnan","company name":"PlyMart","id":"a648eb9g1sdh","lat":33.37485,"state":"GA","long":-84.800469},"type":"Feature","geometry":{"type":"Point","coordinates":[-84.800469,33.37485]}},{"properties":{"city":"Newport News","company name":"Roper Bros.","id":"a648ebi44lwn","lat":36.980505,"state":"VA","long":-76.429454},"type":"Feature","geometry":{"type":"Point","coordinates":[-76.429454,36.980505]}},{"properties":{"city":"Niles","company name":"Rogers Lumber","id":"a648ebja31bq","lat":41.180995,"state":"OH","long":-80.765144},"type":"Feature","geometry":{"type":"Point","coordinates":[-80.765144,41.180995]}},{"properties":{"city":"Nogales","company name":"Foxworth-Galbraith","id":"a648eb7pggli","lat":31.337784,"state":"AZ","long":-110.940082},"type":"Feature","geometry":{"type":"Point","coordinates":[-110.940082,31.337784]}},{"properties":{"city":"Norcross","company name":"PlyMart","id":"a648eb38x10o","lat":33.942634,"state":"GA","long":-84.211316},"type":"Feature","geometry":{"type":"Point","coordinates":[-84.211316,33.942634]}},{"properties":{"city":"North Bend","company name":"Broadway Builders Supply","id":"a648ebfbwf8n","lat":43.40661,"state":"OR","long":-124.224549},"type":"Feature","geometry":{"type":"Point","coordinates":[-124.224549,43.40661]}},{"properties":{"city":"Northern California","company name":"BMHC","id":"a648ebhpzucf","lat":35.12894,"state":"CA","long":-117.985629},"type":"Feature","geometry":{"type":"Point","coordinates":[-117.985629,35.12894]}},{"properties":{"city":"Oak Harbor","company name":"Gordon Lumber Co.","id":"a648ebhnuwrs","lat":41.50821,"state":"OH","long":-83.145014},"type":"Feature","geometry":{"type":"Point","coordinates":[-83.145014,41.50821]}},{"properties":{"city":"Oakdale","company name":"Keith Brown Building Materials","id":"a648ebgh9ldk","lat":37.7684,"state":"CA","long":-120.848224},"type":"Feature","geometry":{"type":"Point","coordinates":[-120.848224,37.7684]}},{"properties":{"city":"Olpe","company name":"Olpe Lumber","id":"a648ebiim3yg","lat":38.259927,"state":"KS","long":-96.169292},"type":"Feature","geometry":{"type":"Point","coordinates":[-96.169292,38.259927]}},{"properties":{"city":"Orlando","company name":"BMHC","id":"a648ebixse0k","lat":28.53774,"state":"FL","long":-81.377389},"type":"Feature","geometry":{"type":"Point","coordinates":[-81.377389,28.53774]}},{"properties":{"city":"Osceola","company name":"Osceola Lumber","id":"a648ebaaiqjz","lat":45.319336,"state":"WI","long":-92.705696},"type":"Feature","geometry":{"type":"Point","coordinates":[-92.705696,45.319336]}},{"properties":{"city":"Overbrook","company name":"Overbrook Home Center","id":"a648ebc6nhxq","lat":38.780045,"state":"KS","long":-95.556704},"type":"Feature","geometry":{"type":"Point","coordinates":[-95.556704,38.780045]}},{"properties":{"city":"Owasso","company name":"Hughes Lumber","id":"a648eb6mf6cc","lat":36.26763,"state":"OK","long":-95.854999},"type":"Feature","geometry":{"type":"Point","coordinates":[-95.854999,36.26763]}},{"properties":{"city":"Oxford","company name":"Currin Building Supply","id":"a648eb5c6aa7","lat":36.312,"state":"NC","long":-78.5882},"type":"Feature","geometry":{"type":"Point","coordinates":[-78.5882,36.312]}},{"properties":{"city":"Painter","company name":"Hickman Lumber","id":"a648eb912c3c","lat":37.586261,"state":"VA","long":-75.783634},"type":"Feature","geometry":{"type":"Point","coordinates":[-75.783634,37.586261]}},{"properties":{"city":"Palmyra","company name":"Great Central Lumber Co.","id":"a648ebfmm8m9","lat":39.794725,"state":"MO","long":-91.523157},"type":"Feature","geometry":{"type":"Point","coordinates":[-91.523157,39.794725]}},{"properties":{"city":"Panama City","company name":"Stock Building Supply","id":"a648ebfveoc5","lat":30.15987,"state":"FL","long":-85.660334},"type":"Feature","geometry":{"type":"Point","coordinates":[-85.660334,30.15987]}},{"properties":{"city":"Park Rapids","company name":"Bud's Building &amp; Decorating Center","id":"a648ebgpwsvk","lat":46.922144,"state":"MN","long":-95.059234},"type":"Feature","geometry":{"type":"Point","coordinates":[-95.059234,46.922144]}},{"properties":{"city":"Paso Robles","company name":"Hayward Lumber","id":"a648ebay5uzo","lat":35.625095,"state":"CA","long":-120.691264},"type":"Feature","geometry":{"type":"Point","coordinates":[-120.691264,35.625095]}},{"properties":{"city":"Paso Robles","company name":"Hayward Lumber","id":"a648ebinwq1e","lat":35.625095,"state":"CA","long":-120.691264},"type":"Feature","geometry":{"type":"Point","coordinates":[-120.691264,35.625095]}},{"properties":{"city":"Pawleys Island","company name":"Stock Building Supply","id":"a648ebc8m7sv","lat":33.438164,"state":"SC","long":-79.128194},"type":"Feature","geometry":{"type":"Point","coordinates":[-79.128194,33.438164]}},{"properties":{"city":"Peabody","company name":"Beacon Roofing Supply","id":"a648eb5o1p6v","lat":42.52636,"state":"MA","long":-70.928509},"type":"Feature","geometry":{"type":"Point","coordinates":[-70.928509,42.52636]}},{"properties":{"city":"Peabody","company name":"Beacon Roofing Supply","id":"a648ebb7vjmg","lat":42.52636,"state":"MA","long":-70.928509},"type":"Feature","geometry":{"type":"Point","coordinates":[-70.928509,42.52636]}},{"properties":{"city":"Peabody","company name":"Beacon Roofing Supply","id":"a648ebc5ebcg","lat":42.52636,"state":"MA","long":-70.928509},"type":"Feature","geometry":{"type":"Point","coordinates":[-70.928509,42.52636]}},{"properties":{"city":"Peabody","company name":"Beacon Roofing Supply","id":"a648ebh1u5xk","lat":42.52636,"state":"MA","long":-70.928509},"type":"Feature","geometry":{"type":"Point","coordinates":[-70.928509,42.52636]}},{"properties":{"city":"Peabody","company name":"Beacon Roofing Supply","id":"a648ebbu473p","lat":42.52636,"state":"MA","long":-70.928509},"type":"Feature","geometry":{"type":"Point","coordinates":[-70.928509,42.52636]}},{"properties":{"city":"Peabody","company name":"Beacon Roofing Supply","id":"a648ebh6nfhv","lat":42.52636,"state":"MA","long":-70.928509},"type":"Feature","geometry":{"type":"Point","coordinates":[-70.928509,42.52636]}},{"properties":{"city":"Peabody","company name":"Beacon Roofing Supply","id":"a648eb800lqe","lat":42.52636,"state":"MA","long":-70.928509},"type":"Feature","geometry":{"type":"Point","coordinates":[-70.928509,42.52636]}},{"properties":{"city":"Peabody","company name":"Beacon Roofing Supply","id":"a648eb6yr6w2","lat":42.52636,"state":"MA","long":-70.928509},"type":"Feature","geometry":{"type":"Point","coordinates":[-70.928509,42.52636]}},{"properties":{"city":"Phoenix","company name":"Stock Building Supply","id":"a648eb3ofn05","lat":33.44826,"state":"AZ","long":-112.075774},"type":"Feature","geometry":{"type":"Point","coordinates":[-112.075774,33.44826]}},{"properties":{"city":"Phoenix","company name":"Stock Building Supply","id":"a648ebfn7hn0","lat":33.44826,"state":"AZ","long":-112.075774},"type":"Feature","geometry":{"type":"Point","coordinates":[-112.075774,33.44826]}},{"properties":{"city":"Phoenix","company name":"Stock Building Supply","id":"a648ebdqxghb","lat":33.44826,"state":"AZ","long":-112.075774},"type":"Feature","geometry":{"type":"Point","coordinates":[-112.075774,33.44826]}},{"properties":{"city":"Phoenix","company name":"Stock Building Supply","id":"a648eb7qcs96","lat":33.44826,"state":"AZ","long":-112.075774},"type":"Feature","geometry":{"type":"Point","coordinates":[-112.075774,33.44826]}},{"properties":{"city":"Phoenix","company name":"Stock Building Supply","id":"a648eb7q846c","lat":33.44826,"state":"AZ","long":-112.075774},"type":"Feature","geometry":{"type":"Point","coordinates":[-112.075774,33.44826]}},{"properties":{"city":"Pickens","company name":"Wheeler's Building Materials","id":"a648eb34emoz","lat":34.883705,"state":"SC","long":-82.707509},"type":"Feature","geometry":{"type":"Point","coordinates":[-82.707509,34.883705]}},{"properties":{"city":"Pinckney","company name":"ProBuild","id":"a648ebhfr0qp","lat":42.455505,"state":"MI","long":-83.946229},"type":"Feature","geometry":{"type":"Point","coordinates":[-83.946229,42.455505]}},{"properties":{"city":"Plymouth","company name":"Great Plains Supply","id":"a648eb46pyow","lat":45.018541,"state":"MN","long":-93.475052},"type":"Feature","geometry":{"type":"Point","coordinates":[-93.475052,45.018541]}},{"properties":{"city":"Pocatello","company name":"Stock Building Supply","id":"a648ebcjz8zj","lat":42.87472,"state":"ID","long":-112.450579},"type":"Feature","geometry":{"type":"Point","coordinates":[-112.450579,42.87472]}},{"properties":{"city":"Pompano","company name":"Stock Building Supply","id":"a648eb9rpuud","lat":26.231452,"state":"FL","long":-80.12522},"type":"Feature","geometry":{"type":"Point","coordinates":[-80.12522,26.231452]}},{"properties":{"city":"Portland","company name":"Keith Brown Building Materials","id":"a648ebiu5d84","lat":45.511795,"state":"OR","long":-122.675629},"type":"Feature","geometry":{"type":"Point","coordinates":[-122.675629,45.511795]}},{"properties":{"city":"Prescott Valley","company name":"Foxworth-Galbraith","id":"a648ebgp00a5","lat":34.586002,"state":"AZ","long":-112.322914},"type":"Feature","geometry":{"type":"Point","coordinates":[-112.322914,34.586002]}},{"properties":{"city":"Pulaski","company name":"Pulaski Lumber","id":"a648ebh8jqzm","lat":40.69697,"state":"IA","long":-92.272989},"type":"Feature","geometry":{"type":"Point","coordinates":[-92.272989,40.69697]}},{"properties":{"city":"Punta Gorda","company name":"ProBuild","id":"a648ebclashn","lat":26.93295,"state":"FL","long":-82.052889},"type":"Feature","geometry":{"type":"Point","coordinates":[-82.052889,26.93295]}},{"properties":{"city":"Racine","company name":"Stock Building Supply","id":"a648ebda03jr","lat":42.725218,"state":"WI","long":-87.790395},"type":"Feature","geometry":{"type":"Point","coordinates":[-87.790395,42.725218]}},{"properties":{"city":"Racine","company name":"Brannum Lumber","id":"a648ebdrsgej","lat":42.725218,"state":"WI","long":-87.790395},"type":"Feature","geometry":{"type":"Point","coordinates":[-87.790395,42.725218]}},{"properties":{"city":"Raleigh","company name":"Stock Building Supply","id":"a648eb6nnkgw","lat":35.78551,"state":"NC","long":-78.642669},"type":"Feature","geometry":{"type":"Point","coordinates":[-78.642669,35.78551]}},{"properties":{"city":"Raleigh","company name":"Stock Building Supply","id":"a648eb47bepb","lat":35.78551,"state":"NC","long":-78.642669},"type":"Feature","geometry":{"type":"Point","coordinates":[-78.642669,35.78551]}},{"properties":{"city":"Raleigh","company name":"Stock Building Supply","id":"a648eb7w0rde","lat":35.78551,"state":"NC","long":-78.642669},"type":"Feature","geometry":{"type":"Point","coordinates":[-78.642669,35.78551]}},{"properties":{"city":"Raleigh","company name":"Roper Bros.","id":"a648eb6wg2jv","lat":35.78551,"state":"NC","long":-78.642669},"type":"Feature","geometry":{"type":"Point","coordinates":[-78.642669,35.78551]}},{"properties":{"city":"Rancho Cordova","company name":"DHC Supplies","id":"a648ebfdomfc","lat":38.574484,"state":"CA","long":-121.30326},"type":"Feature","geometry":{"type":"Point","coordinates":[-121.30326,38.574484]}},{"properties":{"city":"Redmond","company name":"Parr Lumber","id":"a648eb3zgtkn","lat":44.27257,"state":"OR","long":-121.175874},"type":"Feature","geometry":{"type":"Point","coordinates":[-121.175874,44.27257]}},{"properties":{"city":"Redmond","company name":"Tum-a-Lum Lumber","id":"a648ebh3t9ip","lat":44.27257,"state":"OR","long":-121.175874},"type":"Feature","geometry":{"type":"Point","coordinates":[-121.175874,44.27257]}},{"properties":{"city":"Refugio","company name":"Zarsky Lumber","id":"a648ebgywyvb","lat":28.305989,"state":"TX","long":-97.275},"type":"Feature","geometry":{"type":"Point","coordinates":[-97.275,28.305989]}},{"properties":{"city":"Reno","company name":"Stock Building Supply","id":"a648ebfvgun8","lat":39.524555,"state":"NV","long":-119.811649},"type":"Feature","geometry":{"type":"Point","coordinates":[-119.811649,39.524555]}},{"properties":{"city":"Reno","company name":"BMHC","id":"a648ebbbkvut","lat":39.524555,"state":"NV","long":-119.811649},"type":"Feature","geometry":{"type":"Point","coordinates":[-119.811649,39.524555]}},{"properties":{"city":"Richmond Hill","company name":"Choo Choo Build-It Mart","id":"a648ebdz0bw5","lat":31.948803,"state":"GA","long":-81.311378},"type":"Feature","geometry":{"type":"Point","coordinates":[-81.311378,31.948803]}},{"properties":{"city":"Riverside","company name":"McCray Lumber","id":"a648ebhd50uf","lat":39.17675,"state":"MO","long":-94.613204},"type":"Feature","geometry":{"type":"Point","coordinates":[-94.613204,39.17675]}},{"properties":{"city":"Rock Spring","company name":"PlyMart","id":"a648ebbngetp","lat":34.823785,"state":"GA","long":-85.240694},"type":"Feature","geometry":{"type":"Point","coordinates":[-85.240694,34.823785]}},{"properties":{"city":"Rockford","company name":"Rockford Lumber","id":"a648eb4j0t9q","lat":43.05227,"state":"IA","long":-92.946154},"type":"Feature","geometry":{"type":"Point","coordinates":[-92.946154,43.05227]}},{"properties":{"city":"Rockville","company name":"Roper Bros.","id":"a648eb9wf4z8","lat":37.728113,"state":"VA","long":-77.667222},"type":"Feature","geometry":{"type":"Point","coordinates":[-77.667222,37.728113]}},{"properties":{"city":"Rogers","company name":"South Side Lumber Co.","id":"a648ebfhm8d1","lat":45.18947,"state":"MN","long":-93.552599},"type":"Feature","geometry":{"type":"Point","coordinates":[-93.552599,45.18947]}},{"properties":{"city":"Rome","company name":"Wheeler's Building Materials","id":"a648eb9k5w58","lat":34.244895,"state":"GA","long":-85.166794},"type":"Feature","geometry":{"type":"Point","coordinates":[-85.166794,34.244895]}},{"properties":{"city":"Rootstown","company name":"Wickes Lumber","id":"a648eb5fcxtj","lat":41.105375,"state":"OH","long":-81.242419},"type":"Feature","geometry":{"type":"Point","coordinates":[-81.242419,41.105375]}},{"properties":{"city":"Sacramento","company name":"Dolans Lumber","id":"a648eb3vvqe5","lat":38.57906,"state":"CA","long":-121.490999},"type":"Feature","geometry":{"type":"Point","coordinates":[-121.490999,38.57906]}},{"properties":{"city":"Sag Harbor","company name":"Emporium Hardware","id":"a648eb6o6xg2","lat":41.000994,"state":"NY","long":-72.295304},"type":"Feature","geometry":{"type":"Point","coordinates":[-72.295304,41.000994]}},{"properties":{"city":"Salem","company name":"Keith Brown Building Materials","id":"a648ebf6z2mw","lat":44.93323,"state":"OR","long":-123.043854},"type":"Feature","geometry":{"type":"Point","coordinates":[-123.043854,44.93323]}},{"properties":{"city":"Salt Lake City","company name":"BMHC","id":"a648ebhxqyun","lat":40.75952,"state":"UT","long":-111.888229},"type":"Feature","geometry":{"type":"Point","coordinates":[-111.888229,40.75952]}},{"properties":{"city":"San Angelo","company name":"Bowman Lumber","id":"a648ebdodref","lat":31.4615,"state":"TX","long":-100.442424},"type":"Feature","geometry":{"type":"Point","coordinates":[-100.442424,31.4615]}},{"properties":{"city":"San Antonio","company name":"San Antonio Building Supply","id":"a648eb8mm2zr","lat":28.33675,"state":"FL","long":-82.274344},"type":"Feature","geometry":{"type":"Point","coordinates":[-82.274344,28.33675]}},{"properties":{"city":"San Bernardino","company name":"Stock Building Supply","id":"a648eb98sj0q","lat":34.105245,"state":"CA","long":-117.294124},"type":"Feature","geometry":{"type":"Point","coordinates":[-117.294124,34.105245]}},{"properties":{"city":"Sanford","company name":"ProBuild","id":"a648eb4mugma","lat":28.81403,"state":"FL","long":-81.268034},"type":"Feature","geometry":{"type":"Point","coordinates":[-81.268034,28.81403]}},{"properties":{"city":"Santa Barbara","company name":"Stock Building Supply","id":"a648ebe2nqj4","lat":34.419285,"state":"CA","long":-119.698824},"type":"Feature","geometry":{"type":"Point","coordinates":[-119.698824,34.419285]}},{"properties":{"city":"Sarasota","company name":"BMHC","id":"a648eb4fa9bn","lat":27.33888,"state":"FL","long":-82.539629},"type":"Feature","geometry":{"type":"Point","coordinates":[-82.539629,27.33888]}},{"properties":{"city":"Seattle","company name":"Seattle Lumber","id":"a648ebi211t2","lat":47.60358,"state":"WA","long":-122.329454},"type":"Feature","geometry":{"type":"Point","coordinates":[-122.329454,47.60358]}},{"properties":{"city":"Sedalia","company name":"Looney &amp; Bloess Lumber","id":"a648ebcstq3l","lat":38.710775,"state":"MO","long":-93.228064},"type":"Feature","geometry":{"type":"Point","coordinates":[-93.228064,38.710775]}},{"properties":{"city":"Seymour","company name":"Seymour Lumber &amp; Supply Co.","id":"a648eb6epx75","lat":41.394897,"state":"CT","long":-73.073981},"type":"Feature","geometry":{"type":"Point","coordinates":[-73.073981,41.394897]}},{"properties":{"city":"Sharon","company name":"Lyman Lumber","id":"a648ebe9onaj","lat":42.50275,"state":"WI","long":-88.729364},"type":"Feature","geometry":{"type":"Point","coordinates":[-88.729364,42.50275]}},{"properties":{"city":"Sheffield","company name":"Marvin's Building Supply","id":"a648eb740kda","lat":34.759615,"state":"AL","long":-87.687024},"type":"Feature","geometry":{"type":"Point","coordinates":[-87.687024,34.759615]}},{"properties":{"city":"Sheffield Lake","company name":"Abbe Road Lumber","id":"a648ebcvecv1","lat":41.489105,"state":"OH","long":-82.094494},"type":"Feature","geometry":{"type":"Point","coordinates":[-82.094494,41.489105]}},{"properties":{"city":"Sherwood","company name":"BMHC","id":"a648eb84jduh","lat":45.356495,"state":"OR","long":-122.840484},"type":"Feature","geometry":{"type":"Point","coordinates":[-122.840484,45.356495]}},{"properties":{"city":"Sidney","company name":"TNT Lumber","id":"a648eb7khcdq","lat":41.144845,"state":"NE","long":-102.976144},"type":"Feature","geometry":{"type":"Point","coordinates":[-102.976144,41.144845]}},{"properties":{"city":"South Brunswick","company name":"Builders FirstSource","id":"a648ebecc0id","lat":40.38193,"state":"NJ","long":-74.533094},"type":"Feature","geometry":{"type":"Point","coordinates":[-74.533094,40.38193]}},{"properties":{"city":"South Windsor","company name":"C&amp;S Building Materials","id":"a648ebgmcb7c","lat":41.829412,"state":"CT","long":-72.554497},"type":"Feature","geometry":{"type":"Point","coordinates":[-72.554497,41.829412]}},{"properties":{"city":"Sparks","company name":"BMHC","id":"a648ebftn2v3","lat":39.541,"state":"NV","long":-119.749194},"type":"Feature","geometry":{"type":"Point","coordinates":[-119.749194,39.541]}},{"properties":{"city":"Springfield","company name":"Springfield Mill &amp; Lumber","id":"a648ebiqkd5i","lat":37.208975,"state":"MO","long":-93.291564},"type":"Feature","geometry":{"type":"Point","coordinates":[-93.291564,37.208975]}},{"properties":{"city":"St. Ansgar","company name":"Kuntz Lumber","id":"a648ebgttx6f","lat":43.37899,"state":"IA","long":-92.925324},"type":"Feature","geometry":{"type":"Point","coordinates":[-92.925324,43.37899]}},{"properties":{"city":"St. Charles","company name":"Stock Building Supply","id":"a648ebepz2j4","lat":41.913765,"state":"IL","long":-88.312844},"type":"Feature","geometry":{"type":"Point","coordinates":[-88.312844,41.913765]}},{"properties":{"city":"St. Johns","company name":"Carter Lumber","id":"a648eb7zxfmj","lat":43.0013,"state":"MI","long":-84.550349},"type":"Feature","geometry":{"type":"Point","coordinates":[-84.550349,43.0013]}},{"properties":{"city":"St. Petersburg","company name":"ProBuild","id":"a648ebcebfdl","lat":27.771185,"state":"FL","long":-82.639319},"type":"Feature","geometry":{"type":"Point","coordinates":[-82.639319,27.771185]}},{"properties":{"city":"State College","company name":"O.W. Houts &amp; Son","id":"a648eb8m7vxj","lat":40.79373,"state":"PA","long":-77.860704},"type":"Feature","geometry":{"type":"Point","coordinates":[-77.860704,40.79373]}},{"properties":{"city":"Staten Island","company name":"H.S. Farrell","id":"a648ebij6mp1","lat":40.64244,"state":"NY","long":-74.075283},"type":"Feature","geometry":{"type":"Point","coordinates":[-74.075283,40.64244]}},{"properties":{"city":"Staunton","company name":"Staunton Building Supply","id":"a648eb7gw9cs","lat":38.150015,"state":"VA","long":-79.072719},"type":"Feature","geometry":{"type":"Point","coordinates":[-79.072719,38.150015]}},{"properties":{"city":"Stevenson","company name":"Stevenson Group","id":"a648ebdxzaq5","lat":41.385877,"state":"CT","long":-73.18922},"type":"Feature","geometry":{"type":"Point","coordinates":[-73.18922,41.385877]}},{"properties":{"city":"Strongsville","company name":"James Lumber","id":"a648ebhsl6qi","lat":41.296986,"state":"OH","long":-81.869394},"type":"Feature","geometry":{"type":"Point","coordinates":[-81.869394,41.296986]}},{"properties":{"city":"Stuart","company name":"Causeway Lumber","id":"a648eba8bccz","lat":27.20019,"state":"FL","long":-80.255579},"type":"Feature","geometry":{"type":"Point","coordinates":[-80.255579,27.20019]}},{"properties":{"city":"Suffield","company name":"Stevenson Group","id":"a648eb5ivj95","lat":41.982799,"state":"CT","long":-72.653941},"type":"Feature","geometry":{"type":"Point","coordinates":[-72.653941,41.982799]}},{"properties":{"city":"Summerville","company name":"Stock Building Supply","id":"a648eb6pzfh6","lat":33.01897,"state":"SC","long":-80.176014},"type":"Feature","geometry":{"type":"Point","coordinates":[-80.176014,33.01897]}},{"properties":{"city":"Sunrise","company name":"BMHC","id":"a648eb8vyn7u","lat":26.168707,"state":"FL","long":-80.294942},"type":"Feature","geometry":{"type":"Point","coordinates":[-80.294942,26.168707]}},{"properties":{"city":"Tucson","company name":"BMHC","id":"a648eb7q34ou","lat":32.221553,"state":"AZ","long":-110.969754},"type":"Feature","geometry":{"type":"Point","coordinates":[-110.969754,32.221553]}},{"properties":{"city":"Ukiah","company name":"Ward-Way Lumber","id":"a648ebcin24v","lat":39.150923,"state":"CA","long":-123.207829},"type":"Feature","geometry":{"type":"Point","coordinates":[-123.207829,39.150923]}},{"properties":{"city":"Unalaska","company name":"Unalaska Building Supply","id":"a648ebd8i4sw","lat":53.874445,"state":"AK","long":-166.529174},"type":"Feature","geometry":{"type":"Point","coordinates":[-166.529174,53.874445]}},{"properties":{"city":"Visalia","company name":"Keith Brown Building Materials","id":"a648ebgqgzkz","lat":36.33377,"state":"CA","long":-119.292914},"type":"Feature","geometry":{"type":"Point","coordinates":[-119.292914,36.33377]}},{"properties":{"city":"Ware","company name":"Rugg Lumber","id":"a648ebd5qloc","lat":42.26048,"state":"MA","long":-72.241889},"type":"Feature","geometry":{"type":"Point","coordinates":[-72.241889,42.26048]}},{"properties":{"city":"Waupun","company name":"Home Contractors &amp; Supply","id":"a648ebdnfm1w","lat":43.63316,"state":"WI","long":-88.734119},"type":"Feature","geometry":{"type":"Point","coordinates":[-88.734119,43.63316]}},{"properties":{"city":"Waynesboro","company name":"Valley Building Supply","id":"a648ebe7cbxu","lat":38.06547,"state":"VA","long":-78.89098},"type":"Feature","geometry":{"type":"Point","coordinates":[-78.89098,38.06547]}},{"properties":{"city":"Webster City","company name":"Spahn &amp; Rose","id":"a648ebb5kza0","lat":42.469395,"state":"IA","long":-93.816489},"type":"Feature","geometry":{"type":"Point","coordinates":[-93.816489,42.469395]}},{"properties":{"city":"West Kingston","company name":"Kamco Supply","id":"a648eb8jvv9p","lat":41.48409,"state":"RI","long":-71.552219},"type":"Feature","geometry":{"type":"Point","coordinates":[-71.552219,41.48409]}},{"properties":{"city":"West Point","company name":"PlyMart","id":"a648ebfvitxy","lat":32.8772,"state":"GA","long":-85.174019},"type":"Feature","geometry":{"type":"Point","coordinates":[-85.174019,32.8772]}},{"properties":{"city":"Westford","company name":"Pittsburg Home Center","id":"a648eb6h0nhh","lat":42.582622,"state":"MA","long":-71.437077},"type":"Feature","geometry":{"type":"Point","coordinates":[-71.437077,42.582622]}},{"properties":{"city":"White City","company name":"Norton Lumber","id":"a648eb480hp7","lat":42.438315,"state":"OR","long":-122.838389},"type":"Feature","geometry":{"type":"Point","coordinates":[-122.838389,42.438315]}},{"properties":{"city":"Wild Rose","company name":"JMC Building Center","id":"a648eb82408e","lat":44.17901,"state":"WI","long":-89.248614},"type":"Feature","geometry":{"type":"Point","coordinates":[-89.248614,44.17901]}},{"properties":{"city":"Winder","company name":"PlyMart","id":"a648ebgbmvpw","lat":33.99121,"state":"GA","long":-83.722489},"type":"Feature","geometry":{"type":"Point","coordinates":[-83.722489,33.99121]}},{"properties":{"city":"Winder","company name":"Wheeler's Building Materials","id":"a648ebds14xn","lat":33.99121,"state":"GA","long":-83.722489},"type":"Feature","geometry":{"type":"Point","coordinates":[-83.722489,33.99121]}},{"properties":{"city":"Woodland","company name":"Parr Lumber","id":"a648ebhs7tbm","lat":45.908645,"state":"WA","long":-122.739832},"type":"Feature","geometry":{"type":"Point","coordinates":[-122.739832,45.908645]}},{"properties":{"city":"Yerington","company name":"Stock Building Supply","id":"a648ebiz7i35","lat":38.98966,"state":"NV","long":-119.163214},"type":"Feature","geometry":{"type":"Point","coordinates":[-119.163214,38.98966]}},{"properties":{"city":"York","company name":"The Lumber Yard","id":"a648ebaleyns","lat":39.964535,"state":"PA","long":-76.724289},"type":"Feature","geometry":{"type":"Point","coordinates":[-76.724289,39.964535]}},{"properties":{"city":"Zeeland","company name":"Hamilton Co-Op","id":"a648ebf0nlrk","lat":42.811855,"state":"MI","long":-86.016519},"type":"Feature","geometry":{"type":"Point","coordinates":[-86.016519,42.811855]}},{"properties":{"city":"Zephyrhills","company name":"ProBuild","id":"a648ebahc8e4","lat":28.23401,"state":"FL","long":-82.181894},"type":"Feature","geometry":{"type":"Point","coordinates":[-82.181894,28.23401]}}],"is_temporal":false,"author":{"url":"","metadata":"","contact_name":"","contact_address":"","source":"","contact_phone":""},"source":"","pagination":{"sort":null,"start":0,"total":336,"limit":1000000},"state":"complete","tags":"closings","published":"2009-04-02T14:32:04Z","id":11477}