{"type":"FeatureCollection","data_type":"Dataset","url_type":null,"permissions":[{"permissions":{"download":true,"view":true},"group_id":"everyone"}],"classification":null,"title":"Massachusetts: The cost of police protection, per resident 2007","count":351,"stream_id":11524,"contributor":{"url":"http://geocommons.com/users/5809","name":"matthewscarroll@msn.com"},"data_attributes":null,"calculation_params":null,"icon_link":null,"link":"http://geocommons.com/overlays/11524.json","extent":[-73.4245,41.2852,-69.9586,42.8564],"geometry_types":["point"],"unique_name":null,"name":"Massachusetts: The cost of police protection, per resident 2007","feature_count":351,"description":"","next_feature":null,"is_raster":false,"short_classification":"Y","stats":{"lat":{"max":42.85638,"mean":42.2816450854701,"variance":0.0952980463813184,"stdev":0.308703816596618,"min":41.285215,"median":42.311375},"long":{"max":-69.958626,"mean":-71.6749423789174,"variance":0.705076041699436,"stdev":0.839688062139409,"min":-73.424525,"median":-71.465799}},"features":[{"properties":{"cost":"$144","municipality":"ABINGTON","id":"a691ljc4ovoy","lat":42.117629,"state":"Massachusetts","long":-70.956766},"type":"Feature","geometry":{"type":"Point","coordinates":[-70.956766,42.117629]}},{"properties":{"cost":"$125","municipality":"ACTON","id":"a691lj4jv1f1","lat":42.48582,"state":"Massachusetts","long":-71.433299},"type":"Feature","geometry":{"type":"Point","coordinates":[-71.433299,42.48582]}},{"properties":{"cost":"$138","municipality":"ACUSHNET","id":"a691lj4ym5bk","lat":41.682897,"state":"Massachusetts","long":-70.909483},"type":"Feature","geometry":{"type":"Point","coordinates":[-70.909483,41.682897]}},{"properties":{"cost":"$154","municipality":"ADAMS","id":"a691lj5r0bls","lat":42.621441,"state":"Massachusetts","long":-73.120377},"type":"Feature","geometry":{"type":"Point","coordinates":[-73.120377,42.621441]}},{"properties":{"cost":"$131","municipality":"AGAWAM","id":"a691lj5oragb","lat":42.088621,"state":"Massachusetts","long":-72.625272},"type":"Feature","geometry":{"type":"Point","coordinates":[-72.625272,42.088621]}},{"properties":{"cost":"$68","municipality":"ALFORD","id":"a691lj9mi15x","lat":42.236366,"state":"Massachusetts","long":-73.415357},"type":"Feature","geometry":{"type":"Point","coordinates":[-73.415357,42.236366]}},{"properties":{"cost":"$198","municipality":"AMESBURY","id":"a691ljcsprmw","lat":42.85638,"state":"Massachusetts","long":-70.933719},"type":"Feature","geometry":{"type":"Point","coordinates":[-70.933719,42.85638]}},{"properties":{"cost":"$121","municipality":"AMHERST","id":"a691lj93kz4g","lat":42.375265,"state":"Massachusetts","long":-72.518949},"type":"Feature","geometry":{"type":"Point","coordinates":[-72.518949,42.375265]}},{"properties":{"cost":"$169","municipality":"ANDOVER","id":"a691lj9cuw64","lat":42.653565,"state":"Massachusetts","long":-71.136494},"type":"Feature","geometry":{"type":"Point","coordinates":[-71.136494,42.653565]}},{"properties":{"cost":"$134","municipality":"ARLINGTON","id":"a691ljctts8p","lat":42.416295,"state":"Massachusetts","long":-71.156764},"type":"Feature","geometry":{"type":"Point","coordinates":[-71.156764,42.416295]}},{"properties":{"cost":"$131","municipality":"ASHBURNHAM","id":"a691ljf40eck","lat":42.6358,"state":"Massachusetts","long":-71.908354},"type":"Feature","geometry":{"type":"Point","coordinates":[-71.908354,42.6358]}},{"properties":{"cost":"$195","municipality":"ASHBY","id":"a691lj3z15lr","lat":42.681023,"state":"Massachusetts","long":-71.831224},"type":"Feature","geometry":{"type":"Point","coordinates":[-71.831224,42.681023]}},{"properties":{"cost":"$58","municipality":"ASHFIELD","id":"a691ljhyvdq8","lat":42.52616,"state":"Massachusetts","long":-72.790989},"type":"Feature","geometry":{"type":"Point","coordinates":[-72.790989,42.52616]}},{"properties":{"cost":"$153","municipality":"ASHLAND","id":"a691lj8cpm5v","lat":42.261303,"state":"Massachusetts","long":-71.465799},"type":"Feature","geometry":{"type":"Point","coordinates":[-71.465799,42.261303]}},{"properties":{"cost":"$116","municipality":"ATHOL","id":"a691lj55wvyz","lat":42.593843,"state":"Massachusetts","long":-72.227862},"type":"Feature","geometry":{"type":"Point","coordinates":[-72.227862,42.593843]}},{"properties":{"cost":"$135","municipality":"ATTLEBORO","id":"a691ljdthv8v","lat":41.945065,"state":"Massachusetts","long":-71.281094},"type":"Feature","geometry":{"type":"Point","coordinates":[-71.281094,41.945065]}},{"properties":{"cost":"$183","municipality":"AUBURN","id":"a691lje8e73c","lat":42.196208,"state":"Massachusetts","long":-71.833923},"type":"Feature","geometry":{"type":"Point","coordinates":[-71.833923,42.196208]}},{"properties":{"cost":"$391","municipality":"AVON","id":"a691ljar928b","lat":42.129485,"state":"Massachusetts","long":-71.039024},"type":"Feature","geometry":{"type":"Point","coordinates":[-71.039024,42.129485]}},{"properties":{"cost":"$202","municipality":"AYER","id":"a691ljfvtjmc","lat":42.558746,"state":"Massachusetts","long":-71.584777},"type":"Feature","geometry":{"type":"Point","coordinates":[-71.584777,42.558746]}},{"properties":{"cost":"$224","municipality":"BARNSTABLE","id":"a691lj5t3o2o","lat":41.701941,"state":"Massachusetts","long":-70.304425},"type":"Feature","geometry":{"type":"Point","coordinates":[-70.304425,41.701941]}},{"properties":{"cost":"$104","municipality":"BARRE","id":"a691ljf5fnjk","lat":42.423189,"state":"Massachusetts","long":-72.108117},"type":"Feature","geometry":{"type":"Point","coordinates":[-72.108117,42.423189]}},{"properties":{"cost":"$85","municipality":"BECKET","id":"a691lj8dk5lb","lat":42.314509,"state":"Massachusetts","long":-73.093892},"type":"Feature","geometry":{"type":"Point","coordinates":[-73.093892,42.314509]}},{"properties":{"cost":"$223","municipality":"BEDFORD","id":"a691lj8yu9jb","lat":42.491891,"state":"Massachusetts","long":-71.281471},"type":"Feature","geometry":{"type":"Point","coordinates":[-71.281471,42.491891]}},{"properties":{"cost":"$110","municipality":"BELCHERTOWN","id":"a691ljfzl6mi","lat":42.277057,"state":"Massachusetts","long":-72.400719},"type":"Feature","geometry":{"type":"Point","coordinates":[-72.400719,42.277057]}},{"properties":{"cost":"$143","municipality":"BELLINGHAM","id":"a691ljijztgg","lat":42.08697,"state":"Massachusetts","long":-71.474579},"type":"Feature","geometry":{"type":"Point","coordinates":[-71.474579,42.08697]}},{"properties":{"cost":"$159","municipality":"BELMONT","id":"a691lj7em2j1","lat":42.396261,"state":"Massachusetts","long":-71.177012},"type":"Feature","geometry":{"type":"Point","coordinates":[-71.177012,42.396261]}},{"properties":{"cost":"$101","municipality":"BERKLEY","id":"a691ljcaupez","lat":41.846357,"state":"Massachusetts","long":-71.082539},"type":"Feature","geometry":{"type":"Point","coordinates":[-71.082539,41.846357]}},{"properties":{"cost":"$169","municipality":"BERLIN","id":"a691ljbk4q3k","lat":42.381375,"state":"Massachusetts","long":-71.637842},"type":"Feature","geometry":{"type":"Point","coordinates":[-71.637842,42.381375]}},{"properties":{"cost":"$90","municipality":"BERNARDSTON","id":"a691lj4tyyxv","lat":42.67118,"state":"Massachusetts","long":-72.550444},"type":"Feature","geometry":{"type":"Point","coordinates":[-72.550444,42.67118]}},{"properties":{"cost":"$145","municipality":"BEVERLY","id":"a691ljgvbe40","lat":42.547745,"state":"Massachusetts","long":-70.878979},"type":"Feature","geometry":{"type":"Point","coordinates":[-70.878979,42.547745]}},{"properties":{"cost":"$161","municipality":"BILLERICA","id":"a691lj5k1zvf","lat":42.562968,"state":"Massachusetts","long":-71.270559},"type":"Feature","geometry":{"type":"Point","coordinates":[-71.270559,42.562968]}},{"properties":{"cost":"$130","municipality":"BLACKSTONE","id":"a691ljjvll8b","lat":42.017888,"state":"Massachusetts","long":-71.533494},"type":"Feature","geometry":{"type":"Point","coordinates":[-71.533494,42.017888]}},{"properties":{"cost":"$8","municipality":"BLANDFORD","id":"a691ljhvx3jh","lat":42.17963,"state":"Massachusetts","long":-72.924829},"type":"Feature","geometry":{"type":"Point","coordinates":[-72.924829,42.17963]}},{"properties":{"cost":"$169","municipality":"BOLTON","id":"a691lj8lp2z3","lat":42.433102,"state":"Massachusetts","long":-71.60772},"type":"Feature","geometry":{"type":"Point","coordinates":[-71.60772,42.433102]}},{"properties":{"cost":"$443","municipality":"BOSTON","id":"a691ljgj7gyn","lat":42.358635,"state":"Massachusetts","long":-71.056699},"type":"Feature","geometry":{"type":"Point","coordinates":[-71.056699,42.358635]}},{"properties":{"cost":"$154","municipality":"BOURNE","id":"a691lj8ls1aw","lat":41.74264,"state":"Massachusetts","long":-70.588294},"type":"Feature","geometry":{"type":"Point","coordinates":[-70.588294,41.74264]}},{"properties":{"cost":"$235","municipality":"BOXBOROUGH","id":"a691ljdho5l6","lat":42.484017,"state":"Massachusetts","long":-71.514117},"type":"Feature","geometry":{"type":"Point","coordinates":[-71.514117,42.484017]}},{"properties":{"cost":"$134","municipality":"BOXFORD","id":"a691ljfq82y2","lat":42.662899,"state":"Massachusetts","long":-70.999054},"type":"Feature","geometry":{"type":"Point","coordinates":[-70.999054,42.662899]}},{"properties":{"cost":"$178","municipality":"BOYLSTON","id":"a691lj3saye6","lat":42.325474,"state":"Massachusetts","long":-71.753821},"type":"Feature","geometry":{"type":"Point","coordinates":[-71.753821,42.325474]}},{"properties":{"cost":"$196","municipality":"BRAINTREE","id":"a691lj3x9k86","lat":42.206391,"state":"Massachusetts","long":-71.004817},"type":"Feature","geometry":{"type":"Point","coordinates":[-71.004817,42.206391]}},{"properties":{"cost":"$164","municipality":"BREWSTER","id":"a691ljhfrvvw","lat":41.763835,"state":"Massachusetts","long":-70.074684},"type":"Feature","geometry":{"type":"Point","coordinates":[-70.074684,41.763835]}},{"properties":{"cost":"$116","municipality":"BRIDGEWATER","id":"a691lj4gw89b","lat":41.988745,"state":"Massachusetts","long":-70.976994},"type":"Feature","geometry":{"type":"Point","coordinates":[-70.976994,41.988745]}},{"properties":{"cost":"$32","municipality":"BRIMFIELD","id":"a691lj7t8ksw","lat":42.12199,"state":"Massachusetts","long":-72.204234},"type":"Feature","geometry":{"type":"Point","coordinates":[-72.204234,42.12199]}},{"properties":{"cost":"$176","municipality":"BROCKTON","id":"a691ljhl6grn","lat":42.08317,"state":"Massachusetts","long":-71.017244},"type":"Feature","geometry":{"type":"Point","coordinates":[-71.017244,42.08317]}},{"properties":{"cost":"$106","municipality":"BROOKFIELD","id":"a691ljfqv8q4","lat":42.21503,"state":"Massachusetts","long":-72.101779},"type":"Feature","geometry":{"type":"Point","coordinates":[-72.101779,42.21503]}},{"properties":{"cost":"$240","municipality":"BROOKLINE","id":"a691ljh4cjp8","lat":42.333473,"state":"Massachusetts","long":-71.120476},"type":"Feature","geometry":{"type":"Point","coordinates":[-71.120476,42.333473]}},{"properties":{"cost":"$81","municipality":"BUCKLAND","id":"a691lj9c1cng","lat":42.590738,"state":"Massachusetts","long":-72.790017},"type":"Feature","geometry":{"type":"Point","coordinates":[-72.790017,42.590738]}},{"properties":{"cost":"$247","municipality":"BURLINGTON","id":"a691lj8tpbrh","lat":42.505832,"state":"Massachusetts","long":-71.19376},"type":"Feature","geometry":{"type":"Point","coordinates":[-71.19376,42.505832]}},{"properties":{"cost":"$234","municipality":"CAMBRIDGE","id":"a691ljaw24oq","lat":42.36679,"state":"Massachusetts","long":-71.106019},"type":"Feature","geometry":{"type":"Point","coordinates":[-71.106019,42.36679]}},{"properties":{"cost":"$163","municipality":"CANTON","id":"a691lj9cr4gg","lat":42.1592,"state":"Massachusetts","long":-71.144789},"type":"Feature","geometry":{"type":"Point","coordinates":[-71.144789,42.1592]}},{"properties":{"cost":"$230","municipality":"CARLISLE","id":"a691lj89bjpf","lat":42.52923,"state":"Massachusetts","long":-71.347799},"type":"Feature","geometry":{"type":"Point","coordinates":[-71.347799,42.52923]}},{"properties":{"cost":"$150","municipality":"CARVER","id":"a691lj5nslor","lat":41.888457,"state":"Massachusetts","long":-70.768731},"type":"Feature","geometry":{"type":"Point","coordinates":[-70.768731,41.888457]}},{"properties":{"cost":"$48","municipality":"CHARLEMONT","id":"a691ljjeo3fg","lat":42.62804,"state":"Massachusetts","long":-72.871351},"type":"Feature","geometry":{"type":"Point","coordinates":[-72.871351,42.62804]}},{"properties":{"cost":"$141","municipality":"CHARLTON","id":"a691ljcomj99","lat":42.134705,"state":"Massachusetts","long":-71.969764},"type":"Feature","geometry":{"type":"Point","coordinates":[-71.969764,42.134705]}},{"properties":{"cost":"$299","municipality":"CHATHAM","id":"a691lj4xd28m","lat":41.680971,"state":"Massachusetts","long":-69.958626},"type":"Feature","geometry":{"type":"Point","coordinates":[-69.958626,41.680971]}},{"properties":{"cost":"$146","municipality":"CHELMSFORD","id":"a691ljb4cx35","lat":42.59827,"state":"Massachusetts","long":-71.346839},"type":"Feature","geometry":{"type":"Point","coordinates":[-71.346839,42.59827]}},{"properties":{"cost":"$216","municipality":"CHELSEA","id":"a691lj870jdg","lat":42.39376,"state":"Massachusetts","long":-71.032369},"type":"Feature","geometry":{"type":"Point","coordinates":[-71.032369,42.39376]}},{"properties":{"cost":"$25","municipality":"CHESHIRE","id":"a691lj867mxp","lat":42.562046,"state":"Massachusetts","long":-73.162439},"type":"Feature","geometry":{"type":"Point","coordinates":[-73.162439,42.562046]}},{"properties":{"cost":"$28","municipality":"CHESTER","id":"a691lj6zi6ba","lat":42.280037,"state":"Massachusetts","long":-72.982659},"type":"Feature","geometry":{"type":"Point","coordinates":[-72.982659,42.280037]}},{"properties":{"cost":"$12","municipality":"CHESTERFIELD","id":"a691lj57fd0p","lat":42.392127,"state":"Massachusetts","long":-72.84369},"type":"Feature","geometry":{"type":"Point","coordinates":[-72.84369,42.392127]}},{"properties":{"cost":"$150","municipality":"CHICOPEE","id":"a691ljh6oizn","lat":42.14819,"state":"Massachusetts","long":-72.607019},"type":"Feature","geometry":{"type":"Point","coordinates":[-72.607019,42.14819]}},{"properties":{"cost":"$516","municipality":"CHILMARK","id":"a691ljaeisns","lat":41.342251,"state":"Massachusetts","long":-70.744636},"type":"Feature","geometry":{"type":"Point","coordinates":[-70.744636,41.342251]}},{"properties":{"cost":"$37","municipality":"CLARKSBURG","id":"a691lj82y17c","lat":42.711906,"state":"Massachusetts","long":-73.084246},"type":"Feature","geometry":{"type":"Point","coordinates":[-73.084246,42.711906]}},{"properties":{"cost":"$170","municipality":"CLINTON","id":"a691ljf2gtar","lat":42.41689,"state":"Massachusetts","long":-71.682379},"type":"Feature","geometry":{"type":"Point","coordinates":[-71.682379,42.41689]}},{"properties":{"cost":"$249","municipality":"COHASSET","id":"a691lj79ijdr","lat":42.242495,"state":"Massachusetts","long":-70.802539},"type":"Feature","geometry":{"type":"Point","coordinates":[-70.802539,42.242495]}},{"properties":{"cost":"$25","municipality":"COLRAIN","id":"a691lj9td2tf","lat":42.673925,"state":"Massachusetts","long":-72.696739},"type":"Feature","geometry":{"type":"Point","coordinates":[-72.696739,42.673925]}},{"properties":{"cost":"$203","municipality":"CONCORD","id":"a691ljevkfjl","lat":42.459915,"state":"Massachusetts","long":-71.347799},"type":"Feature","geometry":{"type":"Point","coordinates":[-71.347799,42.459915]}},{"properties":{"cost":"$40","municipality":"CONWAY","id":"a691ljf19odf","lat":42.508778,"state":"Massachusetts","long":-72.697475},"type":"Feature","geometry":{"type":"Point","coordinates":[-72.697475,42.508778]}},{"properties":{"cost":"$22","municipality":"CUMMINGTON","id":"a691lj9uy0ld","lat":42.460698,"state":"Massachusetts","long":-72.893501},"type":"Feature","geometry":{"type":"Point","coordinates":[-72.893501,42.460698]}},{"properties":{"cost":"$136","municipality":"DALTON","id":"a691ljejkans","lat":42.473229,"state":"Massachusetts","long":-73.16971},"type":"Feature","geometry":{"type":"Point","coordinates":[-73.16971,42.473229]}},{"properties":{"cost":"$195","municipality":"DANVERS","id":"a691ljg0cnbo","lat":42.562137,"state":"Massachusetts","long":-70.939446},"type":"Feature","geometry":{"type":"Point","coordinates":[-70.939446,42.562137]}},{"properties":{"cost":"$162","municipality":"DARTMOUTH","id":"a691ljgplg4p","lat":41.628219,"state":"Massachusetts","long":-70.966035},"type":"Feature","geometry":{"type":"Point","coordinates":[-70.966035,41.628219]}},{"properties":{"cost":"$214","municipality":"DEDHAM","id":"a691lj5ynd7g","lat":42.246602,"state":"Massachusetts","long":-71.173771},"type":"Feature","geometry":{"type":"Point","coordinates":[-71.173771,42.246602]}},{"properties":{"cost":"$105","municipality":"DEERFIELD","id":"a691lj42yo97","lat":42.54247,"state":"Massachusetts","long":-72.601999},"type":"Feature","geometry":{"type":"Point","coordinates":[-72.601999,42.54247]}},{"properties":{"cost":"$236","municipality":"DENNIS","id":"a691lj846dw7","lat":41.738065,"state":"Massachusetts","long":-70.192189},"type":"Feature","geometry":{"type":"Point","coordinates":[-70.192189,41.738065]}},{"properties":{"cost":"$117","municipality":"DIGHTON","id":"a691ljihjssc","lat":41.826441,"state":"Massachusetts","long":-71.121069},"type":"Feature","geometry":{"type":"Point","coordinates":[-71.121069,41.826441]}},{"properties":{"cost":"$165","municipality":"DOUGLAS","id":"a691lj504wv2","lat":42.06591,"state":"Massachusetts","long":-71.709603},"type":"Feature","geometry":{"type":"Point","coordinates":[-71.709603,42.06591]}},{"properties":{"cost":"$241","municipality":"DOVER","id":"a691lj74s1jn","lat":42.244285,"state":"Massachusetts","long":-71.280104},"type":"Feature","geometry":{"type":"Point","coordinates":[-71.280104,42.244285]}},{"properties":{"cost":"$113","municipality":"DRACUT","id":"a691ljbkfr60","lat":42.670488,"state":"Massachusetts","long":-71.300354},"type":"Feature","geometry":{"type":"Point","coordinates":[-71.300354,42.670488]}},{"properties":{"cost":"$121","municipality":"DUDLEY","id":"a691ljg1v17r","lat":42.043785,"state":"Massachusetts","long":-71.890894},"type":"Feature","geometry":{"type":"Point","coordinates":[-71.890894,42.043785]}},{"properties":{"cost":"$209","municipality":"DUNSTABLE","id":"a691lj4uvlgm","lat":42.67442,"state":"Massachusetts","long":-71.481754},"type":"Feature","geometry":{"type":"Point","coordinates":[-71.481754,42.67442]}},{"properties":{"cost":"$191","municipality":"DUXBURY","id":"a691lj7c9wdk","lat":42.037296,"state":"Massachusetts","long":-70.689583},"type":"Feature","geometry":{"type":"Point","coordinates":[-70.689583,42.037296]}},{"properties":{"cost":"$144","municipality":"EAST BRIDGEWATER","id":"a691lj501ydx","lat":42.029633,"state":"Massachusetts","long":-70.955279},"type":"Feature","geometry":{"type":"Point","coordinates":[-70.955279,42.029633]}},{"properties":{"cost":"$127","municipality":"EAST BROOKFIELD","id":"a691ljbdalw7","lat":42.225415,"state":"Massachusetts","long":-72.046649},"type":"Feature","geometry":{"type":"Point","coordinates":[-72.046649,42.225415]}},{"properties":{"cost":"$123","municipality":"EAST LONGMEADOW","id":"a691ljbk4oym","lat":42.06488,"state":"Massachusetts","long":-72.513064},"type":"Feature","geometry":{"type":"Point","coordinates":[-72.513064,42.06488]}},{"properties":{"cost":"$253","municipality":"EASTHAM","id":"a691ljgubs0t","lat":41.830042,"state":"Massachusetts","long":-69.977255},"type":"Feature","geometry":{"type":"Point","coordinates":[-69.977255,41.830042]}},{"properties":{"cost":"$117","municipality":"EASTHAMPTON","id":"a691lj95x8qj","lat":42.270792,"state":"Massachusetts","long":-72.672184},"type":"Feature","geometry":{"type":"Point","coordinates":[-72.672184,42.270792]}},{"properties":{"cost":"$139","municipality":"EASTON","id":"a691lje3yeaj","lat":42.074712,"state":"Massachusetts","long":-71.088839},"type":"Feature","geometry":{"type":"Point","coordinates":[-71.088839,42.074712]}},{"properties":{"cost":"$506","municipality":"EDGARTOWN","id":"a691ljjuivdh","lat":41.39088,"state":"Massachusetts","long":-70.520649},"type":"Feature","geometry":{"type":"Point","coordinates":[-70.520649,41.39088]}},{"properties":{"cost":"$168","municipality":"EGREMONT","id":"a691lj3ojj20","lat":42.190207,"state":"Massachusetts","long":-73.424525},"type":"Feature","geometry":{"type":"Point","coordinates":[-73.424525,42.190207]}},{"properties":{"cost":"$151","municipality":"ERVING","id":"a691lj98xlvc","lat":42.599655,"state":"Massachusetts","long":-72.398644},"type":"Feature","geometry":{"type":"Point","coordinates":[-72.398644,42.599655]}},{"properties":{"cost":"$219","municipality":"ESSEX","id":"a691ljhfnh6u","lat":42.631919,"state":"Massachusetts","long":-70.783106},"type":"Feature","geometry":{"type":"Point","coordinates":[-70.783106,42.631919]}},{"properties":{"cost":"$224","municipality":"EVERETT","id":"a691lj5mshua","lat":42.40816,"state":"Massachusetts","long":-71.054484},"type":"Feature","geometry":{"type":"Point","coordinates":[-71.054484,42.40816]}},{"properties":{"cost":"$151","municipality":"FAIRHAVEN","id":"a691ljjlxhfn","lat":41.635956,"state":"Massachusetts","long":-70.903478},"type":"Feature","geometry":{"type":"Point","coordinates":[-70.903478,41.635956]}},{"properties":{"cost":"$216","municipality":"FALL RIVER","id":"a691ljih7oe2","lat":41.69735,"state":"Massachusetts","long":-71.143649},"type":"Feature","geometry":{"type":"Point","coordinates":[-71.143649,41.69735]}},{"properties":{"cost":"$158","municipality":"FALMOUTH","id":"a691lj5prw13","lat":41.552355,"state":"Massachusetts","long":-70.617479},"type":"Feature","geometry":{"type":"Point","coordinates":[-70.617479,41.552355]}},{"properties":{"cost":"$188","municipality":"FITCHBURG","id":"a691ljcl93e4","lat":42.58176,"state":"Massachusetts","long":-71.792259},"type":"Feature","geometry":{"type":"Point","coordinates":[-71.792259,42.58176]}},{"properties":{"cost":"$4","municipality":"FLORIDA","id":"a691lji7b6xu","lat":42.666607,"state":"Massachusetts","long":-73.010571},"type":"Feature","geometry":{"type":"Point","coordinates":[-73.010571,42.666607]}},{"properties":{"cost":"$151","municipality":"FOXBOROUGH","id":"a691ljhxmnzg","lat":42.065469,"state":"Massachusetts","long":-71.248918},"type":"Feature","geometry":{"type":"Point","coordinates":[-71.248918,42.065469]}},{"properties":{"cost":"$152","municipality":"FRAMINGHAM","id":"a691ljhm4jvz","lat":42.279519,"state":"Massachusetts","long":-71.416519},"type":"Feature","geometry":{"type":"Point","coordinates":[-71.416519,42.279519]}},{"properties":{"cost":"$132","municipality":"FRANKLIN","id":"a691ljexvkxg","lat":42.085102,"state":"Massachusetts","long":-71.399133},"type":"Feature","geometry":{"type":"Point","coordinates":[-71.399133,42.085102]}},{"properties":{"cost":"$143","municipality":"FREETOWN","id":"a691ljhzqogu","lat":41.79796,"state":"Massachusetts","long":-71.069111},"type":"Feature","geometry":{"type":"Point","coordinates":[-71.069111,41.79796]}},{"properties":{"cost":"$113","municipality":"GARDNER","id":"a691ljivgidj","lat":42.57384,"state":"Massachusetts","long":-71.995389},"type":"Feature","geometry":{"type":"Point","coordinates":[-71.995389,42.57384]}},{"properties":{"cost":"$1,033","municipality":"GAY HEAD","id":"a691lj9la3jp","lat":41.343485,"state":"Massachusetts","long":-70.815214},"type":"Feature","geometry":{"type":"Point","coordinates":[-70.815214,41.343485]}},{"properties":{"cost":"$156","municipality":"GEORGETOWN","id":"a691lj8qc46y","lat":42.722955,"state":"Massachusetts","long":-70.993429},"type":"Feature","geometry":{"type":"Point","coordinates":[-70.993429,42.722955]}},{"properties":{"cost":"$124","municipality":"GILL","id":"a691lj6ww7tr","lat":42.641155,"state":"Massachusetts","long":-72.498858},"type":"Feature","geometry":{"type":"Point","coordinates":[-72.498858,42.641155]}},{"properties":{"cost":"$169","municipality":"GLOUCESTER","id":"a691ljiqq4bz","lat":42.614353,"state":"Massachusetts","long":-70.66811},"type":"Feature","geometry":{"type":"Point","coordinates":[-70.66811,42.614353]}},{"properties":{"cost":"$54","municipality":"GOSHEN","id":"a691ljgtjrrs","lat":42.440925,"state":"Massachusetts","long":-72.799904},"type":"Feature","geometry":{"type":"Point","coordinates":[-72.799904,42.440925]}},{"properties":{"cost":"$199","municipality":"GOSNOLD","id":"a691lj6h5bg7","lat":41.424122,"state":"Massachusetts","long":-70.931901},"type":"Feature","geometry":{"type":"Point","coordinates":[-70.931901,41.424122]}},{"properties":{"cost":"$98","municipality":"GRAFTON","id":"a691ljaj8t6p","lat":42.210878,"state":"Massachusetts","long":-71.69223},"type":"Feature","geometry":{"type":"Point","coordinates":[-71.69223,42.210878]}},{"properties":{"cost":"$135","municipality":"GRANBY","id":"a691ljb3j4oj","lat":42.257751,"state":"Massachusetts","long":-72.516213},"type":"Feature","geometry":{"type":"Point","coordinates":[-72.516213,42.257751]}},{"properties":{"cost":"$72","municipality":"GRANVILLE","id":"a691ljh5zsl7","lat":42.067181,"state":"Massachusetts","long":-72.879893},"type":"Feature","geometry":{"type":"Point","coordinates":[-72.879893,42.067181]}},{"properties":{"cost":"$151","municipality":"GREAT BARRINGTON","id":"a691ljdftnrz","lat":42.193255,"state":"Massachusetts","long":-73.363339},"type":"Feature","geometry":{"type":"Point","coordinates":[-73.363339,42.193255]}},{"properties":{"cost":"$161","municipality":"GREENFIELD","id":"a691ljex4ctu","lat":42.587697,"state":"Massachusetts","long":-72.600876},"type":"Feature","geometry":{"type":"Point","coordinates":[-72.600876,42.587697]}},{"properties":{"cost":"$138","municipality":"GROTON","id":"a691ljffkn1h","lat":42.608505,"state":"Massachusetts","long":-71.571599},"type":"Feature","geometry":{"type":"Point","coordinates":[-71.571599,42.608505]}},{"properties":{"cost":"$182","municipality":"GROVELAND","id":"a691lj5r18my","lat":42.767048,"state":"Massachusetts","long":-71.025665},"type":"Feature","geometry":{"type":"Point","coordinates":[-71.025665,42.767048]}},{"properties":{"cost":"$157","municipality":"HADLEY","id":"a691ljb6385c","lat":42.34334,"state":"Massachusetts","long":-72.589234},"type":"Feature","geometry":{"type":"Point","coordinates":[-72.589234,42.34334]}},{"properties":{"cost":"$131","municipality":"HALIFAX","id":"a691ljcvtxpw","lat":41.991105,"state":"Massachusetts","long":-70.859904},"type":"Feature","geometry":{"type":"Point","coordinates":[-70.859904,41.991105]}},{"properties":{"cost":"$158","municipality":"HAMILTON","id":"a691ljbr7ih8","lat":42.61984,"state":"Massachusetts","long":-70.855219},"type":"Feature","geometry":{"type":"Point","coordinates":[-70.855219,42.61984]}},{"properties":{"cost":"$163","municipality":"HAMPDEN","id":"a691lj9gk4zv","lat":42.063865,"state":"Massachusetts","long":-72.414504},"type":"Feature","geometry":{"type":"Point","coordinates":[-72.414504,42.063865]}},{"properties":{"cost":"$2","municipality":"HANCOCK","id":"a691lj3l6u8v","lat":42.5476,"state":"Massachusetts","long":-73.312214},"type":"Feature","geometry":{"type":"Point","coordinates":[-73.312214,42.5476]}},{"properties":{"cost":"$170","municipality":"HANOVER","id":"a691lj8uam50","lat":42.1165,"state":"Massachusetts","long":-70.844214},"type":"Feature","geometry":{"type":"Point","coordinates":[-70.844214,42.1165]}},{"properties":{"cost":"$187","municipality":"HANSON","id":"a691lj96e277","lat":42.065726,"state":"Massachusetts","long":-70.867866},"type":"Feature","geometry":{"type":"Point","coordinates":[-70.867866,42.065726]}},{"properties":{"cost":"$105","municipality":"HARDWICK","id":"a691lj4a7nu6","lat":42.366752,"state":"Massachusetts","long":-72.184923},"type":"Feature","geometry":{"type":"Point","coordinates":[-72.184923,42.366752]}},{"properties":{"cost":"$153","municipality":"HARVARD","id":"a691ljcvy75r","lat":42.504323,"state":"Massachusetts","long":-71.584528},"type":"Feature","geometry":{"type":"Point","coordinates":[-71.584528,42.504323]}},{"properties":{"cost":"$219","municipality":"HARWICH","id":"a691lj6kadj6","lat":41.68627,"state":"Massachusetts","long":-70.073419},"type":"Feature","geometry":{"type":"Point","coordinates":[-70.073419,41.68627]}},{"properties":{"cost":"$31","municipality":"HATFIELD","id":"a691ljbmbtrl","lat":42.371751,"state":"Massachusetts","long":-72.596435},"type":"Feature","geometry":{"type":"Point","coordinates":[-72.596435,42.371751]}},{"properties":{"cost":"$141","municipality":"HAVERHILL","id":"a691ljauq98a","lat":42.777539,"state":"Massachusetts","long":-71.076796},"type":"Feature","geometry":{"type":"Point","coordinates":[-71.076796,42.777539]}},{"properties":{"cost":"$1","municipality":"HAWLEY","id":"a691ljak41i3","lat":42.598988,"state":"Massachusetts","long":-72.914629},"type":"Feature","geometry":{"type":"Point","coordinates":[-72.914629,42.598988]}},{"properties":{"cost":"$17","municipality":"HEATH","id":"a691lj8ihyhb","lat":42.673585,"state":"Massachusetts","long":-72.821574},"type":"Feature","geometry":{"type":"Point","coordinates":[-72.821574,42.673585]}},{"properties":{"cost":"$206","municipality":"HINGHAM","id":"a691lj6suhwc","lat":42.236795,"state":"Massachusetts","long":-70.874852},"type":"Feature","geometry":{"type":"Point","coordinates":[-70.874852,42.236795]}},{"properties":{"cost":"$70","municipality":"HINSDALE","id":"a691lji17qmk","lat":42.437831,"state":"Massachusetts","long":-73.123459},"type":"Feature","geometry":{"type":"Point","coordinates":[-73.123459,42.437831]}},{"properties":{"cost":"$183","municipality":"HOLBROOK","id":"a691lj3sw1ky","lat":42.156065,"state":"Massachusetts","long":-71.008664},"type":"Feature","geometry":{"type":"Point","coordinates":[-71.008664,42.156065]}},{"properties":{"cost":"$110","municipality":"HOLDEN","id":"a691lj90rear","lat":42.350784,"state":"Massachusetts","long":-71.862691},"type":"Feature","geometry":{"type":"Point","coordinates":[-71.862691,42.350784]}},{"properties":{"cost":"$71","municipality":"HOLLAND","id":"a691lj4r2l6f","lat":42.065844,"state":"Massachusetts","long":-72.160077},"type":"Feature","geometry":{"type":"Point","coordinates":[-72.160077,42.065844]}},{"properties":{"cost":"$136","municipality":"HOLLISTON","id":"a691lj4dbnsx","lat":42.20204,"state":"Massachusetts","long":-71.428964},"type":"Feature","geometry":{"type":"Point","coordinates":[-71.428964,42.20204]}},{"properties":{"cost":"$282","municipality":"HOLYOKE","id":"a691ljbtebed","lat":42.206965,"state":"Massachusetts","long":-72.607434},"type":"Feature","geometry":{"type":"Point","coordinates":[-72.607434,42.206965]}},{"properties":{"cost":"$159","municipality":"HOPEDALE","id":"a691lj8f6vre","lat":42.12896,"state":"Massachusetts","long":-71.539579},"type":"Feature","geometry":{"type":"Point","coordinates":[-71.539579,42.12896]}},{"properties":{"cost":"$139","municipality":"HOPKINTON","id":"a691lj5xoj7i","lat":42.228769,"state":"Massachusetts","long":-71.520371},"type":"Feature","geometry":{"type":"Point","coordinates":[-71.520371,42.228769]}},{"properties":{"cost":"$100","municipality":"HUBBARDSTON","id":"a691lj9istdx","lat":42.475905,"state":"Massachusetts","long":-72.007779},"type":"Feature","geometry":{"type":"Point","coordinates":[-72.007779,42.475905]}},{"properties":{"cost":"$141","municipality":"HUDSON","id":"a691ljgqp0yb","lat":42.39117,"state":"Massachusetts","long":-71.567684},"type":"Feature","geometry":{"type":"Point","coordinates":[-71.567684,42.39117]}},{"properties":{"cost":"$238","municipality":"HULL","id":"a691ljft2o34","lat":42.271425,"state":"Massachusetts","long":-70.857724},"type":"Feature","geometry":{"type":"Point","coordinates":[-70.857724,42.271425]}},{"properties":{"cost":"$36","municipality":"HUNTINGTON","id":"a691lj4ns1ih","lat":42.232299,"state":"Massachusetts","long":-72.878728},"type":"Feature","geometry":{"type":"Point","coordinates":[-72.878728,42.232299]}},{"properties":{"cost":"$162","municipality":"IPSWICH","id":"a691ljbgjb9g","lat":42.68049,"state":"Massachusetts","long":-70.833006},"type":"Feature","geometry":{"type":"Point","coordinates":[-70.833006,42.68049]}},{"properties":{"cost":"$191","municipality":"KINGSTON","id":"a691ljbuvhtc","lat":41.993707,"state":"Massachusetts","long":-70.731936},"type":"Feature","geometry":{"type":"Point","coordinates":[-70.731936,41.993707]}},{"properties":{"cost":"$129","municipality":"LAKEVILLE","id":"a691ljgu0fwk","lat":41.850813,"state":"Massachusetts","long":-70.949891},"type":"Feature","geometry":{"type":"Point","coordinates":[-70.949891,41.850813]}},{"properties":{"cost":"$113","municipality":"LANCASTER","id":"a691lje69ok0","lat":42.455025,"state":"Massachusetts","long":-71.673579},"type":"Feature","geometry":{"type":"Point","coordinates":[-71.673579,42.455025]}},{"properties":{"cost":"$183","municipality":"LANESBOROUGH","id":"a691lj3hydl2","lat":42.528483,"state":"Massachusetts","long":-73.228334},"type":"Feature","geometry":{"type":"Point","coordinates":[-73.228334,42.528483]}},{"properties":{"cost":"$205","municipality":"LAWRENCE","id":"a691ljhfudig","lat":42.710328,"state":"Massachusetts","long":-71.161244},"type":"Feature","geometry":{"type":"Point","coordinates":[-71.161244,42.710328]}},{"properties":{"cost":"$145","municipality":"LEE","id":"a691ljd74uib","lat":42.305298,"state":"Massachusetts","long":-73.249255},"type":"Feature","geometry":{"type":"Point","coordinates":[-73.249255,42.305298]}},{"properties":{"cost":"$128","municipality":"LEICESTER","id":"a691lj3s00md","lat":42.246395,"state":"Massachusetts","long":-71.906829},"type":"Feature","geometry":{"type":"Point","coordinates":[-71.906829,42.246395]}},{"properties":{"cost":"$182","municipality":"LENOX","id":"a691ljbs2j4x","lat":42.356468,"state":"Massachusetts","long":-73.284221},"type":"Feature","geometry":{"type":"Point","coordinates":[-73.284221,42.356468]}},{"properties":{"cost":"$139","municipality":"LEOMINSTER","id":"a691lja5vr3q","lat":42.52642,"state":"Massachusetts","long":-71.759614},"type":"Feature","geometry":{"type":"Point","coordinates":[-71.759614,42.52642]}},{"properties":{"cost":"$75","municipality":"LEVERETT","id":"a691lj5czxex","lat":42.46472,"state":"Massachusetts","long":-72.498133},"type":"Feature","geometry":{"type":"Point","coordinates":[-72.498133,42.46472]}},{"properties":{"cost":"$152","municipality":"LEXINGTON","id":"a691lji96qvh","lat":42.446319,"state":"Massachusetts","long":-71.223751},"type":"Feature","geometry":{"type":"Point","coordinates":[-71.223751,42.446319]}},{"properties":{"cost":"$33","municipality":"LEYDEN","id":"a691ljdtwr6b","lat":42.701017,"state":"Massachusetts","long":-72.63149},"type":"Feature","geometry":{"type":"Point","coordinates":[-72.63149,42.701017]}},{"properties":{"cost":"$155","municipality":"LINCOLN","id":"a691lj4txcwc","lat":42.414105,"state":"Massachusetts","long":-71.325684},"type":"Feature","geometry":{"type":"Point","coordinates":[-71.325684,42.414105]}},{"properties":{"cost":"$132","municipality":"LITTLETON","id":"a691ljir9zgl","lat":42.538175,"state":"Massachusetts","long":-71.484071},"type":"Feature","geometry":{"type":"Point","coordinates":[-71.484071,42.538175]}},{"properties":{"cost":"$151","municipality":"LONGMEADOW","id":"a691lji6za63","lat":42.05022,"state":"Massachusetts","long":-72.579794},"type":"Feature","geometry":{"type":"Point","coordinates":[-72.579794,42.05022]}},{"properties":{"cost":"$210","municipality":"LOWELL","id":"a691lj4jjg9h","lat":42.64589,"state":"Massachusetts","long":-71.312844},"type":"Feature","geometry":{"type":"Point","coordinates":[-71.312844,42.64589]}},{"properties":{"cost":"$120","municipality":"LUDLOW","id":"a691lj8csdjg","lat":42.170423,"state":"Massachusetts","long":-72.465173},"type":"Feature","geometry":{"type":"Point","coordinates":[-72.465173,42.170423]}},{"properties":{"cost":"$118","municipality":"LUNENBURG","id":"a691ljg3g91f","lat":42.595571,"state":"Massachusetts","long":-71.724989},"type":"Feature","geometry":{"type":"Point","coordinates":[-71.724989,42.595571]}},{"properties":{"cost":"$205","municipality":"LYNN","id":"a691ljbzuw6m","lat":42.4637,"state":"Massachusetts","long":-70.950219},"type":"Feature","geometry":{"type":"Point","coordinates":[-70.950219,42.4637]}},{"properties":{"cost":"$170","municipality":"LYNNFIELD","id":"a691ljhgtd3t","lat":42.538625,"state":"Massachusetts","long":-71.046889},"type":"Feature","geometry":{"type":"Point","coordinates":[-71.046889,42.538625]}},{"properties":{"cost":"$155","municipality":"MALDEN","id":"a691ljh09kml","lat":42.426925,"state":"Massachusetts","long":-71.073469},"type":"Feature","geometry":{"type":"Point","coordinates":[-71.073469,42.426925]}},{"properties":{"cost":"$234","municipality":"MANCHESTER","id":"a691lj3pov9o","lat":42.575288,"state":"Massachusetts","long":-70.772182},"type":"Feature","geometry":{"type":"Point","coordinates":[-70.772182,42.575288]}},{"properties":{"cost":"$130","municipality":"MANSFIELD","id":"a691lj9byeqo","lat":42.024238,"state":"Massachusetts","long":-71.219119},"type":"Feature","geometry":{"type":"Point","coordinates":[-71.219119,42.024238]}},{"properties":{"cost":"$140","municipality":"MARBLEHEAD","id":"a691ljcm91ii","lat":42.497339,"state":"Massachusetts","long":-70.861435},"type":"Feature","geometry":{"type":"Point","coordinates":[-70.861435,42.497339]}},{"properties":{"cost":"$216","municipality":"MARION","id":"a691ljd29bji","lat":41.70296,"state":"Massachusetts","long":-70.766629},"type":"Feature","geometry":{"type":"Point","coordinates":[-70.766629,41.70296]}},{"properties":{"cost":"$160","municipality":"MARLBOROUGH","id":"a691ljhpmizj","lat":42.346806,"state":"Massachusetts","long":-71.547991},"type":"Feature","geometry":{"type":"Point","coordinates":[-71.547991,42.346806]}},{"properties":{"cost":"$138","municipality":"MARSHFIELD","id":"a691lj4j0dxy","lat":42.091211,"state":"Massachusetts","long":-70.710402},"type":"Feature","geometry":{"type":"Point","coordinates":[-70.710402,42.091211]}},{"properties":{"cost":"$234","municipality":"MASHPEE","id":"a691ljinuy1b","lat":41.648345,"state":"Massachusetts","long":-70.481294},"type":"Feature","geometry":{"type":"Point","coordinates":[-70.481294,41.648345]}},{"properties":{"cost":"$230","municipality":"MATTAPOISETT","id":"a691ljijmo8x","lat":41.65912,"state":"Massachusetts","long":-70.816779},"type":"Feature","geometry":{"type":"Point","coordinates":[-70.816779,41.65912]}},{"properties":{"cost":"$178","municipality":"MAYNARD","id":"a691ljdwap3d","lat":42.430123,"state":"Massachusetts","long":-71.461551},"type":"Feature","geometry":{"type":"Point","coordinates":[-71.461551,42.430123]}},{"properties":{"cost":"$147","municipality":"MEDFIELD","id":"a691lj8ltovi","lat":42.186815,"state":"Massachusetts","long":-71.304999},"type":"Feature","geometry":{"type":"Point","coordinates":[-71.304999,42.186815]}},{"properties":{"cost":"$206","municipality":"MEDFORD","id":"a691ljgzyciu","lat":42.41985,"state":"Massachusetts","long":-71.108724},"type":"Feature","geometry":{"type":"Point","coordinates":[-71.108724,42.41985]}},{"properties":{"cost":"$151","municipality":"MEDWAY","id":"a691ljdv08yj","lat":42.14039,"state":"Massachusetts","long":-71.398534},"type":"Feature","geometry":{"type":"Point","coordinates":[-71.398534,42.14039]}},{"properties":{"cost":"$123","municipality":"MELROSE","id":"a691lj97tf9c","lat":42.45717,"state":"Massachusetts","long":-71.064049},"type":"Feature","geometry":{"type":"Point","coordinates":[-71.064049,42.45717]}},{"properties":{"cost":"$195","municipality":"MENDON","id":"a691ljfkjonw","lat":42.105168,"state":"Massachusetts","long":-71.55117},"type":"Feature","geometry":{"type":"Point","coordinates":[-71.55117,42.105168]}},{"properties":{"cost":"$119","municipality":"MERRIMAC","id":"a691ljjmmc5b","lat":42.833174,"state":"Massachusetts","long":-71.001948},"type":"Feature","geometry":{"type":"Point","coordinates":[-71.001948,42.833174]}},{"properties":{"cost":"$174","municipality":"METHUEN","id":"a691lj8kalkn","lat":42.73011,"state":"Massachusetts","long":-71.183679},"type":"Feature","geometry":{"type":"Point","coordinates":[-71.183679,42.73011]}},{"properties":{"cost":"$175","municipality":"MIDDLEBOROUGH","id":"a691ljj7rdna","lat":41.89442,"state":"Massachusetts","long":-70.906864},"type":"Feature","geometry":{"type":"Point","coordinates":[-70.906864,41.89442]}},{"properties":{"cost":"$18","municipality":"MIDDLEFIELD","id":"a691lj42n5wc","lat":42.344959,"state":"Massachusetts","long":-73.010932},"type":"Feature","geometry":{"type":"Point","coordinates":[-73.010932,42.344959]}},{"properties":{"cost":"$104","municipality":"MIDDLETON","id":"a691ljg1dbo7","lat":42.59191,"state":"Massachusetts","long":-71.014034},"type":"Feature","geometry":{"type":"Point","coordinates":[-71.014034,42.59191]}},{"properties":{"cost":"$145","municipality":"MILFORD","id":"a691ljiv9dls","lat":42.142995,"state":"Massachusetts","long":-71.516544},"type":"Feature","geometry":{"type":"Point","coordinates":[-71.516544,42.142995]}},{"properties":{"cost":"$126","municipality":"MILLBURY","id":"a691ljc4n2i0","lat":42.18923,"state":"Massachusetts","long":-71.762188},"type":"Feature","geometry":{"type":"Point","coordinates":[-71.762188,42.18923]}},{"properties":{"cost":"$160","municipality":"MILLIS","id":"a691ljjx0qpe","lat":42.16734,"state":"Massachusetts","long":-71.357514},"type":"Feature","geometry":{"type":"Point","coordinates":[-71.357514,42.16734]}},{"properties":{"cost":"$144","municipality":"MILLVILLE","id":"a691ljdx9o64","lat":42.02711,"state":"Massachusetts","long":-71.580719},"type":"Feature","geometry":{"type":"Point","coordinates":[-71.580719,42.02711]}},{"properties":{"cost":"$217","municipality":"MILTON","id":"a691lja1pcx2","lat":42.253485,"state":"Massachusetts","long":-71.079157},"type":"Feature","geometry":{"type":"Point","coordinates":[-71.079157,42.253485]}},{"properties":{"cost":"$-","municipality":"MONROE","id":"a691ljaj6vbq","lat":42.722267,"state":"Massachusetts","long":-72.941326},"type":"Feature","geometry":{"type":"Point","coordinates":[-72.941326,42.722267]}},{"properties":{"cost":"$107","municipality":"MONSON","id":"a691lji0j8z9","lat":42.098955,"state":"Massachusetts","long":-72.315099},"type":"Feature","geometry":{"type":"Point","coordinates":[-72.315099,42.098955]}},{"properties":{"cost":"$143","municipality":"MONTAGUE","id":"a691ljglsvqf","lat":42.53281,"state":"Massachusetts","long":-72.531929},"type":"Feature","geometry":{"type":"Point","coordinates":[-72.531929,42.53281]}},{"properties":{"cost":"$146","municipality":"MONTEREY","id":"a691ljholbtw","lat":42.179452,"state":"Massachusetts","long":-73.213078},"type":"Feature","geometry":{"type":"Point","coordinates":[-73.213078,42.179452]}},{"properties":{"cost":"$2","municipality":"MONTGOMERY","id":"a691lj7fr9w6","lat":42.222614,"state":"Massachusetts","long":-72.824772},"type":"Feature","geometry":{"type":"Point","coordinates":[-72.824772,42.222614]}},{"properties":{"cost":"$13","municipality":"MOUNT WASHINGTON","id":"a691ljc55dgk","lat":42.2429,"state":"Massachusetts","long":-73.055649},"type":"Feature","geometry":{"type":"Point","coordinates":[-73.055649,42.2429]}},{"properties":{"cost":"$284","municipality":"NAHANT","id":"a691ljc6ood0","lat":42.424209,"state":"Massachusetts","long":-70.914507},"type":"Feature","geometry":{"type":"Point","coordinates":[-70.914507,42.424209]}},{"properties":{"cost":"$359","municipality":"NANTUCKET","id":"a691lj8mrp00","lat":41.285215,"state":"Massachusetts","long":-70.099329},"type":"Feature","geometry":{"type":"Point","coordinates":[-70.099329,41.285215]}},{"properties":{"cost":"$155","municipality":"NATICK","id":"a691ljaio3ni","lat":42.28399,"state":"Massachusetts","long":-71.346174},"type":"Feature","geometry":{"type":"Point","coordinates":[-71.346174,42.28399]}},{"properties":{"cost":"$148","municipality":"NEEDHAM","id":"a691ljgoz0i0","lat":42.28107,"state":"Massachusetts","long":-71.236054},"type":"Feature","geometry":{"type":"Point","coordinates":[-71.236054,42.28107]}},{"properties":{"cost":"$-","municipality":"NEW ASHFORD","id":"a691lj5qteqh","lat":42.604072,"state":"Massachusetts","long":-73.242411},"type":"Feature","geometry":{"type":"Point","coordinates":[-73.242411,42.604072]}},{"properties":{"cost":"$239","municipality":"NEW BEDFORD","id":"a691ljfmwqt4","lat":41.637655,"state":"Massachusetts","long":-70.930864},"type":"Feature","geometry":{"type":"Point","coordinates":[-70.930864,41.637655]}},{"properties":{"cost":"$76","municipality":"NEW BRAINTREE","id":"a691ljhrjntp","lat":42.31797,"state":"Massachusetts","long":-72.121924},"type":"Feature","geometry":{"type":"Point","coordinates":[-72.121924,42.31797]}},{"properties":{"cost":"$23","municipality":"NEW MARLBOROUGH","id":"a691lj83qf3u","lat":42.344792,"state":"Massachusetts","long":-71.552841},"type":"Feature","geometry":{"type":"Point","coordinates":[-71.552841,42.344792]}},{"properties":{"cost":"$62","municipality":"NEW SALEM","id":"a691lj5h0m4r","lat":42.501676,"state":"Massachusetts","long":-72.331924},"type":"Feature","geometry":{"type":"Point","coordinates":[-72.331924,42.501676]}},{"properties":{"cost":"$162","municipality":"NEWBURY","id":"a691lj853ob3","lat":42.797515,"state":"Massachusetts","long":-70.861404},"type":"Feature","geometry":{"type":"Point","coordinates":[-70.861404,42.797515]}},{"properties":{"cost":"$166","municipality":"NEWBURYPORT","id":"a691lj7ry9bc","lat":42.811978,"state":"Massachusetts","long":-70.872638},"type":"Feature","geometry":{"type":"Point","coordinates":[-70.872638,42.811978]}},{"properties":{"cost":"$167","municipality":"NEWTON","id":"a691lj7d7mog","lat":42.338495,"state":"Massachusetts","long":-71.207074},"type":"Feature","geometry":{"type":"Point","coordinates":[-71.207074,42.338495]}},{"properties":{"cost":"$143","municipality":"NORFOLK","id":"a691lj7vc4wn","lat":42.120647,"state":"Massachusetts","long":-71.318797},"type":"Feature","geometry":{"type":"Point","coordinates":[-71.318797,42.120647]}},{"properties":{"cost":"$110","municipality":"NORTH ADAMS","id":"a691lj5ptmsy","lat":42.699847,"state":"Massachusetts","long":-73.114942},"type":"Feature","geometry":{"type":"Point","coordinates":[-73.114942,42.699847]}},{"properties":{"cost":"$146","municipality":"NORTH ANDOVER","id":"a691ljiq3cki","lat":42.703095,"state":"Massachusetts","long":-71.13124},"type":"Feature","geometry":{"type":"Point","coordinates":[-71.13124,42.703095]}},{"properties":{"cost":"$153","municipality":"NORTH ATTLEBOROUGH","id":"a691lja1bshm","lat":41.980382,"state":"Massachusetts","long":-71.333104},"type":"Feature","geometry":{"type":"Point","coordinates":[-71.333104,41.980382]}},{"properties":{"cost":"$84","municipality":"NORTH BROOKFIELD","id":"a691ljin9w3p","lat":42.269175,"state":"Massachusetts","long":-72.085219},"type":"Feature","geometry":{"type":"Point","coordinates":[-72.085219,42.269175]}},{"properties":{"cost":"$216","municipality":"NORTH READING","id":"a691lj4tgu31","lat":42.587215,"state":"Massachusetts","long":-71.118704},"type":"Feature","geometry":{"type":"Point","coordinates":[-71.118704,42.587215]}},{"properties":{"cost":"$146","municipality":"NORTHAMPTON","id":"a691ljagph7v","lat":42.317816,"state":"Massachusetts","long":-72.632384},"type":"Feature","geometry":{"type":"Point","coordinates":[-72.632384,42.317816]}},{"properties":{"cost":"$134","municipality":"NORTHBOROUGH","id":"a691ljh8gtnt","lat":42.320218,"state":"Massachusetts","long":-71.63702},"type":"Feature","geometry":{"type":"Point","coordinates":[-71.63702,42.320218]}},{"properties":{"cost":"$128","municipality":"NORTHBRIDGE","id":"a691lj72gi0d","lat":42.15307,"state":"Massachusetts","long":-71.650742},"type":"Feature","geometry":{"type":"Point","coordinates":[-71.650742,42.15307]}},{"properties":{"cost":"$63","municipality":"NORTHFIELD","id":"a691ljguuacl","lat":42.691968,"state":"Massachusetts","long":-72.457333},"type":"Feature","geometry":{"type":"Point","coordinates":[-72.457333,42.691968]}},{"properties":{"cost":"$117","municipality":"NORTON","id":"a691lj9szr5e","lat":41.971419,"state":"Massachusetts","long":-71.178569},"type":"Feature","geometry":{"type":"Point","coordinates":[-71.178569,41.971419]}},{"properties":{"cost":"$174","municipality":"NORWELL","id":"a691ljfiekhs","lat":42.157589,"state":"Massachusetts","long":-70.820149},"type":"Feature","geometry":{"type":"Point","coordinates":[-70.820149,42.157589]}},{"properties":{"cost":"$194","municipality":"NORWOOD","id":"a691lj7gi24q","lat":42.19562,"state":"Massachusetts","long":-71.199909},"type":"Feature","geometry":{"type":"Point","coordinates":[-71.199909,42.19562]}},{"properties":{"cost":"$419","municipality":"OAK BLUFFS","id":"a691ljbho0bs","lat":41.457815,"state":"Massachusetts","long":-70.556249},"type":"Feature","geometry":{"type":"Point","coordinates":[-70.556249,41.457815]}},{"properties":{"cost":"$101","municipality":"OAKHAM","id":"a691lj6r6g6g","lat":42.353788,"state":"Massachusetts","long":-72.042794},"type":"Feature","geometry":{"type":"Point","coordinates":[-72.042794,42.353788]}},{"properties":{"cost":"$118","municipality":"ORANGE","id":"a691ljaok72x","lat":42.59157,"state":"Massachusetts","long":-72.310082},"type":"Feature","geometry":{"type":"Point","coordinates":[-72.310082,42.59157]}},{"properties":{"cost":"$340","municipality":"ORLEANS","id":"a691ljjwa7ix","lat":41.782147,"state":"Massachusetts","long":-69.977562},"type":"Feature","geometry":{"type":"Point","coordinates":[-69.977562,41.782147]}},{"properties":{"cost":"$42","municipality":"OTIS","id":"a691ljc0o0bp","lat":42.191191,"state":"Massachusetts","long":-73.091452},"type":"Feature","geometry":{"type":"Point","coordinates":[-73.091452,42.191191]}},{"properties":{"cost":"$115","municipality":"OXFORD","id":"a691ljdopgxv","lat":42.1176,"state":"Massachusetts","long":-71.864679},"type":"Feature","geometry":{"type":"Point","coordinates":[-71.864679,42.1176]}},{"properties":{"cost":"$124","municipality":"PALMER","id":"a691ljdre5da","lat":42.18495,"state":"Massachusetts","long":-72.347921},"type":"Feature","geometry":{"type":"Point","coordinates":[-72.347921,42.18495]}},{"properties":{"cost":"$141","municipality":"PAXTON","id":"a691lj4ut6a9","lat":42.311375,"state":"Massachusetts","long":-71.927854},"type":"Feature","geometry":{"type":"Point","coordinates":[-71.927854,42.311375]}},{"properties":{"cost":"$170","municipality":"PEABODY","id":"a691lj4dik42","lat":42.52636,"state":"Massachusetts","long":-70.928509},"type":"Feature","geometry":{"type":"Point","coordinates":[-70.928509,42.52636]}},{"properties":{"cost":"$100","municipality":"PELHAM","id":"a691lj3vipe7","lat":42.391071,"state":"Massachusetts","long":-72.411889},"type":"Feature","geometry":{"type":"Point","coordinates":[-72.411889,42.391071]}},{"properties":{"cost":"$132","municipality":"PEMBROKE","id":"a691lj7ics7f","lat":42.071302,"state":"Massachusetts","long":-70.809619},"type":"Feature","geometry":{"type":"Point","coordinates":[-70.809619,42.071302]}},{"properties":{"cost":"$133","municipality":"PEPPERELL","id":"a691ljim2sp4","lat":42.667414,"state":"Massachusetts","long":-71.5948},"type":"Feature","geometry":{"type":"Point","coordinates":[-71.5948,42.667414]}},{"properties":{"cost":"$63","municipality":"PERU","id":"a691ljfa2wj1","lat":42.437635,"state":"Massachusetts","long":-73.044679},"type":"Feature","geometry":{"type":"Point","coordinates":[-73.044679,42.437635]}},{"properties":{"cost":"$111","municipality":"PETERSHAM","id":"a691lj5jrnvx","lat":42.48793,"state":"Massachusetts","long":-72.186298},"type":"Feature","geometry":{"type":"Point","coordinates":[-72.186298,42.48793]}},{"properties":{"cost":"$90","municipality":"PHILLIPSTON","id":"a691lj3pnyfv","lat":42.549064,"state":"Massachusetts","long":-72.13239},"type":"Feature","geometry":{"type":"Point","coordinates":[-72.13239,42.549064]}},{"properties":{"cost":"$152","municipality":"PITTSFIELD","id":"a691lj4c02g1","lat":42.447408,"state":"Massachusetts","long":-73.254221},"type":"Feature","geometry":{"type":"Point","coordinates":[-73.254221,42.447408]}},{"properties":{"cost":"$13","municipality":"PLAINFIELD","id":"a691ljh8ntw1","lat":42.516173,"state":"Massachusetts","long":-72.914102},"type":"Feature","geometry":{"type":"Point","coordinates":[-72.914102,42.516173]}},{"properties":{"cost":"$150","municipality":"PLAINVILLE","id":"a691ljhtpq5w","lat":42.00634,"state":"Massachusetts","long":-71.336914},"type":"Feature","geometry":{"type":"Point","coordinates":[-71.336914,42.00634]}},{"properties":{"cost":"$146","municipality":"PLYMOUTH","id":"a691lj849izg","lat":41.953995,"state":"Massachusetts","long":-70.658899},"type":"Feature","geometry":{"type":"Point","coordinates":[-70.658899,41.953995]}},{"properties":{"cost":"$167","municipality":"PLYMPTON","id":"a691lj6hda9s","lat":41.959274,"state":"Massachusetts","long":-70.82355},"type":"Feature","geometry":{"type":"Point","coordinates":[-70.82355,41.959274]}},{"properties":{"cost":"$170","municipality":"PRINCETON","id":"a691ljai9z7e","lat":42.449603,"state":"Massachusetts","long":-71.878624},"type":"Feature","geometry":{"type":"Point","coordinates":[-71.878624,42.449603]}},{"properties":{"cost":"$583","municipality":"PROVINCETOWN","id":"a691lj5u367n","lat":42.051427,"state":"Massachusetts","long":-70.187942},"type":"Feature","geometry":{"type":"Point","coordinates":[-70.187942,42.051427]}},{"properties":{"cost":"$216","municipality":"QUINCY","id":"a691lj69b77l","lat":42.252285,"state":"Massachusetts","long":-71.004164},"type":"Feature","geometry":{"type":"Point","coordinates":[-71.004164,42.252285]}},{"properties":{"cost":"$153","municipality":"RANDOLPH","id":"a691lj5vzvpn","lat":42.16268,"state":"Massachusetts","long":-71.041399},"type":"Feature","geometry":{"type":"Point","coordinates":[-71.041399,42.16268]}},{"properties":{"cost":"$270","municipality":"RAYNHAM","id":"a691ljbd8mlm","lat":41.922798,"state":"Massachusetts","long":-71.051368},"type":"Feature","geometry":{"type":"Point","coordinates":[-71.051368,41.922798]}},{"properties":{"cost":"$150","municipality":"READING","id":"a691ljiilq92","lat":42.526002,"state":"Massachusetts","long":-71.103957},"type":"Feature","geometry":{"type":"Point","coordinates":[-71.103957,42.526002]}},{"properties":{"cost":"$160","municipality":"REHOBOTH","id":"a691ljdwug66","lat":41.887734,"state":"Massachusetts","long":-71.199608},"type":"Feature","geometry":{"type":"Point","coordinates":[-71.199608,41.887734]}},{"properties":{"cost":"$154","municipality":"REVERE","id":"a691ljcbj0zu","lat":42.40807,"state":"Massachusetts","long":-71.013589},"type":"Feature","geometry":{"type":"Point","coordinates":[-71.013589,42.40807]}},{"properties":{"cost":"$3","municipality":"RICHMOND","id":"a691ljfnhd8y","lat":42.39043,"state":"Massachusetts","long":-73.367299},"type":"Feature","geometry":{"type":"Point","coordinates":[-73.367299,42.39043]}},{"properties":{"cost":"$150","municipality":"ROCHESTER","id":"a691lj9xogb6","lat":41.731641,"state":"Massachusetts","long":-70.821768},"type":"Feature","geometry":{"type":"Point","coordinates":[-70.821768,41.731641]}},{"properties":{"cost":"$168","municipality":"ROCKLAND","id":"a691lj4gk64j","lat":42.128985,"state":"Massachusetts","long":-70.915274},"type":"Feature","geometry":{"type":"Point","coordinates":[-70.915274,42.128985]}},{"properties":{"cost":"$178","municipality":"ROCKPORT","id":"a691ljba9c1v","lat":42.656775,"state":"Massachusetts","long":-70.618899},"type":"Feature","geometry":{"type":"Point","coordinates":[-70.618899,42.656775]}},{"properties":{"cost":"$71","municipality":"ROWE","id":"a691lje3nu1o","lat":42.693966,"state":"Massachusetts","long":-72.89919},"type":"Feature","geometry":{"type":"Point","coordinates":[-72.89919,42.693966]}},{"properties":{"cost":"$226","municipality":"ROWLEY","id":"a691lji6qcp4","lat":42.715295,"state":"Massachusetts","long":-70.879734},"type":"Feature","geometry":{"type":"Point","coordinates":[-70.879734,42.715295]}},{"properties":{"cost":"$49","municipality":"ROYALSTON","id":"a691lj67jz26","lat":42.693451,"state":"Massachusetts","long":-72.244112},"type":"Feature","geometry":{"type":"Point","coordinates":[-72.244112,42.693451]}},{"properties":{"cost":"$11","municipality":"RUSSELL","id":"a691ljip6kst","lat":42.18971,"state":"Massachusetts","long":-72.857519},"type":"Feature","geometry":{"type":"Point","coordinates":[-72.857519,42.18971]}},{"properties":{"cost":"$70","municipality":"RUTLAND","id":"a691ljedawv7","lat":42.37664,"state":"Massachusetts","long":-71.954184},"type":"Feature","geometry":{"type":"Point","coordinates":[-71.954184,42.37664]}},{"properties":{"cost":"$171","municipality":"SALEM","id":"a691lj4t4npq","lat":42.5224,"state":"Massachusetts","long":-70.895809},"type":"Feature","geometry":{"type":"Point","coordinates":[-70.895809,42.5224]}},{"properties":{"cost":"$243","municipality":"SALISBURY","id":"a691ljiivnr8","lat":42.841705,"state":"Massachusetts","long":-70.859757},"type":"Feature","geometry":{"type":"Point","coordinates":[-70.859757,42.841705]}},{"properties":{"cost":"$43","municipality":"SANDISFIELD","id":"a691ljclzopq","lat":42.104028,"state":"Massachusetts","long":-73.104346},"type":"Feature","geometry":{"type":"Point","coordinates":[-73.104346,42.104028]}},{"properties":{"cost":"$135","municipality":"SANDWICH","id":"a691lji26cdi","lat":41.758265,"state":"Massachusetts","long":-70.500534},"type":"Feature","geometry":{"type":"Point","coordinates":[-70.500534,41.758265]}},{"properties":{"cost":"$186","municipality":"SAUGUS","id":"a691lj9zblfv","lat":42.46532,"state":"Massachusetts","long":-71.009705},"type":"Feature","geometry":{"type":"Point","coordinates":[-71.009705,42.46532]}},{"properties":{"cost":"$7","municipality":"SAVOY","id":"a691lj4zc1yq","lat":42.565309,"state":"Massachusetts","long":-73.026276},"type":"Feature","geometry":{"type":"Point","coordinates":[-73.026276,42.565309]}},{"properties":{"cost":"$160","municipality":"SCITUATE","id":"a691ljdt1r2m","lat":42.20031,"state":"Massachusetts","long":-70.772669},"type":"Feature","geometry":{"type":"Point","coordinates":[-70.772669,42.20031]}},{"properties":{"cost":"$170","municipality":"SEEKONK","id":"a691lj3v57wm","lat":41.829792,"state":"Massachusetts","long":-71.325196},"type":"Feature","geometry":{"type":"Point","coordinates":[-71.325196,41.829792]}},{"properties":{"cost":"$152","municipality":"SHARON","id":"a691lj4r61na","lat":42.120595,"state":"Massachusetts","long":-71.180779},"type":"Feature","geometry":{"type":"Point","coordinates":[-71.180779,42.120595]}},{"properties":{"cost":"$116","municipality":"SHEFFIELD","id":"a691lj3yxbty","lat":42.11095,"state":"Massachusetts","long":-73.353714},"type":"Feature","geometry":{"type":"Point","coordinates":[-73.353714,42.11095]}},{"properties":{"cost":"$63","municipality":"SHELBURNE","id":"a691ljbf8v8k","lat":42.60361,"state":"Massachusetts","long":-72.738339},"type":"Feature","geometry":{"type":"Point","coordinates":[-72.738339,42.60361]}},{"properties":{"cost":"$257","municipality":"SHERBORN","id":"a691ljduc8fy","lat":42.240191,"state":"Massachusetts","long":-71.371607},"type":"Feature","geometry":{"type":"Point","coordinates":[-71.371607,42.240191]}},{"properties":{"cost":"$118","municipality":"SHIRLEY","id":"a691ljdbwowf","lat":42.545578,"state":"Massachusetts","long":-71.641241},"type":"Feature","geometry":{"type":"Point","coordinates":[-71.641241,42.545578]}},{"properties":{"cost":"$118","municipality":"SHREWSBURY","id":"a691ljhl01ep","lat":42.290475,"state":"Massachusetts","long":-71.721989},"type":"Feature","geometry":{"type":"Point","coordinates":[-71.721989,42.290475]}},{"properties":{"cost":"$85","municipality":"SHUTESBURY","id":"a691ljc5msas","lat":42.452648,"state":"Massachusetts","long":-72.405754},"type":"Feature","geometry":{"type":"Point","coordinates":[-72.405754,42.452648]}},{"properties":{"cost":"$114","municipality":"SOMERSET","id":"a691ljdw1c49","lat":41.751385,"state":"Massachusetts","long":-71.141459},"type":"Feature","geometry":{"type":"Point","coordinates":[-71.141459,41.751385]}},{"properties":{"cost":"$145","municipality":"SOMERVILLE","id":"a691lj7z34x4","lat":42.386675,"state":"Massachusetts","long":-71.098264},"type":"Feature","geometry":{"type":"Point","coordinates":[-71.098264,42.386675]}},{"properties":{"cost":"$128","municipality":"SOUTH HADLEY","id":"a691ljc6mou9","lat":42.214645,"state":"Massachusetts","long":-72.593779},"type":"Feature","geometry":{"type":"Point","coordinates":[-72.593779,42.214645]}},{"properties":{"cost":"$94","municipality":"SOUTHAMPTON","id":"a691ljiep9d7","lat":42.228585,"state":"Massachusetts","long":-72.727961},"type":"Feature","geometry":{"type":"Point","coordinates":[-72.727961,42.228585]}},{"properties":{"cost":"$148","municipality":"SOUTHBOROUGH","id":"a691lj7h1851","lat":42.305764,"state":"Massachusetts","long":-71.531945},"type":"Feature","geometry":{"type":"Point","coordinates":[-71.531945,42.305764]}},{"properties":{"cost":"$161","municipality":"SOUTHBRIDGE","id":"a691ljev9tcs","lat":42.074025,"state":"Massachusetts","long":-72.034399},"type":"Feature","geometry":{"type":"Point","coordinates":[-72.034399,42.074025]}},{"properties":{"cost":"$136","municipality":"SOUTHWICK","id":"a691ljibkt1f","lat":42.053629,"state":"Massachusetts","long":-72.77157},"type":"Feature","geometry":{"type":"Point","coordinates":[-72.77157,42.053629]}},{"properties":{"cost":"$123","municipality":"SPENCER","id":"a691ljb7wmin","lat":42.243873,"state":"Massachusetts","long":-71.992952},"type":"Feature","geometry":{"type":"Point","coordinates":[-71.992952,42.243873]}},{"properties":{"cost":"$235","municipality":"SPRINGFIELD","id":"a691ljac7j0g","lat":42.10122,"state":"Massachusetts","long":-72.589264},"type":"Feature","geometry":{"type":"Point","coordinates":[-72.589264,42.10122]}},{"properties":{"cost":"$131","municipality":"STERLING","id":"a691ljchbysw","lat":42.437521,"state":"Massachusetts","long":-71.760468},"type":"Feature","geometry":{"type":"Point","coordinates":[-71.760468,42.437521]}},{"properties":{"cost":"$211","municipality":"STOCKBRIDGE","id":"a691lj4s7z1n","lat":42.283803,"state":"Massachusetts","long":-73.319012},"type":"Feature","geometry":{"type":"Point","coordinates":[-73.319012,42.283803]}},{"properties":{"cost":"$150","municipality":"STONEHAM","id":"a691ljis2r45","lat":42.48027,"state":"Massachusetts","long":-71.099134},"type":"Feature","geometry":{"type":"Point","coordinates":[-71.099134,42.48027]}},{"properties":{"cost":"$171","municipality":"STOUGHTON","id":"a691lj676fd7","lat":42.12598,"state":"Massachusetts","long":-71.102135},"type":"Feature","geometry":{"type":"Point","coordinates":[-71.102135,42.12598]}},{"properties":{"cost":"$177","municipality":"STOW","id":"a691ljf3efvu","lat":42.436645,"state":"Massachusetts","long":-71.505889},"type":"Feature","geometry":{"type":"Point","coordinates":[-71.505889,42.436645]}},{"properties":{"cost":"$165","municipality":"STURBRIDGE","id":"a691lj52pz2k","lat":42.109278,"state":"Massachusetts","long":-72.082027},"type":"Feature","geometry":{"type":"Point","coordinates":[-72.082027,42.109278]}},{"properties":{"cost":"$140","municipality":"SUDBURY","id":"a691lj4o2wby","lat":42.384211,"state":"Massachusetts","long":-71.409633},"type":"Feature","geometry":{"type":"Point","coordinates":[-71.409633,42.384211]}},{"properties":{"cost":"$98","municipality":"SUNDERLAND","id":"a691lj7g2tfy","lat":42.467161,"state":"Massachusetts","long":-72.581026},"type":"Feature","geometry":{"type":"Point","coordinates":[-72.581026,42.467161]}},{"properties":{"cost":"$149","municipality":"SUTTON","id":"a691ljawxhx1","lat":42.14979,"state":"Massachusetts","long":-71.762434},"type":"Feature","geometry":{"type":"Point","coordinates":[-71.762434,42.14979]}},{"properties":{"cost":"$204","municipality":"SWAMPSCOTT","id":"a691ljcgyeid","lat":42.469133,"state":"Massachusetts","long":-70.918826},"type":"Feature","geometry":{"type":"Point","coordinates":[-70.918826,42.469133]}},{"properties":{"cost":"$151","municipality":"SWANSEA","id":"a691ljhhwlvg","lat":41.74945,"state":"Massachusetts","long":-71.192893},"type":"Feature","geometry":{"type":"Point","coordinates":[-71.192893,41.74945]}},{"properties":{"cost":"$185","municipality":"TAUNTON","id":"a691ljhkk1ia","lat":41.900915,"state":"Massachusetts","long":-71.088779},"type":"Feature","geometry":{"type":"Point","coordinates":[-71.088779,41.900915]}},{"properties":{"cost":"$82","municipality":"TEMPLETON","id":"a691lj8qicsy","lat":42.561384,"state":"Massachusetts","long":-72.037009},"type":"Feature","geometry":{"type":"Point","coordinates":[-72.037009,42.561384]}},{"properties":{"cost":"$185","municipality":"TEWKSBURY","id":"a691ljbcmly4","lat":42.611405,"state":"Massachusetts","long":-71.232424},"type":"Feature","geometry":{"type":"Point","coordinates":[-71.232424,42.611405]}},{"properties":{"cost":"$320","municipality":"TISBURY","id":"a691ljf0ajbs","lat":41.454285,"state":"Massachusetts","long":-70.601219},"type":"Feature","geometry":{"type":"Point","coordinates":[-70.601219,41.454285]}},{"properties":{"cost":"$41","municipality":"TOLLAND","id":"a691lj9vry39","lat":42.079629,"state":"Massachusetts","long":-72.986282},"type":"Feature","geometry":{"type":"Point","coordinates":[-72.986282,42.079629]}},{"properties":{"cost":"$203","municipality":"TOPSFIELD","id":"a691ljb00rt3","lat":42.64189,"state":"Massachusetts","long":-70.950749},"type":"Feature","geometry":{"type":"Point","coordinates":[-70.950749,42.64189]}},{"properties":{"cost":"$137","municipality":"TOWNSEND","id":"a691lja83258","lat":42.6676,"state":"Massachusetts","long":-71.707179},"type":"Feature","geometry":{"type":"Point","coordinates":[-71.707179,42.6676]}},{"properties":{"cost":"$603","municipality":"TRURO","id":"a691ljaw1jlb","lat":41.99886,"state":"Massachusetts","long":-70.055637},"type":"Feature","geometry":{"type":"Point","coordinates":[-70.055637,41.99886]}},{"properties":{"cost":"$178","municipality":"TYNGSBOROUGH","id":"a691ljgngir2","lat":42.676652,"state":"Massachusetts","long":-71.425607},"type":"Feature","geometry":{"type":"Point","coordinates":[-71.425607,42.676652]}},{"properties":{"cost":"$126","municipality":"TYRINGHAM","id":"a691ljb6q1il","lat":42.246958,"state":"Massachusetts","long":-73.205088},"type":"Feature","geometry":{"type":"Point","coordinates":[-73.205088,42.246958]}},{"properties":{"cost":"$205","municipality":"UPTON","id":"a691ljjfzmr2","lat":42.173595,"state":"Massachusetts","long":-71.603302},"type":"Feature","geometry":{"type":"Point","coordinates":[-71.603302,42.173595]}},{"properties":{"cost":"$113","municipality":"UXBRIDGE","id":"a691ljgf2ntz","lat":42.075547,"state":"Massachusetts","long":-71.628707},"type":"Feature","geometry":{"type":"Point","coordinates":[-71.628707,42.075547]}},{"properties":{"cost":"$148","municipality":"WAKEFIELD","id":"a691lj6t008l","lat":42.5064,"state":"Massachusetts","long":-71.072399},"type":"Feature","geometry":{"type":"Point","coordinates":[-71.072399,42.5064]}},{"properties":{"cost":"$17","municipality":"WALES","id":"a691ljhktgno","lat":42.074342,"state":"Massachusetts","long":-72.223791},"type":"Feature","geometry":{"type":"Point","coordinates":[-72.223791,42.074342]}},{"properties":{"cost":"$156","municipality":"WALPOLE","id":"a691ljhk6l4v","lat":42.146253,"state":"Massachusetts","long":-71.249131},"type":"Feature","geometry":{"type":"Point","coordinates":[-71.249131,42.146253]}},{"properties":{"cost":"$205","municipality":"WALTHAM","id":"a691ljaftd6f","lat":42.37644,"state":"Massachusetts","long":-71.235324},"type":"Feature","geometry":{"type":"Point","coordinates":[-71.235324,42.37644]}},{"properties":{"cost":"$152","municipality":"WARE","id":"a691ljav7g18","lat":42.26048,"state":"Massachusetts","long":-72.241889},"type":"Feature","geometry":{"type":"Point","coordinates":[-72.241889,42.26048]}},{"properties":{"cost":"$218","municipality":"WAREHAM","id":"a691lj4d9afb","lat":41.759865,"state":"Massachusetts","long":-70.723729},"type":"Feature","geometry":{"type":"Point","coordinates":[-70.723729,41.759865]}},{"properties":{"cost":"$106","municipality":"WARREN","id":"a691ljjfk36z","lat":42.211215,"state":"Massachusetts","long":-72.198779},"type":"Feature","geometry":{"type":"Point","coordinates":[-72.198779,42.211215]}},{"properties":{"cost":"$23","municipality":"WARWICK","id":"a691ljg38rle","lat":42.682122,"state":"Massachusetts","long":-72.338085},"type":"Feature","geometry":{"type":"Point","coordinates":[-72.338085,42.682122]}},{"properties":{"cost":"$6","municipality":"WASHINGTON","id":"a691lj4bvtud","lat":42.373881,"state":"Massachusetts","long":-73.113882},"type":"Feature","geometry":{"type":"Point","coordinates":[-73.113882,42.373881]}},{"properties":{"cost":"$198","municipality":"WATERTOWN","id":"a691lje4i9e0","lat":42.367615,"state":"Massachusetts","long":-71.187879},"type":"Feature","geometry":{"type":"Point","coordinates":[-71.187879,42.367615]}},{"properties":{"cost":"$175","municipality":"WAYLAND","id":"a691lj4hym2k","lat":42.3632,"state":"Massachusetts","long":-71.360354},"type":"Feature","geometry":{"type":"Point","coordinates":[-71.360354,42.3632]}},{"properties":{"cost":"$119","municipality":"WEBSTER","id":"a691lj5yo3eu","lat":42.049743,"state":"Massachusetts","long":-71.880971},"type":"Feature","geometry":{"type":"Point","coordinates":[-71.880971,42.049743]}},{"properties":{"cost":"$174","municipality":"WELLESLEY","id":"a691lj7qobu6","lat":42.29776,"state":"Massachusetts","long":-71.289744},"type":"Feature","geometry":{"type":"Point","coordinates":[-71.289744,42.29776]}},{"properties":{"cost":"$506","municipality":"WELLFLEET","id":"a691ljfzjq0w","lat":41.93864,"state":"Massachusetts","long":-70.03209},"type":"Feature","geometry":{"type":"Point","coordinates":[-70.03209,41.93864]}},{"properties":{"cost":"$17","municipality":"WENDELL","id":"a691ljiy69ef","lat":42.548245,"state":"Massachusetts","long":-72.394834},"type":"Feature","geometry":{"type":"Point","coordinates":[-72.394834,42.548245]}},{"properties":{"cost":"$203","municipality":"WENHAM","id":"a691ljdcxnkq","lat":42.604595,"state":"Massachusetts","long":-70.887134},"type":"Feature","geometry":{"type":"Point","coordinates":[-70.887134,42.604595]}},{"properties":{"cost":"$120","municipality":"WEST BOYLSTON","id":"a691ljeodw87","lat":42.38689,"state":"Massachusetts","long":-71.779094},"type":"Feature","geometry":{"type":"Point","coordinates":[-71.779094,42.38689]}},{"properties":{"cost":"$272","municipality":"WEST BRIDGEWATER","id":"a691lj90407g","lat":42.02095,"state":"Massachusetts","long":-71.008869},"type":"Feature","geometry":{"type":"Point","coordinates":[-71.008869,42.02095]}},{"properties":{"cost":"$109","municipality":"WEST BROOKFIELD","id":"a691ljea52kr","lat":42.23488,"state":"Massachusetts","long":-72.142139},"type":"Feature","geometry":{"type":"Point","coordinates":[-72.142139,42.23488]}},{"properties":{"cost":"$183","municipality":"WEST NEWBURY","id":"a691ljgbe4bc","lat":42.799217,"state":"Massachusetts","long":-70.992192},"type":"Feature","geometry":{"type":"Point","coordinates":[-70.992192,42.799217]}},{"properties":{"cost":"$222","municipality":"WEST SPRINGFIELD","id":"a691ljj9dx8z","lat":42.105568,"state":"Massachusetts","long":-72.623498},"type":"Feature","geometry":{"type":"Point","coordinates":[-72.623498,42.105568]}},{"properties":{"cost":"$94","municipality":"WEST STOCKBRIDGE","id":"a691lj45yr05","lat":42.334328,"state":"Massachusetts","long":-73.367245},"type":"Feature","geometry":{"type":"Point","coordinates":[-73.367245,42.334328]}},{"properties":{"cost":"$296","municipality":"WEST TISBURY","id":"a691lj5t0etn","lat":41.425891,"state":"Massachusetts","long":-70.646915},"type":"Feature","geometry":{"type":"Point","coordinates":[-70.646915,41.425891]}},{"properties":{"cost":"$126","municipality":"WESTBOROUGH","id":"a691ljg219j5","lat":42.268807,"state":"Massachusetts","long":-71.613866},"type":"Feature","geometry":{"type":"Point","coordinates":[-71.613866,42.268807]}},{"properties":{"cost":"$148","municipality":"WESTFIELD","id":"a691ljekwxyg","lat":42.120177,"state":"Massachusetts","long":-72.754675},"type":"Feature","geometry":{"type":"Point","coordinates":[-72.754675,42.120177]}},{"properties":{"cost":"$173","municipality":"WESTFORD","id":"a691lj6359ca","lat":42.582622,"state":"Massachusetts","long":-71.437077},"type":"Feature","geometry":{"type":"Point","coordinates":[-71.437077,42.582622]}},{"properties":{"cost":"$25","municipality":"WESTHAMPTON","id":"a691ljam41dt","lat":42.302737,"state":"Massachusetts","long":-72.774881},"type":"Feature","geometry":{"type":"Point","coordinates":[-72.774881,42.302737]}},{"properties":{"cost":"$189","municipality":"WESTMINSTER","id":"a691ljhdtoiu","lat":42.545785,"state":"Massachusetts","long":-71.911524},"type":"Feature","geometry":{"type":"Point","coordinates":[-71.911524,42.545785]}},{"properties":{"cost":"$239","municipality":"WESTON","id":"a691lj8mbq4r","lat":42.369023,"state":"Massachusetts","long":-71.298775},"type":"Feature","geometry":{"type":"Point","coordinates":[-71.298775,42.369023]}},{"properties":{"cost":"$161","municipality":"WESTPORT","id":"a691ljd06mog","lat":41.57942,"state":"Massachusetts","long":-71.089952},"type":"Feature","geometry":{"type":"Point","coordinates":[-71.089952,41.57942]}},{"properties":{"cost":"$201","municipality":"WESTWOOD","id":"a691lj3hsogt","lat":42.227195,"state":"Massachusetts","long":-71.221841},"type":"Feature","geometry":{"type":"Point","coordinates":[-71.221841,42.227195]}},{"properties":{"cost":"$179","municipality":"WEYMOUTH","id":"a691ljfjkxw1","lat":42.22217,"state":"Massachusetts","long":-70.938819},"type":"Feature","geometry":{"type":"Point","coordinates":[-70.938819,42.22217]}},{"properties":{"cost":"$67","municipality":"WHATELY","id":"a691ljevy65m","lat":42.441682,"state":"Massachusetts","long":-72.635168},"type":"Feature","geometry":{"type":"Point","coordinates":[-72.635168,42.441682]}},{"properties":{"cost":"$161","municipality":"WHITMAN","id":"a691lje1c9t2","lat":42.080824,"state":"Massachusetts","long":-70.935324},"type":"Feature","geometry":{"type":"Point","coordinates":[-70.935324,42.080824]}},{"properties":{"cost":"$135","municipality":"WILBRAHAM","id":"a691lj9g224m","lat":42.12122,"state":"Massachusetts","long":-72.450279},"type":"Feature","geometry":{"type":"Point","coordinates":[-72.450279,42.12122]}},{"properties":{"cost":"$63","municipality":"WILLIAMSBURG","id":"a691ljaeg6jm","lat":42.403917,"state":"Massachusetts","long":-72.749509},"type":"Feature","geometry":{"type":"Point","coordinates":[-72.749509,42.403917]}},{"properties":{"cost":"$124","municipality":"WILLIAMSTOWN","id":"a691ljehd6de","lat":42.714639,"state":"Massachusetts","long":-73.208782},"type":"Feature","geometry":{"type":"Point","coordinates":[-73.208782,42.714639]}},{"properties":{"cost":"$171","municipality":"WILMINGTON","id":"a691lj3pw2rg","lat":42.563953,"state":"Massachusetts","long":-71.181369},"type":"Feature","geometry":{"type":"Point","coordinates":[-71.181369,42.563953]}},{"properties":{"cost":"$93","municipality":"WINCHENDON","id":"a691ljir8i5f","lat":42.681243,"state":"Massachusetts","long":-72.049118},"type":"Feature","geometry":{"type":"Point","coordinates":[-72.049118,42.681243]}},{"properties":{"cost":"$168","municipality":"WINCHESTER","id":"a691ljbc7v4c","lat":42.45302,"state":"Massachusetts","long":-71.134961},"type":"Feature","geometry":{"type":"Point","coordinates":[-71.134961,42.45302]}},{"properties":{"cost":"$26","municipality":"WINDSOR","id":"a691lj9nw8rb","lat":42.51099,"state":"Massachusetts","long":-73.055874},"type":"Feature","geometry":{"type":"Point","coordinates":[-73.055874,42.51099]}},{"properties":{"cost":"$125","municipality":"WINTHROP","id":"a691ljb15u3u","lat":42.376845,"state":"Massachusetts","long":-70.984259},"type":"Feature","geometry":{"type":"Point","coordinates":[-70.984259,42.376845]}},{"properties":{"cost":"$209","municipality":"WOBURN","id":"a691ljdd7m18","lat":42.479195,"state":"Massachusetts","long":-71.150604},"type":"Feature","geometry":{"type":"Point","coordinates":[-71.150604,42.479195]}},{"properties":{"cost":"$222","municipality":"WORCESTER","id":"a691lj5yxkbb","lat":42.26299,"state":"Massachusetts","long":-71.802354},"type":"Feature","geometry":{"type":"Point","coordinates":[-71.802354,42.26299]}},{"properties":{"cost":"$17","municipality":"WORTHINGTON","id":"a691ljh13hx7","lat":42.4,"state":"Massachusetts","long":-72.937539},"type":"Feature","geometry":{"type":"Point","coordinates":[-72.937539,42.4]}},{"properties":{"cost":"$138","municipality":"WRENTHAM","id":"a691ljfejiyr","lat":42.0655,"state":"Massachusetts","long":-71.329514},"type":"Feature","geometry":{"type":"Point","coordinates":[-71.329514,42.0655]}},{"properties":{"cost":"$232","municipality":"YARMOUTH","id":"a691lja0uawg","lat":41.663318,"state":"Massachusetts","long":-70.198987},"type":"Feature","geometry":{"type":"Point","coordinates":[-70.198987,41.663318]}}],"is_temporal":false,"author":{"url":"","metadata":"","contact_name":"","contact_address":"","source":"","contact_phone":""},"source":"","pagination":{"sort":null,"start":0,"total":351,"limit":1000000},"state":"complete","tags":"cities,community,massachusetts,police","published":"2009-04-03T12:00:00Z","id":11524}