{"type":"FeatureCollection","data_type":"Dataset","url_type":null,"permissions":[{"permissions":{"download":true,"view":true},"group_id":"everyone"}],"classification":null,"title":"Senior Survey Spreadsheet V2","count":370,"stream_id":115590,"contributor":{"url":"http://geocommons.com/users/25562","name":"smeharbinger"},"data_attributes":null,"calculation_params":null,"icon_link":null,"link":"http://geocommons.com/overlays/115590.json","extent":[-170.833,-14.3217,-69.4331,58.2564],"geometry_types":["point"],"unique_name":null,"name":"Senior Survey Spreadsheet V2","feature_count":370,"description":"","next_feature":null,"is_raster":false,"short_classification":"Y","stats":{},"features":[{"properties":{"city":"Athens","column_10":null,"column_5":null,"column_11":null,"column_6":null,"column_12":null,"column_7":null,"geo_score":0.714,"column_13":null,"column_8":null,"column_14":null,"column_9":null,"column_15":null,"column_16":null,"column_17":null,"univesity":"University Georgia","id":"a68wou3iaawc","geo_precision":"city","student":"Olivia Harlan","state":"GA"},"type":"Feature","geometry":{"type":"Point","coordinates":[-93.976862,34.314552]}},{"properties":{"city":"Atlanta","column_10":null,"column_5":null,"column_11":null,"column_6":null,"column_12":null,"column_7":null,"geo_score":0.714,"column_13":null,"column_8":null,"column_14":null,"column_9":null,"column_15":null,"column_16":null,"column_17":null,"univesity":"Clark Atlanta University","id":"a68wou8h5ydy","geo_precision":"city","student":"Toyrena Harris","state":"GA"},"type":"Feature","geometry":{"type":"Point","coordinates":[-84.387982,33.748995]}},{"properties":{"city":"Austin","column_10":null,"column_5":"Cole Turner","column_11":null,"column_6":"Katy Westhoff","column_12":null,"column_7":null,"geo_score":0.714,"column_13":null,"column_8":null,"column_14":null,"column_9":null,"column_15":null,"column_16":null,"column_17":null,"univesity":"University of Texas","id":"a68wou5mioe9","geo_precision":"city","student":"Adam Isenberg","state":"TX"},"type":"Feature","geometry":{"type":"Point","coordinates":[-97.743061,30.267153]}},{"properties":{"city":"Baldwin","column_10":null,"column_5":"Elise Kuklenski","column_11":null,"column_6":null,"column_12":null,"column_7":null,"geo_score":0.714,"column_13":null,"column_8":null,"column_14":null,"column_9":null,"column_15":null,"column_16":null,"column_17":null,"univesity":"Baker University","id":"a68wou28csbq","geo_precision":"city","student":"Riley Hoffman","state":"KS"},"type":"Feature","geometry":{"type":"Point","coordinates":[-94.096869,36.048413]}},{"properties":{"city":"Bloomington","column_10":null,"column_5":null,"column_11":null,"column_6":null,"column_12":null,"column_7":null,"geo_score":0.667,"column_13":null,"column_8":null,"column_14":null,"column_9":null,"column_15":null,"column_16":null,"column_17":null,"univesity":"Indiana University","id":"a68wou6hfojq","geo_precision":"city","student":"Rachel Duvall","state":"IN"},"type":"Feature","geometry":{"type":"Point","coordinates":[-77.011365,38.916778]}},{"properties":{"city":"Boston","column_10":null,"column_5":"Tessa Wood","column_11":null,"column_6":null,"column_12":null,"column_7":null,"geo_score":0.714,"column_13":null,"column_8":null,"column_14":null,"column_9":null,"column_15":null,"column_16":null,"column_17":null,"univesity":"Tufts University","id":"a68wou5rtp6o","geo_precision":"city","student":"Brian Williamson","state":"MA"},"type":"Feature","geometry":{"type":"Point","coordinates":[-71.059773,42.358431]}},{"properties":{"city":"Boulder","column_10":null,"column_5":null,"column_11":null,"column_6":null,"column_12":null,"column_7":null,"geo_score":0.714,"column_13":null,"column_8":null,"column_14":null,"column_9":null,"column_15":null,"column_16":null,"column_17":null,"univesity":"University of Colorado","id":"a68wou0bcsne","geo_precision":"city","student":"John Schrock","state":"CO"},"type":"Feature","geometry":{"type":"Point","coordinates":[-89.225627,38.696715]}},{"properties":{"city":"Brooklyn","column_10":null,"column_5":null,"column_11":null,"column_6":null,"column_12":null,"column_7":null,"geo_score":0.714,"column_13":null,"column_8":null,"column_14":null,"column_9":null,"column_15":null,"column_16":null,"column_17":null,"univesity":"Pratt Institute","id":"a68wou9pfiib","geo_precision":"city","student":"Keshav Ramaswami","state":"NY"},"type":"Feature","geometry":{"type":"Point","coordinates":[-86.615271,34.22593]}},{"properties":{"city":"Buena Vista","column_10":null,"column_5":null,"column_11":null,"column_6":null,"column_12":null,"column_7":null,"geo_score":0.6,"column_13":null,"column_8":null,"column_14":null,"column_9":null,"column_15":null,"column_16":null,"column_17":null,"univesity":"Southern Virginia University","id":"a68wou7auodd","geo_precision":"city","student":"Katy Watkins","state":"VA"},"type":"Feature","geometry":{"type":"Point","coordinates":[-92.476268,35.256192]}},{"properties":{"city":"Charlottesville","column_10":null,"column_5":null,"column_11":null,"column_6":null,"column_12":null,"column_7":null,"geo_score":0.657,"column_13":null,"column_8":null,"column_14":null,"column_9":null,"column_15":null,"column_16":null,"column_17":null,"univesity":"University of Virginia","id":"a68wou5k01ey","geo_precision":"city","student":"Robert Enders","state":"VA"},"type":"Feature","geometry":{"type":"Point","coordinates":[-79.237822,42.304503]}},{"properties":{"city":"Chicago","column_10":null,"column_5":null,"column_11":null,"column_6":null,"column_12":null,"column_7":null,"geo_score":0.714,"column_13":null,"column_8":null,"column_14":null,"column_9":null,"column_15":null,"column_16":null,"column_17":null,"univesity":"DePaul University","id":"a68wou8dhyko","geo_precision":"city","student":"Samantha Bartow","state":"IL"},"type":"Feature","geometry":{"type":"Point","coordinates":[-87.650052,41.850033]}},{"properties":{"city":"Chicago","column_10":null,"column_5":null,"column_11":null,"column_6":null,"column_12":null,"column_7":null,"geo_score":0.714,"column_13":null,"column_8":null,"column_14":null,"column_9":null,"column_15":null,"column_16":null,"column_17":null,"univesity":"Colombia College","id":"a68wou6qytas","geo_precision":"city","student":"Grace Junk","state":"IL"},"type":"Feature","geometry":{"type":"Point","coordinates":[-87.650052,41.850033]}},{"properties":{"city":"Chicago","column_10":null,"column_5":"Vince Parsons","column_11":null,"column_6":"Nathan Simpson","column_12":null,"column_7":"Cooper Toombs","geo_score":0.714,"column_13":null,"column_8":null,"column_14":null,"column_9":null,"column_15":null,"column_16":null,"column_17":null,"univesity":"SAIC","id":"a68wou2ohvb4","geo_precision":"city","student":"Shauna Kenton","state":"IL"},"type":"Feature","geometry":{"type":"Point","coordinates":[-87.650052,41.850033]}},{"properties":{"city":"Chicago","column_10":null,"column_5":null,"column_11":null,"column_6":null,"column_12":null,"column_7":null,"geo_score":0.714,"column_13":null,"column_8":null,"column_14":null,"column_9":null,"column_15":null,"column_16":null,"column_17":null,"univesity":"DePaul University","id":"a68wou8xlb4w","geo_precision":"city","student":"Bob Martin","state":"IL"},"type":"Feature","geometry":{"type":"Point","coordinates":[-87.650052,41.850033]}},{"properties":{"city":"Chicago","column_10":"Paige Martz","column_5":"Hayley Bublitz","column_11":"Ford Miller","column_6":"Kirsten Clark","column_12":"Heather Nelson","column_7":"Lauren Gillespie","geo_score":0.714,"column_13":"David Owens","column_8":"Aubrey Leiter","column_14":"Alex Pirotte","column_9":"Nick Lucas","column_15":"Alex Rorie","column_16":"Ariana Sherk","column_17":"Dan Stewart","univesity":"Chicago School of Violin Making","id":"a68wou9ay3dl","geo_precision":"city","student":"Greg Tracy","state":"IL"},"type":"Feature","geometry":{"type":"Point","coordinates":[-87.650052,41.850033]}},{"properties":{"city":"Columbia","column_10":null,"column_5":"Pauline Mytinger","column_11":null,"column_6":null,"column_12":null,"column_7":null,"geo_score":0.714,"column_13":null,"column_8":null,"column_14":null,"column_9":null,"column_15":null,"column_16":null,"column_17":null,"univesity":"University of Missouri","id":"a68woua1qdcx","geo_precision":"city","student":"Claudia Adams","state":"MO"},"type":"Feature","geometry":{"type":"Point","coordinates":[-92.334072,38.951705]}},{"properties":{"city":"Columbia","column_10":null,"column_5":"Duncan Gibbs","column_11":null,"column_6":"Charlie Hotchkiss","column_12":null,"column_7":"Thomas Read","geo_score":0.714,"column_13":null,"column_8":null,"column_14":null,"column_9":null,"column_15":null,"column_16":null,"column_17":null,"univesity":"Stephens College","id":"a68wotzjp6gg","geo_precision":"city","student":"Emma Marston","state":"MO"},"type":"Feature","geometry":{"type":"Point","coordinates":[-92.334072,38.951705]}},{"properties":{"city":"Conway","column_10":null,"column_5":null,"column_11":null,"column_6":null,"column_12":null,"column_7":null,"geo_score":0.714,"column_13":null,"column_8":null,"column_14":null,"column_9":null,"column_15":null,"column_16":null,"column_17":null,"univesity":"Coastal Carolina University","id":"a68woubb8m0n","geo_precision":"city","student":"Olivia Bullard","state":"SC"},"type":"Feature","geometry":{"type":"Point","coordinates":[-81.330625,28.502781]}},{"properties":{"city":"Crete","column_10":null,"column_5":null,"column_11":null,"column_6":null,"column_12":null,"column_7":null,"geo_score":0.571,"column_13":null,"column_8":null,"column_14":null,"column_9":null,"column_15":null,"column_16":null,"column_17":null,"univesity":"Doane College","id":"a68wou9froi9","geo_precision":"city","student":"Cole Morgan","state":"NE"},"type":"Feature","geometry":{"type":"Point","coordinates":[-91.596793,33.843715]}},{"properties":{"city":"Dallas","column_10":null,"column_5":null,"column_11":null,"column_6":null,"column_12":null,"column_7":null,"geo_score":0.619,"column_13":null,"column_8":null,"column_14":null,"column_9":null,"column_15":null,"column_16":null,"column_17":null,"univesity":"Southern Methodist University","id":"a68woty40eco","geo_precision":"city","student":"Perry Jackson","state":"TX"},"type":"Feature","geometry":{"type":"Point","coordinates":[-95.992775,36.153982]}},{"properties":{"city":"Dayton","column_10":null,"column_5":null,"column_11":null,"column_6":null,"column_12":null,"column_7":null,"geo_score":0.714,"column_13":null,"column_8":null,"column_14":null,"column_9":null,"column_15":null,"column_16":null,"column_17":null,"univesity":"University of Dayton","id":"a68wouabppm4","geo_precision":"city","student":"Mark Edmonds","state":"OH"},"type":"Feature","geometry":{"type":"Point","coordinates":[-84.191607,39.758948]}},{"properties":{"city":"Denver","column_10":null,"column_5":null,"column_11":null,"column_6":null,"column_12":null,"column_7":null,"geo_score":0.714,"column_13":null,"column_8":null,"column_14":null,"column_9":null,"column_15":null,"column_16":null,"column_17":null,"univesity":"Colorado Christian University","id":"a68wou4jjlb9","geo_precision":"city","student":"Elizabeth Colburn","state":"CO"},"type":"Feature","geometry":{"type":"Point","coordinates":[-104.984703,39.739154]}},{"properties":{"city":"Edmund","column_10":null,"column_5":"David Hill","column_11":null,"column_6":null,"column_12":null,"column_7":null,"geo_score":0.69,"column_13":null,"column_8":null,"column_14":null,"column_9":null,"column_15":null,"column_16":null,"column_17":null,"univesity":"Oklahoma Christian University","id":"a68wotwtn50t","geo_precision":"city","student":"Brad Johnson","state":"OK"},"type":"Feature","geometry":{"type":"Point","coordinates":[-97.478095,35.652832]}},{"properties":{"city":"Emporia","column_10":null,"column_5":null,"column_11":null,"column_6":null,"column_12":null,"column_7":null,"geo_score":0.653,"column_13":null,"column_8":null,"column_14":null,"column_9":null,"column_15":null,"column_16":null,"column_17":null,"univesity":"Emporia State University","id":"a68wou7cniy5","geo_precision":"city","student":"Michael Hart","state":"KS"},"type":"Feature","geometry":{"type":"Point","coordinates":[-91.435395,33.122067]}},{"properties":{"city":"Eugene","column_10":null,"column_5":"Branden Schoofs","column_11":null,"column_6":"Eden Schoofs","column_12":null,"column_7":null,"geo_score":0.714,"column_13":null,"column_8":null,"column_14":null,"column_9":null,"column_15":null,"column_16":null,"column_17":null,"univesity":"University of Oregon","id":"a68wou51dj6s","geo_precision":"city","student":"Margo Brookfield","state":"OR"},"type":"Feature","geometry":{"type":"Point","coordinates":[-123.086754,44.052069]}},{"properties":{"city":"Evanston","column_10":"Madeline Goss","column_5":"Samantha Bamford","column_11":"Jack Harrigan","column_6":"Betsy Blessen","column_12":"Madison Haverty","column_7":"Courtney Boyd","geo_score":0.714,"column_13":"Molly Kurtz","column_8":"Emily Collins","column_14":"Emily Morris","column_9":"Amy Cosgrove","column_15":"Zach Nass","column_16":"Rachel Rice","column_17":"Celeste Rinner","univesity":"Northwestern University","id":"a68wou0cb69i","geo_precision":"city","student":"Prarthana Dalal","state":"IL"},"type":"Feature","geometry":{"type":"Point","coordinates":[-104.938588,40.106928]}},{"properties":{"city":"Fayetteville","column_10":null,"column_5":"Joe Sernett","column_11":null,"column_6":null,"column_12":null,"column_7":null,"geo_score":0.714,"column_13":null,"column_8":null,"column_14":null,"column_9":null,"column_15":null,"column_16":null,"column_17":null,"univesity":"University of Arkansas","id":"a68wou9q3ihi","geo_precision":"city","student":"Jill Anderson","state":"AR"},"type":"Feature","geometry":{"type":"Point","coordinates":[-78.878359,35.052664]}},{"properties":{"city":"Fort Collins","column_10":null,"column_5":"Griff Gans","column_11":null,"column_6":null,"column_12":null,"column_7":null,"geo_score":0.597,"column_13":null,"column_8":null,"column_14":null,"column_9":null,"column_15":null,"column_16":null,"column_17":null,"univesity":"Colorado State University","id":"a68wou3b7g21","geo_precision":"city","student":"Logan Heidmann","state":"CO"},"type":"Feature","geometry":{"type":"Point","coordinates":[-91.954583,34.458984]}},{"properties":{"city":"Fort Scott","column_10":"Maggie Simmons","column_5":"Katye Bever","column_11":"Hanna Jane Stradinger","column_6":"Brennan Burns","column_12":"Emma Tyler","column_7":"Emily Fuson","geo_score":0.603,"column_13":"Connor Wilkins","column_8":"Lauren King","column_14":null,"column_9":"Katy Richardson","column_15":null,"column_16":null,"column_17":null,"univesity":"Fort Scott Community College","id":"a68wou06fu1e","geo_precision":"city","student":"JaQuan Brunt","state":"KS"},"type":"Feature","geometry":{"type":"Point","coordinates":[-91.954583,34.458984]}},{"properties":{"city":"Fort Worth","column_10":null,"column_5":null,"column_11":null,"column_6":null,"column_12":null,"column_7":null,"geo_score":0.603,"column_13":null,"column_8":null,"column_14":null,"column_9":null,"column_15":null,"column_16":null,"column_17":null,"univesity":"Texas Christian University","id":"a68wotz96fg0","geo_precision":"city","student":"Julie Aliber","state":"TX"},"type":"Feature","geometry":{"type":"Point","coordinates":[-91.954583,34.458984]}},{"properties":{"city":"Fulton","column_10":null,"column_5":null,"column_11":null,"column_6":null,"column_12":null,"column_7":null,"geo_score":0.69,"column_13":null,"column_8":null,"column_14":null,"column_9":null,"column_15":null,"column_16":null,"column_17":null,"univesity":"William Woods College","id":"a68wotza1m47","geo_precision":"city","student":"Rachel Arnold","state":"MO"},"type":"Feature","geometry":{"type":"Point","coordinates":[-90.796223,34.804263]}},{"properties":{"city":"Goshen","column_10":null,"column_5":null,"column_11":null,"column_6":null,"column_12":null,"column_7":null,"geo_score":0.714,"column_13":null,"column_8":null,"column_14":null,"column_9":null,"column_15":null,"column_16":null,"column_17":null,"univesity":"Goshen College","id":"a68wou86emok","geo_precision":"city","student":"Grace Boehm","state":"IN"},"type":"Feature","geometry":{"type":"Point","coordinates":[-112.083304,43.309639]}},{"properties":{"city":"Granville","column_10":null,"column_5":null,"column_11":null,"column_6":null,"column_12":null,"column_7":null,"geo_score":0.643,"column_13":null,"column_8":null,"column_14":null,"column_9":null,"column_15":null,"column_16":null,"column_17":null,"univesity":"Denison","id":"a68wouanj85p","geo_precision":"city","student":"Andrew Watkins","state":"OH"},"type":"Feature","geometry":{"type":"Point","coordinates":[-90.712612,35.632301]}},{"properties":{"city":"Greenville","column_10":null,"column_5":null,"column_11":null,"column_6":null,"column_12":null,"column_7":null,"geo_score":0.671,"column_13":null,"column_8":null,"column_14":null,"column_9":null,"column_15":null,"column_16":null,"column_17":null,"univesity":"Furman University","id":"a68wou3e5ajj","geo_precision":"city","student":"CC Creidenberg","state":"SC"},"type":"Feature","geometry":{"type":"Point","coordinates":[-90.712612,35.632301]}},{"properties":{"city":"Greystone","column_10":null,"column_5":null,"column_11":null,"column_6":null,"column_12":null,"column_7":null,"geo_score":0.698,"column_13":null,"column_8":null,"column_14":null,"column_9":null,"column_15":null,"column_16":null,"column_17":null,"univesity":"Culinary Institute of America","id":"a68wou74hz8x","geo_precision":"city","student":"Ian Exline","state":"CA"},"type":"Feature","geometry":{"type":"Point","coordinates":[-86.508321,33.92621]}},{"properties":{"city":"Grinnell","column_10":null,"column_5":null,"column_11":null,"column_6":null,"column_12":null,"column_7":null,"geo_score":0.643,"column_13":null,"column_8":null,"column_14":null,"column_9":null,"column_15":null,"column_16":null,"column_17":null,"univesity":"Grinnell College","id":"a68wou8um4tn","geo_precision":"city","student":"Peter Bautz","state":"IA"},"type":"Feature","geometry":{"type":"Point","coordinates":[-118.777868,34.11445]}},{"properties":{"city":"Hanover","column_10":null,"column_5":null,"column_11":null,"column_6":null,"column_12":null,"column_7":null,"geo_score":0.714,"column_13":null,"column_8":null,"column_14":null,"column_9":null,"column_15":null,"column_16":null,"column_17":null,"univesity":"Dartmouth College","id":"a68wou2e3psc","geo_precision":"city","student":"Gillian O'Connell","state":"NH"},"type":"Feature","geometry":{"type":"Point","coordinates":[-86.202472,33.004843]}},{"properties":{"city":"Hastings","column_10":null,"column_5":null,"column_11":null,"column_6":null,"column_12":null,"column_7":null,"geo_score":0.714,"column_13":null,"column_8":null,"column_14":null,"column_9":null,"column_15":null,"column_16":null,"column_17":null,"univesity":"Hastings College","id":"a68wotwhjiim","geo_precision":"city","student":"Lauren Miller","state":"NE"},"type":"Feature","geometry":{"type":"Point","coordinates":[-85.92944,41.383658]}},{"properties":{"city":"Hays","column_10":null,"column_5":null,"column_11":null,"column_6":null,"column_12":null,"column_7":null,"geo_score":0.629,"column_13":null,"column_8":null,"column_14":null,"column_9":null,"column_15":null,"column_16":null,"column_17":null,"univesity":"Fort Hays State University","id":"a68wou2lqalx","geo_precision":"city","student":"Kelsey Kost","state":"KS"},"type":"Feature","geometry":{"type":"Point","coordinates":[-111.684405,43.641858]}},{"properties":{"city":"Ithaca","column_10":null,"column_5":null,"column_11":null,"column_6":null,"column_12":null,"column_7":null,"geo_score":0.714,"column_13":null,"column_8":null,"column_14":null,"column_9":null,"column_15":null,"column_16":null,"column_17":null,"univesity":"Cornell University","id":"a68wou5lclrv","geo_precision":"city","student":"Jonathan Dawson","state":"NY"},"type":"Feature","geometry":{"type":"Point","coordinates":[-84.553286,39.937273]}},{"properties":{"city":"Overland Park","column_10":null,"column_5":null,"column_11":null,"column_6":null,"column_12":null,"column_7":null,"geo_score":0.857,"column_13":null,"column_8":null,"column_14":null,"column_9":null,"column_15":null,"column_16":null,"column_17":null,"univesity":"JCCC","id":"a68wou2qx2o8","geo_precision":"city","student":"Becca Thrasher","state":"KS"},"type":"Feature","geometry":{"type":"Point","coordinates":[-94.670792,38.982228]}},{"properties":{"city":"Kalamazoo","column_10":null,"column_5":null,"column_11":null,"column_6":null,"column_12":null,"column_7":null,"geo_score":0.619,"column_13":null,"column_8":null,"column_14":null,"column_9":null,"column_15":null,"column_16":null,"column_17":null,"univesity":"Kalamazoo College","id":"a68wou6kphvz","geo_precision":"city","student":"Caroline Barnett","state":"MI"},"type":"Feature","geometry":{"type":"Point","coordinates":[-115.071916,32.997542]}},{"properties":{"city":"Kansas City","column_10":null,"column_5":null,"column_11":null,"column_6":null,"column_12":null,"column_7":null,"geo_score":0.714,"column_13":null,"column_8":null,"column_14":null,"column_9":null,"column_15":null,"column_16":null,"column_17":null,"univesity":"Kansas City Art Institute","id":"a68woty1bhjq","geo_precision":"city","student":"DJ Burton","state":"MO"},"type":"Feature","geometry":{"type":"Point","coordinates":[-94.627457,39.114171]}},{"properties":{"city":"Kansas City","column_10":null,"column_5":null,"column_11":null,"column_6":null,"column_12":null,"column_7":null,"geo_score":0.714,"column_13":null,"column_8":null,"column_14":null,"column_9":null,"column_15":null,"column_16":null,"column_17":null,"univesity":"Rockhurst University","id":"a68wou1uwsj7","geo_precision":"city","student":"Nik Djiko","state":"MO"},"type":"Feature","geometry":{"type":"Point","coordinates":[-94.627457,39.114171]}},{"properties":{"city":"Kansas City","column_10":null,"column_5":null,"column_11":null,"column_6":null,"column_12":null,"column_7":null,"geo_score":0.857,"column_13":null,"column_8":null,"column_14":null,"column_9":null,"column_15":null,"column_16":null,"column_17":null,"univesity":"Working","id":"a68wou9hw71l","geo_precision":"city","student":"Dylan Dunn","state":"KS"},"type":"Feature","geometry":{"type":"Point","coordinates":[-94.627457,39.114171]}},{"properties":{"city":"Kansas City","column_10":null,"column_5":null,"column_11":null,"column_6":null,"column_12":null,"column_7":null,"geo_score":0.857,"column_13":null,"column_8":null,"column_14":null,"column_9":null,"column_15":null,"column_16":null,"column_17":null,"univesity":"Will return to Sweden for highschool","id":"a68wotyau24u","geo_precision":"city","student":"Nicole Fogelgren Brober","state":"KS"},"type":"Feature","geometry":{"type":"Point","coordinates":[-94.627457,39.114171]}},{"properties":{"city":"Kansas City","column_10":null,"column_5":null,"column_11":null,"column_6":null,"column_12":null,"column_7":null,"geo_score":0.714,"column_13":null,"column_8":null,"column_14":null,"column_9":null,"column_15":null,"column_16":null,"column_17":null,"univesity":"UMKC","id":"a68wotwjknrs","geo_precision":"city","student":"Grant Halderman","state":"MO"},"type":"Feature","geometry":{"type":"Point","coordinates":[-94.627457,39.114171]}},{"properties":{"city":"Kansas City","column_10":null,"column_5":null,"column_11":null,"column_6":null,"column_12":null,"column_7":null,"geo_score":0.714,"column_13":null,"column_8":null,"column_14":null,"column_9":null,"column_15":null,"column_16":null,"column_17":null,"univesity":"UMKC","id":"a68wou340fec","geo_precision":"city","student":"James Harbison","state":"MO"},"type":"Feature","geometry":{"type":"Point","coordinates":[-94.627457,39.114171]}},{"properties":{"city":"Kansas City","column_10":null,"column_5":null,"column_11":null,"column_6":null,"column_12":null,"column_7":null,"geo_score":0.714,"column_13":null,"column_8":null,"column_14":null,"column_9":null,"column_15":null,"column_16":null,"column_17":null,"univesity":"UMKC","id":"a68wou46pd6z","geo_precision":"city","student":"Callie Hennig","state":"MO"},"type":"Feature","geometry":{"type":"Point","coordinates":[-94.627457,39.114171]}},{"properties":{"city":"Kansas City","column_10":null,"column_5":null,"column_11":null,"column_6":null,"column_12":null,"column_7":null,"geo_score":0.857,"column_13":null,"column_8":null,"column_14":null,"column_9":null,"column_15":null,"column_16":null,"column_17":null,"univesity":"Undecided","id":"a68wotz4wr3y","geo_precision":"city","student":"April Irvine","state":"KS"},"type":"Feature","geometry":{"type":"Point","coordinates":[-94.627457,39.114171]}},{"properties":{"city":"Kansas City","column_10":null,"column_5":null,"column_11":null,"column_6":null,"column_12":null,"column_7":null,"geo_score":0.857,"column_13":null,"column_8":null,"column_14":null,"column_9":null,"column_15":null,"column_16":null,"column_17":null,"univesity":"Will return to Denmark for highschool","id":"a68wou48q0es","geo_precision":"city","student":"Celia Jacobsen","state":"KS"},"type":"Feature","geometry":{"type":"Point","coordinates":[-94.627457,39.114171]}},{"properties":{"city":"Kansas City","column_10":null,"column_5":null,"column_11":null,"column_6":null,"column_12":null,"column_7":null,"geo_score":0.857,"column_13":null,"column_8":null,"column_14":null,"column_9":null,"column_15":null,"column_16":null,"column_17":null,"univesity":"Undecided","id":"a68wou1kulpo","geo_precision":"city","student":"Tim Madison","state":"KS"},"type":"Feature","geometry":{"type":"Point","coordinates":[-94.627457,39.114171]}},{"properties":{"city":"Kansas City","column_10":null,"column_5":null,"column_11":null,"column_6":null,"column_12":null,"column_7":null,"geo_score":0.857,"column_13":null,"column_8":null,"column_14":null,"column_9":null,"column_15":null,"column_16":null,"column_17":null,"univesity":"Undecided","id":"a68wou83r4b6","geo_precision":"city","student":"Logan Mitchell","state":"KS"},"type":"Feature","geometry":{"type":"Point","coordinates":[-94.627457,39.114171]}},{"properties":{"city":"Kansas City","column_10":null,"column_5":null,"column_11":null,"column_6":null,"column_12":null,"column_7":null,"geo_score":0.857,"column_13":null,"column_8":null,"column_14":null,"column_9":null,"column_15":null,"column_16":null,"column_17":null,"univesity":"Military","id":"a68wou1al3er","geo_precision":"city","student":"Thomas Nicoski","state":"KS"},"type":"Feature","geometry":{"type":"Point","coordinates":[-94.627457,39.114171]}},{"properties":{"city":"Kansas City","column_10":null,"column_5":null,"column_11":null,"column_6":null,"column_12":null,"column_7":null,"geo_score":0.857,"column_13":null,"column_8":null,"column_14":null,"column_9":null,"column_15":null,"column_16":null,"column_17":null,"univesity":"Will return to Denmark to study","id":"a68wotxf9099","geo_precision":"city","student":"Christian Otzen","state":"KS"},"type":"Feature","geometry":{"type":"Point","coordinates":[-94.627457,39.114171]}},{"properties":{"city":"Kansas City","column_10":null,"column_5":null,"column_11":null,"column_6":null,"column_12":null,"column_7":null,"geo_score":0.857,"column_13":null,"column_8":null,"column_14":null,"column_9":null,"column_15":null,"column_16":null,"column_17":null,"univesity":"Undecided","id":"a68wotzhcdpu","geo_precision":"city","student":"Jameson Rogers","state":"KS"},"type":"Feature","geometry":{"type":"Point","coordinates":[-94.627457,39.114171]}},{"properties":{"city":"Kansas City","column_10":null,"column_5":null,"column_11":null,"column_6":null,"column_12":null,"column_7":null,"geo_score":0.857,"column_13":null,"column_8":null,"column_14":null,"column_9":null,"column_15":null,"column_16":null,"column_17":null,"univesity":"Military","id":"a68wotwh5r2u","geo_precision":"city","student":"Marcelino Sigler","state":"KS"},"type":"Feature","geometry":{"type":"Point","coordinates":[-94.627457,39.114171]}},{"properties":{"city":"Kansas City","column_10":null,"column_5":null,"column_11":null,"column_6":null,"column_12":null,"column_7":null,"geo_score":0.714,"column_13":null,"column_8":null,"column_14":null,"column_9":null,"column_15":null,"column_16":null,"column_17":null,"univesity":"UMKC","id":"a68wou6flibv","geo_precision":"city","student":"Jeff Tate","state":"MO"},"type":"Feature","geometry":{"type":"Point","coordinates":[-94.627457,39.114171]}},{"properties":{"city":"Kansas City","column_10":null,"column_5":null,"column_11":null,"column_6":null,"column_12":null,"column_7":null,"geo_score":0.857,"column_13":null,"column_8":null,"column_14":null,"column_9":null,"column_15":null,"column_16":null,"column_17":null,"univesity":"Will return to Belgium for university","id":"a68wou4v75ez","geo_precision":"city","student":"Tatiana Verdonck","state":"KS"},"type":"Feature","geometry":{"type":"Point","coordinates":[-94.627457,39.114171]}},{"properties":{"city":"Kansas City","column_10":null,"column_5":null,"column_11":null,"column_6":null,"column_12":null,"column_7":null,"geo_score":0.714,"column_13":null,"column_8":null,"column_14":null,"column_9":null,"column_15":null,"column_16":null,"column_17":null,"univesity":"Kansas City Art Institute","id":"a68wotwzat66","geo_precision":"city","student":"Claire Wahrer","state":"MO"},"type":"Feature","geometry":{"type":"Point","coordinates":[-94.627457,39.114171]}},{"properties":{"city":"Kirksville","column_10":null,"column_5":null,"column_11":null,"column_6":null,"column_12":null,"column_7":null,"geo_score":0.714,"column_13":null,"column_8":null,"column_14":null,"column_9":null,"column_15":null,"column_16":null,"column_17":null,"univesity":"Truman State University","id":"a68wou6glftx","geo_precision":"city","student":"Rebecca Callstrom","state":"MO"},"type":"Feature","geometry":{"type":"Point","coordinates":[-88.668398,39.570591]}},{"properties":{"city":"Kirksville","column_10":null,"column_5":null,"column_11":null,"column_6":null,"column_12":null,"column_7":null,"geo_score":0.714,"column_13":null,"column_8":null,"column_14":null,"column_9":null,"column_15":null,"column_16":null,"column_17":null,"univesity":"Truman State University","id":"a68wou2qczf0","geo_precision":"city","student":"Oliver Dubois","state":"MO"},"type":"Feature","geometry":{"type":"Point","coordinates":[-88.668398,39.570591]}},{"properties":{"city":"Kirksville","column_10":null,"column_5":null,"column_11":null,"column_6":null,"column_12":null,"column_7":null,"geo_score":0.714,"column_13":null,"column_8":null,"column_14":null,"column_9":null,"column_15":null,"column_16":null,"column_17":null,"univesity":"Truman State University","id":"a68wou3akfzo","geo_precision":"city","student":"Jacob McGillicuddy","state":"MO"},"type":"Feature","geometry":{"type":"Point","coordinates":[-88.668398,39.570591]}},{"properties":{"city":"Kirksville","column_10":null,"column_5":null,"column_11":null,"column_6":null,"column_12":null,"column_7":null,"geo_score":0.714,"column_13":null,"column_8":null,"column_14":null,"column_9":null,"column_15":null,"column_16":null,"column_17":null,"univesity":"Truman State University","id":"a68wotvxxp29","geo_precision":"city","student":"Chris Melvin","state":"MO"},"type":"Feature","geometry":{"type":"Point","coordinates":[-88.668398,39.570591]}},{"properties":{"city":"LA","column_10":null,"column_5":null,"column_11":null,"column_6":null,"column_12":null,"column_7":null,"geo_score":0.667,"column_13":null,"column_8":null,"column_14":null,"column_9":null,"column_15":null,"column_16":null,"column_17":null,"univesity":"FIDM or Regis College","id":"a68wou1lx8s8","geo_precision":"city","student":"Emilie Block","state":"CA"},"type":"Feature","geometry":{"type":"Point","coordinates":[-107.882021,40.526636]}},{"properties":{"city":"Lamoni","column_10":null,"column_5":null,"column_11":null,"column_6":null,"column_12":null,"column_7":null,"geo_score":0.667,"column_13":null,"column_8":null,"column_14":null,"column_9":null,"column_15":null,"column_16":null,"column_17":null,"univesity":"Graceland University","id":"a68wou8krljk","geo_precision":"city","student":"Natalie Bender","state":"IA"},"type":"Feature","geometry":{"type":"Point","coordinates":[-82.303981,27.945578]}},{"properties":{"city":"Langston","column_10":null,"column_5":null,"column_11":null,"column_6":null,"column_12":null,"column_7":null,"geo_score":0.651,"column_13":null,"column_8":null,"column_14":null,"column_9":null,"column_15":null,"column_16":null,"column_17":null,"univesity":"Langston University","id":"a68wou6qzjwz","geo_precision":"city","student":"Charon Williams","state":"OK"},"type":"Feature","geometry":{"type":"Point","coordinates":[-118.136739,34.698041]}},{"properties":{"city":"Laramie","column_10":null,"column_5":null,"column_11":null,"column_6":null,"column_12":null,"column_7":null,"geo_score":0.612,"column_13":null,"column_8":null,"column_14":null,"column_9":null,"column_15":null,"column_16":null,"column_17":null,"univesity":"University of Wyoming","id":"a68wou7d87pe","geo_precision":"city","student":"Kaiha Harris","state":"WY"},"type":"Feature","geometry":{"type":"Point","coordinates":[-88.443173,47.237426]}},{"properties":{"city":"Las Cruces","column_10":null,"column_5":null,"column_11":null,"column_6":null,"column_12":null,"column_7":null,"geo_score":0.714,"column_13":null,"column_8":null,"column_14":null,"column_9":null,"column_15":null,"column_16":null,"column_17":null,"univesity":"New Mexico State","id":"a68wou0b741d","geo_precision":"city","student":"Jesse Sharp","state":"NM"},"type":"Feature","geometry":{"type":"Point","coordinates":[-106.778337,32.312316]}},{"properties":{"city":"Lawrence","column_10":null,"column_5":null,"column_11":null,"column_6":null,"column_12":null,"column_7":null,"geo_score":0.714,"column_13":null,"column_8":null,"column_14":null,"column_9":null,"column_15":null,"column_16":null,"column_17":null,"univesity":"University of Kansas","id":"a68woub9ib2z","geo_precision":"city","student":"Timmy Ahern","state":"KS"},"type":"Feature","geometry":{"type":"Point","coordinates":[-85.531072,34.232316]}},{"properties":{"city":"Lawrence","column_10":null,"column_5":null,"column_11":null,"column_6":null,"column_12":null,"column_7":null,"geo_score":0.714,"column_13":null,"column_8":null,"column_14":null,"column_9":null,"column_15":null,"column_16":null,"column_17":null,"univesity":"University of Kansas","id":"a68wou2eit3p","geo_precision":"city","student":"Sam Amrein","state":"KS"},"type":"Feature","geometry":{"type":"Point","coordinates":[-85.531072,34.232316]}},{"properties":{"city":"Lawrence","column_10":null,"column_5":null,"column_11":null,"column_6":null,"column_12":null,"column_7":null,"geo_score":0.714,"column_13":null,"column_8":null,"column_14":null,"column_9":null,"column_15":null,"column_16":null,"column_17":null,"univesity":"University of Kansas","id":"a68wou66gfvf","geo_precision":"city","student":"Chloe Anderson","state":"KS"},"type":"Feature","geometry":{"type":"Point","coordinates":[-85.531072,34.232316]}},{"properties":{"city":"Lawrence","column_10":null,"column_5":null,"column_11":null,"column_6":null,"column_12":null,"column_7":null,"geo_score":0.714,"column_13":null,"column_8":null,"column_14":null,"column_9":null,"column_15":null,"column_16":null,"column_17":null,"univesity":"University of Kansas","id":"a68wou5om1b0","geo_precision":"city","student":"Drew Auer","state":"KS"},"type":"Feature","geometry":{"type":"Point","coordinates":[-85.531072,34.232316]}},{"properties":{"city":"Lawrence","column_10":null,"column_5":null,"column_11":null,"column_6":null,"column_12":null,"column_7":null,"geo_score":0.714,"column_13":null,"column_8":null,"column_14":null,"column_9":null,"column_15":null,"column_16":null,"column_17":null,"univesity":"University of Kansas","id":"a68wou0g54qx","geo_precision":"city","student":"Brook Barnes","state":"KS"},"type":"Feature","geometry":{"type":"Point","coordinates":[-85.531072,34.232316]}},{"properties":{"city":"Lawrence","column_10":null,"column_5":null,"column_11":null,"column_6":null,"column_12":null,"column_7":null,"geo_score":0.714,"column_13":null,"column_8":null,"column_14":null,"column_9":null,"column_15":null,"column_16":null,"column_17":null,"univesity":"University of Kansas","id":"a68wotwj4svg","geo_precision":"city","student":"Lindy Blackman","state":"KS"},"type":"Feature","geometry":{"type":"Point","coordinates":[-85.531072,34.232316]}},{"properties":{"city":"Lawrence","column_10":null,"column_5":null,"column_11":null,"column_6":null,"column_12":null,"column_7":null,"geo_score":0.714,"column_13":null,"column_8":null,"column_14":null,"column_9":null,"column_15":null,"column_16":null,"column_17":null,"univesity":"University of Kansas","id":"a68wotzo0ntd","geo_precision":"city","student":"Bailey Borgmier","state":"KS"},"type":"Feature","geometry":{"type":"Point","coordinates":[-85.531072,34.232316]}},{"properties":{"city":"Lawrence","column_10":null,"column_5":null,"column_11":null,"column_6":null,"column_12":null,"column_7":null,"geo_score":0.714,"column_13":null,"column_8":null,"column_14":null,"column_9":null,"column_15":null,"column_16":null,"column_17":null,"univesity":"University of Kansas","id":"a68wou9nyo3g","geo_precision":"city","student":"Helen Bradley","state":"KS"},"type":"Feature","geometry":{"type":"Point","coordinates":[-85.531072,34.232316]}},{"properties":{"city":"Lawrence","column_10":null,"column_5":null,"column_11":null,"column_6":null,"column_12":null,"column_7":null,"geo_score":0.714,"column_13":null,"column_8":null,"column_14":null,"column_9":null,"column_15":null,"column_16":null,"column_17":null,"univesity":"University of Kansas","id":"a68wou7rcf7k","geo_precision":"city","student":"Kylee Brooks","state":"KS"},"type":"Feature","geometry":{"type":"Point","coordinates":[-85.531072,34.232316]}},{"properties":{"city":"Lawrence","column_10":null,"column_5":null,"column_11":null,"column_6":null,"column_12":null,"column_7":null,"geo_score":0.714,"column_13":null,"column_8":null,"column_14":null,"column_9":null,"column_15":null,"column_16":null,"column_17":null,"univesity":"University of Kansas","id":"a68wou9g1h6y","geo_precision":"city","student":"George Brophy","state":"KS"},"type":"Feature","geometry":{"type":"Point","coordinates":[-85.531072,34.232316]}},{"properties":{"city":"Lawrence","column_10":null,"column_5":null,"column_11":null,"column_6":null,"column_12":null,"column_7":null,"geo_score":0.714,"column_13":null,"column_8":null,"column_14":null,"column_9":null,"column_15":null,"column_16":null,"column_17":null,"univesity":"University of Kansas","id":"a68wou6twwnt","geo_precision":"city","student":"Mackenzie Burroff","state":"KS"},"type":"Feature","geometry":{"type":"Point","coordinates":[-85.531072,34.232316]}},{"properties":{"city":"Lawrence","column_10":null,"column_5":null,"column_11":null,"column_6":null,"column_12":null,"column_7":null,"geo_score":0.714,"column_13":null,"column_8":null,"column_14":null,"column_9":null,"column_15":null,"column_16":null,"column_17":null,"univesity":"University of Kansas","id":"a68wotwjcw9h","geo_precision":"city","student":"Sean Cameron","state":"KS"},"type":"Feature","geometry":{"type":"Point","coordinates":[-85.531072,34.232316]}},{"properties":{"city":"Lawrence","column_10":null,"column_5":null,"column_11":null,"column_6":null,"column_12":null,"column_7":null,"geo_score":0.714,"column_13":null,"column_8":null,"column_14":null,"column_9":null,"column_15":null,"column_16":null,"column_17":null,"univesity":"University of Kansas","id":"a68wou4thciq","geo_precision":"city","student":"Alex Carver","state":"KS"},"type":"Feature","geometry":{"type":"Point","coordinates":[-85.531072,34.232316]}},{"properties":{"city":"Lawrence","column_10":null,"column_5":null,"column_11":null,"column_6":null,"column_12":null,"column_7":null,"geo_score":0.714,"column_13":null,"column_8":null,"column_14":null,"column_9":null,"column_15":null,"column_16":null,"column_17":null,"univesity":"University of Kansas","id":"a68wou6r1u8q","geo_precision":"city","student":"Kirstin Chadd","state":"KS"},"type":"Feature","geometry":{"type":"Point","coordinates":[-85.531072,34.232316]}},{"properties":{"city":"Lawrence","column_10":null,"column_5":null,"column_11":null,"column_6":null,"column_12":null,"column_7":null,"geo_score":0.714,"column_13":null,"column_8":null,"column_14":null,"column_9":null,"column_15":null,"column_16":null,"column_17":null,"univesity":"University of Kansas","id":"a68woualeblm","geo_precision":"city","student":"Julie Chalfant","state":"KS"},"type":"Feature","geometry":{"type":"Point","coordinates":[-85.531072,34.232316]}},{"properties":{"city":"Lawrence","column_10":null,"column_5":null,"column_11":null,"column_6":null,"column_12":null,"column_7":null,"geo_score":0.714,"column_13":null,"column_8":null,"column_14":null,"column_9":null,"column_15":null,"column_16":null,"column_17":null,"univesity":"University of Kansas","id":"a68wou7rfya0","geo_precision":"city","student":"Tony Christensen","state":"KS"},"type":"Feature","geometry":{"type":"Point","coordinates":[-85.531072,34.232316]}},{"properties":{"city":"Lawrence","column_10":null,"column_5":null,"column_11":null,"column_6":null,"column_12":null,"column_7":null,"geo_score":0.714,"column_13":null,"column_8":null,"column_14":null,"column_9":null,"column_15":null,"column_16":null,"column_17":null,"univesity":"University of Kansas","id":"a68wotxkn5pm","geo_precision":"city","student":"Daniel Colebank","state":"KS"},"type":"Feature","geometry":{"type":"Point","coordinates":[-85.531072,34.232316]}},{"properties":{"city":"Lawrence","column_10":null,"column_5":null,"column_11":null,"column_6":null,"column_12":null,"column_7":null,"geo_score":0.714,"column_13":null,"column_8":null,"column_14":null,"column_9":null,"column_15":null,"column_16":null,"column_17":null,"univesity":"University of Kansas","id":"a68wotzcwzou","geo_precision":"city","student":"Niko Colom","state":"KS"},"type":"Feature","geometry":{"type":"Point","coordinates":[-85.531072,34.232316]}},{"properties":{"city":"Lawrence","column_10":null,"column_5":null,"column_11":null,"column_6":null,"column_12":null,"column_7":null,"geo_score":0.714,"column_13":null,"column_8":null,"column_14":null,"column_9":null,"column_15":null,"column_16":null,"column_17":null,"univesity":"University of Kansas","id":"a68wou32s34s","geo_precision":"city","student":"Becca Crooks","state":"KS"},"type":"Feature","geometry":{"type":"Point","coordinates":[-85.531072,34.232316]}},{"properties":{"city":"Lawrence","column_10":null,"column_5":null,"column_11":null,"column_6":null,"column_12":null,"column_7":null,"geo_score":0.714,"column_13":null,"column_8":null,"column_14":null,"column_9":null,"column_15":null,"column_16":null,"column_17":null,"univesity":"University of Kansas","id":"a68wotvm8tgk","geo_precision":"city","student":"Mikaila Demetroulis","state":"KS"},"type":"Feature","geometry":{"type":"Point","coordinates":[-85.531072,34.232316]}},{"properties":{"city":"Lawrence","column_10":null,"column_5":null,"column_11":null,"column_6":null,"column_12":null,"column_7":null,"geo_score":0.714,"column_13":null,"column_8":null,"column_14":null,"column_9":null,"column_15":null,"column_16":null,"column_17":null,"univesity":"University of Kansas","id":"a68wou3p2f79","geo_precision":"city","student":"Jacob Devries","state":"KS"},"type":"Feature","geometry":{"type":"Point","coordinates":[-85.531072,34.232316]}},{"properties":{"city":"Lawrence","column_10":null,"column_5":null,"column_11":null,"column_6":null,"column_12":null,"column_7":null,"geo_score":0.714,"column_13":null,"column_8":null,"column_14":null,"column_9":null,"column_15":null,"column_16":null,"column_17":null,"univesity":"University of Kansas","id":"a68wotyegjzl","geo_precision":"city","student":"Aveek Dhar","state":"KS"},"type":"Feature","geometry":{"type":"Point","coordinates":[-85.531072,34.232316]}},{"properties":{"city":"Lawrence","column_10":null,"column_5":null,"column_11":null,"column_6":null,"column_12":null,"column_7":null,"geo_score":0.714,"column_13":null,"column_8":null,"column_14":null,"column_9":null,"column_15":null,"column_16":null,"column_17":null,"univesity":"University of Kansas","id":"a68wou03jtia","geo_precision":"city","student":"Caroline Doerr","state":"KS"},"type":"Feature","geometry":{"type":"Point","coordinates":[-85.531072,34.232316]}},{"properties":{"city":"Lawrence","column_10":null,"column_5":null,"column_11":null,"column_6":null,"column_12":null,"column_7":null,"geo_score":0.714,"column_13":null,"column_8":null,"column_14":null,"column_9":null,"column_15":null,"column_16":null,"column_17":null,"univesity":"University of Kansas","id":"a68wou1ivc3d","geo_precision":"city","student":"Jack Esberg","state":"KS"},"type":"Feature","geometry":{"type":"Point","coordinates":[-85.531072,34.232316]}},{"properties":{"city":"Lawrence","column_10":null,"column_5":null,"column_11":null,"column_6":null,"column_12":null,"column_7":null,"geo_score":0.714,"column_13":null,"column_8":null,"column_14":null,"column_9":null,"column_15":null,"column_16":null,"column_17":null,"univesity":"University of Kansas","id":"a68wou10r09z","geo_precision":"city","student":"Ted Fields","state":"KS"},"type":"Feature","geometry":{"type":"Point","coordinates":[-85.531072,34.232316]}},{"properties":{"city":"Lawrence","column_10":null,"column_5":null,"column_11":null,"column_6":null,"column_12":null,"column_7":null,"geo_score":0.714,"column_13":null,"column_8":null,"column_14":null,"column_9":null,"column_15":null,"column_16":null,"column_17":null,"univesity":"University of Kansas","id":"a68wou3o1lp7","geo_precision":"city","student":"Chloe Fischgrund","state":"KS"},"type":"Feature","geometry":{"type":"Point","coordinates":[-85.531072,34.232316]}},{"properties":{"city":"Lawrence","column_10":null,"column_5":null,"column_11":null,"column_6":null,"column_12":null,"column_7":null,"geo_score":0.714,"column_13":null,"column_8":null,"column_14":null,"column_9":null,"column_15":null,"column_16":null,"column_17":null,"univesity":"University of Kansas","id":"a68woubbuc7a","geo_precision":"city","student":"Henry Foster","state":"KS"},"type":"Feature","geometry":{"type":"Point","coordinates":[-85.531072,34.232316]}},{"properties":{"city":"Lawrence","column_10":null,"column_5":null,"column_11":null,"column_6":null,"column_12":null,"column_7":null,"geo_score":0.714,"column_13":null,"column_8":null,"column_14":null,"column_9":null,"column_15":null,"column_16":null,"column_17":null,"univesity":"University of Kansas","id":"a68wotvi7xp4","geo_precision":"city","student":"Michael Foster","state":"KS"},"type":"Feature","geometry":{"type":"Point","coordinates":[-85.531072,34.232316]}},{"properties":{"city":"Lawrence","column_10":null,"column_5":null,"column_11":null,"column_6":null,"column_12":null,"column_7":null,"geo_score":0.714,"column_13":null,"column_8":null,"column_14":null,"column_9":null,"column_15":null,"column_16":null,"column_17":null,"univesity":"University of Kansas","id":"a68wou72mo3w","geo_precision":"city","student":"Peter Frazell","state":"KS"},"type":"Feature","geometry":{"type":"Point","coordinates":[-85.531072,34.232316]}},{"properties":{"city":"Lawrence","column_10":null,"column_5":null,"column_11":null,"column_6":null,"column_12":null,"column_7":null,"geo_score":0.714,"column_13":null,"column_8":null,"column_14":null,"column_9":null,"column_15":null,"column_16":null,"column_17":null,"univesity":"University of Kansas","id":"a68wou8ngy5q","geo_precision":"city","student":"David Frizzell","state":"KS"},"type":"Feature","geometry":{"type":"Point","coordinates":[-85.531072,34.232316]}},{"properties":{"city":"Lawrence","column_10":null,"column_5":null,"column_11":null,"column_6":null,"column_12":null,"column_7":null,"geo_score":0.714,"column_13":null,"column_8":null,"column_14":null,"column_9":null,"column_15":null,"column_16":null,"column_17":null,"univesity":"University of Kansas","id":"a68woty0p1y6","geo_precision":"city","student":"Maddie Gaughan","state":"KS"},"type":"Feature","geometry":{"type":"Point","coordinates":[-85.531072,34.232316]}},{"properties":{"city":"Lawrence","column_10":null,"column_5":null,"column_11":null,"column_6":null,"column_12":null,"column_7":null,"geo_score":0.714,"column_13":null,"column_8":null,"column_14":null,"column_9":null,"column_15":null,"column_16":null,"column_17":null,"univesity":"University of Kansas","id":"a68wou5nkjq5","geo_precision":"city","student":"Jennifer Gray","state":"KS"},"type":"Feature","geometry":{"type":"Point","coordinates":[-85.531072,34.232316]}},{"properties":{"city":"Lawrence","column_10":null,"column_5":null,"column_11":null,"column_6":null,"column_12":null,"column_7":null,"geo_score":0.714,"column_13":null,"column_8":null,"column_14":null,"column_9":null,"column_15":null,"column_16":null,"column_17":null,"univesity":"University of Kansas","id":"a68wouakdmew","geo_precision":"city","student":"Katie Griffith","state":"KS"},"type":"Feature","geometry":{"type":"Point","coordinates":[-85.531072,34.232316]}},{"properties":{"city":"Lawrence","column_10":null,"column_5":null,"column_11":null,"column_6":null,"column_12":null,"column_7":null,"geo_score":0.714,"column_13":null,"column_8":null,"column_14":null,"column_9":null,"column_15":null,"column_16":null,"column_17":null,"univesity":"University of Kansas","id":"a68woubhjsql","geo_precision":"city","student":"Paige Gundelfinger","state":"KS"},"type":"Feature","geometry":{"type":"Point","coordinates":[-85.531072,34.232316]}},{"properties":{"city":"Lawrence","column_10":null,"column_5":null,"column_11":null,"column_6":null,"column_12":null,"column_7":null,"geo_score":0.714,"column_13":null,"column_8":null,"column_14":null,"column_9":null,"column_15":null,"column_16":null,"column_17":null,"univesity":"University of Kansas","id":"a68wou1vnml9","geo_precision":"city","student":"Sam Hattaway","state":"KS"},"type":"Feature","geometry":{"type":"Point","coordinates":[-85.531072,34.232316]}},{"properties":{"city":"Lawrence","column_10":null,"column_5":null,"column_11":null,"column_6":null,"column_12":null,"column_7":null,"geo_score":0.714,"column_13":null,"column_8":null,"column_14":null,"column_9":null,"column_15":null,"column_16":null,"column_17":null,"univesity":"University of Kansas","id":"a68wouakq42b","geo_precision":"city","student":"Alex Healey","state":"KS"},"type":"Feature","geometry":{"type":"Point","coordinates":[-85.531072,34.232316]}},{"properties":{"city":"Lawrence","column_10":null,"column_5":null,"column_11":null,"column_6":null,"column_12":null,"column_7":null,"geo_score":0.714,"column_13":null,"column_8":null,"column_14":null,"column_9":null,"column_15":null,"column_16":null,"column_17":null,"univesity":"University of Kansas","id":"a68wotxkoxha","geo_precision":"city","student":"Tom Hung","state":"KS"},"type":"Feature","geometry":{"type":"Point","coordinates":[-85.531072,34.232316]}},{"properties":{"city":"Lawrence","column_10":null,"column_5":null,"column_11":null,"column_6":null,"column_12":null,"column_7":null,"geo_score":0.714,"column_13":null,"column_8":null,"column_14":null,"column_9":null,"column_15":null,"column_16":null,"column_17":null,"univesity":"University of Kansas","id":"a68wotzi35i1","geo_precision":"city","student":"Spencer Hunzeker","state":"KS"},"type":"Feature","geometry":{"type":"Point","coordinates":[-85.531072,34.232316]}},{"properties":{"city":"Lawrence","column_10":null,"column_5":null,"column_11":null,"column_6":null,"column_12":null,"column_7":null,"geo_score":0.714,"column_13":null,"column_8":null,"column_14":null,"column_9":null,"column_15":null,"column_16":null,"column_17":null,"univesity":"University of Kansas","id":"a68wou11mbom","geo_precision":"city","student":"Loren Jamieson","state":"KS"},"type":"Feature","geometry":{"type":"Point","coordinates":[-85.531072,34.232316]}},{"properties":{"city":"Lawrence","column_10":null,"column_5":null,"column_11":null,"column_6":null,"column_12":null,"column_7":null,"geo_score":0.714,"column_13":null,"column_8":null,"column_14":null,"column_9":null,"column_15":null,"column_16":null,"column_17":null,"univesity":"University of Kansas","id":"a68wotvuv68f","geo_precision":"city","student":"Nora Kanally","state":"KS"},"type":"Feature","geometry":{"type":"Point","coordinates":[-85.531072,34.232316]}},{"properties":{"city":"Lawrence","column_10":null,"column_5":null,"column_11":null,"column_6":null,"column_12":null,"column_7":null,"geo_score":0.714,"column_13":null,"column_8":null,"column_14":null,"column_9":null,"column_15":null,"column_16":null,"column_17":null,"univesity":"University of Kansas","id":"a68wou2zzw77","geo_precision":"city","student":"Alex Kaplan","state":"KS"},"type":"Feature","geometry":{"type":"Point","coordinates":[-85.531072,34.232316]}},{"properties":{"city":"Lawrence","column_10":null,"column_5":null,"column_11":null,"column_6":null,"column_12":null,"column_7":null,"geo_score":0.714,"column_13":null,"column_8":null,"column_14":null,"column_9":null,"column_15":null,"column_16":null,"column_17":null,"univesity":"University of Kansas","id":"a68wou1k57ch","geo_precision":"city","student":"Jenna Kaufman","state":"KS"},"type":"Feature","geometry":{"type":"Point","coordinates":[-85.531072,34.232316]}},{"properties":{"city":"Lawrence","column_10":null,"column_5":null,"column_11":null,"column_6":null,"column_12":null,"column_7":null,"geo_score":0.714,"column_13":null,"column_8":null,"column_14":null,"column_9":null,"column_15":null,"column_16":null,"column_17":null,"univesity":"University of Kansas","id":"a68wou76jazc","geo_precision":"city","student":"Rob Kelly","state":"KS"},"type":"Feature","geometry":{"type":"Point","coordinates":[-85.531072,34.232316]}},{"properties":{"city":"Lawrence","column_10":null,"column_5":null,"column_11":null,"column_6":null,"column_12":null,"column_7":null,"geo_score":0.714,"column_13":null,"column_8":null,"column_14":null,"column_9":null,"column_15":null,"column_16":null,"column_17":null,"univesity":"University of Kansas","id":"a68wou391v5d","geo_precision":"city","student":"Katie Kennelly","state":"KS"},"type":"Feature","geometry":{"type":"Point","coordinates":[-85.531072,34.232316]}},{"properties":{"city":"Lawrence","column_10":null,"column_5":null,"column_11":null,"column_6":null,"column_12":null,"column_7":null,"geo_score":0.714,"column_13":null,"column_8":null,"column_14":null,"column_9":null,"column_15":null,"column_16":null,"column_17":null,"univesity":"University of Kansas","id":"a68wou7kmoqh","geo_precision":"city","student":"Kendall Kohnle","state":"KS"},"type":"Feature","geometry":{"type":"Point","coordinates":[-85.531072,34.232316]}},{"properties":{"city":"Lawrence","column_10":null,"column_5":null,"column_11":null,"column_6":null,"column_12":null,"column_7":null,"geo_score":0.714,"column_13":null,"column_8":null,"column_14":null,"column_9":null,"column_15":null,"column_16":null,"column_17":null,"univesity":"University of Kansas","id":"a68wotwtpz76","geo_precision":"city","student":"Bryan Kurz","state":"KS"},"type":"Feature","geometry":{"type":"Point","coordinates":[-85.531072,34.232316]}},{"properties":{"city":"Lawrence","column_10":null,"column_5":null,"column_11":null,"column_6":null,"column_12":null,"column_7":null,"geo_score":0.714,"column_13":null,"column_8":null,"column_14":null,"column_9":null,"column_15":null,"column_16":null,"column_17":null,"univesity":"University of Kansas","id":"a68wotz4v3zc","geo_precision":"city","student":"Abigail Leek","state":"KS"},"type":"Feature","geometry":{"type":"Point","coordinates":[-85.531072,34.232316]}},{"properties":{"city":"Lawrence","column_10":null,"column_5":null,"column_11":null,"column_6":null,"column_12":null,"column_7":null,"geo_score":0.714,"column_13":null,"column_8":null,"column_14":null,"column_9":null,"column_15":null,"column_16":null,"column_17":null,"univesity":"University of Kansas","id":"a68wou2lgcom","geo_precision":"city","student":"Melanie Leng","state":"KS"},"type":"Feature","geometry":{"type":"Point","coordinates":[-85.531072,34.232316]}},{"properties":{"city":"Lawrence","column_10":null,"column_5":null,"column_11":null,"column_6":null,"column_12":null,"column_7":null,"geo_score":0.714,"column_13":null,"column_8":null,"column_14":null,"column_9":null,"column_15":null,"column_16":null,"column_17":null,"univesity":"University of Kansas","id":"a68wou427oem","geo_precision":"city","student":"Ben Liu","state":"KS"},"type":"Feature","geometry":{"type":"Point","coordinates":[-85.531072,34.232316]}},{"properties":{"city":"Lawrence","column_10":null,"column_5":null,"column_11":null,"column_6":null,"column_12":null,"column_7":null,"geo_score":0.714,"column_13":null,"column_8":null,"column_14":null,"column_9":null,"column_15":null,"column_16":null,"column_17":null,"univesity":"University of Kansas","id":"a68wotzna4bi","geo_precision":"city","student":"Rebeca Lopez","state":"KS"},"type":"Feature","geometry":{"type":"Point","coordinates":[-85.531072,34.232316]}},{"properties":{"city":"Lawrence","column_10":null,"column_5":null,"column_11":null,"column_6":null,"column_12":null,"column_7":null,"geo_score":0.714,"column_13":null,"column_8":null,"column_14":null,"column_9":null,"column_15":null,"column_16":null,"column_17":null,"univesity":"University of Kansas","id":"a68wou2e3rj0","geo_precision":"city","student":"Olivia Lynch","state":"KS"},"type":"Feature","geometry":{"type":"Point","coordinates":[-85.531072,34.232316]}},{"properties":{"city":"Lawrence","column_10":null,"column_5":null,"column_11":null,"column_6":null,"column_12":null,"column_7":null,"geo_score":0.714,"column_13":null,"column_8":null,"column_14":null,"column_9":null,"column_15":null,"column_16":null,"column_17":null,"univesity":"University of Kansas","id":"a68woua3j8nd","geo_precision":"city","student":"Paul Mackender","state":"KS"},"type":"Feature","geometry":{"type":"Point","coordinates":[-85.531072,34.232316]}},{"properties":{"city":"Lawrence","column_10":null,"column_5":null,"column_11":null,"column_6":null,"column_12":null,"column_7":null,"geo_score":0.714,"column_13":null,"column_8":null,"column_14":null,"column_9":null,"column_15":null,"column_16":null,"column_17":null,"univesity":"University of Kansas","id":"a68wou5r3787","geo_precision":"city","student":"Caroline Marland","state":"KS"},"type":"Feature","geometry":{"type":"Point","coordinates":[-85.531072,34.232316]}},{"properties":{"city":"Lawrence","column_10":null,"column_5":null,"column_11":null,"column_6":null,"column_12":null,"column_7":null,"geo_score":0.714,"column_13":null,"column_8":null,"column_14":null,"column_9":null,"column_15":null,"column_16":null,"column_17":null,"univesity":"University of Kansas","id":"a68wotvy10mr","geo_precision":"city","student":"Susie McClannahan","state":"KS"},"type":"Feature","geometry":{"type":"Point","coordinates":[-85.531072,34.232316]}},{"properties":{"city":"Lawrence","column_10":null,"column_5":null,"column_11":null,"column_6":null,"column_12":null,"column_7":null,"geo_score":0.714,"column_13":null,"column_8":null,"column_14":null,"column_9":null,"column_15":null,"column_16":null,"column_17":null,"univesity":"University of Kansas","id":"a68wou7759dz","geo_precision":"city","student":"Micah Melia","state":"KS"},"type":"Feature","geometry":{"type":"Point","coordinates":[-85.531072,34.232316]}},{"properties":{"city":"Lawrence","column_10":null,"column_5":null,"column_11":null,"column_6":null,"column_12":null,"column_7":null,"geo_score":0.714,"column_13":null,"column_8":null,"column_14":null,"column_9":null,"column_15":null,"column_16":null,"column_17":null,"univesity":"University of Kansas","id":"a68wou6dfzev","geo_precision":"city","student":"Cameron Mendez","state":"KS"},"type":"Feature","geometry":{"type":"Point","coordinates":[-85.531072,34.232316]}},{"properties":{"city":"Lawrence","column_10":null,"column_5":null,"column_11":null,"column_6":null,"column_12":null,"column_7":null,"geo_score":0.714,"column_13":null,"column_8":null,"column_14":null,"column_9":null,"column_15":null,"column_16":null,"column_17":null,"univesity":"University of Kansas","id":"a68wou4z8ll6","geo_precision":"city","student":"John Meyer","state":"KS"},"type":"Feature","geometry":{"type":"Point","coordinates":[-85.531072,34.232316]}},{"properties":{"city":"Lawrence","column_10":null,"column_5":null,"column_11":null,"column_6":null,"column_12":null,"column_7":null,"geo_score":0.714,"column_13":null,"column_8":null,"column_14":null,"column_9":null,"column_15":null,"column_16":null,"column_17":null,"univesity":"University of Kansas","id":"a68wou6cu3gj","geo_precision":"city","student":"Tirrell Moore","state":"KS"},"type":"Feature","geometry":{"type":"Point","coordinates":[-85.531072,34.232316]}},{"properties":{"city":"Lawrence","column_10":null,"column_5":null,"column_11":null,"column_6":null,"column_12":null,"column_7":null,"geo_score":0.714,"column_13":null,"column_8":null,"column_14":null,"column_9":null,"column_15":null,"column_16":null,"column_17":null,"univesity":"University of Kansas","id":"a68wou59l80a","geo_precision":"city","student":"Robby Moriarty","state":"KS"},"type":"Feature","geometry":{"type":"Point","coordinates":[-85.531072,34.232316]}},{"properties":{"city":"Lawrence","column_10":null,"column_5":null,"column_11":null,"column_6":null,"column_12":null,"column_7":null,"geo_score":0.714,"column_13":null,"column_8":null,"column_14":null,"column_9":null,"column_15":null,"column_16":null,"column_17":null,"univesity":"University of Kansas","id":"a68wou10jure","geo_precision":"city","student":"Andrew Morrison","state":"KS"},"type":"Feature","geometry":{"type":"Point","coordinates":[-85.531072,34.232316]}},{"properties":{"city":"Lawrence","column_10":null,"column_5":null,"column_11":null,"column_6":null,"column_12":null,"column_7":null,"geo_score":0.714,"column_13":null,"column_8":null,"column_14":null,"column_9":null,"column_15":null,"column_16":null,"column_17":null,"univesity":"University of Kansas","id":"a68wou31yhft","geo_precision":"city","student":"Megan Nass","state":"KS"},"type":"Feature","geometry":{"type":"Point","coordinates":[-85.531072,34.232316]}},{"properties":{"city":"Lawrence","column_10":null,"column_5":null,"column_11":null,"column_6":null,"column_12":null,"column_7":null,"geo_score":0.714,"column_13":null,"column_8":null,"column_14":null,"column_9":null,"column_15":null,"column_16":null,"column_17":null,"univesity":"University of Kansas","id":"a68wou60d9l7","geo_precision":"city","student":"Corey Neidl","state":"KS"},"type":"Feature","geometry":{"type":"Point","coordinates":[-85.531072,34.232316]}},{"properties":{"city":"Lawrence","column_10":null,"column_5":null,"column_11":null,"column_6":null,"column_12":null,"column_7":null,"geo_score":0.714,"column_13":null,"column_8":null,"column_14":null,"column_9":null,"column_15":null,"column_16":null,"column_17":null,"univesity":"University of Kansas","id":"a68wotwurn3t","geo_precision":"city","student":"Lauren Newell","state":"KS"},"type":"Feature","geometry":{"type":"Point","coordinates":[-85.531072,34.232316]}},{"properties":{"city":"Lawrence","column_10":null,"column_5":null,"column_11":null,"column_6":null,"column_12":null,"column_7":null,"geo_score":0.714,"column_13":null,"column_8":null,"column_14":null,"column_9":null,"column_15":null,"column_16":null,"column_17":null,"univesity":"University of Kansas","id":"a68wou4eid7j","geo_precision":"city","student":"Andrew North","state":"KS"},"type":"Feature","geometry":{"type":"Point","coordinates":[-85.531072,34.232316]}},{"properties":{"city":"Lawrence","column_10":null,"column_5":null,"column_11":null,"column_6":null,"column_12":null,"column_7":null,"geo_score":0.714,"column_13":null,"column_8":null,"column_14":null,"column_9":null,"column_15":null,"column_16":null,"column_17":null,"univesity":"University of Kansas","id":"a68wotwafe2b","geo_precision":"city","student":"Cormac O'Connor","state":"KS"},"type":"Feature","geometry":{"type":"Point","coordinates":[-85.531072,34.232316]}},{"properties":{"city":"Lawrence","column_10":null,"column_5":null,"column_11":null,"column_6":null,"column_12":null,"column_7":null,"geo_score":0.714,"column_13":null,"column_8":null,"column_14":null,"column_9":null,"column_15":null,"column_16":null,"column_17":null,"univesity":"University of Kansas","id":"a68wou7g4eqo","geo_precision":"city","student":"Steven Onions","state":"KS"},"type":"Feature","geometry":{"type":"Point","coordinates":[-85.531072,34.232316]}},{"properties":{"city":"Lawrence","column_10":null,"column_5":null,"column_11":null,"column_6":null,"column_12":null,"column_7":null,"geo_score":0.714,"column_13":null,"column_8":null,"column_14":null,"column_9":null,"column_15":null,"column_16":null,"column_17":null,"univesity":"University of Kansas","id":"a68wotzmpeta","geo_precision":"city","student":"Chad Papineau","state":"KS"},"type":"Feature","geometry":{"type":"Point","coordinates":[-85.531072,34.232316]}},{"properties":{"city":"Lawrence","column_10":null,"column_5":null,"column_11":null,"column_6":null,"column_12":null,"column_7":null,"geo_score":0.714,"column_13":null,"column_8":null,"column_14":null,"column_9":null,"column_15":null,"column_16":null,"column_17":null,"univesity":"University of Kansas","id":"a68woty1mb0r","geo_precision":"city","student":"Natalie Parker","state":"KS"},"type":"Feature","geometry":{"type":"Point","coordinates":[-85.531072,34.232316]}},{"properties":{"city":"Lawrence","column_10":null,"column_5":null,"column_11":null,"column_6":null,"column_12":null,"column_7":null,"geo_score":0.714,"column_13":null,"column_8":null,"column_14":null,"column_9":null,"column_15":null,"column_16":null,"column_17":null,"univesity":"University of Kansas","id":"a68wotyo9dk0","geo_precision":"city","student":"Pete Peterson","state":"KS"},"type":"Feature","geometry":{"type":"Point","coordinates":[-85.531072,34.232316]}},{"properties":{"city":"Lawrence","column_10":null,"column_5":null,"column_11":null,"column_6":null,"column_12":null,"column_7":null,"geo_score":0.714,"column_13":null,"column_8":null,"column_14":null,"column_9":null,"column_15":null,"column_16":null,"column_17":null,"univesity":"University of Kansas","id":"a68wotvw33iv","geo_precision":"city","student":"Cristian Pinela","state":"KS"},"type":"Feature","geometry":{"type":"Point","coordinates":[-85.531072,34.232316]}},{"properties":{"city":"Lawrence","column_10":null,"column_5":null,"column_11":null,"column_6":null,"column_12":null,"column_7":null,"geo_score":0.714,"column_13":null,"column_8":null,"column_14":null,"column_9":null,"column_15":null,"column_16":null,"column_17":null,"univesity":"University of Kansas","id":"a68wotxz1ao8","geo_precision":"city","student":"Hannah Roste","state":"KS"},"type":"Feature","geometry":{"type":"Point","coordinates":[-85.531072,34.232316]}},{"properties":{"city":"Lawrence","column_10":null,"column_5":null,"column_11":null,"column_6":null,"column_12":null,"column_7":null,"geo_score":0.714,"column_13":null,"column_8":null,"column_14":null,"column_9":null,"column_15":null,"column_16":null,"column_17":null,"univesity":"University of Kansas","id":"a68wou4z5ccr","geo_precision":"city","student":"Faye Schumacher","state":"KS"},"type":"Feature","geometry":{"type":"Point","coordinates":[-85.531072,34.232316]}},{"properties":{"city":"Lawrence","column_10":null,"column_5":null,"column_11":null,"column_6":null,"column_12":null,"column_7":null,"geo_score":0.714,"column_13":null,"column_8":null,"column_14":null,"column_9":null,"column_15":null,"column_16":null,"column_17":null,"univesity":"University of Kansas","id":"a68woub6fm91","geo_precision":"city","student":"Lydia Shackelford","state":"KS"},"type":"Feature","geometry":{"type":"Point","coordinates":[-85.531072,34.232316]}},{"properties":{"city":"Lawrence","column_10":null,"column_5":null,"column_11":null,"column_6":null,"column_12":null,"column_7":null,"geo_score":0.714,"column_13":null,"column_8":null,"column_14":null,"column_9":null,"column_15":null,"column_16":null,"column_17":null,"univesity":"University of Kansas","id":"a68wotxy3fit","geo_precision":"city","student":"Dana Sherard","state":"KS"},"type":"Feature","geometry":{"type":"Point","coordinates":[-85.531072,34.232316]}},{"properties":{"city":"Lawrence","column_10":null,"column_5":null,"column_11":null,"column_6":null,"column_12":null,"column_7":null,"geo_score":0.714,"column_13":null,"column_8":null,"column_14":null,"column_9":null,"column_15":null,"column_16":null,"column_17":null,"univesity":"University of Kansas","id":"a68wotzrgwk6","geo_precision":"city","student":"Anousha Shirazi","state":"KS"},"type":"Feature","geometry":{"type":"Point","coordinates":[-85.531072,34.232316]}},{"properties":{"city":"Lawrence","column_10":null,"column_5":null,"column_11":null,"column_6":null,"column_12":null,"column_7":null,"geo_score":0.714,"column_13":null,"column_8":null,"column_14":null,"column_9":null,"column_15":null,"column_16":null,"column_17":null,"univesity":"University of Kansas","id":"a68wotysbiyc","geo_precision":"city","student":"Dennis Simmons","state":"KS"},"type":"Feature","geometry":{"type":"Point","coordinates":[-85.531072,34.232316]}},{"properties":{"city":"Lawrence","column_10":null,"column_5":null,"column_11":null,"column_6":null,"column_12":null,"column_7":null,"geo_score":0.714,"column_13":null,"column_8":null,"column_14":null,"column_9":null,"column_15":null,"column_16":null,"column_17":null,"univesity":"University of Kansas","id":"a68wou4c8s1n","geo_precision":"city","student":"Kevin Simpson","state":"KS"},"type":"Feature","geometry":{"type":"Point","coordinates":[-85.531072,34.232316]}},{"properties":{"city":"Lawrence","column_10":null,"column_5":null,"column_11":null,"column_6":null,"column_12":null,"column_7":null,"geo_score":0.714,"column_13":null,"column_8":null,"column_14":null,"column_9":null,"column_15":null,"column_16":null,"column_17":null,"univesity":"University of Kansas","id":"a68wou3jii9f","geo_precision":"city","student":"Cameron Smith","state":"KS"},"type":"Feature","geometry":{"type":"Point","coordinates":[-85.531072,34.232316]}},{"properties":{"city":"Lawrence","column_10":null,"column_5":null,"column_11":null,"column_6":null,"column_12":null,"column_7":null,"geo_score":0.714,"column_13":null,"column_8":null,"column_14":null,"column_9":null,"column_15":null,"column_16":null,"column_17":null,"univesity":"University of Kansas","id":"a68wotza0uf1","geo_precision":"city","student":"Emi Snively","state":"KS"},"type":"Feature","geometry":{"type":"Point","coordinates":[-85.531072,34.232316]}},{"properties":{"city":"Lawrence","column_10":null,"column_5":null,"column_11":null,"column_6":null,"column_12":null,"column_7":null,"geo_score":0.714,"column_13":null,"column_8":null,"column_14":null,"column_9":null,"column_15":null,"column_16":null,"column_17":null,"univesity":"University of Kansas","id":"a68wotziwtdx","geo_precision":"city","student":"Torry Spencer","state":"KS"},"type":"Feature","geometry":{"type":"Point","coordinates":[-85.531072,34.232316]}},{"properties":{"city":"Lawrence","column_10":null,"column_5":null,"column_11":null,"column_6":null,"column_12":null,"column_7":null,"geo_score":0.714,"column_13":null,"column_8":null,"column_14":null,"column_9":null,"column_15":null,"column_16":null,"column_17":null,"univesity":"University of Kansas","id":"a68wouasv292","geo_precision":"city","student":"Jeremy Steiner","state":"KS"},"type":"Feature","geometry":{"type":"Point","coordinates":[-85.531072,34.232316]}},{"properties":{"city":"Lawrence","column_10":null,"column_5":null,"column_11":null,"column_6":null,"column_12":null,"column_7":null,"geo_score":0.714,"column_13":null,"column_8":null,"column_14":null,"column_9":null,"column_15":null,"column_16":null,"column_17":null,"univesity":"University of Kansas","id":"a68wou97j92j","geo_precision":"city","student":"Graham Stevenson","state":"KS"},"type":"Feature","geometry":{"type":"Point","coordinates":[-85.531072,34.232316]}},{"properties":{"city":"Lawrence","column_10":null,"column_5":null,"column_11":null,"column_6":null,"column_12":null,"column_7":null,"geo_score":0.714,"column_13":null,"column_8":null,"column_14":null,"column_9":null,"column_15":null,"column_16":null,"column_17":null,"univesity":"University of Kansas","id":"a68wou0a73x1","geo_precision":"city","student":"Peter Stout","state":"KS"},"type":"Feature","geometry":{"type":"Point","coordinates":[-85.531072,34.232316]}},{"properties":{"city":"Lawrence","column_10":null,"column_5":null,"column_11":null,"column_6":null,"column_12":null,"column_7":null,"geo_score":0.714,"column_13":null,"column_8":null,"column_14":null,"column_9":null,"column_15":null,"column_16":null,"column_17":null,"univesity":"University of Kansas","id":"a68wotycdq36","geo_precision":"city","student":"Jack Thorpe","state":"KS"},"type":"Feature","geometry":{"type":"Point","coordinates":[-85.531072,34.232316]}},{"properties":{"city":"Lawrence","column_10":null,"column_5":null,"column_11":null,"column_6":null,"column_12":null,"column_7":null,"geo_score":0.714,"column_13":null,"column_8":null,"column_14":null,"column_9":null,"column_15":null,"column_16":null,"column_17":null,"univesity":"University of Kansas","id":"a68wouauh71t","geo_precision":"city","student":"Molly Troutman","state":"KS"},"type":"Feature","geometry":{"type":"Point","coordinates":[-85.531072,34.232316]}},{"properties":{"city":"Lawrence","column_10":null,"column_5":null,"column_11":null,"column_6":null,"column_12":null,"column_7":null,"geo_score":0.714,"column_13":null,"column_8":null,"column_14":null,"column_9":null,"column_15":null,"column_16":null,"column_17":null,"univesity":"University of Kansas","id":"a68wou7xbme0","geo_precision":"city","student":"Dejuanne Tucker","state":"KS"},"type":"Feature","geometry":{"type":"Point","coordinates":[-85.531072,34.232316]}},{"properties":{"city":"Lawrence","column_10":null,"column_5":null,"column_11":null,"column_6":null,"column_12":null,"column_7":null,"geo_score":0.714,"column_13":null,"column_8":null,"column_14":null,"column_9":null,"column_15":null,"column_16":null,"column_17":null,"univesity":"University of Kansas","id":"a68wou8mk43t","geo_precision":"city","student":"Conor Twibell","state":"KS"},"type":"Feature","geometry":{"type":"Point","coordinates":[-85.531072,34.232316]}},{"properties":{"city":"Lawrence","column_10":null,"column_5":null,"column_11":null,"column_6":null,"column_12":null,"column_7":null,"geo_score":0.714,"column_13":null,"column_8":null,"column_14":null,"column_9":null,"column_15":null,"column_16":null,"column_17":null,"univesity":"University of Kansas","id":"a68wotyxtytx","geo_precision":"city","student":"Ryan Waisner","state":"KS"},"type":"Feature","geometry":{"type":"Point","coordinates":[-85.531072,34.232316]}},{"properties":{"city":"Lawrence","column_10":null,"column_5":null,"column_11":null,"column_6":null,"column_12":null,"column_7":null,"geo_score":0.714,"column_13":null,"column_8":null,"column_14":null,"column_9":null,"column_15":null,"column_16":null,"column_17":null,"univesity":"University of Kansas","id":"a68wou9h40wp","geo_precision":"city","student":"Reed Waldon","state":"KS"},"type":"Feature","geometry":{"type":"Point","coordinates":[-85.531072,34.232316]}},{"properties":{"city":"Lawrence","column_10":null,"column_5":null,"column_11":null,"column_6":null,"column_12":null,"column_7":null,"geo_score":0.714,"column_13":null,"column_8":null,"column_14":null,"column_9":null,"column_15":null,"column_16":null,"column_17":null,"univesity":"University of Kansas","id":"a68wotxs0k9x","geo_precision":"city","student":"Elizabeth Ward","state":"KS"},"type":"Feature","geometry":{"type":"Point","coordinates":[-85.531072,34.232316]}},{"properties":{"city":"Lawrence","column_10":null,"column_5":null,"column_11":null,"column_6":null,"column_12":null,"column_7":null,"geo_score":0.714,"column_13":null,"column_8":null,"column_14":null,"column_9":null,"column_15":null,"column_16":null,"column_17":null,"univesity":"University of Kansas","id":"a68wotvqpxjj","geo_precision":"city","student":"Derone Watson","state":"KS"},"type":"Feature","geometry":{"type":"Point","coordinates":[-85.531072,34.232316]}},{"properties":{"city":"Lawrence","column_10":null,"column_5":null,"column_11":null,"column_6":null,"column_12":null,"column_7":null,"geo_score":0.714,"column_13":null,"column_8":null,"column_14":null,"column_9":null,"column_15":null,"column_16":null,"column_17":null,"univesity":"University of Kansas","id":"a68wotwozw99","geo_precision":"city","student":"Riley Watson","state":"KS"},"type":"Feature","geometry":{"type":"Point","coordinates":[-85.531072,34.232316]}},{"properties":{"city":"Lawrence","column_10":null,"column_5":null,"column_11":null,"column_6":null,"column_12":null,"column_7":null,"geo_score":0.714,"column_13":null,"column_8":null,"column_14":null,"column_9":null,"column_15":null,"column_16":null,"column_17":null,"univesity":"University of Kansas","id":"a68wou1mi6ai","geo_precision":"city","student":"Scott Watson","state":"KS"},"type":"Feature","geometry":{"type":"Point","coordinates":[-85.531072,34.232316]}},{"properties":{"city":"Lawrence","column_10":null,"column_5":null,"column_11":null,"column_6":null,"column_12":null,"column_7":null,"geo_score":0.714,"column_13":null,"column_8":null,"column_14":null,"column_9":null,"column_15":null,"column_16":null,"column_17":null,"univesity":"University of Kansas","id":"a68wou6pojwb","geo_precision":"city","student":"Tim Wendt","state":"KS"},"type":"Feature","geometry":{"type":"Point","coordinates":[-85.531072,34.232316]}},{"properties":{"city":"Lawrence","column_10":null,"column_5":null,"column_11":null,"column_6":null,"column_12":null,"column_7":null,"geo_score":0.714,"column_13":null,"column_8":null,"column_14":null,"column_9":null,"column_15":null,"column_16":null,"column_17":null,"univesity":"University of Kansas","id":"a68wou4evuay","geo_precision":"city","student":"Alex West","state":"KS"},"type":"Feature","geometry":{"type":"Point","coordinates":[-85.531072,34.232316]}},{"properties":{"city":"Lawrence","column_10":null,"column_5":null,"column_11":null,"column_6":null,"column_12":null,"column_7":null,"geo_score":0.714,"column_13":null,"column_8":null,"column_14":null,"column_9":null,"column_15":null,"column_16":null,"column_17":null,"univesity":"University of Kansas","id":"a68wou5v8pzk","geo_precision":"city","student":"Andrea Wickstrom","state":"KS"},"type":"Feature","geometry":{"type":"Point","coordinates":[-85.531072,34.232316]}},{"properties":{"city":"Lawrence","column_10":null,"column_5":null,"column_11":null,"column_6":null,"column_12":null,"column_7":null,"geo_score":0.714,"column_13":null,"column_8":null,"column_14":null,"column_9":null,"column_15":null,"column_16":null,"column_17":null,"univesity":"University of Kansas","id":"a68wou3uiwj7","geo_precision":"city","student":"Claire Williams","state":"KS"},"type":"Feature","geometry":{"type":"Point","coordinates":[-85.531072,34.232316]}},{"properties":{"city":"Lawrence","column_10":null,"column_5":null,"column_11":null,"column_6":null,"column_12":null,"column_7":null,"geo_score":0.714,"column_13":null,"column_8":null,"column_14":null,"column_9":null,"column_15":null,"column_16":null,"column_17":null,"univesity":"University of Kansas","id":"a68wotwlfm99","geo_precision":"city","student":"Drake Winn","state":"KS"},"type":"Feature","geometry":{"type":"Point","coordinates":[-85.531072,34.232316]}},{"properties":{"city":"Lawrence","column_10":null,"column_5":null,"column_11":null,"column_6":null,"column_12":null,"column_7":null,"geo_score":0.714,"column_13":null,"column_8":null,"column_14":null,"column_9":null,"column_15":null,"column_16":null,"column_17":null,"univesity":"University of Kansas","id":"a68wou15dlfs","geo_precision":"city","student":"Reed Woltering","state":"KS"},"type":"Feature","geometry":{"type":"Point","coordinates":[-85.531072,34.232316]}},{"properties":{"city":"Lawrence","column_10":null,"column_5":null,"column_11":null,"column_6":null,"column_12":null,"column_7":null,"geo_score":0.714,"column_13":null,"column_8":null,"column_14":null,"column_9":null,"column_15":null,"column_16":null,"column_17":null,"univesity":"University of Kansas","id":"a68wou1tpwqt","geo_precision":"city","student":"Darby Wooldridge","state":"KS"},"type":"Feature","geometry":{"type":"Point","coordinates":[-85.531072,34.232316]}},{"properties":{"city":"Lawrence","column_10":null,"column_5":null,"column_11":null,"column_6":null,"column_12":null,"column_7":null,"geo_score":0.714,"column_13":null,"column_8":null,"column_14":null,"column_9":null,"column_15":null,"column_16":null,"column_17":null,"univesity":"University of Kansas","id":"a68wou5hzxpw","geo_precision":"city","student":"Peter Young","state":"KS"},"type":"Feature","geometry":{"type":"Point","coordinates":[-85.531072,34.232316]}},{"properties":{"city":"Lawrence","column_10":null,"column_5":null,"column_11":null,"column_6":null,"column_12":null,"column_7":null,"geo_score":0.714,"column_13":null,"column_8":null,"column_14":null,"column_9":null,"column_15":null,"column_16":null,"column_17":null,"univesity":"University of Kansas","id":"a68wou7nj5xk","geo_precision":"city","student":"Andrea Zecy","state":"KS"},"type":"Feature","geometry":{"type":"Point","coordinates":[-85.531072,34.232316]}},{"properties":{"city":"Lawrence","column_10":null,"column_5":null,"column_11":null,"column_6":null,"column_12":null,"column_7":null,"geo_score":0.714,"column_13":null,"column_8":null,"column_14":null,"column_9":null,"column_15":null,"column_16":null,"column_17":null,"univesity":"University of Kansas","id":"a68wou8id5bi","geo_precision":"city","student":"Chenshan Zhou","state":"KS"},"type":"Feature","geometry":{"type":"Point","coordinates":[-85.531072,34.232316]}},{"properties":{"city":"Lexington","column_10":null,"column_5":null,"column_11":null,"column_6":null,"column_12":null,"column_7":null,"geo_score":0.714,"column_13":null,"column_8":null,"column_14":null,"column_9":null,"column_15":null,"column_16":null,"column_17":null,"univesity":"Washington and Lee University","id":"a68wou8hkdkr","geo_precision":"city","student":"Zach Colby","state":"VA"},"type":"Feature","geometry":{"type":"Point","coordinates":[-84.477715,37.988689]}},{"properties":{"city":"Lincoln","column_10":null,"column_5":null,"column_11":null,"column_6":null,"column_12":null,"column_7":null,"geo_score":0.714,"column_13":null,"column_8":null,"column_14":null,"column_9":null,"column_15":null,"column_16":null,"column_17":null,"univesity":"University of Nebraska","id":"a68wou0m8t00","geo_precision":"city","student":"Molly Rappold","state":"NE"},"type":"Feature","geometry":{"type":"Point","coordinates":[-96.66696,40.800001]}},{"properties":{"city":"Lincoln","column_10":null,"column_5":null,"column_11":null,"column_6":null,"column_12":null,"column_7":null,"geo_score":0.714,"column_13":null,"column_8":null,"column_14":null,"column_9":null,"column_15":null,"column_16":null,"column_17":null,"univesity":"University of Nebraska","id":"a68wotwlpx6q","geo_precision":"city","student":"Alex Shook","state":"NE"},"type":"Feature","geometry":{"type":"Point","coordinates":[-96.66696,40.800001]}},{"properties":{"city":"Longmont","column_10":null,"column_5":null,"column_11":null,"column_6":null,"column_12":null,"column_7":null,"geo_score":0.714,"column_13":null,"column_8":null,"column_14":null,"column_9":null,"column_15":null,"column_16":null,"column_17":null,"univesity":"Front Range Community College","id":"a68wou2e27lq","geo_precision":"city","student":"Sam Wood","state":"CO"},"type":"Feature","geometry":{"type":"Point","coordinates":[-105.1633,40.165634]}},{"properties":{"city":"Los Angeles","column_10":null,"column_5":null,"column_11":null,"column_6":null,"column_12":null,"column_7":null,"geo_score":0.857,"column_13":null,"column_8":null,"column_14":null,"column_9":null,"column_15":null,"column_16":null,"column_17":null,"univesity":"University of Southern California","id":"a68wotxot2dc","geo_precision":"city","student":"Ashley Adams","state":"CA"},"type":"Feature","geometry":{"type":"Point","coordinates":[-118.243685,34.052234]}},{"properties":{"city":"Los Angeles","column_10":null,"column_5":null,"column_11":null,"column_6":null,"column_12":null,"column_7":null,"geo_score":0.714,"column_13":null,"column_8":null,"column_14":null,"column_9":null,"column_15":null,"column_16":null,"column_17":null,"univesity":"University of Southern California","id":"a68wouafz290","geo_precision":"city","student":"Logan Heley","state":"CA"},"type":"Feature","geometry":{"type":"Point","coordinates":[-118.243685,34.052234]}},{"properties":{"city":"Madison","column_10":null,"column_5":null,"column_11":null,"column_6":null,"column_12":null,"column_7":null,"geo_score":0.714,"column_13":null,"column_8":null,"column_14":null,"column_9":null,"column_15":null,"column_16":null,"column_17":null,"univesity":"University of Wisconsin","id":"a68wou06oywm","geo_precision":"city","student":"Meagan Dexter","state":"WI"},"type":"Feature","geometry":{"type":"Point","coordinates":[-89.40123,43.073052]}},{"properties":{"city":"Madison","column_10":null,"column_5":null,"column_11":null,"column_6":null,"column_12":null,"column_7":null,"geo_score":0.714,"column_13":null,"column_8":null,"column_14":null,"column_9":null,"column_15":null,"column_16":null,"column_17":null,"univesity":"University of Wisconsin","id":"a68wouagty57","geo_precision":"city","student":"Spencer Jarrold","state":"WI"},"type":"Feature","geometry":{"type":"Point","coordinates":[-89.40123,43.073052]}},{"properties":{"city":"Manhattan","column_10":null,"column_5":null,"column_11":null,"column_6":null,"column_12":null,"column_7":null,"geo_score":0.714,"column_13":null,"column_8":null,"column_14":null,"column_9":null,"column_15":null,"column_16":null,"column_17":null,"univesity":"Kansas State University","id":"a68wou50tehy","geo_precision":"city","student":"John Aldrich","state":"KS"},"type":"Feature","geometry":{"type":"Point","coordinates":[-86.927511,39.555044]}},{"properties":{"city":"Manhattan","column_10":null,"column_5":null,"column_11":null,"column_6":null,"column_12":null,"column_7":null,"geo_score":0.714,"column_13":null,"column_8":null,"column_14":null,"column_9":null,"column_15":null,"column_16":null,"column_17":null,"univesity":"Kansas State University","id":"a68wou2hqnvc","geo_precision":"city","student":"Sam Berry","state":"KS"},"type":"Feature","geometry":{"type":"Point","coordinates":[-86.927511,39.555044]}},{"properties":{"city":"Manhattan","column_10":null,"column_5":null,"column_11":null,"column_6":null,"column_12":null,"column_7":null,"geo_score":0.714,"column_13":null,"column_8":null,"column_14":null,"column_9":null,"column_15":null,"column_16":null,"column_17":null,"univesity":"Kansas State University","id":"a68wou0obj78","geo_precision":"city","student":"Cate Birkenmeier","state":"KS"},"type":"Feature","geometry":{"type":"Point","coordinates":[-86.927511,39.555044]}},{"properties":{"city":"Manhattan","column_10":null,"column_5":null,"column_11":null,"column_6":null,"column_12":null,"column_7":null,"geo_score":0.714,"column_13":null,"column_8":null,"column_14":null,"column_9":null,"column_15":null,"column_16":null,"column_17":null,"univesity":"Kansas State University","id":"a68wou4v2elf","geo_precision":"city","student":"Krey Bradley","state":"KS"},"type":"Feature","geometry":{"type":"Point","coordinates":[-86.927511,39.555044]}},{"properties":{"city":"Manhattan","column_10":null,"column_5":null,"column_11":null,"column_6":null,"column_12":null,"column_7":null,"geo_score":0.714,"column_13":null,"column_8":null,"column_14":null,"column_9":null,"column_15":null,"column_16":null,"column_17":null,"univesity":"Kansas State University","id":"a68wou5t18cv","geo_precision":"city","student":"Reid Brummer","state":"KS"},"type":"Feature","geometry":{"type":"Point","coordinates":[-86.927511,39.555044]}},{"properties":{"city":"Manhattan","column_10":null,"column_5":null,"column_11":null,"column_6":null,"column_12":null,"column_7":null,"geo_score":0.714,"column_13":null,"column_8":null,"column_14":null,"column_9":null,"column_15":null,"column_16":null,"column_17":null,"univesity":"Kansas State University","id":"a68wotymvpjv","geo_precision":"city","student":"Rhegg Delara","state":"KS"},"type":"Feature","geometry":{"type":"Point","coordinates":[-86.927511,39.555044]}},{"properties":{"city":"Manhattan","column_10":null,"column_5":null,"column_11":null,"column_6":null,"column_12":null,"column_7":null,"geo_score":0.714,"column_13":null,"column_8":null,"column_14":null,"column_9":null,"column_15":null,"column_16":null,"column_17":null,"univesity":"Kansas State University","id":"a68wouaieynn","geo_precision":"city","student":"Mac Dolliver","state":"KS"},"type":"Feature","geometry":{"type":"Point","coordinates":[-86.927511,39.555044]}},{"properties":{"city":"Manhattan","column_10":null,"column_5":null,"column_11":null,"column_6":null,"column_12":null,"column_7":null,"geo_score":0.714,"column_13":null,"column_8":null,"column_14":null,"column_9":null,"column_15":null,"column_16":null,"column_17":null,"univesity":"Kansas State University","id":"a68wou9767yu","geo_precision":"city","student":"Hannah Earley","state":"KS"},"type":"Feature","geometry":{"type":"Point","coordinates":[-86.927511,39.555044]}},{"properties":{"city":"Manhattan","column_10":null,"column_5":null,"column_11":null,"column_6":null,"column_12":null,"column_7":null,"geo_score":0.714,"column_13":null,"column_8":null,"column_14":null,"column_9":null,"column_15":null,"column_16":null,"column_17":null,"univesity":"Kansas State University","id":"a68wotw1rryl","geo_precision":"city","student":"Emily Ellenberger","state":"KS"},"type":"Feature","geometry":{"type":"Point","coordinates":[-86.927511,39.555044]}},{"properties":{"city":"Manhattan","column_10":null,"column_5":null,"column_11":null,"column_6":null,"column_12":null,"column_7":null,"geo_score":0.714,"column_13":null,"column_8":null,"column_14":null,"column_9":null,"column_15":null,"column_16":null,"column_17":null,"univesity":"Kansas State University","id":"a68wotwmmu53","geo_precision":"city","student":"Kristen Fischer","state":"KS"},"type":"Feature","geometry":{"type":"Point","coordinates":[-86.927511,39.555044]}},{"properties":{"city":"Manhattan","column_10":null,"column_5":null,"column_11":null,"column_6":null,"column_12":null,"column_7":null,"geo_score":0.714,"column_13":null,"column_8":null,"column_14":null,"column_9":null,"column_15":null,"column_16":null,"column_17":null,"univesity":"Kansas State University","id":"a68wotxlt09t","geo_precision":"city","student":"Lauren Fischer","state":"KS"},"type":"Feature","geometry":{"type":"Point","coordinates":[-86.927511,39.555044]}},{"properties":{"city":"Manhattan","column_10":null,"column_5":null,"column_11":null,"column_6":null,"column_12":null,"column_7":null,"geo_score":0.714,"column_13":null,"column_8":null,"column_14":null,"column_9":null,"column_15":null,"column_16":null,"column_17":null,"univesity":"Kansas State University","id":"a68woty1buk2","geo_precision":"city","student":"Haley Fosnough-Biersmith","state":"KS"},"type":"Feature","geometry":{"type":"Point","coordinates":[-86.927511,39.555044]}},{"properties":{"city":"Manhattan","column_10":null,"column_5":null,"column_11":null,"column_6":null,"column_12":null,"column_7":null,"geo_score":0.714,"column_13":null,"column_8":null,"column_14":null,"column_9":null,"column_15":null,"column_16":null,"column_17":null,"univesity":"Kansas State University","id":"a68wou8nmgmf","geo_precision":"city","student":"Sarah Genton","state":"KS"},"type":"Feature","geometry":{"type":"Point","coordinates":[-86.927511,39.555044]}},{"properties":{"city":"Manhattan","column_10":null,"column_5":null,"column_11":null,"column_6":null,"column_12":null,"column_7":null,"geo_score":0.714,"column_13":null,"column_8":null,"column_14":null,"column_9":null,"column_15":null,"column_16":null,"column_17":null,"univesity":"Kansas State University","id":"a68wou79dhp9","geo_precision":"city","student":"Emily Goering","state":"KS"},"type":"Feature","geometry":{"type":"Point","coordinates":[-86.927511,39.555044]}},{"properties":{"city":"Manhattan","column_10":null,"column_5":null,"column_11":null,"column_6":null,"column_12":null,"column_7":null,"geo_score":0.714,"column_13":null,"column_8":null,"column_14":null,"column_9":null,"column_15":null,"column_16":null,"column_17":null,"univesity":"Kansas State University","id":"a68wou4qywi2","geo_precision":"city","student":"Isabelle Huyett","state":"KS"},"type":"Feature","geometry":{"type":"Point","coordinates":[-86.927511,39.555044]}},{"properties":{"city":"Manhattan","column_10":null,"column_5":null,"column_11":null,"column_6":null,"column_12":null,"column_7":null,"geo_score":0.714,"column_13":null,"column_8":null,"column_14":null,"column_9":null,"column_15":null,"column_16":null,"column_17":null,"univesity":"Kansas State University","id":"a68wou8s6su1","geo_precision":"city","student":"Mary Joyce","state":"KS"},"type":"Feature","geometry":{"type":"Point","coordinates":[-86.927511,39.555044]}},{"properties":{"city":"Manhattan","column_10":null,"column_5":null,"column_11":null,"column_6":null,"column_12":null,"column_7":null,"geo_score":0.714,"column_13":null,"column_8":null,"column_14":null,"column_9":null,"column_15":null,"column_16":null,"column_17":null,"univesity":"Kansas State University","id":"a68wou0jsozi","geo_precision":"city","student":"Alex Keller","state":"KS"},"type":"Feature","geometry":{"type":"Point","coordinates":[-86.927511,39.555044]}},{"properties":{"city":"Manhattan","column_10":null,"column_5":null,"column_11":null,"column_6":null,"column_12":null,"column_7":null,"geo_score":0.714,"column_13":null,"column_8":null,"column_14":null,"column_9":null,"column_15":null,"column_16":null,"column_17":null,"univesity":"Kansas State University","id":"a68wotxrxwzg","geo_precision":"city","student":"Carter Kerr","state":"KS"},"type":"Feature","geometry":{"type":"Point","coordinates":[-86.927511,39.555044]}},{"properties":{"city":"Manhattan","column_10":null,"column_5":null,"column_11":null,"column_6":null,"column_12":null,"column_7":null,"geo_score":0.714,"column_13":null,"column_8":null,"column_14":null,"column_9":null,"column_15":null,"column_16":null,"column_17":null,"univesity":"Kansas State University","id":"a68wou8e8kqy","geo_precision":"city","student":"Cassie Kerr","state":"KS"},"type":"Feature","geometry":{"type":"Point","coordinates":[-86.927511,39.555044]}},{"properties":{"city":"Manhattan","column_10":null,"column_5":null,"column_11":null,"column_6":null,"column_12":null,"column_7":null,"geo_score":0.714,"column_13":null,"column_8":null,"column_14":null,"column_9":null,"column_15":null,"column_16":null,"column_17":null,"univesity":"Kansas State University","id":"a68wou13tfbm","geo_precision":"city","student":"Brittany Lackner","state":"KS"},"type":"Feature","geometry":{"type":"Point","coordinates":[-86.927511,39.555044]}},{"properties":{"city":"Manhattan","column_10":null,"column_5":null,"column_11":null,"column_6":null,"column_12":null,"column_7":null,"geo_score":0.714,"column_13":null,"column_8":null,"column_14":null,"column_9":null,"column_15":null,"column_16":null,"column_17":null,"univesity":"Kansas State University","id":"a68woub7r6ps","geo_precision":"city","student":"Austin Lage","state":"KS"},"type":"Feature","geometry":{"type":"Point","coordinates":[-86.927511,39.555044]}},{"properties":{"city":"Manhattan","column_10":null,"column_5":null,"column_11":null,"column_6":null,"column_12":null,"column_7":null,"geo_score":0.714,"column_13":null,"column_8":null,"column_14":null,"column_9":null,"column_15":null,"column_16":null,"column_17":null,"univesity":"Kansas State University","id":"a68wotvjhpcx","geo_precision":"city","student":"Josh Mais","state":"KS"},"type":"Feature","geometry":{"type":"Point","coordinates":[-86.927511,39.555044]}},{"properties":{"city":"Manhattan","column_10":null,"column_5":null,"column_11":null,"column_6":null,"column_12":null,"column_7":null,"geo_score":0.714,"column_13":null,"column_8":null,"column_14":null,"column_9":null,"column_15":null,"column_16":null,"column_17":null,"univesity":"Kansas State University","id":"a68wou1dho2g","geo_precision":"city","student":"Sarah McKittrick","state":"KS"},"type":"Feature","geometry":{"type":"Point","coordinates":[-86.927511,39.555044]}},{"properties":{"city":"Manhattan","column_10":null,"column_5":null,"column_11":null,"column_6":null,"column_12":null,"column_7":null,"geo_score":0.714,"column_13":null,"column_8":null,"column_14":null,"column_9":null,"column_15":null,"column_16":null,"column_17":null,"univesity":"Kansas State University","id":"a68wou499mhh","geo_precision":"city","student":"Mark Mergen","state":"KS"},"type":"Feature","geometry":{"type":"Point","coordinates":[-86.927511,39.555044]}},{"properties":{"city":"Manhattan","column_10":null,"column_5":null,"column_11":null,"column_6":null,"column_12":null,"column_7":null,"geo_score":0.714,"column_13":null,"column_8":null,"column_14":null,"column_9":null,"column_15":null,"column_16":null,"column_17":null,"univesity":"Kansas State University","id":"a68wouax3u6k","geo_precision":"city","student":"Madi Middleton","state":"KS"},"type":"Feature","geometry":{"type":"Point","coordinates":[-86.927511,39.555044]}},{"properties":{"city":"Manhattan","column_10":null,"column_5":null,"column_11":null,"column_6":null,"column_12":null,"column_7":null,"geo_score":0.714,"column_13":null,"column_8":null,"column_14":null,"column_9":null,"column_15":null,"column_16":null,"column_17":null,"univesity":"Kansas State University","id":"a68wou779rup","geo_precision":"city","student":"Brett Miller","state":"KS"},"type":"Feature","geometry":{"type":"Point","coordinates":[-86.927511,39.555044]}},{"properties":{"city":"Manhattan","column_10":null,"column_5":null,"column_11":null,"column_6":null,"column_12":null,"column_7":null,"geo_score":0.714,"column_13":null,"column_8":null,"column_14":null,"column_9":null,"column_15":null,"column_16":null,"column_17":null,"univesity":"Kansas State University","id":"a68woubcfyco","geo_precision":"city","student":"Taylor Odell","state":"KS"},"type":"Feature","geometry":{"type":"Point","coordinates":[-86.927511,39.555044]}},{"properties":{"city":"Manhattan","column_10":null,"column_5":null,"column_11":null,"column_6":null,"column_12":null,"column_7":null,"geo_score":0.714,"column_13":null,"column_8":null,"column_14":null,"column_9":null,"column_15":null,"column_16":null,"column_17":null,"univesity":"Kansas State University","id":"a68wou60hvec","geo_precision":"city","student":"Graham Redelsheimer","state":"KS"},"type":"Feature","geometry":{"type":"Point","coordinates":[-86.927511,39.555044]}},{"properties":{"city":"Manhattan","column_10":null,"column_5":null,"column_11":null,"column_6":null,"column_12":null,"column_7":null,"geo_score":0.714,"column_13":null,"column_8":null,"column_14":null,"column_9":null,"column_15":null,"column_16":null,"column_17":null,"univesity":"Kansas State University","id":"a68wou6qfv3v","geo_precision":"city","student":"Kerri Ricketts","state":"KS"},"type":"Feature","geometry":{"type":"Point","coordinates":[-86.927511,39.555044]}},{"properties":{"city":"Manhattan","column_10":null,"column_5":null,"column_11":null,"column_6":null,"column_12":null,"column_7":null,"geo_score":0.714,"column_13":null,"column_8":null,"column_14":null,"column_9":null,"column_15":null,"column_16":null,"column_17":null,"univesity":"Kansas State University","id":"a68woua112kd","geo_precision":"city","student":"James Rosa","state":"KS"},"type":"Feature","geometry":{"type":"Point","coordinates":[-86.927511,39.555044]}},{"properties":{"city":"Manhattan","column_10":null,"column_5":null,"column_11":null,"column_6":null,"column_12":null,"column_7":null,"geo_score":0.714,"column_13":null,"column_8":null,"column_14":null,"column_9":null,"column_15":null,"column_16":null,"column_17":null,"univesity":"Kansas State University","id":"a68wou2ivr62","geo_precision":"city","student":"Andy Ryan","state":"KS"},"type":"Feature","geometry":{"type":"Point","coordinates":[-86.927511,39.555044]}},{"properties":{"city":"Manhattan","column_10":null,"column_5":null,"column_11":null,"column_6":null,"column_12":null,"column_7":null,"geo_score":0.714,"column_13":null,"column_8":null,"column_14":null,"column_9":null,"column_15":null,"column_16":null,"column_17":null,"univesity":"Kansas State University","id":"a68wou3ryabp","geo_precision":"city","student":"Ben Slater","state":"KS"},"type":"Feature","geometry":{"type":"Point","coordinates":[-86.927511,39.555044]}},{"properties":{"city":"Manhattan","column_10":null,"column_5":null,"column_11":null,"column_6":null,"column_12":null,"column_7":null,"geo_score":0.714,"column_13":null,"column_8":null,"column_14":null,"column_9":null,"column_15":null,"column_16":null,"column_17":null,"univesity":"Kansas State University","id":"a68woua21mpf","geo_precision":"city","student":"Bailey Spickler","state":"KS"},"type":"Feature","geometry":{"type":"Point","coordinates":[-86.927511,39.555044]}},{"properties":{"city":"Manhattan","column_10":null,"column_5":null,"column_11":null,"column_6":null,"column_12":null,"column_7":null,"geo_score":0.714,"column_13":null,"column_8":null,"column_14":null,"column_9":null,"column_15":null,"column_16":null,"column_17":null,"univesity":"Kansas State University","id":"a68wotwtwnsv","geo_precision":"city","student":"Libby Steinbock","state":"KS"},"type":"Feature","geometry":{"type":"Point","coordinates":[-86.927511,39.555044]}},{"properties":{"city":"Manhattan","column_10":null,"column_5":null,"column_11":null,"column_6":null,"column_12":null,"column_7":null,"geo_score":0.714,"column_13":null,"column_8":null,"column_14":null,"column_9":null,"column_15":null,"column_16":null,"column_17":null,"univesity":"Kansas State University","id":"a68wotvya30c","geo_precision":"city","student":"John Stiles","state":"KS"},"type":"Feature","geometry":{"type":"Point","coordinates":[-86.927511,39.555044]}},{"properties":{"city":"Manhattan","column_10":null,"column_5":null,"column_11":null,"column_6":null,"column_12":null,"column_7":null,"geo_score":0.714,"column_13":null,"column_8":null,"column_14":null,"column_9":null,"column_15":null,"column_16":null,"column_17":null,"univesity":"Kansas State University","id":"a68wou93qx89","geo_precision":"city","student":"Audrey Thompson","state":"KS"},"type":"Feature","geometry":{"type":"Point","coordinates":[-86.927511,39.555044]}},{"properties":{"city":"Manhattan","column_10":null,"column_5":null,"column_11":null,"column_6":null,"column_12":null,"column_7":null,"geo_score":0.714,"column_13":null,"column_8":null,"column_14":null,"column_9":null,"column_15":null,"column_16":null,"column_17":null,"univesity":"Kansas State University","id":"a68wouap0aqc","geo_precision":"city","student":"Michael Tuschhoff","state":"KS"},"type":"Feature","geometry":{"type":"Point","coordinates":[-86.927511,39.555044]}},{"properties":{"city":"Manhattan","column_10":null,"column_5":null,"column_11":null,"column_6":null,"column_12":null,"column_7":null,"geo_score":0.714,"column_13":null,"column_8":null,"column_14":null,"column_9":null,"column_15":null,"column_16":null,"column_17":null,"univesity":"Kansas State University","id":"a68wotw84dun","geo_precision":"city","student":"Raina Weinberg","state":"KS"},"type":"Feature","geometry":{"type":"Point","coordinates":[-86.927511,39.555044]}},{"properties":{"city":"Manhattan","column_10":null,"column_5":null,"column_11":null,"column_6":null,"column_12":null,"column_7":null,"geo_score":0.714,"column_13":null,"column_8":null,"column_14":null,"column_9":null,"column_15":null,"column_16":null,"column_17":null,"univesity":"Kansas State University","id":"a68wou09h89k","geo_precision":"city","student":"Chase Woofter","state":"KS"},"type":"Feature","geometry":{"type":"Point","coordinates":[-86.927511,39.555044]}},{"properties":{"city":"Memphis","column_10":null,"column_5":null,"column_11":null,"column_6":null,"column_12":null,"column_7":null,"geo_score":0.714,"column_13":null,"column_8":null,"column_14":null,"column_9":null,"column_15":null,"column_16":null,"column_17":null,"univesity":"Rhodes College","id":"a68wotz9tbie","geo_precision":"city","student":"Betsy Dee","state":"TN"},"type":"Feature","geometry":{"type":"Point","coordinates":[-90.04898,35.149534]}},{"properties":{"city":"Memphis","column_10":null,"column_5":null,"column_11":null,"column_6":null,"column_12":null,"column_7":null,"geo_score":0.714,"column_13":null,"column_8":null,"column_14":null,"column_9":null,"column_15":null,"column_16":null,"column_17":null,"univesity":"Rhodes College","id":"a68wou8vcedk","geo_precision":"city","student":"Jack Dee","state":"TN"},"type":"Feature","geometry":{"type":"Point","coordinates":[-90.04898,35.149534]}},{"properties":{"city":"Memphis","column_10":null,"column_5":null,"column_11":null,"column_6":null,"column_12":null,"column_7":null,"geo_score":0.714,"column_13":null,"column_8":null,"column_14":null,"column_9":null,"column_15":null,"column_16":null,"column_17":null,"univesity":"Memphis College of Art","id":"a68wou4nc144","geo_precision":"city","student":"Whitney Kerr","state":"TN"},"type":"Feature","geometry":{"type":"Point","coordinates":[-90.04898,35.149534]}},{"properties":{"city":"Memphis","column_10":null,"column_5":null,"column_11":null,"column_6":null,"column_12":null,"column_7":null,"geo_score":0.714,"column_13":null,"column_8":null,"column_14":null,"column_9":null,"column_15":null,"column_16":null,"column_17":null,"univesity":"Rhodes College","id":"a68wou2d2arf","geo_precision":"city","student":"Lysie Smith","state":"TN"},"type":"Feature","geometry":{"type":"Point","coordinates":[-90.04898,35.149534]}},{"properties":{"city":"Montreal","column_10":null,"column_5":null,"column_11":null,"column_6":null,"column_12":null,"column_7":null,"geo_score":0.714,"column_13":null,"column_8":null,"column_14":null,"column_9":null,"column_15":null,"column_16":null,"column_17":null,"univesity":"HEC Montreal","id":"a68woub9dxsx","geo_precision":"city","student":"Pauline Laberthe","state":"Canada"},"type":"Feature","geometry":{"type":"Point","coordinates":[-94.348548,35.117596]}},{"properties":{"city":"Mount Vernon","column_10":null,"column_5":null,"column_11":null,"column_6":null,"column_12":null,"column_7":null,"geo_score":0.649,"column_13":null,"column_8":null,"column_14":null,"column_9":null,"column_15":null,"column_16":null,"column_17":null,"univesity":"Cornell College","id":"a68wou8tubpr","geo_precision":"city","student":"Kim Conrads","state":"IA"},"type":"Feature","geometry":{"type":"Point","coordinates":[-72.47953,41.81871]}},{"properties":{"city":"Muncie","column_10":null,"column_5":null,"column_11":null,"column_6":null,"column_12":null,"column_7":null,"geo_score":0.595,"column_13":null,"column_8":null,"column_14":null,"column_9":null,"column_15":null,"column_16":null,"column_17":null,"univesity":"Ball State University","id":"a68wou2ndjyi","geo_precision":"city","student":"Alysabeth Albano","state":"IN"},"type":"Feature","geometry":{"type":"Point","coordinates":[-73.591236,41.043986]}},{"properties":{"city":"Nashville","column_10":null,"column_5":null,"column_11":null,"column_6":null,"column_12":null,"column_7":null,"geo_score":0.714,"column_13":null,"column_8":null,"column_14":null,"column_9":null,"column_15":null,"column_16":null,"column_17":null,"univesity":"Belmont University","id":"a68wouathm0x","geo_precision":"city","student":"Katie Cox","state":"TN"},"type":"Feature","geometry":{"type":"Point","coordinates":[-86.784443,36.16589]}},{"properties":{"city":"Nashville","column_10":null,"column_5":null,"column_11":null,"column_6":null,"column_12":null,"column_7":null,"geo_score":0.714,"column_13":null,"column_8":null,"column_14":null,"column_9":null,"column_15":null,"column_16":null,"column_17":null,"univesity":"Belmont University","id":"a68wotxxj95c","geo_precision":"city","student":"Sammi Kelly","state":"TN"},"type":"Feature","geometry":{"type":"Point","coordinates":[-86.784443,36.16589]}},{"properties":{"city":"Nashville","column_10":null,"column_5":null,"column_11":null,"column_6":null,"column_12":null,"column_7":null,"geo_score":0.714,"column_13":null,"column_8":null,"column_14":null,"column_9":null,"column_15":null,"column_16":null,"column_17":null,"univesity":"Vanderbilt University","id":"a68wou8r4rth","geo_precision":"city","student":"Patrick McGannon","state":"TN"},"type":"Feature","geometry":{"type":"Point","coordinates":[-86.784443,36.16589]}},{"properties":{"city":"Nashville","column_10":null,"column_5":null,"column_11":null,"column_6":null,"column_12":null,"column_7":null,"geo_score":0.714,"column_13":null,"column_8":null,"column_14":null,"column_9":null,"column_15":null,"column_16":null,"column_17":null,"univesity":"Vanderbilt University","id":"a68wouawv13s","geo_precision":"city","student":"Robby Medhi","state":"TN"},"type":"Feature","geometry":{"type":"Point","coordinates":[-86.784443,36.16589]}},{"properties":{"city":"Nashville","column_10":null,"column_5":null,"column_11":null,"column_6":null,"column_12":null,"column_7":null,"geo_score":0.714,"column_13":null,"column_8":null,"column_14":null,"column_9":null,"column_15":null,"column_16":null,"column_17":null,"univesity":"Vanderbilt University","id":"a68woubg0f0y","geo_precision":"city","student":"Emily Welter","state":"TN"},"type":"Feature","geometry":{"type":"Point","coordinates":[-86.784443,36.16589]}},{"properties":{"city":"New Haven","column_10":null,"column_5":null,"column_11":null,"column_6":null,"column_12":null,"column_7":null,"geo_score":0.714,"column_13":null,"column_8":null,"column_14":null,"column_9":null,"column_15":null,"column_16":null,"column_17":null,"univesity":"Yale University","id":"a68wou77sm1n","geo_precision":"city","student":"Andrew Goble","state":"CT"},"type":"Feature","geometry":{"type":"Point","coordinates":[-72.928158,41.308153]}},{"properties":{"city":"New York","column_10":null,"column_5":null,"column_11":null,"column_6":null,"column_12":null,"column_7":null,"geo_score":0.714,"column_13":null,"column_8":null,"column_14":null,"column_9":null,"column_15":null,"column_16":null,"column_17":null,"univesity":"Columbia University","id":"a68woubo2gu4","geo_precision":"city","student":"Maddie Bavley","state":"NY"},"type":"Feature","geometry":{"type":"Point","coordinates":[-74.005973,40.714269]}},{"properties":{"city":"New York","column_10":null,"column_5":null,"column_11":null,"column_6":null,"column_12":null,"column_7":null,"geo_score":0.714,"column_13":null,"column_8":null,"column_14":null,"column_9":null,"column_15":null,"column_16":null,"column_17":null,"univesity":"NYU","id":"a68wotvz3dmr","geo_precision":"city","student":"Caroline Miller","state":"NY"},"type":"Feature","geometry":{"type":"Point","coordinates":[-74.005973,40.714269]}},{"properties":{"city":"New York","column_10":null,"column_5":null,"column_11":null,"column_6":null,"column_12":null,"column_7":null,"geo_score":0.714,"column_13":null,"column_8":null,"column_14":null,"column_9":null,"column_15":null,"column_16":null,"column_17":null,"univesity":"Arrojo Cosmetology School","id":"a68wou902ah9","geo_precision":"city","student":"Angela Podoll","state":"NY"},"type":"Feature","geometry":{"type":"Point","coordinates":[-74.005973,40.714269]}},{"properties":{"city":"Northfield","column_10":null,"column_5":null,"column_11":null,"column_6":null,"column_12":null,"column_7":null,"geo_score":0.659,"column_13":null,"column_8":null,"column_14":null,"column_9":null,"column_15":null,"column_16":null,"column_17":null,"univesity":"St. Olaf College","id":"a68wou7rsa3e","geo_precision":"city","student":"Olivia Mansfield","state":"MN"},"type":"Feature","geometry":{"type":"Point","coordinates":[-118.933433,34.406664]}},{"properties":{"city":"Olathe","column_10":null,"column_5":null,"column_11":null,"column_6":null,"column_12":null,"column_7":null,"geo_score":0.714,"column_13":null,"column_8":null,"column_14":null,"column_9":null,"column_15":null,"column_16":null,"column_17":null,"univesity":"Mid-America Nazarine","id":"a68wou0mvrrf","geo_precision":"city","student":"Connor Simpson","state":"KS"},"type":"Feature","geometry":{"type":"Point","coordinates":[-94.819129,38.881396]}},{"properties":{"city":"Omaha","column_10":null,"column_5":null,"column_11":null,"column_6":null,"column_12":null,"column_7":null,"geo_score":0.714,"column_13":null,"column_8":null,"column_14":null,"column_9":null,"column_15":null,"column_16":null,"column_17":null,"univesity":"Creighton University","id":"a68wou0bryib","geo_precision":"city","student":"Hannah Walter","state":"NE"},"type":"Feature","geometry":{"type":"Point","coordinates":[-95.937792,41.25861]}},{"properties":{"city":"Overland Park","column_10":null,"column_5":null,"column_11":null,"column_6":null,"column_12":null,"column_7":null,"geo_score":0.595,"column_13":null,"column_8":null,"column_14":null,"column_9":null,"column_15":null,"column_16":null,"column_17":null,"univesity":"JCCC","id":"a68wou1zuu89","geo_precision":"city","student":"Amber Atha","state":"KS"},"type":"Feature","geometry":{"type":"Point","coordinates":[-92.280706,34.286764]}},{"properties":{"city":"Overland Park","column_10":null,"column_5":null,"column_11":null,"column_6":null,"column_12":null,"column_7":null,"geo_score":0.595,"column_13":null,"column_8":null,"column_14":null,"column_9":null,"column_15":null,"column_16":null,"column_17":null,"univesity":"JCCC","id":"a68woubub81h","geo_precision":"city","student":"Marlio Avalos","state":"KS"},"type":"Feature","geometry":{"type":"Point","coordinates":[-92.280706,34.286764]}},{"properties":{"city":"Overland Park","column_10":null,"column_5":null,"column_11":null,"column_6":null,"column_12":null,"column_7":null,"geo_score":0.595,"column_13":null,"column_8":null,"column_14":null,"column_9":null,"column_15":null,"column_16":null,"column_17":null,"univesity":"JCCC","id":"a68wouadka8v","geo_precision":"city","student":"Morgan Blackerby","state":"KS"},"type":"Feature","geometry":{"type":"Point","coordinates":[-92.280706,34.286764]}},{"properties":{"city":"Overland Park","column_10":null,"column_5":null,"column_11":null,"column_6":null,"column_12":null,"column_7":null,"geo_score":0.595,"column_13":null,"column_8":null,"column_14":null,"column_9":null,"column_15":null,"column_16":null,"column_17":null,"univesity":"JCCC","id":"a68woubfcrvz","geo_precision":"city","student":"Sarah Braden","state":"KS"},"type":"Feature","geometry":{"type":"Point","coordinates":[-92.280706,34.286764]}},{"properties":{"city":"Overland Park","column_10":null,"column_5":null,"column_11":null,"column_6":null,"column_12":null,"column_7":null,"geo_score":0.595,"column_13":null,"column_8":null,"column_14":null,"column_9":null,"column_15":null,"column_16":null,"column_17":null,"univesity":"JCCC","id":"a68wou3a081p","geo_precision":"city","student":"Beth Capps","state":"KS"},"type":"Feature","geometry":{"type":"Point","coordinates":[-92.280706,34.286764]}},{"properties":{"city":"Overland Park","column_10":null,"column_5":null,"column_11":null,"column_6":null,"column_12":null,"column_7":null,"geo_score":0.595,"column_13":null,"column_8":null,"column_14":null,"column_9":null,"column_15":null,"column_16":null,"column_17":null,"univesity":"JCCC","id":"a68wotzsl98q","geo_precision":"city","student":"Kelsey Chadd","state":"KS"},"type":"Feature","geometry":{"type":"Point","coordinates":[-92.280706,34.286764]}},{"properties":{"city":"Overland Park","column_10":null,"column_5":null,"column_11":null,"column_6":null,"column_12":null,"column_7":null,"geo_score":0.595,"column_13":null,"column_8":null,"column_14":null,"column_9":null,"column_15":null,"column_16":null,"column_17":null,"univesity":"JCCC","id":"a68wotwatpjx","geo_precision":"city","student":"Ben Clark","state":"KS"},"type":"Feature","geometry":{"type":"Point","coordinates":[-92.280706,34.286764]}},{"properties":{"city":"Overland Park","column_10":null,"column_5":null,"column_11":null,"column_6":null,"column_12":null,"column_7":null,"geo_score":0.595,"column_13":null,"column_8":null,"column_14":null,"column_9":null,"column_15":null,"column_16":null,"column_17":null,"univesity":"JCCC","id":"a68wotzj40bj","geo_precision":"city","student":"Briana Cochran","state":"KS"},"type":"Feature","geometry":{"type":"Point","coordinates":[-92.280706,34.286764]}},{"properties":{"city":"Overland Park","column_10":null,"column_5":null,"column_11":null,"column_6":null,"column_12":null,"column_7":null,"geo_score":0.595,"column_13":null,"column_8":null,"column_14":null,"column_9":null,"column_15":null,"column_16":null,"column_17":null,"univesity":"JCCC","id":"a68wou66sfxv","geo_precision":"city","student":"Andy Collins","state":"KS"},"type":"Feature","geometry":{"type":"Point","coordinates":[-92.280706,34.286764]}},{"properties":{"city":"Overland Park","column_10":null,"column_5":null,"column_11":null,"column_6":null,"column_12":null,"column_7":null,"geo_score":0.595,"column_13":null,"column_8":null,"column_14":null,"column_9":null,"column_15":null,"column_16":null,"column_17":null,"univesity":"JCCC","id":"a68wou1n6ej3","geo_precision":"city","student":"Trevor Collins","state":"KS"},"type":"Feature","geometry":{"type":"Point","coordinates":[-92.280706,34.286764]}},{"properties":{"city":"Overland Park","column_10":null,"column_5":null,"column_11":null,"column_6":null,"column_12":null,"column_7":null,"geo_score":0.595,"column_13":null,"column_8":null,"column_14":null,"column_9":null,"column_15":null,"column_16":null,"column_17":null,"univesity":"JCCC","id":"a68wou3g0nzv","geo_precision":"city","student":"David Dechant","state":"KS"},"type":"Feature","geometry":{"type":"Point","coordinates":[-92.280706,34.286764]}},{"properties":{"city":"Overland Park","column_10":null,"column_5":null,"column_11":null,"column_6":null,"column_12":null,"column_7":null,"geo_score":0.595,"column_13":null,"column_8":null,"column_14":null,"column_9":null,"column_15":null,"column_16":null,"column_17":null,"univesity":"JCCC","id":"a68wou5b1y4a","geo_precision":"city","student":"Pablo Dominguez","state":"KS"},"type":"Feature","geometry":{"type":"Point","coordinates":[-92.280706,34.286764]}},{"properties":{"city":"Overland Park","column_10":null,"column_5":null,"column_11":null,"column_6":null,"column_12":null,"column_7":null,"geo_score":0.595,"column_13":null,"column_8":null,"column_14":null,"column_9":null,"column_15":null,"column_16":null,"column_17":null,"univesity":"JCCC","id":"a68wouba6cmp","geo_precision":"city","student":"Brandon Evinger","state":"KS"},"type":"Feature","geometry":{"type":"Point","coordinates":[-92.280706,34.286764]}},{"properties":{"city":"Overland Park","column_10":null,"column_5":null,"column_11":null,"column_6":null,"column_12":null,"column_7":null,"geo_score":0.595,"column_13":null,"column_8":null,"column_14":null,"column_9":null,"column_15":null,"column_16":null,"column_17":null,"univesity":"JCCC","id":"a68woua4r7vb","geo_precision":"city","student":"Haley Fisher","state":"KS"},"type":"Feature","geometry":{"type":"Point","coordinates":[-92.280706,34.286764]}},{"properties":{"city":"Overland Park","column_10":null,"column_5":null,"column_11":null,"column_6":null,"column_12":null,"column_7":null,"geo_score":0.595,"column_13":null,"column_8":null,"column_14":null,"column_9":null,"column_15":null,"column_16":null,"column_17":null,"univesity":"JCCC","id":"a68woty0y4q6","geo_precision":"city","student":"Hayden Frey","state":"KS"},"type":"Feature","geometry":{"type":"Point","coordinates":[-92.280706,34.286764]}},{"properties":{"city":"Overland Park","column_10":null,"column_5":null,"column_11":null,"column_6":null,"column_12":null,"column_7":null,"geo_score":0.595,"column_13":null,"column_8":null,"column_14":null,"column_9":null,"column_15":null,"column_16":null,"column_17":null,"univesity":"JCCC","id":"a68wou7pzkrm","geo_precision":"city","student":"George Galvin","state":"KS"},"type":"Feature","geometry":{"type":"Point","coordinates":[-92.280706,34.286764]}},{"properties":{"city":"Overland Park","column_10":null,"column_5":null,"column_11":null,"column_6":null,"column_12":null,"column_7":null,"geo_score":0.595,"column_13":null,"column_8":null,"column_14":null,"column_9":null,"column_15":null,"column_16":null,"column_17":null,"univesity":"JCCC","id":"a68wou0i30k4","geo_precision":"city","student":"Kaitlyn Ganapini","state":"KS"},"type":"Feature","geometry":{"type":"Point","coordinates":[-92.280706,34.286764]}},{"properties":{"city":"Overland Park","column_10":null,"column_5":null,"column_11":null,"column_6":null,"column_12":null,"column_7":null,"geo_score":0.595,"column_13":null,"column_8":null,"column_14":null,"column_9":null,"column_15":null,"column_16":null,"column_17":null,"univesity":"JCCC","id":"a68wou1t8ftd","geo_precision":"city","student":"Melissa Gregg","state":"KS"},"type":"Feature","geometry":{"type":"Point","coordinates":[-92.280706,34.286764]}},{"properties":{"city":"Overland Park","column_10":null,"column_5":null,"column_11":null,"column_6":null,"column_12":null,"column_7":null,"geo_score":0.595,"column_13":null,"column_8":null,"column_14":null,"column_9":null,"column_15":null,"column_16":null,"column_17":null,"univesity":"JCCC","id":"a68wotvnqe2z","geo_precision":"city","student":"Carly Griffith","state":"KS"},"type":"Feature","geometry":{"type":"Point","coordinates":[-92.280706,34.286764]}},{"properties":{"city":"Overland Park","column_10":null,"column_5":null,"column_11":null,"column_6":null,"column_12":null,"column_7":null,"geo_score":0.595,"column_13":null,"column_8":null,"column_14":null,"column_9":null,"column_15":null,"column_16":null,"column_17":null,"univesity":"JCCC","id":"a68wou220h11","geo_precision":"city","student":"Thomas Hayde","state":"KS"},"type":"Feature","geometry":{"type":"Point","coordinates":[-92.280706,34.286764]}},{"properties":{"city":"Overland Park","column_10":null,"column_5":null,"column_11":null,"column_6":null,"column_12":null,"column_7":null,"geo_score":0.595,"column_13":null,"column_8":null,"column_14":null,"column_9":null,"column_15":null,"column_16":null,"column_17":null,"univesity":"JCCC","id":"a68wou8li163","geo_precision":"city","student":"Kirsten Heath","state":"KS"},"type":"Feature","geometry":{"type":"Point","coordinates":[-92.280706,34.286764]}},{"properties":{"city":"Overland Park","column_10":null,"column_5":null,"column_11":null,"column_6":null,"column_12":null,"column_7":null,"geo_score":0.595,"column_13":null,"column_8":null,"column_14":null,"column_9":null,"column_15":null,"column_16":null,"column_17":null,"univesity":"JCCC","id":"a68woty0mzqx","geo_precision":"city","student":"Ryan Hengy","state":"KS"},"type":"Feature","geometry":{"type":"Point","coordinates":[-92.280706,34.286764]}},{"properties":{"city":"Overland Park","column_10":null,"column_5":null,"column_11":null,"column_6":null,"column_12":null,"column_7":null,"geo_score":0.595,"column_13":null,"column_8":null,"column_14":null,"column_9":null,"column_15":null,"column_16":null,"column_17":null,"univesity":"JCCC","id":"a68wotxe3q1s","geo_precision":"city","student":"Todd Higbee","state":"KS"},"type":"Feature","geometry":{"type":"Point","coordinates":[-92.280706,34.286764]}},{"properties":{"city":"Overland Park","column_10":null,"column_5":null,"column_11":null,"column_6":null,"column_12":null,"column_7":null,"geo_score":0.595,"column_13":null,"column_8":null,"column_14":null,"column_9":null,"column_15":null,"column_16":null,"column_17":null,"univesity":"JCCC","id":"a68wou63mdj3","geo_precision":"city","student":"Rachel Hoffman","state":"KS"},"type":"Feature","geometry":{"type":"Point","coordinates":[-92.280706,34.286764]}},{"properties":{"city":"Overland Park","column_10":null,"column_5":null,"column_11":null,"column_6":null,"column_12":null,"column_7":null,"geo_score":0.595,"column_13":null,"column_8":null,"column_14":null,"column_9":null,"column_15":null,"column_16":null,"column_17":null,"univesity":"JCCC","id":"a68wotvrbrys","geo_precision":"city","student":"Morgan Holm","state":"KS"},"type":"Feature","geometry":{"type":"Point","coordinates":[-92.280706,34.286764]}},{"properties":{"city":"Overland Park","column_10":null,"column_5":null,"column_11":null,"column_6":null,"column_12":null,"column_7":null,"geo_score":0.595,"column_13":null,"column_8":null,"column_14":null,"column_9":null,"column_15":null,"column_16":null,"column_17":null,"univesity":"JCCC","id":"a68wou9ma4xw","geo_precision":"city","student":"Cory Jennett","state":"KS"},"type":"Feature","geometry":{"type":"Point","coordinates":[-92.280706,34.286764]}},{"properties":{"city":"Overland Park","column_10":null,"column_5":null,"column_11":null,"column_6":null,"column_12":null,"column_7":null,"geo_score":0.595,"column_13":null,"column_8":null,"column_14":null,"column_9":null,"column_15":null,"column_16":null,"column_17":null,"univesity":"JCCC","id":"a68wou0bni5c","geo_precision":"city","student":"Bert Jilka","state":"KS"},"type":"Feature","geometry":{"type":"Point","coordinates":[-92.280706,34.286764]}},{"properties":{"city":"Overland Park","column_10":null,"column_5":null,"column_11":null,"column_6":null,"column_12":null,"column_7":null,"geo_score":0.595,"column_13":null,"column_8":null,"column_14":null,"column_9":null,"column_15":null,"column_16":null,"column_17":null,"univesity":"JCCC","id":"a68wou4bqs98","geo_precision":"city","student":"Joseph Kashka","state":"KS"},"type":"Feature","geometry":{"type":"Point","coordinates":[-92.280706,34.286764]}},{"properties":{"city":"Overland Park","column_10":null,"column_5":null,"column_11":null,"column_6":null,"column_12":null,"column_7":null,"geo_score":0.595,"column_13":null,"column_8":null,"column_14":null,"column_9":null,"column_15":null,"column_16":null,"column_17":null,"univesity":"JCCC","id":"a68wotzrj1g2","geo_precision":"city","student":"Jacob Kaufman","state":"KS"},"type":"Feature","geometry":{"type":"Point","coordinates":[-92.280706,34.286764]}},{"properties":{"city":"Overland Park","column_10":null,"column_5":null,"column_11":null,"column_6":null,"column_12":null,"column_7":null,"geo_score":0.595,"column_13":null,"column_8":null,"column_14":null,"column_9":null,"column_15":null,"column_16":null,"column_17":null,"univesity":"JCCC","id":"a68wou8fchfb","geo_precision":"city","student":"Precious Kidd","state":"KS"},"type":"Feature","geometry":{"type":"Point","coordinates":[-92.280706,34.286764]}},{"properties":{"city":"Overland Park","column_10":null,"column_5":null,"column_11":null,"column_6":null,"column_12":null,"column_7":null,"geo_score":0.595,"column_13":null,"column_8":null,"column_14":null,"column_9":null,"column_15":null,"column_16":null,"column_17":null,"univesity":"JCCC","id":"a68wou3i1y4h","geo_precision":"city","student":"Carmen Lang","state":"KS"},"type":"Feature","geometry":{"type":"Point","coordinates":[-92.280706,34.286764]}},{"properties":{"city":"Overland Park","column_10":null,"column_5":null,"column_11":null,"column_6":null,"column_12":null,"column_7":null,"geo_score":0.595,"column_13":null,"column_8":null,"column_14":null,"column_9":null,"column_15":null,"column_16":null,"column_17":null,"univesity":"JCCC","id":"a68wou7itm5n","geo_precision":"city","student":"Jesse Lavender","state":"KS"},"type":"Feature","geometry":{"type":"Point","coordinates":[-92.280706,34.286764]}},{"properties":{"city":"Overland Park","column_10":null,"column_5":null,"column_11":null,"column_6":null,"column_12":null,"column_7":null,"geo_score":0.595,"column_13":null,"column_8":null,"column_14":null,"column_9":null,"column_15":null,"column_16":null,"column_17":null,"univesity":"JCCC","id":"a68wou88zcbq","geo_precision":"city","student":"Jake Lybarger","state":"KS"},"type":"Feature","geometry":{"type":"Point","coordinates":[-92.280706,34.286764]}},{"properties":{"city":"Overland Park","column_10":null,"column_5":null,"column_11":null,"column_6":null,"column_12":null,"column_7":null,"geo_score":0.595,"column_13":null,"column_8":null,"column_14":null,"column_9":null,"column_15":null,"column_16":null,"column_17":null,"univesity":"JCCC","id":"a68wotye74ne","geo_precision":"city","student":"Daniel Martinez","state":"KS"},"type":"Feature","geometry":{"type":"Point","coordinates":[-92.280706,34.286764]}},{"properties":{"city":"Overland Park","column_10":null,"column_5":null,"column_11":null,"column_6":null,"column_12":null,"column_7":null,"geo_score":0.595,"column_13":null,"column_8":null,"column_14":null,"column_9":null,"column_15":null,"column_16":null,"column_17":null,"univesity":"JCCC","id":"a68wou9i2skd","geo_precision":"city","student":"Skyler McChristy","state":"KS"},"type":"Feature","geometry":{"type":"Point","coordinates":[-92.280706,34.286764]}},{"properties":{"city":"Overland Park","column_10":null,"column_5":null,"column_11":null,"column_6":null,"column_12":null,"column_7":null,"geo_score":0.595,"column_13":null,"column_8":null,"column_14":null,"column_9":null,"column_15":null,"column_16":null,"column_17":null,"univesity":"JCCC","id":"a68wou9p4u8v","geo_precision":"city","student":"Maggie McGilley","state":"KS"},"type":"Feature","geometry":{"type":"Point","coordinates":[-92.280706,34.286764]}},{"properties":{"city":"Overland Park","column_10":null,"column_5":null,"column_11":null,"column_6":null,"column_12":null,"column_7":null,"geo_score":0.595,"column_13":null,"column_8":null,"column_14":null,"column_9":null,"column_15":null,"column_16":null,"column_17":null,"univesity":"JCCC","id":"a68wou7t8q58","geo_precision":"city","student":"Riley Meurer","state":"KS"},"type":"Feature","geometry":{"type":"Point","coordinates":[-92.280706,34.286764]}},{"properties":{"city":"Overland Park","column_10":null,"column_5":null,"column_11":null,"column_6":null,"column_12":null,"column_7":null,"geo_score":0.595,"column_13":null,"column_8":null,"column_14":null,"column_9":null,"column_15":null,"column_16":null,"column_17":null,"univesity":"JCCC","id":"a68wotwin1yt","geo_precision":"city","student":"Ean Nelson","state":"KS"},"type":"Feature","geometry":{"type":"Point","coordinates":[-92.280706,34.286764]}},{"properties":{"city":"Overland Park","column_10":null,"column_5":null,"column_11":null,"column_6":null,"column_12":null,"column_7":null,"geo_score":0.595,"column_13":null,"column_8":null,"column_14":null,"column_9":null,"column_15":null,"column_16":null,"column_17":null,"univesity":"JCCC","id":"a68wotxmnpmi","geo_precision":"city","student":"Preston Norman","state":"KS"},"type":"Feature","geometry":{"type":"Point","coordinates":[-92.280706,34.286764]}},{"properties":{"city":"Overland Park","column_10":null,"column_5":null,"column_11":null,"column_6":null,"column_12":null,"column_7":null,"geo_score":0.595,"column_13":null,"column_8":null,"column_14":null,"column_9":null,"column_15":null,"column_16":null,"column_17":null,"univesity":"JCCC","id":"a68wou6jbdzu","geo_precision":"city","student":"Jack O'Brien","state":"KS"},"type":"Feature","geometry":{"type":"Point","coordinates":[-92.280706,34.286764]}},{"properties":{"city":"Overland Park","column_10":null,"column_5":null,"column_11":null,"column_6":null,"column_12":null,"column_7":null,"geo_score":0.595,"column_13":null,"column_8":null,"column_14":null,"column_9":null,"column_15":null,"column_16":null,"column_17":null,"univesity":"JCCC","id":"a68wou1bmz9p","geo_precision":"city","student":"Jeremy Osborne","state":"KS"},"type":"Feature","geometry":{"type":"Point","coordinates":[-92.280706,34.286764]}},{"properties":{"city":"Overland Park","column_10":null,"column_5":null,"column_11":null,"column_6":null,"column_12":null,"column_7":null,"geo_score":0.595,"column_13":null,"column_8":null,"column_14":null,"column_9":null,"column_15":null,"column_16":null,"column_17":null,"univesity":"JCCC","id":"a68wou4mri9o","geo_precision":"city","student":"Claire Perkins","state":"KS"},"type":"Feature","geometry":{"type":"Point","coordinates":[-92.280706,34.286764]}},{"properties":{"city":"Overland Park","column_10":null,"column_5":null,"column_11":null,"column_6":null,"column_12":null,"column_7":null,"geo_score":0.595,"column_13":null,"column_8":null,"column_14":null,"column_9":null,"column_15":null,"column_16":null,"column_17":null,"univesity":"JCCC","id":"a68wotwmubi0","geo_precision":"city","student":"Chris Pointer","state":"KS"},"type":"Feature","geometry":{"type":"Point","coordinates":[-92.280706,34.286764]}},{"properties":{"city":"Overland Park","column_10":null,"column_5":null,"column_11":null,"column_6":null,"column_12":null,"column_7":null,"geo_score":0.595,"column_13":null,"column_8":null,"column_14":null,"column_9":null,"column_15":null,"column_16":null,"column_17":null,"univesity":"JCCC","id":"a68wou9zijxa","geo_precision":"city","student":"Andrew Reineke","state":"KS"},"type":"Feature","geometry":{"type":"Point","coordinates":[-92.280706,34.286764]}},{"properties":{"city":"Overland Park","column_10":null,"column_5":null,"column_11":null,"column_6":null,"column_12":null,"column_7":null,"geo_score":0.595,"column_13":null,"column_8":null,"column_14":null,"column_9":null,"column_15":null,"column_16":null,"column_17":null,"univesity":"JCCC","id":"a68wou4z0u1n","geo_precision":"city","student":"Mikaela Remer-Phifer","state":"KS"},"type":"Feature","geometry":{"type":"Point","coordinates":[-92.280706,34.286764]}},{"properties":{"city":"Overland Park","column_10":null,"column_5":null,"column_11":null,"column_6":null,"column_12":null,"column_7":null,"geo_score":0.595,"column_13":null,"column_8":null,"column_14":null,"column_9":null,"column_15":null,"column_16":null,"column_17":null,"univesity":"JCCC","id":"a68wou7hryj1","geo_precision":"city","student":"Connor Roberson","state":"KS"},"type":"Feature","geometry":{"type":"Point","coordinates":[-92.280706,34.286764]}},{"properties":{"city":"Overland Park","column_10":null,"column_5":null,"column_11":null,"column_6":null,"column_12":null,"column_7":null,"geo_score":0.595,"column_13":null,"column_8":null,"column_14":null,"column_9":null,"column_15":null,"column_16":null,"column_17":null,"univesity":"JCCC","id":"a68wotwua6kr","geo_precision":"city","student":"Antonio Ruiz","state":"KS"},"type":"Feature","geometry":{"type":"Point","coordinates":[-92.280706,34.286764]}},{"properties":{"city":"Overland Park","column_10":null,"column_5":null,"column_11":null,"column_6":null,"column_12":null,"column_7":null,"geo_score":0.595,"column_13":null,"column_8":null,"column_14":null,"column_9":null,"column_15":null,"column_16":null,"column_17":null,"univesity":"JCCC","id":"a68wotwa1rez","geo_precision":"city","student":"Kyle Santa Cruz","state":"KS"},"type":"Feature","geometry":{"type":"Point","coordinates":[-92.280706,34.286764]}},{"properties":{"city":"Overland Park","column_10":null,"column_5":null,"column_11":null,"column_6":null,"column_12":null,"column_7":null,"geo_score":0.595,"column_13":null,"column_8":null,"column_14":null,"column_9":null,"column_15":null,"column_16":null,"column_17":null,"univesity":"JCCC","id":"a68wou853yph","geo_precision":"city","student":"Scotty Scott","state":"KS"},"type":"Feature","geometry":{"type":"Point","coordinates":[-92.280706,34.286764]}},{"properties":{"city":"Overland Park","column_10":null,"column_5":null,"column_11":null,"column_6":null,"column_12":null,"column_7":null,"geo_score":0.595,"column_13":null,"column_8":null,"column_14":null,"column_9":null,"column_15":null,"column_16":null,"column_17":null,"univesity":"JCCC","id":"a68wou47eknv","geo_precision":"city","student":"Jacob Sirna","state":"KS"},"type":"Feature","geometry":{"type":"Point","coordinates":[-92.280706,34.286764]}},{"properties":{"city":"Overland Park","column_10":null,"column_5":null,"column_11":null,"column_6":null,"column_12":null,"column_7":null,"geo_score":0.595,"column_13":null,"column_8":null,"column_14":null,"column_9":null,"column_15":null,"column_16":null,"column_17":null,"univesity":"JCCC","id":"a68wou8b7k3v","geo_precision":"city","student":"Louis Smith","state":"KS"},"type":"Feature","geometry":{"type":"Point","coordinates":[-92.280706,34.286764]}},{"properties":{"city":"Overland Park","column_10":null,"column_5":null,"column_11":null,"column_6":null,"column_12":null,"column_7":null,"geo_score":0.595,"column_13":null,"column_8":null,"column_14":null,"column_9":null,"column_15":null,"column_16":null,"column_17":null,"univesity":"JCCC","id":"a68woubpavbv","geo_precision":"city","student":"Rachael Thomas","state":"KS"},"type":"Feature","geometry":{"type":"Point","coordinates":[-92.280706,34.286764]}},{"properties":{"city":"Overland Park","column_10":null,"column_5":null,"column_11":null,"column_6":null,"column_12":null,"column_7":null,"geo_score":0.595,"column_13":null,"column_8":null,"column_14":null,"column_9":null,"column_15":null,"column_16":null,"column_17":null,"univesity":"JCCC","id":"a68wou6xsu08","geo_precision":"city","student":"Brandon Updyke","state":"KS"},"type":"Feature","geometry":{"type":"Point","coordinates":[-92.280706,34.286764]}},{"properties":{"city":"Overland Park","column_10":null,"column_5":null,"column_11":null,"column_6":null,"column_12":null,"column_7":null,"geo_score":0.595,"column_13":null,"column_8":null,"column_14":null,"column_9":null,"column_15":null,"column_16":null,"column_17":null,"univesity":"JCCC","id":"a68wou5cllgg","geo_precision":"city","student":"Hope Waugh","state":"KS"},"type":"Feature","geometry":{"type":"Point","coordinates":[-92.280706,34.286764]}},{"properties":{"city":"Overland Park","column_10":null,"column_5":null,"column_11":null,"column_6":null,"column_12":null,"column_7":null,"geo_score":0.595,"column_13":null,"column_8":null,"column_14":null,"column_9":null,"column_15":null,"column_16":null,"column_17":null,"univesity":"JCCC","id":"a68wotxtq3kb","geo_precision":"city","student":"Amy Wilson","state":"KS"},"type":"Feature","geometry":{"type":"Point","coordinates":[-92.280706,34.286764]}},{"properties":{"city":"Overland Park/Lawrence","column_10":null,"column_5":null,"column_11":null,"column_6":null,"column_12":null,"column_7":null,"geo_score":0.657,"column_13":null,"column_8":null,"column_14":null,"column_9":null,"column_15":null,"column_16":null,"column_17":null,"univesity":"JCCC/KU","id":"a68wou5hzg21","geo_precision":"city","student":"Trevon Emery","state":"KS"},"type":"Feature","geometry":{"type":"Point","coordinates":[-94.670792,38.982228]}},{"properties":{"city":"Overland Park/Lawrence","column_10":null,"column_5":null,"column_11":null,"column_6":null,"column_12":null,"column_7":null,"geo_score":0.657,"column_13":null,"column_8":null,"column_14":null,"column_9":null,"column_15":null,"column_16":null,"column_17":null,"univesity":"JCCC/KU","id":"a68wou7dgu0b","geo_precision":"city","student":"CJ Hicks","state":"KS"},"type":"Feature","geometry":{"type":"Point","coordinates":[-94.670792,38.982228]}},{"properties":{"city":"Overland Park/Lawrence","column_10":null,"column_5":null,"column_11":null,"column_6":null,"column_12":null,"column_7":null,"geo_score":0.657,"column_13":null,"column_8":null,"column_14":null,"column_9":null,"column_15":null,"column_16":null,"column_17":null,"univesity":"JCCC/KU","id":"a68wou9uadk7","geo_precision":"city","student":"Lindsey Hartnett","state":"KS"},"type":"Feature","geometry":{"type":"Point","coordinates":[-94.670792,38.982228]}},{"properties":{"city":"Overland Park/Lawrence","column_10":null,"column_5":null,"column_11":null,"column_6":null,"column_12":null,"column_7":null,"geo_score":0.657,"column_13":null,"column_8":null,"column_14":null,"column_9":null,"column_15":null,"column_16":null,"column_17":null,"univesity":"JCCC/KU","id":"a68wou738yrz","geo_precision":"city","student":"Micheala Mathiesen","state":"KS"},"type":"Feature","geometry":{"type":"Point","coordinates":[-94.670792,38.982228]}},{"properties":{"city":"Overland Park/Lawrence","column_10":null,"column_5":null,"column_11":null,"column_6":null,"column_12":null,"column_7":null,"geo_score":0.657,"column_13":null,"column_8":null,"column_14":null,"column_9":null,"column_15":null,"column_16":null,"column_17":null,"univesity":"JCCC/KU","id":"a68wou07weyt","geo_precision":"city","student":"Jay Rios","state":"KS"},"type":"Feature","geometry":{"type":"Point","coordinates":[-94.670792,38.982228]}},{"properties":{"city":"Overland Park/Manhattan","column_10":null,"column_5":null,"column_11":null,"column_6":null,"column_12":null,"column_7":null,"geo_score":0.619,"column_13":null,"column_8":null,"column_14":null,"column_9":null,"column_15":null,"column_16":null,"column_17":null,"univesity":"JCCC/Kansas State University","id":"a68wotwlb6tq","geo_precision":"city","student":"Josh Orpin","state":"KS"},"type":"Feature","geometry":{"type":"Point","coordinates":[-69.433104,45.133665]}},{"properties":{"city":"Oxford","column_10":null,"column_5":null,"column_11":null,"column_6":null,"column_12":null,"column_7":null,"geo_score":0.714,"column_13":null,"column_8":null,"column_14":null,"column_9":null,"column_15":null,"column_16":null,"column_17":null,"univesity":"University of Mississippi (Ole Miss)","id":"a68wou6pm7u4","geo_precision":"city","student":"Kate Grumbles","state":"MS"},"type":"Feature","geometry":{"type":"Point","coordinates":[-107.714228,37.168892]}},{"properties":{"city":"Oxford","column_10":null,"column_5":null,"column_11":null,"column_6":null,"column_12":null,"column_7":null,"geo_score":0.714,"column_13":null,"column_8":null,"column_14":null,"column_9":null,"column_15":null,"column_16":null,"column_17":null,"univesity":"Miami University of Ohio","id":"a68wotzk49li","geo_precision":"city","student":"Marissa Horwitz","state":"OH"},"type":"Feature","geometry":{"type":"Point","coordinates":[-107.714228,37.168892]}},{"properties":{"city":"Oxford","column_10":null,"column_5":null,"column_11":null,"column_6":null,"column_12":null,"column_7":null,"geo_score":0.714,"column_13":null,"column_8":null,"column_14":null,"column_9":null,"column_15":null,"column_16":null,"column_17":null,"univesity":"Miami University of Ohio","id":"a68wouajkhv6","geo_precision":"city","student":"Allie Hunter","state":"OH"},"type":"Feature","geometry":{"type":"Point","coordinates":[-107.714228,37.168892]}},{"properties":{"city":"Oxford","column_10":null,"column_5":null,"column_11":null,"column_6":null,"column_12":null,"column_7":null,"geo_score":0.714,"column_13":null,"column_8":null,"column_14":null,"column_9":null,"column_15":null,"column_16":null,"column_17":null,"univesity":"Miami University of Ohio","id":"a68wotyioot1","geo_precision":"city","student":"Alissa Pollack","state":"OH"},"type":"Feature","geometry":{"type":"Point","coordinates":[-107.714228,37.168892]}},{"properties":{"city":"Palo Alto","column_10":null,"column_5":null,"column_11":null,"column_6":null,"column_12":null,"column_7":null,"geo_score":0.714,"column_13":null,"column_8":null,"column_14":null,"column_9":null,"column_15":null,"column_16":null,"column_17":null,"univesity":"Stanford University","id":"a68woubivirc","geo_precision":"city","student":"Lucas Throckmorton","state":"CA"},"type":"Feature","geometry":{"type":"Point","coordinates":[-122.14302,37.441883]}},{"properties":{"city":"Pittsburg","column_10":null,"column_5":null,"column_11":null,"column_6":null,"column_12":null,"column_7":null,"geo_score":0.7,"column_13":null,"column_8":null,"column_14":null,"column_9":null,"column_15":null,"column_16":null,"column_17":null,"univesity":"Pittsburg State University","id":"a68wotw6qfht","geo_precision":"city","student":"Ryan Ash","state":"KS"},"type":"Feature","geometry":{"type":"Point","coordinates":[-79.995886,40.440625]}},{"properties":{"city":"Pittsburg","column_10":null,"column_5":null,"column_11":null,"column_6":null,"column_12":null,"column_7":null,"geo_score":0.7,"column_13":null,"column_8":null,"column_14":null,"column_9":null,"column_15":null,"column_16":null,"column_17":null,"univesity":"Pittsburg State University","id":"a68wou0dyig4","geo_precision":"city","student":"Kirby Clements","state":"KS"},"type":"Feature","geometry":{"type":"Point","coordinates":[-79.995886,40.440625]}},{"properties":{"city":"Pittsburg","column_10":null,"column_5":null,"column_11":null,"column_6":null,"column_12":null,"column_7":null,"geo_score":0.7,"column_13":null,"column_8":null,"column_14":null,"column_9":null,"column_15":null,"column_16":null,"column_17":null,"univesity":"Pittsburg State University","id":"a68wou0seztb","geo_precision":"city","student":"Alison Dees","state":"KS"},"type":"Feature","geometry":{"type":"Point","coordinates":[-79.995886,40.440625]}},{"properties":{"city":"Pittsburg","column_10":null,"column_5":null,"column_11":null,"column_6":null,"column_12":null,"column_7":null,"geo_score":0.7,"column_13":null,"column_8":null,"column_14":null,"column_9":null,"column_15":null,"column_16":null,"column_17":null,"univesity":"Pittsburg State University","id":"a68wou4s3ofe","geo_precision":"city","student":"Grant Ellis","state":"KS"},"type":"Feature","geometry":{"type":"Point","coordinates":[-79.995886,40.440625]}},{"properties":{"city":"Pittsburg","column_10":null,"column_5":null,"column_11":null,"column_6":null,"column_12":null,"column_7":null,"geo_score":0.7,"column_13":null,"column_8":null,"column_14":null,"column_9":null,"column_15":null,"column_16":null,"column_17":null,"univesity":"Pittsburg State University","id":"a68wotwntlij","geo_precision":"city","student":"Julia Gilmore","state":"KS"},"type":"Feature","geometry":{"type":"Point","coordinates":[-79.995886,40.440625]}},{"properties":{"city":"Pittsburg","column_10":null,"column_5":null,"column_11":null,"column_6":null,"column_12":null,"column_7":null,"geo_score":0.7,"column_13":null,"column_8":null,"column_14":null,"column_9":null,"column_15":null,"column_16":null,"column_17":null,"univesity":"Pittsburg State University","id":"a68wotvm2dwo","geo_precision":"city","student":"Megan Pavlu","state":"KS"},"type":"Feature","geometry":{"type":"Point","coordinates":[-79.995886,40.440625]}},{"properties":{"city":"Pittsburg","column_10":null,"column_5":null,"column_11":null,"column_6":null,"column_12":null,"column_7":null,"geo_score":0.7,"column_13":null,"column_8":null,"column_14":null,"column_9":null,"column_15":null,"column_16":null,"column_17":null,"univesity":"Pittsburg State University","id":"a68wotyunm1e","geo_precision":"city","student":"Russell Philpott","state":"KS"},"type":"Feature","geometry":{"type":"Point","coordinates":[-79.995886,40.440625]}},{"properties":{"city":"Pittsburg","column_10":null,"column_5":null,"column_11":null,"column_6":null,"column_12":null,"column_7":null,"geo_score":0.7,"column_13":null,"column_8":null,"column_14":null,"column_9":null,"column_15":null,"column_16":null,"column_17":null,"univesity":"Pittsburg State University","id":"a68wotwuwe47","geo_precision":"city","student":"Ashly Rosenstock","state":"KS"},"type":"Feature","geometry":{"type":"Point","coordinates":[-79.995886,40.440625]}},{"properties":{"city":"Pittsburg","column_10":null,"column_5":null,"column_11":null,"column_6":null,"column_12":null,"column_7":null,"geo_score":0.7,"column_13":null,"column_8":null,"column_14":null,"column_9":null,"column_15":null,"column_16":null,"column_17":null,"univesity":"Pittsburg State University","id":"a68wou69ju6f","geo_precision":"city","student":"Jacob Rudolph","state":"KS"},"type":"Feature","geometry":{"type":"Point","coordinates":[-79.995886,40.440625]}},{"properties":{"city":"Pittsburg","column_10":null,"column_5":null,"column_11":null,"column_6":null,"column_12":null,"column_7":null,"geo_score":0.7,"column_13":null,"column_8":null,"column_14":null,"column_9":null,"column_15":null,"column_16":null,"column_17":null,"univesity":"Pittsburg State University","id":"a68wou8u5tqj","geo_precision":"city","student":"John Sheahan","state":"KS"},"type":"Feature","geometry":{"type":"Point","coordinates":[-79.995886,40.440625]}},{"properties":{"city":"Pittsburg","column_10":null,"column_5":null,"column_11":null,"column_6":null,"column_12":null,"column_7":null,"geo_score":0.7,"column_13":null,"column_8":null,"column_14":null,"column_9":null,"column_15":null,"column_16":null,"column_17":null,"univesity":"Pittsburg State University","id":"a68wou8svwd8","geo_precision":"city","student":"Kaitlyn Stewart","state":"KS"},"type":"Feature","geometry":{"type":"Point","coordinates":[-79.995886,40.440625]}},{"properties":{"city":"Pittsburg","column_10":null,"column_5":null,"column_11":null,"column_6":null,"column_12":null,"column_7":null,"geo_score":0.7,"column_13":null,"column_8":null,"column_14":null,"column_9":null,"column_15":null,"column_16":null,"column_17":null,"univesity":"Pittsburg State University","id":"a68wou3ti21f","geo_precision":"city","student":"Ryan Sullivan","state":"KS"},"type":"Feature","geometry":{"type":"Point","coordinates":[-79.995886,40.440625]}},{"properties":{"city":"Pittsburg","column_10":null,"column_5":null,"column_11":null,"column_6":null,"column_12":null,"column_7":null,"geo_score":0.7,"column_13":null,"column_8":null,"column_14":null,"column_9":null,"column_15":null,"column_16":null,"column_17":null,"univesity":"Pittsburg State University","id":"a68wou4h4rtz","geo_precision":"city","student":"Nathan Welch","state":"KS"},"type":"Feature","geometry":{"type":"Point","coordinates":[-79.995886,40.440625]}},{"properties":{"city":"Pittsburg","column_10":null,"column_5":null,"column_11":null,"column_6":null,"column_12":null,"column_7":null,"geo_score":0.7,"column_13":null,"column_8":null,"column_14":null,"column_9":null,"column_15":null,"column_16":null,"column_17":null,"univesity":"Pittsburg State University","id":"a68wou8ncwyn","geo_precision":"city","student":"Allison Wendorff","state":"KS"},"type":"Feature","geometry":{"type":"Point","coordinates":[-79.995886,40.440625]}},{"properties":{"city":"Providence","column_10":null,"column_5":null,"column_11":null,"column_6":null,"column_12":null,"column_7":null,"geo_score":0.714,"column_13":null,"column_8":null,"column_14":null,"column_9":null,"column_15":null,"column_16":null,"column_17":null,"univesity":"Rhode Island School of Design","id":"a68woub3oz2s","geo_precision":"city","student":"Grant Heinlein","state":"RI"},"type":"Feature","geometry":{"type":"Point","coordinates":[-71.412834,41.823989]}},{"properties":{"city":"Rapid City","column_10":null,"column_5":null,"column_11":null,"column_6":null,"column_12":null,"column_7":null,"geo_score":0.714,"column_13":null,"column_8":null,"column_14":null,"column_9":null,"column_15":null,"column_16":null,"column_17":null,"univesity":"South Dakota School of Mines and Technology","id":"a68wou78eo0a","geo_precision":"city","student":"Matt Hoffman","state":"SD"},"type":"Feature","geometry":{"type":"Point","coordinates":[-103.231015,44.080543]}},{"properties":{"city":"San Angelo","column_10":null,"column_5":null,"column_11":null,"column_6":null,"column_12":null,"column_7":null,"geo_score":0.714,"column_13":null,"column_8":null,"column_14":null,"column_9":null,"column_15":null,"column_16":null,"column_17":null,"univesity":"Angelo State University","id":"a68wou5cnhxx","geo_precision":"city","student":"Allyse Hackler","state":"TX"},"type":"Feature","geometry":{"type":"Point","coordinates":[-100.437038,31.463772]}},{"properties":{"city":"San Diego","column_10":null,"column_5":null,"column_11":null,"column_6":null,"column_12":null,"column_7":null,"geo_score":0.714,"column_13":null,"column_8":null,"column_14":null,"column_9":null,"column_15":null,"column_16":null,"column_17":null,"univesity":"University of San Diego","id":"a68wotx7qb5t","geo_precision":"city","student":"Jeff Lefko","state":"CA"},"type":"Feature","geometry":{"type":"Point","coordinates":[-117.157255,32.715329]}},{"properties":{"city":"Santa Clara","column_10":null,"column_5":null,"column_11":null,"column_6":null,"column_12":null,"column_7":null,"geo_score":0.614,"column_13":null,"column_8":null,"column_14":null,"column_9":null,"column_15":null,"column_16":null,"column_17":null,"univesity":"Santa Clara University","id":"a68wotvhnmb9","geo_precision":"city","student":"Chris Lanza","state":"CA"},"type":"Feature","geometry":{"type":"Point","coordinates":[-111.85254,40.569992]}},{"properties":{"city":"Santa Clara","column_10":null,"column_5":null,"column_11":null,"column_6":null,"column_12":null,"column_7":null,"geo_score":0.614,"column_13":null,"column_8":null,"column_14":null,"column_9":null,"column_15":null,"column_16":null,"column_17":null,"univesity":"Santa Clara University","id":"a68wou9ntiid","geo_precision":"city","student":"Sam Nelson","state":"CA"},"type":"Feature","geometry":{"type":"Point","coordinates":[-111.85254,40.569992]}},{"properties":{"city":"Savannah","column_10":null,"column_5":null,"column_11":null,"column_6":null,"column_12":null,"column_7":null,"geo_score":0.714,"column_13":null,"column_8":null,"column_14":null,"column_9":null,"column_15":null,"column_16":null,"column_17":null,"univesity":"Savannah College of Art and Design","id":"a68wou9v75h1","geo_precision":"city","student":"Joseph Hodos","state":"GA"},"type":"Feature","geometry":{"type":"Point","coordinates":[-81.099834,32.083541]}},{"properties":{"city":"Savannah","column_10":null,"column_5":null,"column_11":null,"column_6":null,"column_12":null,"column_7":null,"geo_score":0.714,"column_13":null,"column_8":null,"column_14":null,"column_9":null,"column_15":null,"column_16":null,"column_17":null,"univesity":"Savannah College of Art and Design","id":"a68wou41b5sy","geo_precision":"city","student":"Ali Meyer","state":"GA"},"type":"Feature","geometry":{"type":"Point","coordinates":[-81.099834,32.083541]}},{"properties":{"city":"Seattle","column_10":null,"column_5":null,"column_11":null,"column_6":null,"column_12":null,"column_7":null,"geo_score":0.714,"column_13":null,"column_8":null,"column_14":null,"column_9":null,"column_15":null,"column_16":null,"column_17":null,"univesity":"University of Washington","id":"a68wouas0ulr","geo_precision":"city","student":"Emma Schulte","state":"WA"},"type":"Feature","geometry":{"type":"Point","coordinates":[-122.332071,47.60621]}},{"properties":{"city":"Sewanee","column_10":null,"column_5":null,"column_11":null,"column_6":null,"column_12":null,"column_7":null,"geo_score":0.633,"column_13":null,"column_8":null,"column_14":null,"column_9":null,"column_15":null,"column_16":null,"column_17":null,"univesity":"Sewanee: The University of the South","id":"a68wotwjfqcz","geo_precision":"city","student":"Grace Webster","state":"TN"},"type":"Feature","geometry":{"type":"Point","coordinates":[-93.339902,35.849246]}},{"properties":{"city":"Shawnee Mission","column_10":null,"column_5":null,"column_11":null,"column_6":null,"column_12":null,"column_7":null,"geo_score":0.786,"column_13":null,"column_8":null,"column_14":null,"column_9":null,"column_15":null,"column_16":null,"column_17":null,"univesity":"Gap year","id":"a68wotxiznjp","geo_precision":"city","student":"Sean Bailey","state":"KS"},"type":"Feature","geometry":{"type":"Point","coordinates":[-94.655791,39.027783]}},{"properties":{"city":"Shawnee Mission","column_10":null,"column_5":null,"column_11":null,"column_6":null,"column_12":null,"column_7":null,"geo_score":0.786,"column_13":null,"column_8":null,"column_14":null,"column_9":null,"column_15":null,"column_16":null,"column_17":null,"univesity":"Gap year","id":"a68wou1x3v9p","geo_precision":"city","student":"Molly Caldwell","state":"KS"},"type":"Feature","geometry":{"type":"Point","coordinates":[-94.655791,39.027783]}},{"properties":{"city":"Shawnee Mission","column_10":null,"column_5":null,"column_11":null,"column_6":null,"column_12":null,"column_7":null,"geo_score":0.786,"column_13":null,"column_8":null,"column_14":null,"column_9":null,"column_15":null,"column_16":null,"column_17":null,"univesity":"Gap year","id":"a68wou8o4kh8","geo_precision":"city","student":"Katie Darling","state":"KS"},"type":"Feature","geometry":{"type":"Point","coordinates":[-94.655791,39.027783]}},{"properties":{"city":"Shawnee Mission","column_10":null,"column_5":null,"column_11":null,"column_6":null,"column_12":null,"column_7":null,"geo_score":0.786,"column_13":null,"column_8":null,"column_14":null,"column_9":null,"column_15":null,"column_16":null,"column_17":null,"univesity":"Gap year","id":"a68wou2aek98","geo_precision":"city","student":"Tyler Kavanaugh","state":"KS"},"type":"Feature","geometry":{"type":"Point","coordinates":[-94.655791,39.027783]}},{"properties":{"city":"Shawnee Mission","column_10":null,"column_5":null,"column_11":null,"column_6":null,"column_12":null,"column_7":null,"geo_score":0.786,"column_13":null,"column_8":null,"column_14":null,"column_9":null,"column_15":null,"column_16":null,"column_17":null,"univesity":"Gap Year","id":"a68wotw7b7u0","geo_precision":"city","student":"Michelle Richardson","state":"KS"},"type":"Feature","geometry":{"type":"Point","coordinates":[-94.655791,39.027783]}},{"properties":{"city":"Shawnee Mission","column_10":null,"column_5":null,"column_11":null,"column_6":null,"column_12":null,"column_7":null,"geo_score":0.786,"column_13":null,"column_8":null,"column_14":null,"column_9":null,"column_15":null,"column_16":null,"column_17":null,"univesity":"Gap year","id":"a68wotzhaa0y","geo_precision":"city","student":"Cody Roberson","state":"KS"},"type":"Feature","geometry":{"type":"Point","coordinates":[-94.655791,39.027783]}},{"properties":{"city":"Soccorro","column_10":null,"column_5":null,"column_11":null,"column_6":null,"column_12":null,"column_7":null,"geo_score":0.625,"column_13":null,"column_8":null,"column_14":null,"column_9":null,"column_15":null,"column_16":null,"column_17":null,"univesity":"New Mexico Tech","id":"a68wou2z78pe","geo_precision":"city","student":"Tyler Cecil","state":"NM"},"type":"Feature","geometry":{"type":"Point","coordinates":[-74.381835,44.767831]}},{"properties":{"city":"Soccorro","column_10":null,"column_5":null,"column_11":null,"column_6":null,"column_12":null,"column_7":null,"geo_score":0.625,"column_13":null,"column_8":null,"column_14":null,"column_9":null,"column_15":null,"column_16":null,"column_17":null,"univesity":"New Mexico Tech","id":"a68wotzpglsx","geo_precision":"city","student":"Russell White","state":"NM"},"type":"Feature","geometry":{"type":"Point","coordinates":[-74.381835,44.767831]}},{"properties":{"city":"Socorro","column_10":null,"column_5":null,"column_11":null,"column_6":null,"column_12":null,"column_7":null,"geo_score":0.633,"column_13":null,"column_8":null,"column_14":null,"column_9":null,"column_15":null,"column_16":null,"column_17":null,"univesity":"New Mexico Tech","id":"a68wotyfinw1","geo_precision":"city","student":"Spencer Brown","state":"NM"},"type":"Feature","geometry":{"type":"Point","coordinates":[-74.381835,44.767831]}},{"properties":{"city":"Springfield","column_10":null,"column_5":null,"column_11":null,"column_6":null,"column_12":null,"column_7":null,"geo_score":0.714,"column_13":null,"column_8":null,"column_14":null,"column_9":null,"column_15":null,"column_16":null,"column_17":null,"univesity":"Missouri State University","id":"a68wotxe262t","geo_precision":"city","student":"Dylan Becker","state":"MO"},"type":"Feature","geometry":{"type":"Point","coordinates":[-72.589811,42.101483]}},{"properties":{"city":"Springfield","column_10":null,"column_5":null,"column_11":null,"column_6":null,"column_12":null,"column_7":null,"geo_score":0.714,"column_13":null,"column_8":null,"column_14":null,"column_9":null,"column_15":null,"column_16":null,"column_17":null,"univesity":"Missouri State University","id":"a68wou4c4glu","geo_precision":"city","student":"Thomas Loudon","state":"MO"},"type":"Feature","geometry":{"type":"Point","coordinates":[-72.589811,42.101483]}},{"properties":{"city":"St. Louis","column_10":null,"column_5":null,"column_11":null,"column_6":null,"column_12":null,"column_7":null,"geo_score":0.592,"column_13":null,"column_8":null,"column_14":null,"column_9":null,"column_15":null,"column_16":null,"column_17":null,"univesity":"Washington University","id":"a68wou78s3wf","geo_precision":"city","student":"Anna Bernard","state":"MO"},"type":"Feature","geometry":{"type":"Point","coordinates":[-91.846798,33.455113]}},{"properties":{"city":"St. Louis","column_10":null,"column_5":null,"column_11":null,"column_6":null,"column_12":null,"column_7":null,"geo_score":0.592,"column_13":null,"column_8":null,"column_14":null,"column_9":null,"column_15":null,"column_16":null,"column_17":null,"univesity":"Saint Louis University","id":"a68wotystc8q","geo_precision":"city","student":"Caroline Dellett","state":"MO"},"type":"Feature","geometry":{"type":"Point","coordinates":[-91.846798,33.455113]}},{"properties":{"city":"St. Louis","column_10":null,"column_5":null,"column_11":null,"column_6":null,"column_12":null,"column_7":null,"geo_score":0.592,"column_13":null,"column_8":null,"column_14":null,"column_9":null,"column_15":null,"column_16":null,"column_17":null,"univesity":"Washington University","id":"a68wou4flvzp","geo_precision":"city","student":"Kyle Engelken","state":"MO"},"type":"Feature","geometry":{"type":"Point","coordinates":[-91.846798,33.455113]}},{"properties":{"city":"St. Louis","column_10":null,"column_5":null,"column_11":null,"column_6":null,"column_12":null,"column_7":null,"geo_score":0.592,"column_13":null,"column_8":null,"column_14":null,"column_9":null,"column_15":null,"column_16":null,"column_17":null,"univesity":"Saint Louis University","id":"a68wou97r6tg","geo_precision":"city","student":"Paige Swanson","state":"MO"},"type":"Feature","geometry":{"type":"Point","coordinates":[-91.846798,33.455113]}},{"properties":{"city":"St. Paul","column_10":null,"column_5":null,"column_11":null,"column_6":null,"column_12":null,"column_7":null,"geo_score":0.571,"column_13":null,"column_8":null,"column_14":null,"column_9":null,"column_15":null,"column_16":null,"column_17":null,"univesity":"University of St. Thomas","id":"a68wou89dzb2","geo_precision":"city","student":"Jackson Brett","state":"MN"},"type":"Feature","geometry":{"type":"Point","coordinates":[-170.832778,-14.321667]}},{"properties":{"city":"St. Paul","column_10":null,"column_5":null,"column_11":null,"column_6":null,"column_12":null,"column_7":null,"geo_score":0.571,"column_13":null,"column_8":null,"column_14":null,"column_9":null,"column_15":null,"column_16":null,"column_17":null,"univesity":"Macalester College","id":"a68wou0s6c5i","geo_precision":"city","student":"Angela Clem","state":"MN"},"type":"Feature","geometry":{"type":"Point","coordinates":[-170.832778,-14.321667]}},{"properties":{"city":"Stillwater","column_10":null,"column_5":null,"column_11":null,"column_6":null,"column_12":null,"column_7":null,"geo_score":0.629,"column_13":null,"column_8":null,"column_14":null,"column_9":null,"column_15":null,"column_16":null,"column_17":null,"univesity":"Oklahoma State University","id":"a68wou4ruc7i","geo_precision":"city","student":"Jordan Herring","state":"OK"},"type":"Feature","geometry":{"type":"Point","coordinates":[-87.784714,30.715745]}},{"properties":{"city":"Swarthmore","column_10":null,"column_5":null,"column_11":null,"column_6":null,"column_12":null,"column_7":null,"geo_score":0.714,"column_13":null,"column_8":null,"column_14":null,"column_9":null,"column_15":null,"column_16":null,"column_17":null,"univesity":"Swarthmore College","id":"a68wou8nwm9o","geo_precision":"city","student":"Alex Moskowitz","state":"PA"},"type":"Feature","geometry":{"type":"Point","coordinates":[-75.344083,39.897162]}},{"properties":{"city":"Syracuse","column_10":null,"column_5":null,"column_11":null,"column_6":null,"column_12":null,"column_7":null,"geo_score":0.714,"column_13":null,"column_8":null,"column_14":null,"column_9":null,"column_15":null,"column_16":null,"column_17":null,"univesity":"Syracuse University","id":"a68wou9ce0ik","geo_precision":"city","student":"Austin Miller","state":"NY"},"type":"Feature","geometry":{"type":"Point","coordinates":[-76.147424,43.048122]}},{"properties":{"city":"Tempe","column_10":null,"column_5":null,"column_11":null,"column_6":null,"column_12":null,"column_7":null,"geo_score":0.714,"column_13":null,"column_8":null,"column_14":null,"column_9":null,"column_15":null,"column_16":null,"column_17":null,"univesity":"Arizona State University","id":"a68wouaje947","geo_precision":"city","student":"Alicia Reyna","state":"AZ"},"type":"Feature","geometry":{"type":"Point","coordinates":[-111.90931,33.414768]}},{"properties":{"city":"Tempe","column_10":null,"column_5":null,"column_11":null,"column_6":null,"column_12":null,"column_7":null,"geo_score":0.714,"column_13":null,"column_8":null,"column_14":null,"column_9":null,"column_15":null,"column_16":null,"column_17":null,"univesity":"Barrett Honors College of Arizona State University","id":"a68wou9re66n","geo_precision":"city","student":"Gail Stonebarger","state":"AZ"},"type":"Feature","geometry":{"type":"Point","coordinates":[-111.90931,33.414768]}},{"properties":{"city":"Tulsa","column_10":null,"column_5":null,"column_11":null,"column_6":null,"column_12":null,"column_7":null,"geo_score":0.714,"column_13":null,"column_8":null,"column_14":null,"column_9":null,"column_15":null,"column_16":null,"column_17":null,"univesity":"University of Tulsa","id":"a68wou5q7xlj","geo_precision":"city","student":"Lauren Stanley","state":"OK"},"type":"Feature","geometry":{"type":"Point","coordinates":[-95.992775,36.153982]}},{"properties":{"city":"Upland","column_10":null,"column_5":null,"column_11":null,"column_6":null,"column_12":null,"column_7":null,"geo_score":0.714,"column_13":null,"column_8":null,"column_14":null,"column_9":null,"column_15":null,"column_16":null,"column_17":null,"univesity":"Taylor University","id":"a68wou3v1xlc","geo_precision":"city","student":"Collin Enger","state":"IN"},"type":"Feature","geometry":{"type":"Point","coordinates":[-97.019181,39.088886]}},{"properties":{"city":"Upland","column_10":null,"column_5":null,"column_11":null,"column_6":null,"column_12":null,"column_7":null,"geo_score":0.714,"column_13":null,"column_8":null,"column_14":null,"column_9":null,"column_15":null,"column_16":null,"column_17":null,"univesity":"Taylor University","id":"a68wou2f54bh","geo_precision":"city","student":"Will Severns","state":"IN"},"type":"Feature","geometry":{"type":"Point","coordinates":[-97.019181,39.088886]}},{"properties":{"city":"Urbana-Champaign","column_10":null,"column_5":null,"column_11":null,"column_6":null,"column_12":null,"column_7":null,"geo_score":0.0,"column_13":null,"column_8":null,"column_14":null,"column_9":null,"column_15":null,"column_16":null,"column_17":null,"univesity":"University of Illinois","id":"a68wotypj54q","geo_precision":"unmatched","student":"Ross Guignon","state":"IL"},"type":"Feature","geometry":null},{"properties":{"city":"Valencia","column_10":null,"column_5":null,"column_11":null,"column_6":null,"column_12":null,"column_7":null,"geo_score":0.714,"column_13":null,"column_8":null,"column_14":null,"column_9":null,"column_15":null,"column_16":null,"column_17":null,"univesity":"California Institute of the Art","id":"a68wou7pkzdl","geo_precision":"city","student":"Haley Stewart","state":"CA"},"type":"Feature","geometry":{"type":"Point","coordinates":[-112.584054,33.379486]}},{"properties":{"city":"Valparaiso","column_10":null,"column_5":null,"column_11":null,"column_6":null,"column_12":null,"column_7":null,"geo_score":0.714,"column_13":null,"column_8":null,"column_14":null,"column_9":null,"column_15":null,"column_16":null,"column_17":null,"univesity":"Valparaiso University","id":"a68wou4hs8co","geo_precision":"city","student":"Chase Ensz","state":"ID"},"type":"Feature","geometry":{"type":"Point","coordinates":[-86.49706,30.50821]}},{"properties":{"city":"Ventura","column_10":null,"column_5":null,"column_11":null,"column_6":null,"column_12":null,"column_7":null,"geo_score":0.633,"column_13":null,"column_8":null,"column_14":null,"column_9":null,"column_15":null,"column_16":null,"column_17":null,"univesity":"Ventura College","id":"a68woua4kq7t","geo_precision":"city","student":"Garrett Lynn","state":"CA"},"type":"Feature","geometry":{"type":"Point","coordinates":[-134.895833,58.256389]}},{"properties":{"city":"Ventura","column_10":null,"column_5":null,"column_11":null,"column_6":null,"column_12":null,"column_7":null,"geo_score":0.633,"column_13":null,"column_8":null,"column_14":null,"column_9":null,"column_15":null,"column_16":null,"column_17":null,"univesity":"Ventura College","id":"a68wou6l5wvq","geo_precision":"city","student":"Donald Roth","state":"CA"},"type":"Feature","geometry":{"type":"Point","coordinates":[-134.895833,58.256389]}},{"properties":{"city":"Warrensburg","column_10":null,"column_5":null,"column_11":null,"column_6":null,"column_12":null,"column_7":null,"geo_score":0.714,"column_13":null,"column_8":null,"column_14":null,"column_9":null,"column_15":null,"column_16":null,"column_17":null,"univesity":"Central Missouri University","id":"a68wotx1fzie","geo_precision":"city","student":"Heather Glaze","state":"MO"},"type":"Feature","geometry":{"type":"Point","coordinates":[-83.168525,40.305894]}},{"properties":{"city":"Washington DC","column_10":null,"column_5":null,"column_11":null,"column_6":null,"column_12":null,"column_7":null,"geo_score":0.0,"column_13":null,"column_8":null,"column_14":null,"column_9":null,"column_15":null,"column_16":null,"column_17":null,"univesity":"Gallaudet University","id":"a68wotvy57y1","geo_precision":"unmatched","student":"Payal Sweet","state":null},"type":"Feature","geometry":null},{"properties":{"city":"Wellesley","column_10":null,"column_5":null,"column_11":null,"column_6":null,"column_12":null,"column_7":null,"geo_score":0.619,"column_13":null,"column_8":null,"column_14":null,"column_9":null,"column_15":null,"column_16":null,"column_17":null,"univesity":"Wellesley College","id":"a68wou2k8r4h","geo_precision":"city","student":"Annie Sgroi","state":"MA"},"type":"Feature","geometry":{"type":"Point","coordinates":[-78.892524,40.265631]}},{"properties":{"city":"Wooster","column_10":null,"column_5":null,"column_11":null,"column_6":null,"column_12":null,"column_7":null,"geo_score":0.653,"column_13":null,"column_8":null,"column_14":null,"column_9":null,"column_15":null,"column_16":null,"column_17":null,"univesity":"Wooster","id":"a68wou9dptw2","geo_precision":"city","student":"Adam Seligson","state":"OH"},"type":"Feature","geometry":{"type":"Point","coordinates":[-90.863726,34.840929]}},{"properties":{"city":"Worcester","column_10":null,"column_5":null,"column_11":null,"column_6":null,"column_12":null,"column_7":null,"geo_score":0.714,"column_13":null,"column_8":null,"column_14":null,"column_9":null,"column_15":null,"column_16":null,"column_17":null,"univesity":"Worcester Polytechnic Institute","id":"a68wou77iced","geo_precision":"city","student":"Emily Hofmeister","state":"MA"},"type":"Feature","geometry":{"type":"Point","coordinates":[-71.802293,42.262593]}},{"properties":{"city":"Worcester","column_10":null,"column_5":null,"column_11":null,"column_6":null,"column_12":null,"column_7":null,"geo_score":0.714,"column_13":null,"column_8":null,"column_14":null,"column_9":null,"column_15":null,"column_16":null,"column_17":null,"univesity":"College of the Holy Cross","id":"a68wouarcxeg","geo_precision":"city","student":"Burke Smith","state":"MA"},"type":"Feature","geometry":{"type":"Point","coordinates":[-71.802293,42.262593]}},{"properties":{"city":null,"column_10":null,"column_5":null,"column_11":null,"column_6":null,"column_12":null,"column_7":null,"column_13":null,"column_8":null,"column_14":null,"column_9":null,"column_15":null,"column_16":null,"column_17":null,"univesity":"Broadmoor Transition Services","id":"a68wou9atgui","student":"In Chang Hahn","state":null},"type":"Feature","geometry":null},{"properties":{"city":null,"column_10":null,"column_5":null,"column_11":null,"column_6":null,"column_12":null,"column_7":null,"column_13":null,"column_8":null,"column_14":null,"column_9":null,"column_15":null,"column_16":null,"column_17":null,"univesity":"Broadmoor Transition Services","id":"a68wotwn0gqn","student":"Kailey Hammond","state":null},"type":"Feature","geometry":null},{"properties":{"city":"St. Ann Arbor","column_10":null,"column_5":null,"column_11":null,"column_6":null,"column_12":null,"column_7":null,"geo_score":0.743,"column_13":null,"column_8":null,"column_14":null,"column_9":null,"column_15":null,"column_16":null,"column_17":null,"univesity":"Gap year. year after next: University of Michigan","id":"a68wou3z4z7v","geo_precision":"city","student":"Ricky Latshaw","state":"MI"},"type":"Feature","geometry":{"type":"Point","coordinates":[-86.176715,42.96502]}},{"properties":{"city":"Shawnee Mission","column_10":null,"column_5":null,"column_11":null,"column_6":null,"column_12":null,"column_7":null,"geo_score":0.786,"column_13":null,"column_8":null,"column_14":null,"column_9":null,"column_15":null,"column_16":null,"column_17":null,"univesity":"Broadmoor Transition Services","id":"a68wou01vg2w","geo_precision":"city","student":"Brian Levota","state":"KS"},"type":"Feature","geometry":{"type":"Point","coordinates":[-94.655791,39.027783]}},{"properties":{"city":"Shawnee Mission","column_10":null,"column_5":null,"column_11":null,"column_6":null,"column_12":null,"column_7":null,"geo_score":0.786,"column_13":null,"column_8":null,"column_14":null,"column_9":null,"column_15":null,"column_16":null,"column_17":null,"univesity":"Broadmoor Transition Services","id":"a68wou1l7axk","geo_precision":"city","student":"William Olson","state":"KS"},"type":"Feature","geometry":{"type":"Point","coordinates":[-94.655791,39.027783]}},{"properties":{"city":"Shawnee Mission","column_10":null,"column_5":null,"column_11":null,"column_6":null,"column_12":null,"column_7":null,"geo_score":0.786,"column_13":null,"column_8":null,"column_14":null,"column_9":null,"column_15":null,"column_16":null,"column_17":null,"univesity":"Broadmoor Transition Services","id":"a68wotzy6z6n","geo_precision":"city","student":"Alex Sequiera-Costa","state":"KS"},"type":"Feature","geometry":{"type":"Point","coordinates":[-94.655791,39.027783]}}],"is_temporal":false,"author":{"url":"","metadata":"","contact_name":"","contact_address":"","source":"","contact_phone":""},"source":"","pagination":{"sort":null,"start":0,"total":370,"limit":1000000},"state":"complete","tags":"","published":"2014-08-13T05:27:03-04:00","id":115590}