{"type":"FeatureCollection","data_type":"Dataset","url_type":null,"permissions":[{"permissions":{"download":true,"view":true},"group_id":"everyone"}],"classification":null,"title":"FINAL SURVEY","count":112,"stream_id":115613,"contributor":{"url":"http://geocommons.com/users/25562","name":"smeharbinger"},"data_attributes":null,"calculation_params":null,"icon_link":null,"link":"http://geocommons.com/overlays/115613.json","extent":[-123.089,30.2676,-71.0567,47.6036],"geometry_types":["point"],"unique_name":null,"name":"FINAL SURVEY","feature_count":112,"description":"This is a visual representation of all the colleges that will attended by East's graduation class of 2011.","next_feature":null,"is_raster":false,"short_classification":"Y","stats":{"latitude":{"max":47.60356,"mean":38.8978847767857,"variance":11.4901304608836,"stdev":3.38970949505759,"min":30.267605,"median":39.11338},"number of students attending":{"max":102,"mean":3.74107142857143,"variance":140.337757400258,"stdev":11.8464238232581,"min":1,"median":1},"longitude":{"max":-71.056699,"mean":-91.8841198303572,"variance":154.849751230348,"stdev":12.4438639991904,"min":-123.088544,"median":-92.334157}},"features":[{"properties":{"city":"San Angelo","latitude":31.4615,"college":"Angelo State University","number of students attending":1,"longitude":-100.442424,"id":"a6a0q6r2mpi5","state":"TX"},"type":"Feature","geometry":{"type":"Point","coordinates":[-100.442424,31.4615]}},{"properties":{"city":"Tempe","latitude":33.42551,"college":"Arizona State University","number of students attending":1,"longitude":-111.937419,"id":"a6a0q6lq3r4b","state":"AZ"},"type":"Feature","geometry":{"type":"Point","coordinates":[-111.937419,33.42551]}},{"properties":{"city":"New York","latitude":40.71455,"college":"Arrojo Cosmetology School","number of students attending":1,"longitude":-74.007124,"id":"a6a0q6ei5iil","state":"NY"},"type":"Feature","geometry":{"type":"Point","coordinates":[-74.007124,40.71455]}},{"properties":{"city":"Baldwin","latitude":38.774399,"college":"Baker University","number of students attending":3,"longitude":-95.188828,"id":"a6a0q6npdbw9","state":"KS"},"type":"Feature","geometry":{"type":"Point","coordinates":[-95.188828,38.774399]}},{"properties":{"city":"Muncie","latitude":40.193165,"college":"Ball State University","number of students attending":1,"longitude":-85.381734,"id":"a6a0q6m8g7ez","state":"IN"},"type":"Feature","geometry":{"type":"Point","coordinates":[-85.381734,40.193165]}},{"properties":{"city":"Tempe","latitude":33.42551,"college":"Barrett Honors College of Arizona State University","number of students attending":1,"longitude":-111.937419,"id":"a6a0q6kadu1h","state":"AZ"},"type":"Feature","geometry":{"type":"Point","coordinates":[-111.937419,33.42551]}},{"properties":{"city":"Nashville","latitude":36.167783,"college":"Belmont University","number of students attending":2,"longitude":-86.778365,"id":"a6a0q6hluhej","state":"TN"},"type":"Feature","geometry":{"type":"Point","coordinates":[-86.778365,36.167783]}},{"properties":{"city":"Shawnee Mission","latitude":38.949211,"college":"Broadmoor Transition Services","number of students attending":5,"longitude":-94.758232,"id":"a6a0q6l85370","state":"KS"},"type":"Feature","geometry":{"type":"Point","coordinates":[-94.758232,38.949211]}},{"properties":{"city":"Valencia","latitude":34.403655,"college":"California Institute of the Art","number of students attending":1,"longitude":-118.552477,"id":"a6a0q6e65war","state":"CA"},"type":"Feature","geometry":{"type":"Point","coordinates":[-118.552477,34.403655]}},{"properties":{"city":"Warrensburg","latitude":38.771224,"college":"Central Missouri University","number of students attending":1,"longitude":-93.741149,"id":"a6a0q6n9j57y","state":"MO"},"type":"Feature","geometry":{"type":"Point","coordinates":[-93.741149,38.771224]}},{"properties":{"city":"Chicago","latitude":41.88415,"college":"Chicago School of Violin Making","number of students attending":1,"longitude":-87.632409,"id":"a6a0q6i0hhr4","state":"IL"},"type":"Feature","geometry":{"type":"Point","coordinates":[-87.632409,41.88415]}},{"properties":{"city":"Atlanta","latitude":33.748315,"college":"Clark Atlanta University","number of students attending":1,"longitude":-84.391109,"id":"a6a0q6lhyv7u","state":"GA"},"type":"Feature","geometry":{"type":"Point","coordinates":[-84.391109,33.748315]}},{"properties":{"city":"Conway","latitude":33.834605,"college":"Coastal Carolina University","number of students attending":1,"longitude":-79.050634,"id":"a6a0q6rvcckt","state":"SC"},"type":"Feature","geometry":{"type":"Point","coordinates":[-79.050634,33.834605]}},{"properties":{"city":"Worcester","latitude":42.26299,"college":"College of the Holy Cross","number of students attending":1,"longitude":-71.802354,"id":"a6a0q6hq5b04","state":"MA"},"type":"Feature","geometry":{"type":"Point","coordinates":[-71.802354,42.26299]}},{"properties":{"city":"Chicago","latitude":41.88415,"college":"Colombia College","number of students attending":1,"longitude":-87.632409,"id":"a6a0q6fapp0o","state":"IL"},"type":"Feature","geometry":{"type":"Point","coordinates":[-87.632409,41.88415]}},{"properties":{"city":"Denver","latitude":39.74001,"college":"Colorado Christian University","number of students attending":1,"longitude":-104.992259,"id":"a6a0q6lxj6ad","state":"CO"},"type":"Feature","geometry":{"type":"Point","coordinates":[-104.992259,39.74001]}},{"properties":{"city":"New York","latitude":40.71455,"college":"Colorado State University","number of students attending":2,"longitude":-74.007124,"id":"a6a0q6epbtrn","state":"NY"},"type":"Feature","geometry":{"type":"Point","coordinates":[-74.007124,40.71455]}},{"properties":{"city":"Mount Vernon","latitude":41.92254,"college":"Columbia University","number of students attending":1,"longitude":-91.417539,"id":"a6a0q6ooxo1a","state":"IA"},"type":"Feature","geometry":{"type":"Point","coordinates":[-91.417539,41.92254]}},{"properties":{"city":"Ithaca","latitude":42.440495,"college":"Cornell College","number of students attending":1,"longitude":-76.495454,"id":"a6a0q6e6l7sx","state":"NY"},"type":"Feature","geometry":{"type":"Point","coordinates":[-76.495454,42.440495]}},{"properties":{"city":"Omaha","latitude":41.260675,"college":"Creighton University","number of students attending":1,"longitude":-95.940469,"id":"a6a0q6m6bipv","state":"NE"},"type":"Feature","geometry":{"type":"Point","coordinates":[-95.940469,41.260675]}},{"properties":{"city":"Greystone","latitude":37.221401,"college":"Culinary Institute of America","number of students attending":1,"longitude":-121.845802,"id":"a6a0q6jbnqwx","state":"CA"},"type":"Feature","geometry":{"type":"Point","coordinates":[-121.845802,37.221401]}},{"properties":{"city":"Hanover","latitude":43.700465,"college":"Dartmouth College","number of students attending":1,"longitude":-72.289499,"id":"a6a0q6kpen09","state":"NH"},"type":"Feature","geometry":{"type":"Point","coordinates":[-72.289499,43.700465]}},{"properties":{"city":"Granville","latitude":40.06781,"college":"Denison","number of students attending":1,"longitude":-82.517594,"id":"a6a0q6r3n6y1","state":"OH"},"type":"Feature","geometry":{"type":"Point","coordinates":[-82.517594,40.06781]}},{"properties":{"city":"Chicago","latitude":41.88415,"college":"DePaul University","number of students attending":5,"longitude":-87.632409,"id":"a6a0q6g9vfb4","state":"IL"},"type":"Feature","geometry":{"type":"Point","coordinates":[-87.632409,41.88415]}},{"properties":{"city":"Crete","latitude":40.625225,"college":"Doane College","number of students attending":1,"longitude":-96.962079,"id":"a6a0q6snwz19","state":"NE"},"type":"Feature","geometry":{"type":"Point","coordinates":[-96.962079,40.625225]}},{"properties":{"city":"Emporia","latitude":38.405605,"college":"Emporia State University","number of students attending":2,"longitude":-96.180154,"id":"a6a0q6k7b4it","state":"KS"},"type":"Feature","geometry":{"type":"Point","coordinates":[-96.180154,38.405605]}},{"properties":{"city":"Wellesly","latitude":42.29776,"college":"Regis College","number of students attending":1,"longitude":-71.289744,"id":"a6a0q6hz8ce6","state":"MA"},"type":"Feature","geometry":{"type":"Point","coordinates":[-71.289744,42.29776]}},{"properties":{"city":"Hays","latitude":38.87094,"college":"Fort Hays State University","number of students attending":1,"longitude":-99.332239,"id":"a6a0q6m8ikys","state":"KS"},"type":"Feature","geometry":{"type":"Point","coordinates":[-99.332239,38.87094]}},{"properties":{"city":"Fort Scott","latitude":37.84192,"college":"Fort Scott Community College","number of students attending":2,"longitude":-94.703284,"id":"a6a0q6pvc7ut","state":"KS"},"type":"Feature","geometry":{"type":"Point","coordinates":[-94.703284,37.84192]}},{"properties":{"city":"Longmont","latitude":40.16394,"college":"Front Range Community College","number of students attending":1,"longitude":-105.100504,"id":"a6a0q6kg8q68","state":"CO"},"type":"Feature","geometry":{"type":"Point","coordinates":[-105.100504,40.16394]}},{"properties":{"city":"Greenville","latitude":34.84802,"college":"Furman University","number of students attending":1,"longitude":-82.400219,"id":"a6a0q6lw2zs0","state":"SC"},"type":"Feature","geometry":{"type":"Point","coordinates":[-82.400219,34.84802]}},{"properties":{"city":"Washington DC","latitude":38.89037,"college":"Gallaudet University","number of students attending":1,"longitude":-77.031959,"id":"a6a0q6hwhjhq","state":null},"type":"Feature","geometry":{"type":"Point","coordinates":[-77.031959,38.89037]}},{"properties":{"city":"Shawnee Mission","latitude":38.949211,"college":"Gap year","number of students attending":6,"longitude":-94.758232,"id":"a6a0q6h7i6ks","state":"KS"},"type":"Feature","geometry":{"type":"Point","coordinates":[-94.758232,38.949211]}},{"properties":{"city":"St. Ann Arbor","latitude":42.234455,"college":"Gap year. year after next: University of Michigan","number of students attending":1,"longitude":-83.742798,"id":"a6a0q6jch2ez","state":"MI"},"type":"Feature","geometry":{"type":"Point","coordinates":[-83.742798,42.234455]}},{"properties":{"city":"Goshen","latitude":41.58918,"college":"Goshen College","number of students attending":1,"longitude":-85.836954,"id":"a6a0q6s41obv","state":"IN"},"type":"Feature","geometry":{"type":"Point","coordinates":[-85.836954,41.58918]}},{"properties":{"city":"Lamoni","latitude":40.623695,"college":"Graceland University","number of students attending":1,"longitude":-93.938124,"id":"a6a0q6fywqvh","state":"IA"},"type":"Feature","geometry":{"type":"Point","coordinates":[-93.938124,40.623695]}},{"properties":{"city":"Grinnell","latitude":41.74687,"college":"Grinnell College","number of students attending":1,"longitude":-92.727384,"id":"a6a0q6lh9bey","state":"IA"},"type":"Feature","geometry":{"type":"Point","coordinates":[-92.727384,41.74687]}},{"properties":{"city":"Hastings","latitude":40.58565,"college":"Hastings College","number of students attending":1,"longitude":-98.392374,"id":"a6a0q6pkowbm","state":"NE"},"type":"Feature","geometry":{"type":"Point","coordinates":[-98.392374,40.58565]}},{"properties":{"city":"Montreal","latitude":45.512293,"college":"HEC Montreal","number of students attending":1,"longitude":-73.554407,"id":"a6a0q6gh5ngq","state":"Canada"},"type":"Feature","geometry":{"type":"Point","coordinates":[-73.554407,45.512293]}},{"properties":{"city":"Bloomington","latitude":39.16659,"college":"Hendrix College","number of students attending":3,"longitude":-86.534244,"id":"a6a0q6fw7zai","state":"IN"},"type":"Feature","geometry":{"type":"Point","coordinates":[-86.534244,39.16659]}},{"properties":{"city":"Bloomington","latitude":39.16659,"college":"Indiana University","number of students attending":2,"longitude":-86.534244,"id":"a6a0q6k92ay6","state":"IN"},"type":"Feature","geometry":{"type":"Point","coordinates":[-86.534244,39.16659]}},{"properties":{"city":"Overland Park","latitude":38.984895,"college":"JCCC","number of students attending":65,"longitude":-94.671684,"id":"a6a0q6nossyu","state":"KS"},"type":"Feature","geometry":{"type":"Point","coordinates":[-94.671684,38.984895]}},{"properties":{"city":"Kalamazoo","latitude":42.292435,"college":"Kalamazoo College","number of students attending":1,"longitude":-85.601114,"id":"a6a0q6hvioxk","state":"MI"},"type":"Feature","geometry":{"type":"Point","coordinates":[-85.601114,42.292435]}},{"properties":{"city":"Kansas City","latitude":39.10296,"college":"Kansas City Art Institute","number of students attending":2,"longitude":-94.583062,"id":"a6a0q6lshjzp","state":"MO"},"type":"Feature","geometry":{"type":"Point","coordinates":[-94.583062,39.10296]}},{"properties":{"city":"Manhattan","latitude":39.17881,"college":"Kansas State University","number of students attending":38,"longitude":-96.561834,"id":"a6a0q6si3li6","state":"KS"},"type":"Feature","geometry":{"type":"Point","coordinates":[-96.561834,39.17881]}},{"properties":{"city":"Langston","latitude":35.94579,"college":"Langston University","number of students attending":1,"longitude":-97.254959,"id":"a6a0q6tqb3ju","state":"OK"},"type":"Feature","geometry":{"type":"Point","coordinates":[-97.254959,35.94579]}},{"properties":{"city":"St. Paul","latitude":44.943829,"college":"Macalester College","number of students attending":1,"longitude":-93.093326,"id":"a6a0q6lmr9s1","state":"MN"},"type":"Feature","geometry":{"type":"Point","coordinates":[-93.093326,44.943829]}},{"properties":{"city":"Memphis","latitude":35.14968,"college":"Memphis College of Art","number of students attending":1,"longitude":-90.048929,"id":"a6a0q6sxceu4","state":"TN"},"type":"Feature","geometry":{"type":"Point","coordinates":[-90.048929,35.14968]}},{"properties":{"city":"Oxford","latitude":39.510493,"college":"Miami University of Ohio","number of students attending":3,"longitude":-84.742749,"id":"a6a0q6mprxy3","state":"OH"},"type":"Feature","geometry":{"type":"Point","coordinates":[-84.742749,39.510493]}},{"properties":{"city":"Olathe","latitude":38.88353,"college":"Mid-America Nazarine","number of students attending":1,"longitude":-94.818874,"id":"a6a0q6loeu3f","state":"KS"},"type":"Feature","geometry":{"type":"Point","coordinates":[-94.818874,38.88353]}},{"properties":{"city":"Kansas City","latitude":39.11338,"college":"Military","number of students attending":2,"longitude":-94.626824,"id":"a6a0q6t8p1wa","state":"KS"},"type":"Feature","geometry":{"type":"Point","coordinates":[-94.626824,39.11338]}},{"properties":{"city":"Springfield","latitude":37.208975,"college":"Missouri State University","number of students attending":2,"longitude":-93.291564,"id":"a6a0q6l8d5ej","state":"MO"},"type":"Feature","geometry":{"type":"Point","coordinates":[-93.291564,37.208975]}},{"properties":{"city":"Las Cruces","latitude":32.30673,"college":"New Mexico State","number of students attending":1,"longitude":-106.777734,"id":"a6a0q6f701pg","state":"NM"},"type":"Feature","geometry":{"type":"Point","coordinates":[-106.777734,32.30673]}},{"properties":{"city":"Soccorro","latitude":34.059931,"college":"New Mexico Tech","number of students attending":3,"longitude":-106.891847,"id":"a6a0q6tyq546","state":"NM"},"type":"Feature","geometry":{"type":"Point","coordinates":[-106.891847,34.059931]}},{"properties":{"city":"Evanston","latitude":42.056655,"college":"Northwestern University","number of students attending":3,"longitude":-87.686589,"id":"a6a0q6ea564d","state":"IL"},"type":"Feature","geometry":{"type":"Point","coordinates":[-87.686589,42.056655]}},{"properties":{"city":"New York","latitude":40.71455,"college":"NYU","number of students attending":1,"longitude":-74.007124,"id":"a6a0q6ln5ys1","state":"NY"},"type":"Feature","geometry":{"type":"Point","coordinates":[-74.007124,40.71455]}},{"properties":{"city":"Edmund","latitude":35.309139,"college":"Oklahoma Christian University","number of students attending":1,"longitude":-98.521019,"id":"a6a0q6iy1y1v","state":"OK"},"type":"Feature","geometry":{"type":"Point","coordinates":[-98.521019,35.309139]}},{"properties":{"city":"Stillwater","latitude":36.11625,"college":"Oklahoma State University","number of students attending":1,"longitude":-97.058654,"id":"a6a0q6h3j36z","state":"OK"},"type":"Feature","geometry":{"type":"Point","coordinates":[-97.058654,36.11625]}},{"properties":{"city":"Pittsburg","latitude":37.410595,"college":"Pittsburg State University","number of students attending":14,"longitude":-94.704804,"id":"a6a0q6fxuvlz","state":"KS"},"type":"Feature","geometry":{"type":"Point","coordinates":[-94.704804,37.410595]}},{"properties":{"city":"Brooklyn","latitude":40.692455,"college":"Pratt Institute","number of students attending":1,"longitude":-73.990364,"id":"a6a0q6su5akq","state":"NY"},"type":"Feature","geometry":{"type":"Point","coordinates":[-73.990364,40.692455]}},{"properties":{"city":"Providence","latitude":41.823875,"college":"Rhode Island School of Design","number of students attending":1,"longitude":-71.411994,"id":"a6a0q6fmdla8","state":"RI"},"type":"Feature","geometry":{"type":"Point","coordinates":[-71.411994,41.823875]}},{"properties":{"city":"Memphis","latitude":35.14968,"college":"Rhodes College","number of students attending":3,"longitude":-90.048929,"id":"a6a0q6ny4s16","state":"TN"},"type":"Feature","geometry":{"type":"Point","coordinates":[-90.048929,35.14968]}},{"properties":{"city":"Kansas City","latitude":39.10296,"college":"Rockhurst University","number of students attending":1,"longitude":-94.583062,"id":"a6a0q6qy1aal","state":"MO"},"type":"Feature","geometry":{"type":"Point","coordinates":[-94.583062,39.10296]}},{"properties":{"city":"Chicago","latitude":41.88415,"college":"SAIC","number of students attending":1,"longitude":-87.632409,"id":"a6a0q6pwpypx","state":"IL"},"type":"Feature","geometry":{"type":"Point","coordinates":[-87.632409,41.88415]}},{"properties":{"city":"St. Louis","latitude":38.62774,"college":"Saint Louis University","number of students attending":2,"longitude":-90.199514,"id":"a6a0q6nf9ttb","state":"MO"},"type":"Feature","geometry":{"type":"Point","coordinates":[-90.199514,38.62774]}},{"properties":{"city":"Santa Clara","latitude":37.355509,"college":"Santa Clara University","number of students attending":2,"longitude":-121.954262,"id":"a6a0q6tnkwxv","state":"CA"},"type":"Feature","geometry":{"type":"Point","coordinates":[-121.954262,37.355509]}},{"properties":{"city":"Savannah","latitude":32.08078,"college":"Savannah College of Art and Design","number of students attending":2,"longitude":-81.090719,"id":"a6a0q6sxr540","state":"GA"},"type":"Feature","geometry":{"type":"Point","coordinates":[-81.090719,32.08078]}},{"properties":{"city":"Sewanee","latitude":35.19468,"college":"Sewanee: The University of the South","number of students attending":1,"longitude":-85.917724,"id":"a6a0q6o6jkr1","state":"TN"},"type":"Feature","geometry":{"type":"Point","coordinates":[-85.917724,35.19468]}},{"properties":{"city":"Rapid City","latitude":44.081165,"college":"South Dakota School of Mines and Technology","number of students attending":1,"longitude":-103.230889,"id":"a6a0q6u0b181","state":"SD"},"type":"Feature","geometry":{"type":"Point","coordinates":[-103.230889,44.081165]}},{"properties":{"city":"Dallas","latitude":32.778155,"college":"Southern Methodist University","number of students attending":1,"longitude":-96.795404,"id":"a6a0q6o3lr6t","state":"TX"},"type":"Feature","geometry":{"type":"Point","coordinates":[-96.795404,32.778155]}},{"properties":{"city":"Buena Vista","latitude":37.73503,"college":"Southern Virginia University","number of students attending":1,"longitude":-79.354004,"id":"a6a0q6ku0vx1","state":"VA"},"type":"Feature","geometry":{"type":"Point","coordinates":[-79.354004,37.73503]}},{"properties":{"city":"Northfield","latitude":44.4496,"college":"St. Olaf College","number of students attending":1,"longitude":-93.153759,"id":"a6a0q6e6vjsh","state":"MN"},"type":"Feature","geometry":{"type":"Point","coordinates":[-93.153759,44.4496]}},{"properties":{"city":"Palo Alto","latitude":37.44466,"college":"Stanford University","number of students attending":1,"longitude":-122.160794,"id":"a6a0q6fjqap8","state":"CA"},"type":"Feature","geometry":{"type":"Point","coordinates":[-122.160794,37.44466]}},{"properties":{"city":"Columbia","latitude":38.952174,"college":"Stephens College","number of students attending":2,"longitude":-92.334157,"id":"a6a0q6sdjwuk","state":"MO"},"type":"Feature","geometry":{"type":"Point","coordinates":[-92.334157,38.952174]}},{"properties":{"city":"Swarthmore","latitude":39.90088,"college":"Swarthmore College","number of students attending":1,"longitude":-75.347944,"id":"a6a0q6t6j0lv","state":"PA"},"type":"Feature","geometry":{"type":"Point","coordinates":[-75.347944,39.90088]}},{"properties":{"city":"Syracuse","latitude":43.04999,"college":"Syracuse University","number of students attending":1,"longitude":-76.147389,"id":"a6a0q6gozit7","state":"NY"},"type":"Feature","geometry":{"type":"Point","coordinates":[-76.147389,43.04999]}},{"properties":{"city":"Upland","latitude":40.474815,"college":"Taylor University","number of students attending":2,"longitude":-85.49448,"id":"a6a0q6kmtbfg","state":"IN"},"type":"Feature","geometry":{"type":"Point","coordinates":[-85.49448,40.474815]}},{"properties":{"city":"Fort Worth","latitude":32.74863,"college":"Texas Christian University","number of students attending":10,"longitude":-97.329249,"id":"a6a0q6hg9en6","state":"TX"},"type":"Feature","geometry":{"type":"Point","coordinates":[-97.329249,32.74863]}},{"properties":{"city":"Kirksville","latitude":40.19426,"college":"Truman State University","number of students attending":4,"longitude":-92.571994,"id":"a6a0q6sx0glr","state":"MO"},"type":"Feature","geometry":{"type":"Point","coordinates":[-92.571994,40.19426]}},{"properties":{"city":"Boston","latitude":42.358635,"college":"Tufts University","number of students attending":1,"longitude":-71.056699,"id":"a6a0q6ey6hey","state":"MA"},"type":"Feature","geometry":{"type":"Point","coordinates":[-71.056699,42.358635]}},{"properties":{"city":"Kansas City","latitude":39.10296,"college":"UMKC","number of students attending":4,"longitude":-94.583062,"id":"a6a0q6h1nn8t","state":"MO"},"type":"Feature","geometry":{"type":"Point","coordinates":[-94.583062,39.10296]}},{"properties":{"city":"Kansas City","latitude":39.11338,"college":"Undecided","number of students attending":4,"longitude":-94.626824,"id":"a6a0q6iox4qf","state":"KS"},"type":"Feature","geometry":{"type":"Point","coordinates":[-94.626824,39.11338]}},{"properties":{"city":"Athens","latitude":33.958132,"college":"University Georgia","number of students attending":1,"longitude":-83.373255,"id":"a6a0q6tew9jl","state":"GA"},"type":"Feature","geometry":{"type":"Point","coordinates":[-83.373255,33.958132]}},{"properties":{"city":"Fayetteville","latitude":36.063205,"college":"University of Arkansas","number of students attending":15,"longitude":-94.157914,"id":"a6a0q6k0c0vx","state":"AR"},"type":"Feature","geometry":{"type":"Point","coordinates":[-94.157914,36.063205]}},{"properties":{"city":"Dayton","latitude":39.75911,"college":"University of Dayton","number of students attending":1,"longitude":-84.194439,"id":"a6a0q6fet0rz","state":"OH"},"type":"Feature","geometry":{"type":"Point","coordinates":[-84.194439,39.75911]}},{"properties":{"city":"Urbana-Champaign","latitude":40.117271,"college":"University of Illinois","number of students attending":1,"longitude":-88.204491,"id":"a6a0q6r717y2","state":"IL"},"type":"Feature","geometry":{"type":"Point","coordinates":[-88.204491,40.117271]}},{"properties":{"city":"Lawrence","latitude":38.973065,"college":"University of Kansas","number of students attending":102,"longitude":-95.236534,"id":"a6a0q6swsu7h","state":"KS"},"type":"Feature","geometry":{"type":"Point","coordinates":[-95.236534,38.973065]}},{"properties":{"city":"Oxford","latitude":34.364025,"college":"University of Mississippi","number of students attending":1,"longitude":-89.518944,"id":"a6a0q6qfnapn","state":"MS"},"type":"Feature","geometry":{"type":"Point","coordinates":[-89.518944,34.364025]}},{"properties":{"city":"Columbia","latitude":38.952174,"college":"University of Missouri","number of students attending":14,"longitude":-92.334157,"id":"a6a0q6r2tk7y","state":"MO"},"type":"Feature","geometry":{"type":"Point","coordinates":[-92.334157,38.952174]}},{"properties":{"city":"Lincoln","latitude":40.81362,"college":"University of Nebraska","number of students attending":2,"longitude":-96.707739,"id":"a6a0q6gezqsp","state":"NE"},"type":"Feature","geometry":{"type":"Point","coordinates":[-96.707739,40.81362]}},{"properties":{"city":"Eugene","latitude":44.04992,"college":"University of Oregon","number of students attending":1,"longitude":-123.088544,"id":"a6a0q6npvw4a","state":"OR"},"type":"Feature","geometry":{"type":"Point","coordinates":[-123.088544,44.04992]}},{"properties":{"city":"San Diego","latitude":32.715695,"college":"University of San Diego","number of students attending":1,"longitude":-117.161719,"id":"a6a0q6jopcs4","state":"CA"},"type":"Feature","geometry":{"type":"Point","coordinates":[-117.161719,32.715695]}},{"properties":{"city":"Los Angeles","latitude":34.05349,"college":"University of Southern California","number of students attending":2,"longitude":-118.245319,"id":"a6a0q6mk3sfu","state":"CA"},"type":"Feature","geometry":{"type":"Point","coordinates":[-118.245319,34.05349]}},{"properties":{"city":"St. Paul","latitude":44.943829,"college":"University of St. Thomas","number of students attending":1,"longitude":-93.093326,"id":"a6a0q6hdrbqy","state":"MN"},"type":"Feature","geometry":{"type":"Point","coordinates":[-93.093326,44.943829]}},{"properties":{"city":"Austin","latitude":30.267605,"college":"University of Texas","number of students attending":1,"longitude":-97.742984,"id":"a6a0q6nhuxa4","state":"TX"},"type":"Feature","geometry":{"type":"Point","coordinates":[-97.742984,30.267605]}},{"properties":{"city":"Tulsa","latitude":36.149745,"college":"University of Tulsa","number of students attending":1,"longitude":-95.993334,"id":"a6a0q6t42gu4","state":"OK"},"type":"Feature","geometry":{"type":"Point","coordinates":[-95.993334,36.149745]}},{"properties":{"city":"Charlottesville","latitude":38.03213,"college":"University of Virginia","number of students attending":1,"longitude":-78.477529,"id":"a6a0q6of749v","state":"VA"},"type":"Feature","geometry":{"type":"Point","coordinates":[-78.477529,38.03213]}},{"properties":{"city":"Seattle","latitude":47.60356,"college":"University of Washington","number of students attending":1,"longitude":-122.329439,"id":"a6a0q6jk0l75","state":"WA"},"type":"Feature","geometry":{"type":"Point","coordinates":[-122.329439,47.60356]}},{"properties":{"city":"Madison","latitude":43.07295,"college":"University of Wisconsin","number of students attending":2,"longitude":-89.386694,"id":"a6a0q6htmoz1","state":"WI"},"type":"Feature","geometry":{"type":"Point","coordinates":[-89.386694,43.07295]}},{"properties":{"city":"Laramie","latitude":41.310808,"college":"University of Wyoming","number of students attending":1,"longitude":-105.590324,"id":"a6a0q6ii2fy8","state":"WY"},"type":"Feature","geometry":{"type":"Point","coordinates":[-105.590324,41.310808]}},{"properties":{"city":"Valparaiso","latitude":41.467756,"college":"Valparaiso University","number of students attending":1,"longitude":-87.061629,"id":"a6a0q6jei2i3","state":"IN"},"type":"Feature","geometry":{"type":"Point","coordinates":[-87.061629,41.467756]}},{"properties":{"city":"Nashville","latitude":36.167783,"college":"Vanderbilt University","number of students attending":3,"longitude":-86.778365,"id":"a6a0q6gg715n","state":"TN"},"type":"Feature","geometry":{"type":"Point","coordinates":[-86.778365,36.167783]}},{"properties":{"city":"Ventura","latitude":34.280825,"college":"Ventura College","number of students attending":2,"longitude":-119.292324,"id":"a6a0q6kv0ulo","state":"CA"},"type":"Feature","geometry":{"type":"Point","coordinates":[-119.292324,34.280825]}},{"properties":{"city":"Lexington","latitude":37.785485,"college":"Washington and Lee University","number of students attending":1,"longitude":-79.441469,"id":"a6a0q6n1bcux","state":"VA"},"type":"Feature","geometry":{"type":"Point","coordinates":[-79.441469,37.785485]}},{"properties":{"city":"St. Louis","latitude":38.62774,"college":"Washington University","number of students attending":1,"longitude":-90.199514,"id":"a6a0q6u4brzd","state":"MO"},"type":"Feature","geometry":{"type":"Point","coordinates":[-90.199514,38.62774]}},{"properties":{"city":"St. Louis","latitude":38.62774,"college":"Wellesley College","number of students attending":1,"longitude":-90.199514,"id":"a6a0q6foj42e","state":"MO"},"type":"Feature","geometry":{"type":"Point","coordinates":[-90.199514,38.62774]}},{"properties":{"city":"Kansas City","latitude":39.11338,"college":"Returning to country of origin","number of students attending":4,"longitude":-94.626824,"id":"a6a0q6rbjor9","state":"KS"},"type":"Feature","geometry":{"type":"Point","coordinates":[-94.626824,39.11338]}},{"properties":{"city":"Fulton","latitude":38.846975,"college":"William Woods College","number of students attending":1,"longitude":-91.947068,"id":"a6a0q6hd8qlv","state":"MO"},"type":"Feature","geometry":{"type":"Point","coordinates":[-91.947068,38.846975]}},{"properties":{"city":"Wooster","latitude":40.80566,"college":"Wooster","number of students attending":1,"longitude":-81.934379,"id":"a6a0q6kr5o6g","state":"OH"},"type":"Feature","geometry":{"type":"Point","coordinates":[-81.934379,40.80566]}},{"properties":{"city":"Worcester","latitude":42.26299,"college":"Worcester Polytechnic Institute","number of students attending":1,"longitude":-71.802354,"id":"a6a0q6lordty","state":"MA"},"type":"Feature","geometry":{"type":"Point","coordinates":[-71.802354,42.26299]}},{"properties":{"city":"Kansas City","latitude":39.11338,"college":"Working","number of students attending":1,"longitude":-94.626824,"id":"a6a0q6fq164x","state":"KS"},"type":"Feature","geometry":{"type":"Point","coordinates":[-94.626824,39.11338]}},{"properties":{"city":"New Haven","latitude":41.30713,"college":"Yale University","number of students attending":1,"longitude":-72.924979,"id":"a6a0q6m1j7h3","state":"CT"},"type":"Feature","geometry":{"type":"Point","coordinates":[-72.924979,41.30713]}}],"is_temporal":false,"author":{"url":"http://www.smeharbinger.net","metadata":"","contact_name":"","contact_address":"","source":"The Harbinger","contact_phone":""},"source":"http://www.smeharbinger.net","pagination":{"sort":null,"start":0,"total":112,"limit":1000000},"state":"complete","tags":"","published":"2011-05-16T16:00:00Z","id":115613}