{"type":"FeatureCollection","data_type":"Dataset","url_type":null,"permissions":[{"permissions":{"download":true,"view":true},"group_id":"everyone"}],"classification":null,"title":"alt fuel stations (May 17 2011)","count":64,"stream_id":116267,"contributor":{"url":"http://geocommons.com/users/26783","name":"mollysu2128"},"data_attributes":null,"calculation_params":null,"icon_link":null,"link":"http://geocommons.com/overlays/116267.json","extent":[-99.4526,33.993,-94.4351,36.871],"geometry_types":["point"],"unique_name":null,"name":"alt fuel stations (May 17 2011)","feature_count":64,"description":"","next_feature":null,"is_raster":false,"short_classification":"Y","stats":{"latitude":{"max":36.871027,"mean":35.704982659375,"variance":0.361316849546567,"stdev":0.601096372927476,"min":33.9930332,"median":35.636201},"id":{"max":39190,"mean":20434.0625,"variance":222708052.123016,"stdev":14923.4061836772,"min":735,"median":22718},"longitude":{"max":-94.435115,"mean":-97.06115710625,"variance":1.3874053355442,"stdev":1.17788171542995,"min":-99.452634,"median":-97.4255067},"plus4":{"max":9703,"mean":5400.23333333333,"variance":6240580.25402299,"stdev":2498.11534041625,"min":220,"median":5717}},"features":[{"properties":{"expected date":null,"city":"Ada","intersection directions":"14565 CR 3544","latitude":34.7737166,"zip":"74820","station name":"Ada Travel Stop West","ng psi":"3600","cards accepted":"Cash Checks M V Voyager Wright_Exp","access days time":"24 hours daily","id":"a66d28kdkhmd","street address":"201 Latta Rd","station phone":"580-310-0900","date last confirmed":"2/28/11","ng fill type code":"Q","longitude":-96.6969008,"plus4":null,"geocode status":"200-8","groups with access code":"Public - see hours","status code":"E","state":"OK"},"type":"Feature","geometry":{"type":"Point","coordinates":[-96.6969008,34.7737166]}},{"properties":{"expected date":null,"city":"Alva","intersection directions":null,"latitude":36.8096493,"zip":"73717","station name":"ONG Alva Service Center","ng psi":"3000","cards accepted":null,"access days time":null,"id":"a66d28q4qo0h","street address":"212 N 11th","station phone":null,"date last confirmed":"6/30/10","ng fill type code":"Q","longitude":-98.6749739,"plus4":null,"geocode status":"200-8","groups with access code":"Private access only","status code":"E","state":"OK"},"type":"Feature","geometry":{"type":"Point","coordinates":[-98.6749739,36.8096493]}},{"properties":{"expected date":null,"city":"Anadarko","intersection directions":null,"latitude":35.0723478,"zip":"73005","station name":"ONG Anadarko Service Center","ng psi":"3000","cards accepted":"M V FuelMan Voyager","access days time":"24 hours daily, for Fuelman card key call 888-609-2410","id":"a66d28p1oof2","street address":"1700 E Central","station phone":"888-609-2410","date last confirmed":"6/30/10","ng fill type code":"B","longitude":-98.2160691,"plus4":null,"geocode status":"200-8","groups with access code":"Public - credit card at all times","status code":"E","state":"OK"},"type":"Feature","geometry":{"type":"Point","coordinates":[-98.2160691,35.0723478]}},{"properties":{"expected date":null,"city":"Ardmore","intersection directions":"I-35, exit 33,  0.75 mile on north side of Veterans Boulevard/State Highway 42","latitude":34.1896822,"zip":"73401","station name":"ONG Southern Oklahoma Development Association","ng psi":"3000 3600","cards accepted":"M V FuelMan Voyager","access days time":"24 hours daily, for Fuelman card key call 888-609-2410","id":"a66d28hdyklh","street address":"1995 Veterans Blvd","station phone":"888-609-2410","date last confirmed":"6/30/10","ng fill type code":"Q","longitude":-97.1082192,"plus4":9516,"geocode status":"200-8","groups with access code":"Public - credit card at all times","status code":"E","state":"OK"},"type":"Feature","geometry":{"type":"Point","coordinates":[-97.1082192,34.1896822]}},{"properties":{"expected date":null,"city":"Arkoma","intersection directions":null,"latitude":35.354631,"zip":"74901","station name":"OnCue Express","ng psi":"3600","cards accepted":"M V FuelMan Voyager Wright_Exp","access days time":"24 hours daily","id":"a66d28c1gjx5","street address":"4419 Main St","station phone":"405-372-3579","date last confirmed":"1/31/11","ng fill type code":"Q","longitude":-94.435115,"plus4":null,"geocode status":"200-6","groups with access code":"Public - credit card at all times","status code":"E","state":"OK"},"type":"Feature","geometry":{"type":"Point","coordinates":[-94.435115,35.354631]}},{"properties":{"expected date":null,"city":"Bartlesville","intersection directions":"Highway 75 N, left on Indiana Street","latitude":36.7624523,"zip":"74005","station name":"ONG Bartlesville Service Center","ng psi":"3000","cards accepted":"M V FuelMan","access days time":"24 hours daily, for Fuelman card key call 888-609-2410","id":"a66d28c24kka","street address":"3601 NE Indiana St","station phone":"888-609-2410","date last confirmed":"6/30/10","ng fill type code":"B","longitude":-95.9388964,"plus4":null,"geocode status":"200-8","groups with access code":"Public - credit card at all times","status code":"E","state":"OK"},"type":"Feature","geometry":{"type":"Point","coordinates":[-95.9388964,36.7624523]}},{"properties":{"expected date":null,"city":"Broken Arrow","intersection directions":null,"latitude":36.0230553,"zip":"74012","station name":"ONG Broken Arrow Service Center","ng psi":"3000","cards accepted":"M V FuelMan","access days time":"24 hours daily, for Fuelman card key call 888-609-2410","id":"a66d28hdbz3j","street address":"2421 S 1st Pl","station phone":"888-609-2410","date last confirmed":"6/30/10","ng fill type code":"Q","longitude":-95.7878643,"plus4":8006,"geocode status":"200-8","groups with access code":"Public - credit card at all times","status code":"E","state":"OK"},"type":"Feature","geometry":{"type":"Point","coordinates":[-95.7878643,36.0230553]}},{"properties":{"expected date":null,"city":"Chickasha","intersection directions":null,"latitude":35.022972,"zip":"73018","station name":"Apache Chickasha","ng psi":"3600","cards accepted":null,"access days time":null,"id":"a66d28coaabc","street address":"2500 S 4th St","station phone":null,"date last confirmed":"4/30/11","ng fill type code":"Q","longitude":-97.936626,"plus4":null,"geocode status":"200-8","groups with access code":"Private access only","status code":"E","state":"OK"},"type":"Feature","geometry":{"type":"Point","coordinates":[-97.936626,35.022972]}},{"properties":{"expected date":null,"city":"Claremore","intersection directions":null,"latitude":36.2929523,"zip":"74017","station name":"ONG Claremore Service Center","ng psi":"3000","cards accepted":"M V FuelMan Voyager","access days time":"24 hours daily, for Fuelman card key call 888-609-2410","id":"a66d28ng6tad","street address":"1449 SW Country Club Rd","station phone":"888-609-2410","date last confirmed":"6/30/10","ng fill type code":"B","longitude":-95.6264761,"plus4":7121,"geocode status":"200-8","groups with access code":"Public - credit card at all times","status code":"E","state":"OK"},"type":"Feature","geometry":{"type":"Point","coordinates":[-95.6264761,36.2929523]}},{"properties":{"expected date":null,"city":"Clinton","intersection directions":"I-40, exit at mile marker 65A","latitude":35.4796693,"zip":"73601","station name":"ONG Clinton Service Center","ng psi":"3000","cards accepted":"M V FuelMan Voyager","access days time":"24 hours daily, for Fuelman card key call 888-609-2410","id":"a66d28mjlpzw","street address":"500 W Commerce","station phone":"888-609-2410","date last confirmed":"6/30/10","ng fill type code":"B","longitude":-98.9796865,"plus4":null,"geocode status":"200-8","groups with access code":"Public - credit card at all times","status code":"E","state":"OK"},"type":"Feature","geometry":{"type":"Point","coordinates":[-98.9796865,35.4796693]}},{"properties":{"expected date":null,"city":"Davenport","intersection directions":null,"latitude":35.7127283,"zip":"74026","station name":"ONG CNG Maintenance Facility","ng psi":"3000","cards accepted":"M V FuelMan Voyager","access days time":"24 hours daily, for Fuelman card key call 888-609-2410","id":"a66d28fbw589","street address":"1028 N Preston","station phone":"888-609-2410","date last confirmed":"6/30/10","ng fill type code":"Q","longitude":-96.7663275,"plus4":220,"geocode status":"200-8","groups with access code":"Public - credit card at all times","status code":"E","state":"OK"},"type":"Feature","geometry":{"type":"Point","coordinates":[-96.7663275,35.7127283]}},{"properties":{"expected date":null,"city":"Durant","intersection directions":null,"latitude":33.9930332,"zip":"74701","station name":"ONG Durant Service Center","ng psi":"3000","cards accepted":null,"access days time":null,"id":"a66d28hvhbks","street address":"523 W Evergreen St","station phone":null,"date last confirmed":"6/30/10","ng fill type code":"B","longitude":-96.3808308,"plus4":4745,"geocode status":"200-8","groups with access code":"Private access only","status code":"E","state":"OK"},"type":"Feature","geometry":{"type":"Point","coordinates":[-96.3808308,33.9930332]}},{"properties":{"expected date":null,"city":"Edmond","intersection directions":null,"latitude":35.740473,"zip":"73003","station name":"ONG Edmond Storage Facility","ng psi":"3000","cards accepted":null,"access days time":null,"id":"a66d28amy30i","street address":"12851 N Rockwell Ave","station phone":null,"date last confirmed":"4/30/10","ng fill type code":"B","longitude":-97.6385127,"plus4":9703,"geocode status":"200-8","groups with access code":"Private access only","status code":"E","state":"OK"},"type":"Feature","geometry":{"type":"Point","coordinates":[-97.6385127,35.740473]}},{"properties":{"expected date":null,"city":"Edmond","intersection directions":"NW 164th &amp; Rockwell Ave, Suite 100","latitude":35.636201,"zip":"73013","station name":"Total Express","ng psi":"3600 3000","cards accepted":"Cash Checks M V","access days time":"24 hours daily","id":"a66d28dd2i01","street address":"16401 N Rockwell Ave","station phone":"405-348-3835?","date last confirmed":"3/31/10","ng fill type code":"Q","longitude":-97.638712,"plus4":8987,"geocode status":"200-8","groups with access code":"Public - see hours","status code":"E","state":"OK"},"type":"Feature","geometry":{"type":"Point","coordinates":[-97.638712,35.636201]}},{"properties":{"expected date":null,"city":"Edmond","intersection directions":"NE corner of Ninth Street and Broadway","latitude":35.646194,"zip":"73034","station name":"OnCue Express","ng psi":"3600","cards accepted":"A D M V","access days time":"24 hours daily","id":"a66d28aodaou","street address":"800 S Broadway","station phone":"405-330-6009","date last confirmed":"2/28/11","ng fill type code":"Q","longitude":-97.481951,"plus4":null,"geocode status":"200-8","groups with access code":"Public - credit card at all times","status code":"E","state":"OK"},"type":"Feature","geometry":{"type":"Point","coordinates":[-97.481951,35.646194]}},{"properties":{"expected date":"5/15/11","city":"El Reno","intersection directions":null,"latitude":35.464125,"zip":"73036","station name":"OnCue Express","ng psi":"3600","cards accepted":"M V FuelMan Voyager Wright_Exp","access days time":"24 hours daily","id":"a66d28j4y72b","street address":"34001 S Radio Rd","station phone":null,"date last confirmed":"2/28/11","ng fill type code":"Q","longitude":-97.619003,"plus4":null,"geocode status":"GPS","groups with access code":"PLANNED - not yet accessible","status code":"P","state":"OK"},"type":"Feature","geometry":{"type":"Point","coordinates":[-97.619003,35.464125]}},{"properties":{"expected date":null,"city":"Elk City","intersection directions":null,"latitude":35.4057969,"zip":"73648","station name":"Hutchinson Oil - Hutch's C-Store","ng psi":"3600","cards accepted":"M V FuelMan Voyager","access days time":"24 hours daily; call 888-609-2410 for Fuelman card key","id":"a66d28fr08t6","street address":"515 S Main St","station phone":"888-609-2410","date last confirmed":"2/28/11","ng fill type code":"Q","longitude":-99.4049134,"plus4":null,"geocode status":"200-8","groups with access code":"Public - credit card at all times","status code":"E","state":"OK"},"type":"Feature","geometry":{"type":"Point","coordinates":[-99.4049134,35.4057969]}},{"properties":{"expected date":null,"city":"Elk City","intersection directions":null,"latitude":35.411493,"zip":"73644","station name":"Apache Elk City","ng psi":"3600","cards accepted":null,"access days time":null,"id":"a66d28jly79i","street address":"3900 W 3rd","station phone":null,"date last confirmed":"4/30/11","ng fill type code":"Q","longitude":-99.452634,"plus4":null,"geocode status":"200-8","groups with access code":"Private access only","status code":"E","state":"OK"},"type":"Feature","geometry":{"type":"Point","coordinates":[-99.452634,35.411493]}},{"properties":{"expected date":null,"city":"Enid","intersection directions":null,"latitude":36.4100816,"zip":"73703","station name":"City of Enid Maintenance Facility","ng psi":"3000","cards accepted":null,"access days time":null,"id":"a66d28aj2jhy","street address":"1502 W Poplar Ave","station phone":null,"date last confirmed":"6/30/10","ng fill type code":"B","longitude":-97.8965517,"plus4":3344,"geocode status":"200-8","groups with access code":"Private - government only","status code":"E","state":"OK"},"type":"Feature","geometry":{"type":"Point","coordinates":[-97.8965517,36.4100816]}},{"properties":{"expected date":null,"city":"Enid","intersection directions":null,"latitude":36.3930243,"zip":"73703","station name":"ONG Enid Service Center","ng psi":"3000","cards accepted":"M V FuelMan Voyager","access days time":"24 hours daily, for Fuelman card key call 888-609-2410","id":"a66d28hgrx5v","street address":"421 S Garland Rd","station phone":"888-609-2410","date last confirmed":"6/30/10","ng fill type code":"B","longitude":-97.9437385,"plus4":3344,"geocode status":"200-8","groups with access code":"Public - credit card at all times","status code":"E","state":"OK"},"type":"Feature","geometry":{"type":"Point","coordinates":[-97.9437385,36.3930243]}},{"properties":{"expected date":null,"city":"Frederick","intersection directions":null,"latitude":34.385185,"zip":"73542","station name":"Tillman's Producers Co-op Fueling Station","ng psi":"3000","cards accepted":"M V FuelMan Voyager","access days time":"24 hours daily, for Fuelman card key call 888-609-2410","id":"a66d28huzyhd","street address":"507 S Main St","station phone":"888-609-2410","date last confirmed":"6/30/10","ng fill type code":"Q","longitude":-99.0170019,"plus4":6801,"geocode status":"200-8","groups with access code":"Public - credit card at all times","status code":"E","state":"OK"},"type":"Feature","geometry":{"type":"Point","coordinates":[-99.0170019,34.385185]}},{"properties":{"expected date":null,"city":"Guthrie","intersection directions":null,"latitude":35.8587573,"zip":"73044","station name":"ONG Guthrie Service Center","ng psi":"3000","cards accepted":"M V FuelMan Voyager","access days time":"24 hours daily, for Fuelman card key call 888-609-2410","id":"a66d28jtslzs","street address":"205 Sigma Pl","station phone":"888-609-2410","date last confirmed":"6/30/10","ng fill type code":"B","longitude":-97.4255067,"plus4":6017,"geocode status":"200-8","groups with access code":"Public - credit card at all times","status code":"E","state":"OK"},"type":"Feature","geometry":{"type":"Point","coordinates":[-97.4255067,35.8587573]}},{"properties":{"expected date":null,"city":"Kingfisher","intersection directions":null,"latitude":35.8597942,"zip":"73750","station name":"Love's Country Store","ng psi":"3600","cards accepted":"Cash M V FuelMan Voyager Wright_Exp","access days time":"24 hours daily","id":"a66d28asp9kn","street address":"203 S Main","station phone":"405-375-5019","date last confirmed":"2/28/11","ng fill type code":"Q","longitude":-97.9326875,"plus4":null,"geocode status":"200-8","groups with access code":"Public - see hours","status code":"E","state":"OK"},"type":"Feature","geometry":{"type":"Point","coordinates":[-97.9326875,35.8597942]}},{"properties":{"expected date":null,"city":"Lindsay","intersection directions":null,"latitude":34.8524142,"zip":"73052","station name":"OnCue Express","ng psi":"3600","cards accepted":"M V FuelMan Voyager Wright_Exp","access days time":"24 hours daily","id":"a66d28j9tcda","street address":"1407 SE 4th St","station phone":"405-372-3579","date last confirmed":"2/28/11","ng fill type code":"Q","longitude":-97.607154,"plus4":null,"geocode status":"200-8","groups with access code":"Public - credit card at all times","status code":"E","state":"OK"},"type":"Feature","geometry":{"type":"Point","coordinates":[-97.607154,34.8524142]}},{"properties":{"expected date":null,"city":"Miami","intersection directions":"I-44, exit to Highway 10 E, left on Treaty Road","latitude":36.871027,"zip":"74354","station name":"ONG Miami Service Center","ng psi":"3000","cards accepted":"M V FuelMan","access days time":"24 hours daily, for Fuelman card key call 888-609-2410","id":"a66d28p9m3sy","street address":"11 S Treaty Rd","station phone":"888-609-2410","date last confirmed":"6/30/10","ng fill type code":"Q","longitude":-94.841708,"plus4":5327,"geocode status":"200-8","groups with access code":"Public - credit card at all times","status code":"E","state":"OK"},"type":"Feature","geometry":{"type":"Point","coordinates":[-94.841708,36.871027]}},{"properties":{"expected date":null,"city":"Muskogee","intersection directions":"At Highway 69, 1 block east","latitude":35.7405107,"zip":"74401","station name":"ONG Muskogee Service Center","ng psi":"3000","cards accepted":"M V FuelMan Voyager","access days time":"24 hours daily, for Fuelman card key call 888-609-2410","id":"a66d28n3285v","street address":"2616 W Border St","station phone":"888-609-2410","date last confirmed":"6/30/10","ng fill type code":"B","longitude":-95.3961096,"plus4":5757,"geocode status":"200-8","groups with access code":"Public - credit card at all times","status code":"E","state":"OK"},"type":"Feature","geometry":{"type":"Point","coordinates":[-95.3961096,35.7405107]}},{"properties":{"expected date":null,"city":"Mustang","intersection directions":"On Highway 4, go 5 miles south to Highway 152, 1 mile east on 152","latitude":35.3917013,"zip":"73064","station name":"ONG Mustang Service Center","ng psi":"3000","cards accepted":"M V FuelMan Voyager","access days time":"24 hours daily, for Fuelman card key call 888-609-2410","id":"a66d28fm012j","street address":"680 E Highway 152","station phone":"888-609-2410","date last confirmed":"6/30/10","ng fill type code":"B","longitude":-97.7369047,"plus4":null,"geocode status":"200-8","groups with access code":"Public - credit card at all times","status code":"E","state":"OK"},"type":"Feature","geometry":{"type":"Point","coordinates":[-97.7369047,35.3917013]}},{"properties":{"expected date":null,"city":"Norman","intersection directions":null,"latitude":35.2256694,"zip":"73069","station name":"ONG Norman Service Center","ng psi":"3000","cards accepted":"M V FuelMan Voyager","access days time":"24 hours daily, for Fuelman card key call 888-609-2410","id":"a66d28goygii","street address":"605 N Berry Rd","station phone":"888-609-2410","date last confirmed":"6/30/10","ng fill type code":"B","longitude":-97.4589727,"plus4":7541,"geocode status":"200-8","groups with access code":"Public - credit card at all times","status code":"E","state":"OK"},"type":"Feature","geometry":{"type":"Point","coordinates":[-97.4589727,35.2256694]}},{"properties":{"expected date":null,"city":"Norman","intersection directions":"At Monitor St","latitude":35.1892016,"zip":"73019","station name":"University of Oklahoma - Transportation Operations Center","ng psi":"3600","cards accepted":null,"access days time":null,"id":"a66d28cgqr1p","street address":"510 E Chesapeake St","station phone":null,"date last confirmed":"6/30/10","ng fill type code":"B","longitude":-97.4352607,"plus4":null,"geocode status":"200-8","groups with access code":"Private - government only","status code":"E","state":"OK"},"type":"Feature","geometry":{"type":"Point","coordinates":[-97.4352607,35.1892016]}},{"properties":{"expected date":null,"city":"Oklahoma City","intersection directions":null,"latitude":35.473942,"zip":"73107","station name":"City of Oklahoma City","ng psi":"3000","cards accepted":null,"access days time":null,"id":"a66d28mm5o96","street address":"621 N Pennsylvania Ave","station phone":null,"date last confirmed":"6/30/10","ng fill type code":"T","longitude":-97.5515099,"plus4":6403,"geocode status":"200-8","groups with access code":"Private - government only","status code":"E","state":"OK"},"type":"Feature","geometry":{"type":"Point","coordinates":[-97.5515099,35.473942]}},{"properties":{"expected date":null,"city":"Oklahoma City","intersection directions":null,"latitude":35.4558188,"zip":"73108","station name":"United Parcel Service - Oklahoma City","ng psi":"3000 3600","cards accepted":null,"access days time":null,"id":"a66d28j6ywwb","street address":"901 S Portland Ave","station phone":null,"date last confirmed":"3/31/11","ng fill type code":"Q","longitude":-97.5847433,"plus4":2095,"geocode status":"200-8","groups with access code":"Private access only","status code":"E","state":"OK"},"type":"Feature","geometry":{"type":"Point","coordinates":[-97.5847433,35.4558188]}},{"properties":{"expected date":null,"city":"Oklahoma City","intersection directions":null,"latitude":35.5221258,"zip":"73118","station name":"ONG Northside Service Center","ng psi":"3000","cards accepted":null,"access days time":null,"id":"a66d28lxej5m","street address":"4901 N Santa Fe Ave","station phone":null,"date last confirmed":"6/30/10","ng fill type code":"B","longitude":-97.5121425,"plus4":7911,"geocode status":"200-8","groups with access code":"Private access only","status code":"E","state":"OK"},"type":"Feature","geometry":{"type":"Point","coordinates":[-97.5121425,35.5221258]}},{"properties":{"expected date":null,"city":"Oklahoma City","intersection directions":null,"latitude":35.4062114,"zip":"73129","station name":"Oklahoma Natural Gas - Southside Service Center","ng psi":"3600","cards accepted":"M V FuelMan Voyager","access days time":"24 hours daily; call 888-609-2410 for Fuelman card key","id":"a66d28c46b3h","street address":"412 SE 59th St","station phone":"888-609-2410","date last confirmed":"2/28/11","ng fill type code":"B","longitude":-97.5027138,"plus4":5640,"geocode status":"200-8","groups with access code":"Public - credit card at all times","status code":"E","state":"OK"},"type":"Feature","geometry":{"type":"Point","coordinates":[-97.5027138,35.4062114]}},{"properties":{"expected date":null,"city":"Oklahoma City","intersection directions":null,"latitude":35.4425189,"zip":"73129","station name":"Oklahoma State Motor Pool","ng psi":"3000","cards accepted":null,"access days time":null,"id":"a66d28f7g52q","street address":"2307 N Central Ave","station phone":null,"date last confirmed":"6/30/10","ng fill type code":"Q","longitude":-97.5068694,"plus4":1831,"geocode status":"200-8","groups with access code":"Private - government only","status code":"E","state":"OK"},"type":"Feature","geometry":{"type":"Point","coordinates":[-97.5068694,35.4425189]}},{"properties":{"expected date":null,"city":"Oklahoma City","intersection directions":"At Portland Ave","latitude":35.4480822,"zip":"73108","station name":"City of Oklahoma City Central Maintenance Facility","ng psi":"3000","cards accepted":null,"access days time":null,"id":"a66d28qk526t","street address":"3738 SW 15th St","station phone":null,"date last confirmed":"6/30/10","ng fill type code":"B","longitude":-97.5847701,"plus4":null,"geocode status":"200-8","groups with access code":"Private - government only","status code":"E","state":"OK"},"type":"Feature","geometry":{"type":"Point","coordinates":[-97.5847701,35.4480822]}},{"properties":{"expected date":null,"city":"Oklahoma City","intersection directions":"At Terminal Dr","latitude":35.4061743,"zip":"73159","station name":"Clean Energy - Will Rogers World Airport","ng psi":"3600","cards accepted":"M V Voyager Wright_Exp Clean Energy","access days time":"24 hours daily","id":"a66d28nbi2sh","street address":"4424 Amelia Earhart Dr","station phone":"303-322-4600","date last confirmed":"7/31/10","ng fill type code":"Q","longitude":-97.5998828,"plus4":null,"geocode status":"200-8","groups with access code":"Public - credit card at all times","status code":"E","state":"OK"},"type":"Feature","geometry":{"type":"Point","coordinates":[-97.5998828,35.4061743]}},{"properties":{"expected date":null,"city":"Oklahoma City","intersection directions":"NW 49th at Western Ave","latitude":35.521077,"zip":"73118","station name":"OnCue Express","ng psi":"3000 3600","cards accepted":"M V Wright_Exp","access days time":"24 hours daily","id":"a66d28owy11m","street address":"4920 N Western Ave","station phone":"405-935-6475","date last confirmed":"2/28/11","ng fill type code":"Q","longitude":-97.529454,"plus4":null,"geocode status":"200-8","groups with access code":"Public - credit card at all times","status code":"E","state":"OK"},"type":"Feature","geometry":{"type":"Point","coordinates":[-97.529454,35.521077]}},{"properties":{"expected date":null,"city":"Oklahoma City","intersection directions":"Reno at MacArthur Ave","latitude":35.4641542,"zip":"73127","station name":"OnCue Express #100 - C Store","ng psi":"3600","cards accepted":"Cash Check M V FuelMan Voyager Wright_Exp","access days time":"24 hours daily","id":"a66d28l25yyf","street address":"5900 W Reno","station phone":"405-787-2255","date last confirmed":"2/28/11","ng fill type code":"Q","longitude":-97.619013,"plus4":null,"geocode status":"200-8","groups with access code":"Public - see hours","status code":"E","state":"OK"},"type":"Feature","geometry":{"type":"Point","coordinates":[-97.619013,35.4641542]}},{"properties":{"expected date":null,"city":"Oklahoma City","intersection directions":"NW 23rd Street at Santa Fe","latitude":35.63078,"zip":"73013","station name":"OnCue Express #101 - C Store","ng psi":"3600","cards accepted":"Cash Check M V FuelMan Voyager Wright_Exp","access days time":"24 hours daily","id":"a66d28hpmfmu","street address":"1 NW 23rd St","station phone":"405-557-1170","date last confirmed":"2/28/11","ng fill type code":"Q","longitude":-97.4842661,"plus4":null,"geocode status":"200-8","groups with access code":"Public - see hours","status code":"E","state":"OK"},"type":"Feature","geometry":{"type":"Point","coordinates":[-97.4842661,35.63078]}},{"properties":{"expected date":null,"city":"Oklahoma City","intersection directions":null,"latitude":35.6086464,"zip":"73120","station name":"RS Fuel - Phillips 66","ng psi":"3600","cards accepted":"Cash M V Voyager Wright_Exp","access days time":"6am-11pm daily; also accept Donlen card","id":"a66d28n2rpkm","street address":"3330 W Memorial Rd","station phone":"405-748-4277","date last confirmed":"3/31/11","ng fill type code":"Q","longitude":-97.5766031,"plus4":null,"geocode status":"200-8","groups with access code":"Public - credit card after hours","status code":"E","state":"OK"},"type":"Feature","geometry":{"type":"Point","coordinates":[-97.5766031,35.6086464]}},{"properties":{"expected date":null,"city":"Okmulgee","intersection directions":"Highway 75, southeast of town","latitude":35.6070952,"zip":"74447","station name":"ONG Okmulgee Service Center","ng psi":"3000","cards accepted":"M V FuelMan Voyager","access days time":"24 hours daily, for Fuelman card key call 888-609-2410","id":"a66d28llixeq","street address":"2018 S Wood Dr","station phone":"888-609-2410","date last confirmed":"6/30/10","ng fill type code":"Q","longitude":-95.9618154,"plus4":6849,"geocode status":"200-8","groups with access code":"Public - credit card at all times","status code":"E","state":"OK"},"type":"Feature","geometry":{"type":"Point","coordinates":[-95.9618154,35.6070952]}},{"properties":{"expected date":"1/15/12","city":"Owasso","intersection directions":null,"latitude":36.5627399,"zip":"74055","station name":"City of Owasso","ng psi":null,"cards accepted":null,"access days time":null,"id":"a66d28hq1dm8","street address":"Main St","station phone":null,"date last confirmed":"11/30/10","ng fill type code":"Q","longitude":-94.7746151,"plus4":null,"geocode status":"200-6","groups with access code":"PLANNED - not yet accessible","status code":"P","state":"OK"},"type":"Feature","geometry":{"type":"Point","coordinates":[-94.7746151,36.5627399]}},{"properties":{"expected date":null,"city":"Pauls Valley","intersection directions":null,"latitude":34.709681,"zip":"73075","station name":"ONG Pauls Valley Service Center","ng psi":"3000","cards accepted":"M V FuelMan Voyager","access days time":"24 hours daily, for Fuelman card key call 888-609-2410","id":"a66d28n3v5j5","street address":"1701 W Airline Rd","station phone":"888-609-2410","date last confirmed":"6/30/10","ng fill type code":"B","longitude":-97.231953,"plus4":3416,"geocode status":"200-8","groups with access code":"Public - credit card at all times","status code":"E","state":"OK"},"type":"Feature","geometry":{"type":"Point","coordinates":[-97.231953,34.709681]}},{"properties":{"expected date":null,"city":"Ponca City","intersection directions":null,"latitude":36.7286842,"zip":"74601","station name":"ONG Ponca City Service Center","ng psi":"3000","cards accepted":"M V FuelMan Voyager","access days time":"24 hours daily, for Fuelman card key call 888-609-2410","id":"a66d28k5cd5s","street address":"2205 N Ash St","station phone":"888-609-2410","date last confirmed":"6/30/10","ng fill type code":"B","longitude":-97.0946052,"plus4":1108,"geocode status":"200-8","groups with access code":"Public - credit card at all times","status code":"E","state":"OK"},"type":"Feature","geometry":{"type":"Point","coordinates":[-97.0946052,36.7286842]}},{"properties":{"expected date":null,"city":"Sand Springs","intersection directions":null,"latitude":36.1105724,"zip":"74063","station name":"Sand Springs Schools","ng psi":"3000","cards accepted":null,"access days time":null,"id":"a66d28e76bs2","street address":"410 W 55th St","station phone":null,"date last confirmed":"6/30/10","ng fill type code":"B","longitude":-96.1294421,"plus4":970,"geocode status":"200-8","groups with access code":"Private - government only","status code":"E","state":"OK"},"type":"Feature","geometry":{"type":"Point","coordinates":[-96.1294421,36.1105724]}},{"properties":{"expected date":null,"city":"Sapulpa","intersection directions":null,"latitude":35.993698,"zip":"74066","station name":"ONG Sapulpa Service Center","ng psi":"3000","cards accepted":"M V FuelMan","access days time":"24 hours daily, for Fuelman card key call 888-609-2410","id":"a66d28qhhrqe","street address":"410 S Hawthorn","station phone":"888-609-2410","date last confirmed":"6/30/10","ng fill type code":"Q","longitude":-96.1277477,"plus4":5604,"geocode status":"200-8","groups with access code":"Public - credit card at all times","status code":"E","state":"OK"},"type":"Feature","geometry":{"type":"Point","coordinates":[-96.1277477,35.993698]}},{"properties":{"expected date":null,"city":"Shawnee","intersection directions":null,"latitude":35.3461591,"zip":"74801","station name":"ONG Shawnee Service Center","ng psi":"3000","cards accepted":"M V FuelMan Voyager","access days time":"24 hours daily, for Fuelman card key call 888-609-2410","id":"a66d28bbxwck","street address":"1444 N Kickapoo St","station phone":"888-609-2410","date last confirmed":"6/30/10","ng fill type code":"B","longitude":-96.9299562,"plus4":4826,"geocode status":"200-8","groups with access code":"Public - credit card at all times","status code":"E","state":"OK"},"type":"Feature","geometry":{"type":"Point","coordinates":[-96.9299562,35.3461591]}},{"properties":{"expected date":null,"city":"Stillwater","intersection directions":null,"latitude":36.0849746,"zip":"74074","station name":"ONG Stillwater Service Center","ng psi":"3000","cards accepted":"M V FuelMan Voyager","access days time":"24 hours daily, for Fuelman card key call 888-609-2410","id":"a66d28mtg2v3","street address":"3424 N Perkins Rd","station phone":"888-609-2410","date last confirmed":"6/30/10","ng fill type code":"B","longitude":-97.0512517,"plus4":null,"geocode status":"200-8","groups with access code":"Public - credit card at all times","status code":"E","state":"OK"},"type":"Feature","geometry":{"type":"Point","coordinates":[-97.0512517,36.0849746]}},{"properties":{"expected date":"12/15/10","city":"Stillwater","intersection directions":"Lakeview Dr and Western Ave","latitude":35.5664062,"zip":"74962","station name":"Clean Energy - Oklahoma State University","ng psi":"3600","cards accepted":"M V Voyager Wright_Exp","access days time":"24 hours daily","id":"a66d28o77dgs","street address":null,"station phone":"405-744-7938","date last confirmed":"11/30/10","ng fill type code":"B","longitude":-94.981781,"plus4":null,"geocode status":"200-5","groups with access code":"PLANNED - not yet accessible","status code":"P","state":"OK"},"type":"Feature","geometry":{"type":"Point","coordinates":[-94.981781,35.5664062]}},{"properties":{"expected date":null,"city":"Stroud","intersection directions":"I-44, Stroud exit next to McDonald's, station behind Kicks 66","latitude":35.751853,"zip":"74079","station name":"Phillips 66 Station","ng psi":"3000","cards accepted":"M V FuelMan Voyager","access days time":"24 hours daily, for Fuelman card key call 888-609-2410","id":"a66d28csj9n4","street address":"179 Turner Tpke","station phone":"888-609-2410","date last confirmed":"6/30/10","ng fill type code":"Q","longitude":-96.689631,"plus4":null,"geocode status":"200-8","groups with access code":"Public - credit card at all times","status code":"E","state":"OK"},"type":"Feature","geometry":{"type":"Point","coordinates":[-96.689631,35.751853]}},{"properties":{"expected date":null,"city":"Tulsa","intersection directions":null,"latitude":36.1500419,"zip":"74103","station name":"ONEOK Parking Garage","ng psi":"3000","cards accepted":null,"access days time":null,"id":"a66d28n14nq6","street address":"111 W 6th St","station phone":null,"date last confirmed":"6/30/10","ng fill type code":"B","longitude":-95.9909192,"plus4":4240,"geocode status":"200-8","groups with access code":"Private access only","status code":"E","state":"OK"},"type":"Feature","geometry":{"type":"Point","coordinates":[-95.9909192,36.1500419]}},{"properties":{"expected date":null,"city":"Tulsa","intersection directions":null,"latitude":36.1406408,"zip":"74112","station name":"ONG Tulsa Service Center","ng psi":"3000","cards accepted":"M V FuelMan Voyager","access days time":"24 hours daily, for Fuelman card key call 888-609-2410","id":"a66d28gj8ujk","street address":"5848 E 15th St","station phone":"888-609-2410","date last confirmed":"6/30/10","ng fill type code":"B","longitude":-95.9081779,"plus4":6412,"geocode status":"200-8","groups with access code":"Public - credit card at all times","status code":"E","state":"OK"},"type":"Feature","geometry":{"type":"Point","coordinates":[-95.9081779,36.1406408]}},{"properties":{"expected date":null,"city":"Tulsa","intersection directions":null,"latitude":36.1793318,"zip":"74157","station name":"Tulsa Public Schools","ng psi":"3000","cards accepted":null,"access days time":null,"id":"a66d28di7imc","street address":"1815 N 77th E Ave","station phone":null,"date last confirmed":"6/30/10","ng fill type code":"B","longitude":-95.8889819,"plus4":5717,"geocode status":"200-8","groups with access code":"Private - government only","status code":"E","state":"OK"},"type":"Feature","geometry":{"type":"Point","coordinates":[-95.8889819,36.1793318]}},{"properties":{"expected date":null,"city":"Tulsa","intersection directions":null,"latitude":36.079433,"zip":"74146","station name":"United Parcel Service","ng psi":"3000","cards accepted":null,"access days time":null,"id":"a66d28fxgz7q","street address":"5805 S 118 E Ave","station phone":null,"date last confirmed":"6/30/10","ng fill type code":"Q","longitude":-95.844262,"plus4":6839,"geocode status":"200-8","groups with access code":"Private access only","status code":"E","state":"OK"},"type":"Feature","geometry":{"type":"Point","coordinates":[-95.844262,36.079433]}},{"properties":{"expected date":null,"city":"Tulsa","intersection directions":null,"latitude":36.1105633,"zip":"74157","station name":"Tulsa Public Schools - McBirney Site","ng psi":"3000","cards accepted":null,"access days time":null,"id":"a66d28ojqns5","street address":"1012 W 36th Pl","station phone":null,"date last confirmed":"6/30/10","ng fill type code":"B","longitude":-96.0032629,"plus4":5717,"geocode status":"200-8","groups with access code":"Private - government only","status code":"E","state":"OK"},"type":"Feature","geometry":{"type":"Point","coordinates":[-96.0032629,36.1105633]}},{"properties":{"expected date":null,"city":"Tulsa","intersection directions":null,"latitude":36.062686,"zip":"74132","station name":"ONG Tulsa Service Center West","ng psi":"3000","cards accepted":"M V FuelMan Voyager","access days time":"24 hours daily, for Fuelman card key call 888-609-2410","id":"a66d28cr1a4e","street address":"7002 S Union Ave","station phone":"888-609-2410","date last confirmed":"4/30/10","ng fill type code":"B","longitude":-96.0116935,"plus4":null,"geocode status":"200-8","groups with access code":"Public - credit card at all times","status code":"E","state":"OK"},"type":"Feature","geometry":{"type":"Point","coordinates":[-96.0116935,36.062686]}},{"properties":{"expected date":null,"city":"Tulsa","intersection directions":"NW corner of Yale Ave and E 66th St N","latitude":36.249583,"zip":"74117","station name":"ONG Tulsa North Service Center","ng psi":"3000","cards accepted":"M V FuelMan Voyager","access days time":"24 hours daily, for Fuelman card key call 888-609-2410","id":"a66d28kiqir7","street address":"4821 E 66th St N","station phone":"888-609-2410","date last confirmed":"4/30/10","ng fill type code":"B","longitude":-95.922592,"plus4":null,"geocode status":"200-8","groups with access code":"Public - credit card at all times","status code":"E","state":"OK"},"type":"Feature","geometry":{"type":"Point","coordinates":[-95.922592,36.249583]}},{"properties":{"expected date":null,"city":"Tulsa","intersection directions":null,"latitude":36.0937063,"zip":"74146","station name":"Blue Energy Fuels - Tulsa Gas Technologies","ng psi":"3000 3600","cards accepted":"Cash M V FuelMan Voyager","access days time":"8am-5pm M-F: 24 hour access with Tulsa Gas Technologies card. Vehicles must be NFPA 52 compliant and inspected. Must have billing information on file.","id":"a66d28la6vhg","street address":"4809 S 101 East Ave","station phone":"918-665-2641","date last confirmed":"12/31/10","ng fill type code":"Q","longitude":-95.8637213,"plus4":null,"geocode status":"200-8","groups with access code":"Public - call ahead","status code":"E","state":"OK"},"type":"Feature","geometry":{"type":"Point","coordinates":[-95.8637213,36.0937063]}},{"properties":{"expected date":"8/15/11","city":"Tulsa","intersection directions":null,"latitude":36.1543162,"zip":"74120","station name":"Tulsa Transit","ng psi":null,"cards accepted":null,"access days time":null,"id":"a66d28mh8cwk","street address":"510 S Rockford Ave","station phone":null,"date last confirmed":"4/30/11","ng fill type code":"Q","longitude":-95.9718237,"plus4":null,"geocode status":"200-8","groups with access code":"PLANNED - not yet accessible","status code":"P","state":"OK"},"type":"Feature","geometry":{"type":"Point","coordinates":[-95.9718237,36.1543162]}},{"properties":{"expected date":null,"city":"Tulsa","intersection directions":null,"latitude":36.1303681,"zip":"74107","station name":"City of Tulsa West Maintenance Yard","ng psi":"3600","cards accepted":null,"access days time":null,"id":"a66d28nyhfvp","street address":"420 W 23rd St","station phone":null,"date last confirmed":"4/30/11","ng fill type code":"Q","longitude":-95.9950355,"plus4":null,"geocode status":"200-8","groups with access code":"Private access only","status code":"E","state":"OK"},"type":"Feature","geometry":{"type":"Point","coordinates":[-95.9950355,36.1303681]}},{"properties":{"expected date":null,"city":"Waynoka","intersection directions":null,"latitude":36.594378,"zip":"73860","station name":"OnCue Express","ng psi":"3600","cards accepted":"M V FuelMan Voyager Wright_Exp","access days time":"24 hours daily","id":"a66d28fqwwa5","street address":"32744 State Highway 45","station phone":"405-372-3579","date last confirmed":"2/28/11","ng fill type code":"Q","longitude":-98.863183,"plus4":null,"geocode status":"GPS","groups with access code":"Public - credit card at all times","status code":"E","state":"OK"},"type":"Feature","geometry":{"type":"Point","coordinates":[-98.863183,36.594378]}},{"properties":{"expected date":null,"city":"Weatherford","intersection directions":null,"latitude":35.5227346,"zip":"73096","station name":"OnCue Express","ng psi":"3600","cards accepted":"M V FuelMan Voyager Wright_Exp","access days time":"24 hours daily","id":"a66d28quawrz","street address":"2020 Eagle Rd","station phone":"405-372-3579","date last confirmed":"1/31/11","ng fill type code":"Q","longitude":-98.6924841,"plus4":null,"geocode status":"200-8","groups with access code":"Public - credit card at all times","status code":"E","state":"OK"},"type":"Feature","geometry":{"type":"Point","coordinates":[-98.6924841,35.5227346]}},{"properties":{"expected date":null,"city":"Wilburton","intersection directions":null,"latitude":35.4352937,"zip":"74578","station name":"OnCue Express","ng psi":"3600","cards accepted":"M V FuelMan Voyager Wright_Exp","access days time":"24 hours daily","id":"a66d28jjpj68","street address":"4980 Highway 270 W","station phone":"405-372-3579","date last confirmed":"1/31/11","ng fill type code":"Q","longitude":-97.086176,"plus4":null,"geocode status":"200-8","groups with access code":"Public - credit card at all times","status code":"E","state":"OK"},"type":"Feature","geometry":{"type":"Point","coordinates":[-97.086176,35.4352937]}},{"properties":{"expected date":null,"city":"Woodward","intersection directions":null,"latitude":36.4058798,"zip":"73802","station name":"Apache Woodward","ng psi":"3600","cards accepted":null,"access days time":null,"id":"a66d28hesqpn","street address":"5101 Williams Ave","station phone":null,"date last confirmed":"4/30/11","ng fill type code":"Q","longitude":-99.3716677,"plus4":null,"geocode status":"200-8","groups with access code":"Private access only","status code":"E","state":"OK"},"type":"Feature","geometry":{"type":"Point","coordinates":[-99.3716677,36.4058798]}}],"is_temporal":false,"author":{"url":"","metadata":"","contact_name":"","contact_address":"","source":"","contact_phone":""},"source":"","pagination":{"sort":null,"start":0,"total":64,"limit":1000000},"state":"complete","tags":"","published":"2014-08-13T06:22:20-04:00","id":116267}