{"type":"FeatureCollection","data_type":"Dataset","url_type":null,"permissions":[{"permissions":{"download":true,"view":true},"group_id":"everyone"}],"classification":null,"title":"nairobi2","count":60,"stream_id":116665,"contributor":{"url":"http://geocommons.com/users/25767","name":"gabiporro"},"data_attributes":null,"calculation_params":null,"icon_link":null,"link":"http://geocommons.com/overlays/116665.json","extent":[36.7456,-1.30936,38.3461,1.27504],"geometry_types":["point"],"unique_name":null,"name":"nairobi2","feature_count":60,"description":"","next_feature":null,"is_raster":false,"short_classification":"Y","stats":{"latitude":{"max":1.275042,"mean":-1.08988373333333,"variance":0.41066935448186,"stdev":0.640834888627219,"min":-1.309363,"median":-1.27116},"amountspttodate":{"max":4218468,"mean":875153.6,"variance":580951682484.956,"stdev":762201.864655916,"min":0,"median":700000},"index":{"max":49262,"mean":48595.65,"variance":2964477.01101695,"stdev":1721.76566669711,"min":35766,"median":48993},"longitude":{"max":38.34612,"mean":36.8752638666667,"variance":0.0392592041387276,"stdev":0.19813935535054,"min":36.745634,"median":36.853226}},"features":[{"properties":{"latitude":-1.309363,"amountspttodate":450000,"district":"Nairobi","activitytobedone":"n/a","index":49255,"longitude":36.832285,"projectname":"Nairobi South Primary School","id":"a68x6d78559p","province":"Nairobi","location":"South B","constituency":"Makadara"},"type":"Feature","geometry":{"type":"Point","coordinates":[36.832285,-1.309363]}},{"properties":{"latitude":-1.30825,"amountspttodate":300000,"district":"Nairobi","activitytobedone":"Supply Desks","index":49224,"longitude":36.87414,"projectname":"Star Of Hope Primary School","id":"a68x6d4t5njh","province":"Nairobi","location":"Viwandani","constituency":"Makadara"},"type":"Feature","geometry":{"type":"Point","coordinates":[36.87414,-1.30825]}},{"properties":{"latitude":-1.306899,"amountspttodate":200000,"district":"Nairobi","activitytobedone":"Renovate Schools","index":35766,"longitude":36.834193,"projectname":"Mariakani Primary School","id":"a68x6dizuzoj","province":"Nairobi","location":"South B","constituency":"Makadara"},"type":"Feature","geometry":{"type":"Point","coordinates":[36.834193,-1.306899]}},{"properties":{"latitude":-1.298175,"amountspttodate":450000,"district":"Nairobi","activitytobedone":"Purchase Of New Desks And Chairs And 10,000 Litres Water Tank &amp; Installation","index":49259,"longitude":36.845184,"projectname":"Kaloleni Primary School","id":"a68x6d3hqxyu","province":"Nairobi","location":"Kaloleni","constituency":"Makadara"},"type":"Feature","geometry":{"type":"Point","coordinates":[36.845184,-1.298175]}},{"properties":{"latitude":-1.296621,"amountspttodate":1000000,"district":"Nairobi","activitytobedone":"Construction Of A Laboratory","index":49188,"longitude":36.850161,"projectname":"Makongeni Secondary School","id":"a68x6dia0ytn","province":"Nairobi","location":"Makongeni","constituency":"Makadara"},"type":"Feature","geometry":{"type":"Point","coordinates":[36.850161,-1.296621]}},{"properties":{"latitude":-1.296621,"amountspttodate":300000,"district":"Nairobi","activitytobedone":"Supply Desks","index":49226,"longitude":36.850161,"projectname":"Makongeni Primary School","id":"a68x6di62nez","province":"Nairobi","location":"Makongeni","constituency":"Makadara"},"type":"Feature","geometry":{"type":"Point","coordinates":[36.850161,-1.296621]}},{"properties":{"latitude":-1.296621,"amountspttodate":450000,"district":"Nairobi","activitytobedone":"Repair Of 2 Classrooms Floor, Painting, Desks","index":49226,"longitude":36.850161,"projectname":"Makongeni Primary School","id":"a68x6ddl2km1","province":"Nairobi","location":"Makongeni","constituency":"Makadara"},"type":"Feature","geometry":{"type":"Point","coordinates":[36.850161,-1.296621]}},{"properties":{"latitude":-1.293562,"amountspttodate":300000,"district":"Nairobi","activitytobedone":"Supply Desks","index":49229,"longitude":36.867146,"projectname":"Jogoo Road Primary School","id":"a68x6ddg4oo2","province":"Nairobi","location":"Lumumba","constituency":"Makadara"},"type":"Feature","geometry":{"type":"Point","coordinates":[36.867146,-1.293562]}},{"properties":{"latitude":-1.291951,"amountspttodate":750000,"district":"Nairobi","activitytobedone":"Repair Works","index":49220,"longitude":36.867416,"projectname":"St. Michaels Primary School","id":"a68x6dbz9t3y","province":"Nairobi","location":"Maringo","constituency":"Makadara"},"type":"Feature","geometry":{"type":"Point","coordinates":[36.867416,-1.291951]}},{"properties":{"latitude":-1.291823,"amountspttodate":750000,"district":"Nairobi","activitytobedone":"Supply Desks","index":49230,"longitude":36.874039,"projectname":"Martin Luther Primary School","id":"a68x6diwkvb7","province":"Nairobi","location":"Maringo","constituency":"Makadara"},"type":"Feature","geometry":{"type":"Point","coordinates":[36.874039,-1.291823]}},{"properties":{"latitude":-1.291823,"amountspttodate":450000,"district":"Nairobi","activitytobedone":"Renovations Of Schools Main Hall: - Painting, Fixings, Replace Broken Windows.","index":49230,"longitude":36.874039,"projectname":"Martin Luther Primary School","id":"a68x6d4ikoch","province":"Nairobi","location":"Hamza","constituency":"Makadara"},"type":"Feature","geometry":{"type":"Point","coordinates":[36.874039,-1.291823]}},{"properties":{"latitude":-1.289912,"amountspttodate":1000000,"district":"Nairobi","activitytobedone":"Construction Of 2 Classrooms","index":49187,"longitude":36.861104,"projectname":"Aquinas Secondary School","id":"a68x6dihiomo","province":"Nairobi","location":"Maringo","constituency":"Makadara"},"type":"Feature","geometry":{"type":"Point","coordinates":[36.861104,-1.289912]}},{"properties":{"latitude":-1.288284,"amountspttodate":450000,"district":"Nairobi","activitytobedone":"Construction of School Perimeterwall, Rehabilitation Of 4 Pit Latrine Toilets And Water Tank 10,000Ltrs","index":49262,"longitude":36.80106,"projectname":"Baraka Primary School","id":"a68x6d50zdjo","province":"Nairobi","location":"Harambee","constituency":"Makadara"},"type":"Feature","geometry":{"type":"Point","coordinates":[36.80106,-1.288284]}},{"properties":{"latitude":-1.287302,"amountspttodate":1000000,"district":"Nairobi","activitytobedone":"Construction Of 2 Classrooms","index":49182,"longitude":36.868302,"projectname":"Ofafa Jericho Secondary School","id":"a68x6dhrahgz","province":"Nairobi","location":"Harambee","constituency":"Makadara"},"type":"Feature","geometry":{"type":"Point","coordinates":[36.868302,-1.287302]}},{"properties":{"latitude":-1.285491,"amountspttodate":750000,"district":"Nairobi","activitytobedone":"Supply Desks","index":49221,"longitude":36.868929,"projectname":"Ofafa Jericho Primary School","id":"a68x6dg668g9","province":"Nairobi","location":"Jericho","constituency":"Makadara"},"type":"Feature","geometry":{"type":"Point","coordinates":[36.868929,-1.285491]}},{"properties":{"latitude":-1.283621,"amountspttodate":400000,"district":"Nairobi","activitytobedone":"Rehabilitation Of Toilet","index":49002,"longitude":36.830297,"projectname":"St Peters Clavers Primary School","id":"a68x6dagib08","province":"Nairobi","location":"Mathare","constituency":"Starehe"},"type":"Feature","geometry":{"type":"Point","coordinates":[36.830297,-1.283621]}},{"properties":{"latitude":-1.283508,"amountspttodate":1000000,"district":"Nairobi","activitytobedone":"Construction Of 2 Classrooms","index":49185,"longitude":36.874429,"projectname":"Buruburu Girls Secondary School","id":"a68x6d8vhe0y","province":"Nairobi","location":"Harambee","constituency":"Makadara"},"type":"Feature","geometry":{"type":"Point","coordinates":[36.874429,-1.283508]}},{"properties":{"latitude":-1.283137,"amountspttodate":450000,"district":"Nairobi","activitytobedone":"Remove Worn Out Iron Sheets And Supply And Lay Gauge 28 It 4 Repainted Roofing Sheets E.G. Gal Sheet. 4 Class","index":49256,"longitude":36.880379,"projectname":"Bidii Primary School","id":"a68x6d77qoe0","province":"Nairobi","location":"Harambee","constituency":"Makadara"},"type":"Feature","geometry":{"type":"Point","coordinates":[36.880379,-1.283137]}},{"properties":{"latitude":-1.282459,"amountspttodate":500000,"district":"Nairobi","activitytobedone":"Rehabilitation Of Classrooms","index":49025,"longitude":36.832508,"projectname":"Islamia Primary School","id":"a68x6dd7nrbh","province":"Nairobi","location":"Central","constituency":"Starehe"},"type":"Feature","geometry":{"type":"Point","coordinates":[36.832508,-1.282459]}},{"properties":{"latitude":-1.281283,"amountspttodate":1018000,"district":"Nairobi","activitytobedone":"Rehab Of Roof/Floor","index":48511,"longitude":36.810075,"projectname":"Nairobi Primary School","id":"a68x6dbnihyw","province":"Nairobi","location":"Kilimani","constituency":"Westlands"},"type":"Feature","geometry":{"type":"Point","coordinates":[36.810075,-1.281283]}},{"properties":{"latitude":-1.278917,"amountspttodate":500000,"district":"Nairobi","activitytobedone":"Rehab Of Roof","index":48504,"longitude":36.785996,"projectname":"Jacaranda Special School","id":"a68x6dgr1ksk","province":"Nairobi","location":"Kileleshwa","constituency":"Westlands"},"type":"Feature","geometry":{"type":"Point","coordinates":[36.785996,-1.278917]}},{"properties":{"latitude":-1.278235,"amountspttodate":310000,"district":"Nairobi","activitytobedone":"Rehab Of Toilets","index":48503,"longitude":36.773748,"projectname":"Lavington Primary School","id":"a68x6dd7ot6s","province":"Nairobi","location":"Kilimani","constituency":"Westlands"},"type":"Feature","geometry":{"type":"Point","coordinates":[36.773748,-1.278235]}},{"properties":{"latitude":-1.277417,"amountspttodate":2100000,"district":"Nairobi","activitytobedone":"Renovation Of Hostels","index":49052,"longitude":36.841605,"projectname":"Pumwani Secondary School","id":"a68x6d6190yg","province":"Nairobi","location":"Pangani","constituency":"Starehe"},"type":"Feature","geometry":{"type":"Point","coordinates":[36.841605,-1.277417]}},{"properties":{"latitude":-1.276434,"amountspttodate":490000,"district":"Nairobi","activitytobedone":"Rehab Of Toilets-Replacement Of Tanks, Roof And Taps","index":48502,"longitude":36.802285,"projectname":"State House Primary School","id":"a68x6d8we8ld","province":"Nairobi","location":"Kilimani","constituency":"Westlands"},"type":"Feature","geometry":{"type":"Point","coordinates":[36.802285,-1.276434]}},{"properties":{"latitude":-1.274516,"amountspttodate":1500000,"district":"Nairobi","activitytobedone":"Supply Of Building Materials For Dining Hall Construction","index":49020,"longitude":36.826032,"projectname":"Ngara Girls Secondary School","id":"a68x6dfa03g3","province":"Nairobi","location":"Ngara","constituency":"Starehe"},"type":"Feature","geometry":{"type":"Point","coordinates":[36.826032,-1.274516]}},{"properties":{"latitude":-1.274276,"amountspttodate":390000,"district":"Nairobi","activitytobedone":"Rehab Of Toilets","index":48505,"longitude":36.790333,"projectname":"Kileleshwa Primary School","id":"a68x6dfs5zrv","province":"Nairobi","location":"Kileleshwa","constituency":"Westlands"},"type":"Feature","geometry":{"type":"Point","coordinates":[36.790333,-1.274276]}},{"properties":{"latitude":-1.272538,"amountspttodate":259601,"district":"Nairobi","activitytobedone":"Purchase Of Desks","index":49028,"longitude":36.842799,"projectname":"Pangani Primary School","id":"a68x6d8xg3j3","province":"Nairobi","location":null,"constituency":"Starehe"},"type":"Feature","geometry":{"type":"Point","coordinates":[36.842799,-1.272538]}},{"properties":{"latitude":-1.272285,"amountspttodate":300000,"district":"Nairobi","activitytobedone":"Purchase Of Hearing Aids","index":49026,"longitude":36.840712,"projectname":"Racecourse Primary School","id":"a68x6d3taz0t","province":"Nairobi","location":"Pangani","constituency":"Starehe"},"type":"Feature","geometry":{"type":"Point","coordinates":[36.840712,-1.272285]}},{"properties":{"latitude":-1.272285,"amountspttodate":1000000,"district":"Nairobi","activitytobedone":"Construction Of Deaf Unit","index":49026,"longitude":36.840712,"projectname":"Racecourse Primary School","id":"a68x6d4cdkpy","province":"Nairobi","location":"Pangani","constituency":"Starehe"},"type":"Feature","geometry":{"type":"Point","coordinates":[36.840712,-1.272285]}},{"properties":{"latitude":-1.27116,"amountspttodate":200000,"district":"Nairobi","activitytobedone":"Purchase Of Chairs","index":49022,"longitude":36.823265,"projectname":"City Primary School","id":"a68x6d8bo857","province":"Nairobi","location":"Ngara","constituency":"Starehe"},"type":"Feature","geometry":{"type":"Point","coordinates":[36.823265,-1.27116]}},{"properties":{"latitude":-1.27116,"amountspttodate":900000,"district":"Nairobi","activitytobedone":"Renovation Of Social Hall","index":49022,"longitude":36.823265,"projectname":"City Primary School","id":"a68x6d5z3t88","province":"Nairobi","location":"Ngara","constituency":"Starehe"},"type":"Feature","geometry":{"type":"Point","coordinates":[36.823265,-1.27116]}},{"properties":{"latitude":-1.270061,"amountspttodate":522629,"district":"Nairobi","activitytobedone":"Renovation Of Classrooms","index":49053,"longitude":36.839118,"projectname":"Juja Road Primary School","id":"a68x6di0dsuj","province":"Nairobi","location":"Mathare","constituency":"Starehe"},"type":"Feature","geometry":{"type":"Point","coordinates":[36.839118,-1.270061]}},{"properties":{"latitude":-1.269089,"amountspttodate":700000,"district":"Nairobi","activitytobedone":"Construction Of 1 Classroom","index":48397,"longitude":36.918389,"projectname":"Imara Primary School","id":"a68x6dfl2dvu","province":"Nairobi","location":"Imara","constituency":"Embakasi"},"type":"Feature","geometry":{"type":"Point","coordinates":[36.918389,-1.269089]}},{"properties":{"latitude":-1.267846,"amountspttodate":0,"district":"Nairobi","activitytobedone":"Rehab Of Roofs","index":48474,"longitude":36.769695,"projectname":"Muthangari Primary School","id":"a68x6dieccrm","province":"Nairobi","location":"Kilimani","constituency":"Westlands"},"type":"Feature","geometry":{"type":"Point","coordinates":[36.769695,-1.267846]}},{"properties":{"latitude":-1.265369,"amountspttodate":700000,"district":"Nairobi","activitytobedone":"Construction Of Perimeter Wall","index":48396,"longitude":36.884742,"projectname":"Kariobangi South Primary School","id":"a68x6djafgu6","province":"Nairobi","location":"Kariobangi","constituency":"Embakasi"},"type":"Feature","geometry":{"type":"Point","coordinates":[36.884742,-1.265369]}},{"properties":{"latitude":-1.26296,"amountspttodate":500000,"district":"Nairobi","activitytobedone":"Construction Of Two Classrooms","index":48993,"longitude":36.853226,"projectname":"Kiboro Primary School","id":"a68x6dbs0uqc","province":"Nairobi","location":"Mathare","constituency":"Starehe"},"type":"Feature","geometry":{"type":"Point","coordinates":[36.853226,-1.26296]}},{"properties":{"latitude":-1.26296,"amountspttodate":800000,"district":"Nairobi","activitytobedone":"n/a","index":48993,"longitude":36.853226,"projectname":"Kiboro Primary School","id":"a68x6d7onnhm","province":"Nairobi","location":"Mathare","constituency":"Starehe"},"type":"Feature","geometry":{"type":"Point","coordinates":[36.853226,-1.26296]}},{"properties":{"latitude":-1.26296,"amountspttodate":800000,"district":"Nairobi","activitytobedone":"Purchase Of Kitchen Utensils","index":48993,"longitude":36.853226,"projectname":"Kiboro Primary School","id":"a68x6d5nl07w","province":"Nairobi","location":"Mathare","constituency":"Starehe"},"type":"Feature","geometry":{"type":"Point","coordinates":[36.853226,-1.26296]}},{"properties":{"latitude":-1.261648,"amountspttodate":1000000,"district":"Nairobi","activitytobedone":"Complete Construction Of Multi Storey Block With Offices, Laboratories And Class Rooms On Top.","index":48377,"longitude":36.914808,"projectname":"Kayole Secondary School","id":"a68x6de0eqqw","province":"Nairobi","location":"Kayole","constituency":"Embakasi"},"type":"Feature","geometry":{"type":"Point","coordinates":[36.914808,-1.261648]}},{"properties":{"latitude":-1.25952,"amountspttodate":400000,"district":"Nairobi","activitytobedone":"Complete Construction Of Classrooms, An Administration Block &amp; A Toilet Block","index":48378,"longitude":36.9282,"projectname":"Matopeni Primary School","id":"a68x6dj85lux","province":"Nairobi","location":"Kayole","constituency":"Embakasi"},"type":"Feature","geometry":{"type":"Point","coordinates":[36.9282,-1.25952]}},{"properties":{"latitude":-1.258401,"amountspttodate":500000,"district":"Nairobi","activitytobedone":"Toilet Construction","index":49009,"longitude":36.875891,"projectname":"Ndururuno Primary School","id":"a68x6dh5phtu","province":"Nairobi","location":"Huruma","constituency":"Starehe"},"type":"Feature","geometry":{"type":"Point","coordinates":[36.875891,-1.258401]}},{"properties":{"latitude":-1.257459,"amountspttodate":439000,"district":"Nairobi","activitytobedone":"Supply Of Chairs","index":49074,"longitude":36.869619,"projectname":"Daima Primary School","id":"a68x6dc8p1x1","province":"Nairobi","location":"Huruma","constituency":"Starehe"},"type":"Feature","geometry":{"type":"Point","coordinates":[36.869619,-1.257459]}},{"properties":{"latitude":-1.25658,"amountspttodate":1500000,"district":"Nairobi","activitytobedone":"Construction Of Am Abolition Block","index":48524,"longitude":36.79667,"projectname":"Westlands Primary School","id":"a68x6daam598","province":"Nairobi","location":"Parklands","constituency":"Westlands"},"type":"Feature","geometry":{"type":"Point","coordinates":[36.79667,-1.25658]}},{"properties":{"latitude":-1.255881,"amountspttodate":300000,"district":"Nairobi","activitytobedone":"Toilets Rehab-Walls, Floors And Plumbing","index":48500,"longitude":36.790004,"projectname":"Bohra Primary School","id":"a68x6dhw6hlp","province":"Nairobi","location":"Parklands","constituency":"Westlands"},"type":"Feature","geometry":{"type":"Point","coordinates":[36.790004,-1.255881]}},{"properties":{"latitude":-1.255741,"amountspttodate":1000000,"district":"Nairobi","activitytobedone":"Roofing Of A Dormitory","index":48523,"longitude":36.766416,"projectname":"Nairobi School","id":"a68x6d4n4ttn","province":"Nairobi","location":null,"constituency":"Westlands"},"type":"Feature","geometry":{"type":"Point","coordinates":[36.766416,-1.255741]}},{"properties":{"latitude":-1.255604,"amountspttodate":2000000,"district":"Nairobi","activitytobedone":"Construction of Perimeter Fence","index":48424,"longitude":36.844955,"projectname":"Muthaiga Primary School","id":"a68x6dg1yyah","province":"Nairobi","location":"Roysambu","constituency":"Kasarani"},"type":"Feature","geometry":{"type":"Point","coordinates":[36.844955,-1.255604]}},{"properties":{"latitude":-1.249052,"amountspttodate":800000,"district":"Nairobi","activitytobedone":"Rehab Of Toilets, Installation Of Water Tanks And Opening Of Drainage System","index":48509,"longitude":36.747661,"projectname":"Loresho Primary School","id":"a68x6d9mgq3x","province":"Nairobi","location":"Kitsuru","constituency":"Westlands"},"type":"Feature","geometry":{"type":"Point","coordinates":[36.747661,-1.249052]}},{"properties":{"latitude":-1.246799,"amountspttodate":3200000,"district":"Nairobi","activitytobedone":"Construction of 1 Laboratory","index":48411,"longitude":36.872528,"projectname":"Ruaraka Secondary School","id":"a68x6d4272cv","province":"Nairobi","location":"Baba Dogo","constituency":"Kasarani"},"type":"Feature","geometry":{"type":"Point","coordinates":[36.872528,-1.246799]}},{"properties":{"latitude":-1.245206,"amountspttodate":1200000,"district":"Nairobi","activitytobedone":"Rehabilitation Of Buildings And Construction Of Septic Tank","index":48427,"longitude":36.890893,"projectname":"Ngunyumu Primary School","id":"a68x6d4kmbl6","province":"Nairobi","location":"Korogocho","constituency":"Kasarani"},"type":"Feature","geometry":{"type":"Point","coordinates":[36.890893,-1.245206]}},{"properties":{"latitude":-1.238463,"amountspttodate":2200000,"district":"Nairobi","activitytobedone":"Construction of 2 Classrooms","index":48417,"longitude":36.861261,"projectname":"Gsu Primary School","id":"a68x6d8nz7c0","province":"Nairobi","location":"Roysambu","constituency":"Kasarani"},"type":"Feature","geometry":{"type":"Point","coordinates":[36.861261,-1.238463]}},{"properties":{"latitude":-1.23735,"amountspttodate":200000,"district":"Nairobi","activitytobedone":"Rehab Of Toilets","index":48506,"longitude":36.745634,"projectname":"Lower Kabete Primary School","id":"a68x6d66s2dg","province":"Nairobi","location":"Kitsuru","constituency":"Westlands"},"type":"Feature","geometry":{"type":"Point","coordinates":[36.745634,-1.23735]}},{"properties":{"latitude":-1.225245,"amountspttodate":2600000,"district":"Nairobi","activitytobedone":"Construction of 2 Classrooms","index":48426,"longitude":36.918568,"projectname":"Murema Primary School","id":"a68x6d792lkm","province":"Nairobi","location":"Kasarani","constituency":"Kasarani"},"type":"Feature","geometry":{"type":"Point","coordinates":[36.918568,-1.225245]}},{"properties":{"latitude":-1.204048,"amountspttodate":1000000,"district":"Nairobi","activitytobedone":"Construction of 1 Classroom","index":48423,"longitude":36.896483,"projectname":"Roysambu Primary School","id":"a68x6d3txhj2","province":"Nairobi","location":"Githurai","constituency":"Kasarani"},"type":"Feature","geometry":{"type":"Point","coordinates":[36.896483,-1.204048]}},{"properties":{"latitude":-1.199536,"amountspttodate":800000,"district":"Nairobi","activitytobedone":"Construction of 2 Stores And A Kitchen","index":48412,"longitude":36.911508,"projectname":"Githurai Primary School","id":"a68x6datfweg","province":"Nairobi","location":"Githurai","constituency":"Kasarani"},"type":"Feature","geometry":{"type":"Point","coordinates":[36.911508,-1.199536]}},{"properties":{"latitude":-1.181239,"amountspttodate":2000000,"district":"Nairobi","activitytobedone":"Construction of 2 Classrooms","index":48419,"longitude":36.897867,"projectname":"Mahiga Primary School","id":"a68x6ddajklc","province":"Nairobi","location":"Kahawa West","constituency":"Kasarani"},"type":"Feature","geometry":{"type":"Point","coordinates":[36.897867,-1.181239]}},{"properties":{"latitude":-0.64741,"amountspttodate":450000,"district":"Nairobi","activitytobedone":"Purchase Of Furniture For School Office &amp; Desks And Chairs For Pupils","index":49257,"longitude":38.34612,"projectname":"Harambee Primary School","id":"a68x6dbvv9d2","province":"Nairobi","location":"Harambee","constituency":"Makadara"},"type":"Feature","geometry":{"type":"Point","coordinates":[38.34612,-0.64741]}},{"properties":{"latitude":1.25952,"amountspttodate":4218468,"district":"Nairobi","activitytobedone":"Construction of Classrooms, An Administration Block &amp; A Toilet Block","index":48378,"longitude":36.9282,"projectname":"Matopeni Primary School","id":"a68x6djdsa17","province":"Nairobi","location":"Kayole","constituency":"Embakasi"},"type":"Feature","geometry":{"type":"Point","coordinates":[36.9282,1.25952]}},{"properties":{"latitude":1.261648,"amountspttodate":1261518,"district":"Nairobi","activitytobedone":"Construction of Multi Storey Block With Offices, Laboratories And Class Rooms On Top.","index":48377,"longitude":36.914808,"projectname":"Kayole Secondary School","id":"a68x6d5rsopb","province":"Nairobi","location":"Kayole","constituency":"Embakasi"},"type":"Feature","geometry":{"type":"Point","coordinates":[36.914808,1.261648]}},{"properties":{"latitude":1.273122,"amountspttodate":1000000,"district":"Nairobi","activitytobedone":"Construction of Classrooms","index":48336,"longitude":36.894651,"projectname":"Peter Kibukosya Primary School","id":"a68x6dbjpp3z","province":"Nairobi","location":"Umoja","constituency":"Embakasi"},"type":"Feature","geometry":{"type":"Point","coordinates":[36.894651,1.273122]}},{"properties":{"latitude":1.275042,"amountspttodate":500000,"district":"Nairobi","activitytobedone":"Assist In Hall Construction","index":48239,"longitude":36.894705,"projectname":"Busara Primary School","id":"a68x6div0aye","province":"Nairobi","location":"Umoja","constituency":"Embakasi"},"type":"Feature","geometry":{"type":"Point","coordinates":[36.894705,1.275042]}}],"is_temporal":false,"author":{"url":"","metadata":"","contact_name":"","contact_address":"","source":"","contact_phone":""},"source":"","pagination":{"sort":null,"start":0,"total":60,"limit":1000000},"state":"complete","tags":"","published":"2014-08-13T06:56:52-04:00","id":116665}