{"type":"FeatureCollection","data_type":"Dataset","url_type":null,"permissions":[{"permissions":{"download":true,"view":true},"group_id":"everyone"}],"classification":null,"title":"Coast","count":325,"stream_id":116641,"contributor":{"url":"http://geocommons.com/users/25767","name":"gabiporro"},"data_attributes":null,"calculation_params":null,"icon_link":null,"link":"http://geocommons.com/overlays/116641.json","extent":[35.2207,-4.6568,41.1088,1.8453],"geometry_types":["point"],"unique_name":null,"name":"Coast","feature_count":325,"description":"","next_feature":null,"is_raster":false,"short_classification":"Y","stats":{"latitude":{"max":1.8453,"mean":-3.65659795692308,"variance":0.346821204001153,"stdev":0.588915277439083,"min":-4.656802,"median":-3.738928},"amountspttodate":{"max":19000000,"mean":1096865.54153846,"variance":3624957057201.89,"stdev":1903931.9991013,"min":0,"median":500000},"index":{"max":37850,"mean":35043.4215384615,"variance":27075018.6581766,"stdev":5203.36608919425,"min":9742,"median":35792},"longitude":{"max":41.108802,"mean":39.126423,"variance":0.519788573517407,"stdev":0.720963642299254,"min":35.220685,"median":39.342629}},"features":[{"properties":{"latitude":-4.656802,"amountspttodate":1300000,"district":"Kwale","activitytobedone":"Renovation Of The School","index":35576,"longitude":39.215767,"projectname":"Vanga Primary School","id":"a65ye2pkquyk","province":"Coast","location":"Vanga","constituency":"Msambweni"},"type":"Feature","geometry":{"type":"Point","coordinates":[39.215767,-4.656802]}},{"properties":{"latitude":-4.526008,"amountspttodate":1000000,"district":"Kwale","activitytobedone":"2 Classrooms","index":35600,"longitude":39.416599,"projectname":"Shirazi Primary School","id":"a65ye2isxaq3","province":"Coast","location":"Kingwede / Shirazi","constituency":"Msambweni"},"type":"Feature","geometry":{"type":"Point","coordinates":[39.416599,-4.526008]}},{"properties":{"latitude":-4.495818,"amountspttodate":1200000,"district":"Kwale","activitytobedone":"Construction Of 3 Classroom To Completion","index":35579,"longitude":39.428778,"projectname":"Fahamuni Primary School","id":"a65ye2j6tmc8","province":"Coast","location":"Kingwede/ Shirazi","constituency":"Msambweni"},"type":"Feature","geometry":{"type":"Point","coordinates":[39.428778,-4.495818]}},{"properties":{"latitude":-4.48924,"amountspttodate":800000,"district":"Kwale","activitytobedone":"Construction Of A Classroom","index":35566,"longitude":39.45659,"projectname":"Kingwede Primary School","id":"a65ye2jodfr8","province":"Coast","location":"Kingwede/ Shirazi","constituency":"Msambweni"},"type":"Feature","geometry":{"type":"Point","coordinates":[39.45659,-4.48924]}},{"properties":{"latitude":-4.481366,"amountspttodate":1000000,"district":"Kwale","activitytobedone":"n/a","index":35680,"longitude":39.131374,"projectname":"Mwena Primary School","id":"a65ye2siqulm","province":"Coast","location":null,"constituency":"Msambweni"},"type":"Feature","geometry":{"type":"Point","coordinates":[39.131374,-4.481366]}},{"properties":{"latitude":-4.476948,"amountspttodate":1000000,"district":"Kwale","activitytobedone":"Construction Of One Classroom","index":35640,"longitude":39.47638,"projectname":"Msambweni Primary School","id":"a65ye2g1xttb","province":"Coast","location":"Msambweni","constituency":"Msambweni"},"type":"Feature","geometry":{"type":"Point","coordinates":[39.47638,-4.476948]}},{"properties":{"latitude":-4.476272,"amountspttodate":2800000,"district":"Kwale","activitytobedone":"Construction Of Admin.Block","index":35565,"longitude":39.47484,"projectname":"Msambweni Secondary School","id":"a65ye2om4l12","province":"Coast","location":"Msambweni","constituency":"Msambweni"},"type":"Feature","geometry":{"type":"Point","coordinates":[39.47484,-4.476272]}},{"properties":{"latitude":-4.47103,"amountspttodate":1600000,"district":"Kwale","activitytobedone":"Construction Of 3 Classroom To Completion","index":35578,"longitude":39.458316,"projectname":"Milalani Primary School","id":"a65ye2hzmux5","province":"Coast","location":"Msambweni","constituency":"Msambweni"},"type":"Feature","geometry":{"type":"Point","coordinates":[39.458316,-4.47103]}},{"properties":{"latitude":-4.47103,"amountspttodate":758300,"district":"Kwale","activitytobedone":"n/a","index":35578,"longitude":39.458316,"projectname":"Milalani Primary School","id":"a65ye2g3rp9q","province":"Coast","location":null,"constituency":"Msambweni"},"type":"Feature","geometry":{"type":"Point","coordinates":[39.458316,-4.47103]}},{"properties":{"latitude":-4.456351,"amountspttodate":800000,"district":"Kwale","activitytobedone":"Construction Of Administration Block","index":35561,"longitude":39.241763,"projectname":"Mamba Primary School","id":"a65ye2iqxtlw","province":"Coast","location":"Dzombo","constituency":"Msambweni"},"type":"Feature","geometry":{"type":"Point","coordinates":[39.241763,-4.456351]}},{"properties":{"latitude":-4.448578,"amountspttodate":320000,"district":"Kwale","activitytobedone":"Construction Of A Class","index":35562,"longitude":39.213161,"projectname":"Dzombo Primary School","id":"a65ye2tbmc3y","province":"Coast","location":"Dzombo","constituency":"Msambweni"},"type":"Feature","geometry":{"type":"Point","coordinates":[39.213161,-4.448578]}},{"properties":{"latitude":-4.439423,"amountspttodate":800000,"district":"Kwale","activitytobedone":"Construction Of One Classroom","index":35629,"longitude":39.12637,"projectname":"Maledi Primary School","id":"a65ye2oi0f7x","province":"Coast","location":"Mwena","constituency":"Msambweni"},"type":"Feature","geometry":{"type":"Point","coordinates":[39.12637,-4.439423]}},{"properties":{"latitude":-4.429296,"amountspttodate":1500000,"district":"Kwale","activitytobedone":"Construction Of One Classroom","index":35637,"longitude":39.296391,"projectname":"Masimbani Primary School","id":"a65ye2rc7t1a","province":"Coast","location":"Kikoneni","constituency":"Msambweni"},"type":"Feature","geometry":{"type":"Point","coordinates":[39.296391,-4.429296]}},{"properties":{"latitude":-4.407513,"amountspttodate":1000000,"district":"Kwale","activitytobedone":"Construction Of One Classroom","index":35639,"longitude":39.319369,"projectname":"Mwandeo Primary School","id":"a65ye2li55da","province":"Coast","location":"Kikoneni","constituency":"Msambweni"},"type":"Feature","geometry":{"type":"Point","coordinates":[39.319369,-4.407513]}},{"properties":{"latitude":-4.349172,"amountspttodate":1000000,"district":"Kwale","activitytobedone":"Construction Of One Classroom","index":35631,"longitude":39.076299,"projectname":"Kilimangodo Primary School","id":"a65ye2sorget","province":"Coast","location":"Mwereni","constituency":"Msambweni"},"type":"Feature","geometry":{"type":"Point","coordinates":[39.076299,-4.349172]}},{"properties":{"latitude":-4.323701,"amountspttodate":1000000,"district":"Kwale","activitytobedone":"Construction Of One Classroom","index":35641,"longitude":39.481592,"projectname":"Mkwambani Primary School","id":"a65ye2hng378","province":"Coast","location":null,"constituency":"Msambweni"},"type":"Feature","geometry":{"type":"Point","coordinates":[39.481592,-4.323701]}},{"properties":{"latitude":-4.295272,"amountspttodate":150000,"district":"Kwale","activitytobedone":"75 desks Purchase","index":35818,"longitude":39.149039,"projectname":"Gandini South Primary School","id":"a65ye2k3mhph","province":"Coast","location":"Ndavaya","constituency":"Kinango"},"type":"Feature","geometry":{"type":"Point","coordinates":[39.149039,-4.295272]}},{"properties":{"latitude":-4.277045,"amountspttodate":200000,"district":"Kwale","activitytobedone":"One New Classroom Construction","index":35752,"longitude":39.178495,"projectname":"Mabanda Primary School","id":"a65ye2pvjp7t","province":"Coast","location":"Ndavaya","constituency":"Kinango"},"type":"Feature","geometry":{"type":"Point","coordinates":[39.178495,-4.277045]}},{"properties":{"latitude":-4.26176,"amountspttodate":150000,"district":"Kwale","activitytobedone":"75 desks Purchase","index":35819,"longitude":39.163149,"projectname":"Ndavaya Primary School","id":"a65ye2pcizau","province":"Coast","location":"Ndavaya","constituency":"Kinango"},"type":"Feature","geometry":{"type":"Point","coordinates":[39.163149,-4.26176]}},{"properties":{"latitude":-4.255897,"amountspttodate":2750000,"district":"Kwale","activitytobedone":"Girls Dormitory Construction","index":35836,"longitude":39.167127,"projectname":"Ndavaya Secondary School","id":"a65ye2vv23x0","province":"Coast","location":"Ndavaya","constituency":"Kinango"},"type":"Feature","geometry":{"type":"Point","coordinates":[39.167127,-4.255897]}},{"properties":{"latitude":-4.255897,"amountspttodate":1800000,"district":"Kwale","activitytobedone":"Two Classrooms Construction","index":35836,"longitude":39.167127,"projectname":"Ndavaya Secondary School","id":"a65ye2i3j459","province":"Coast","location":"Ndavaya","constituency":"Kinango"},"type":"Feature","geometry":{"type":"Point","coordinates":[39.167127,-4.255897]}},{"properties":{"latitude":-4.248295,"amountspttodate":1000000,"district":"Kwale","activitytobedone":"Construction Of One Classroom","index":35634,"longitude":39.085658,"projectname":"Mtumwa Primary School","id":"a65ye2srs4jj","province":"Coast","location":"Mwereni","constituency":"Msambweni"},"type":"Feature","geometry":{"type":"Point","coordinates":[39.085658,-4.248295]}},{"properties":{"latitude":-4.221027,"amountspttodate":160000,"district":"Kwale","activitytobedone":"One New Classroom Construction","index":35716,"longitude":39.17836,"projectname":"Mwachanda Primary School","id":"a65ye2nnzfb6","province":"Coast","location":"Ndavaya","constituency":"Kinango"},"type":"Feature","geometry":{"type":"Point","coordinates":[39.17836,-4.221027]}},{"properties":{"latitude":-4.214234,"amountspttodate":200000,"district":"Kwale","activitytobedone":"One New Classroom Construction","index":35786,"longitude":39.087217,"projectname":"Mwaluvuno Primary School","id":"a65ye2jwwugz","province":"Coast","location":"Ndavaya","constituency":"Kinango"},"type":"Feature","geometry":{"type":"Point","coordinates":[39.087217,-4.214234]}},{"properties":{"latitude":-4.206362,"amountspttodate":500000,"district":"Kwale","activitytobedone":"Departmental Tools Purchase","index":35892,"longitude":39.194369,"projectname":"Gulanze Youth Polytechnic","id":"a65ye2gdb82j","province":"Coast","location":"Ndavaya","constituency":"Kinango"},"type":"Feature","geometry":{"type":"Point","coordinates":[39.194369,-4.206362]}},{"properties":{"latitude":-4.195508,"amountspttodate":160000,"district":"Kwale","activitytobedone":"One New Classroom Construction","index":35717,"longitude":39.141772,"projectname":"Mkangombe Primary School","id":"a65ye2oic1mc","province":"Coast","location":"Ndavaya","constituency":"Kinango"},"type":"Feature","geometry":{"type":"Point","coordinates":[39.141772,-4.195508]}},{"properties":{"latitude":-4.18424,"amountspttodate":200000,"district":"Kwale","activitytobedone":"One New Classroom Construction","index":35753,"longitude":38.94584,"projectname":"Mbita Primary School","id":"a65ye2rg9c3c","province":"Coast","location":"Ndavaya","constituency":"Kinango"},"type":"Feature","geometry":{"type":"Point","coordinates":[38.94584,-4.18424]}},{"properties":{"latitude":-4.18424,"amountspttodate":150000,"district":"Kwale","activitytobedone":"75 desks Purchase","index":35753,"longitude":38.94584,"projectname":"Mbita Primary School","id":"a65ye2to34iu","province":"Coast","location":"Ndavaya","constituency":"Kinango"},"type":"Feature","geometry":{"type":"Point","coordinates":[38.94584,-4.18424]}},{"properties":{"latitude":-4.156103,"amountspttodate":210000,"district":"Kwale","activitytobedone":"One New Classroom Construction","index":35721,"longitude":39.172014,"projectname":"Ndauni Primary School","id":"a65ye2kqqdup","province":"Coast","location":"Ndavaya","constituency":"Kinango"},"type":"Feature","geometry":{"type":"Point","coordinates":[39.172014,-4.156103]}},{"properties":{"latitude":-4.149863,"amountspttodate":200000,"district":"Kwale","activitytobedone":"One New Classroom Construction","index":35784,"longitude":39.105044,"projectname":"Mwakijembe Primary School","id":"a65ye2hvofsu","province":"Coast","location":"Ndavaya","constituency":"Kinango"},"type":"Feature","geometry":{"type":"Point","coordinates":[39.105044,-4.149863]}},{"properties":{"latitude":-4.149863,"amountspttodate":150000,"district":"Kwale","activitytobedone":"75 desks Purchase","index":35784,"longitude":39.105044,"projectname":"Mwakijembe Primary School","id":"a65ye2r3y7sj","province":"Coast","location":"Ndavaya","constituency":"Kinango"},"type":"Feature","geometry":{"type":"Point","coordinates":[39.105044,-4.149863]}},{"properties":{"latitude":-4.14653,"amountspttodate":200000,"district":"Kwale","activitytobedone":"One New Classroom Construction","index":35729,"longitude":39.35099,"projectname":"Gwadu Primary School","id":"a65ye2shz6b9","province":"Coast","location":"Kinango","constituency":"Kinango"},"type":"Feature","geometry":{"type":"Point","coordinates":[39.35099,-4.14653]}},{"properties":{"latitude":-4.14653,"amountspttodate":150000,"district":"Kwale","activitytobedone":"75 desks Purchase","index":35729,"longitude":39.35099,"projectname":"Gwadu Primary School","id":"a65ye2qnip0h","province":"Coast","location":"Kinango","constituency":"Kinango"},"type":"Feature","geometry":{"type":"Point","coordinates":[39.35099,-4.14653]}},{"properties":{"latitude":-4.138966,"amountspttodate":1750000,"district":"Kwale","activitytobedone":"Dinning Hall Construction","index":35833,"longitude":39.318779,"projectname":"Kinango Secondary School","id":"a65ye2ms0ln3","province":"Coast","location":"Kinango","constituency":"Kinango"},"type":"Feature","geometry":{"type":"Point","coordinates":[39.318779,-4.138966]}},{"properties":{"latitude":-4.138966,"amountspttodate":2000000,"district":"Kwale","activitytobedone":"Two Classrooms Construction","index":35833,"longitude":39.318779,"projectname":"Kinango Secondary School","id":"a65ye2p3lg0c","province":"Coast","location":"Kinango","constituency":"Kinango"},"type":"Feature","geometry":{"type":"Point","coordinates":[39.318779,-4.138966]}},{"properties":{"latitude":-4.138966,"amountspttodate":1800000,"district":"Kwale","activitytobedone":"Two Classrooms Construction","index":35833,"longitude":39.318779,"projectname":"Kinango Secondary School","id":"a65ye2htod7m","province":"Coast","location":"Kinango","constituency":"Kinango"},"type":"Feature","geometry":{"type":"Point","coordinates":[39.318779,-4.138966]}},{"properties":{"latitude":-4.128826,"amountspttodate":210000,"district":"Kwale","activitytobedone":"One New Classroom Construction","index":35723,"longitude":39.049802,"projectname":"Mbilini Primary School","id":"a65ye2sh3zrz","province":"Coast","location":"Vigurungani","constituency":"Kinango"},"type":"Feature","geometry":{"type":"Point","coordinates":[39.049802,-4.128826]}},{"properties":{"latitude":-4.128826,"amountspttodate":150000,"district":"Kwale","activitytobedone":"75 desks Purchase","index":35723,"longitude":39.049802,"projectname":"Mbilini Primary School","id":"a65ye2sygiys","province":"Coast","location":"Vigurungani","constituency":"Kinango"},"type":"Feature","geometry":{"type":"Point","coordinates":[39.049802,-4.128826]}},{"properties":{"latitude":-4.09454,"amountspttodate":150000,"district":"Kwale","activitytobedone":"75 desks Purchase","index":35820,"longitude":39.27936,"projectname":"Bishop Kalu Primary School","id":"a65ye2lcanf4","province":"Coast","location":"Puma","constituency":"Kinango"},"type":"Feature","geometry":{"type":"Point","coordinates":[39.27936,-4.09454]}},{"properties":{"latitude":-4.09209,"amountspttodate":2000000,"district":"Mombasa","activitytobedone":"Roof Replacement And Painting Of The Entire School","index":36806,"longitude":39.64331,"projectname":"Likoni Secondary School","id":"a65ye2oklvws","province":"Coast","location":"Likoni","constituency":"Likoni"},"type":"Feature","geometry":{"type":"Point","coordinates":[39.64331,-4.09209]}},{"properties":{"latitude":-4.09208,"amountspttodate":200000,"district":"Kwale","activitytobedone":"One New Classroom Construction","index":35725,"longitude":39.37099,"projectname":"Yapha Primary School","id":"a65ye2pbeejf","province":"Coast","location":"Gandiini","constituency":"Kinango"},"type":"Feature","geometry":{"type":"Point","coordinates":[39.37099,-4.09208]}},{"properties":{"latitude":-4.09208,"amountspttodate":150000,"district":"Kwale","activitytobedone":"75 desks Purchase","index":35725,"longitude":39.37099,"projectname":"Yapha Primary School","id":"a65ye2qfxkj9","province":"Coast","location":"Gandiini","constituency":"Kinango"},"type":"Feature","geometry":{"type":"Point","coordinates":[39.37099,-4.09208]}},{"properties":{"latitude":-4.077502,"amountspttodate":210000,"district":"Kwale","activitytobedone":"One New Classroom Construction","index":35694,"longitude":39.405815,"projectname":"Nzovuni Primary School","id":"a65ye2hm2kvf","province":"Coast","location":"Gandini","constituency":"Kinango"},"type":"Feature","geometry":{"type":"Point","coordinates":[39.405815,-4.077502]}},{"properties":{"latitude":-4.077502,"amountspttodate":150000,"district":"Kwale","activitytobedone":"75 desks Purchase","index":35694,"longitude":39.405815,"projectname":"Nzovuni Primary School","id":"a65ye2jjmhtl","province":"Coast","location":"Gandini","constituency":"Kinango"},"type":"Feature","geometry":{"type":"Point","coordinates":[39.405815,-4.077502]}},{"properties":{"latitude":-4.074201,"amountspttodate":150000,"district":"Kwale","activitytobedone":"75 desks Purchase","index":35817,"longitude":39.183475,"projectname":"Mwangoni Primary School","id":"a65ye2guihkw","province":"Coast","location":"Vigurungani","constituency":"Kinango"},"type":"Feature","geometry":{"type":"Point","coordinates":[39.183475,-4.074201]}},{"properties":{"latitude":-4.04683,"amountspttodate":200000,"district":"Kwale","activitytobedone":"One New Classroom Construction","index":35735,"longitude":39.00227,"projectname":"Wamasa Primary School","id":"a65ye2vvrv54","province":"Coast","location":"Vigurungani","constituency":"Kinango"},"type":"Feature","geometry":{"type":"Point","coordinates":[39.00227,-4.04683]}},{"properties":{"latitude":-4.044093,"amountspttodate":200000,"district":"Kwale","activitytobedone":"One New Classroom Construction","index":35802,"longitude":39.466568,"projectname":"Gandini Central Primary School","id":"a65ye2ohpvib","province":"Coast","location":"Gandini","constituency":"Kinango"},"type":"Feature","geometry":{"type":"Point","coordinates":[39.466568,-4.044093]}},{"properties":{"latitude":-4.044093,"amountspttodate":150000,"district":"Kwale","activitytobedone":"75 desks Purchase","index":35802,"longitude":39.466568,"projectname":"Gandini Central Primary School","id":"a65ye2rlbzrv","province":"Coast","location":"Gandini","constituency":"Kinango"},"type":"Feature","geometry":{"type":"Point","coordinates":[39.466568,-4.044093]}},{"properties":{"latitude":-4.041958,"amountspttodate":200000,"district":"Kwale","activitytobedone":"One New Classroom Construction","index":35744,"longitude":39.39586,"projectname":"Kibandaongo Primary School","id":"a65ye2jp9t5v","province":"Coast","location":"Gandini","constituency":"Kinango"},"type":"Feature","geometry":{"type":"Point","coordinates":[39.39586,-4.041958]}},{"properties":{"latitude":-4.041958,"amountspttodate":150000,"district":"Kwale","activitytobedone":"75 desks Purchase","index":35744,"longitude":39.39586,"projectname":"Kibandaongo Primary School","id":"a65ye2s00gbu","province":"Coast","location":"Gandini","constituency":"Kinango"},"type":"Feature","geometry":{"type":"Point","coordinates":[39.39586,-4.041958]}},{"properties":{"latitude":-4.041296,"amountspttodate":160000,"district":"Kwale","activitytobedone":"One New Classroom Construction","index":35722,"longitude":39.166447,"projectname":"Vigurungani Primary School","id":"a65ye2jkgva0","province":"Coast","location":"Vigurungani","constituency":"Kinango"},"type":"Feature","geometry":{"type":"Point","coordinates":[39.166447,-4.041296]}},{"properties":{"latitude":-4.037872,"amountspttodate":160000,"district":"Kwale","activitytobedone":"One New Classroom Construction","index":35696,"longitude":39.496661,"projectname":"Chizini Primary School","id":"a65ye2o235bm","province":"Coast","location":"Gandini","constituency":"Kinango"},"type":"Feature","geometry":{"type":"Point","coordinates":[39.496661,-4.037872]}},{"properties":{"latitude":-4.033342,"amountspttodate":210000,"district":"Kwale","activitytobedone":"One New Classroom Construction","index":35699,"longitude":39.527899,"projectname":"Dzivani Primary School","id":"a65ye2u7wjhb","province":"Coast","location":"Gandini","constituency":"Kinango"},"type":"Feature","geometry":{"type":"Point","coordinates":[39.527899,-4.033342]}},{"properties":{"latitude":-4.030796,"amountspttodate":200000,"district":"Kwale","activitytobedone":"One New Classroom Construction","index":35808,"longitude":39.246761,"projectname":"Kituu Primary School","id":"a65ye2g2gy2n","province":"Coast","location":"Makamini","constituency":"Kinango"},"type":"Feature","geometry":{"type":"Point","coordinates":[39.246761,-4.030796]}},{"properties":{"latitude":-4.030796,"amountspttodate":150000,"district":"Kwale","activitytobedone":"75 desks Purchase","index":35808,"longitude":39.246761,"projectname":"Kituu Primary School","id":"a65ye2gpbcg1","province":"Coast","location":"Makamini","constituency":"Kinango"},"type":"Feature","geometry":{"type":"Point","coordinates":[39.246761,-4.030796]}},{"properties":{"latitude":-4.025308,"amountspttodate":200000,"district":"Kwale","activitytobedone":"One New Classroom Construction","index":35748,"longitude":39.4309,"projectname":"Mkanyeni Primary School","id":"a65ye2oghagg","province":"Coast","location":"Mtaa","constituency":"Kinango"},"type":"Feature","geometry":{"type":"Point","coordinates":[39.4309,-4.025308]}},{"properties":{"latitude":-4.025308,"amountspttodate":150000,"district":"Kwale","activitytobedone":"75 desks Purchase","index":35748,"longitude":39.4309,"projectname":"Mkanyeni Primary School","id":"a65ye2vl38km","province":"Coast","location":"Mtaa","constituency":"Kinango"},"type":"Feature","geometry":{"type":"Point","coordinates":[39.4309,-4.025308]}},{"properties":{"latitude":-4.017261,"amountspttodate":150000,"district":"Kwale","activitytobedone":"One New Classroom Construction","index":35700,"longitude":39.477498,"projectname":"Miguneni Primary School","id":"a65ye2pxw9n7","province":"Coast","location":"Kasemeni","constituency":"Kinango"},"type":"Feature","geometry":{"type":"Point","coordinates":[39.477498,-4.017261]}},{"properties":{"latitude":-4.017261,"amountspttodate":150000,"district":"Kwale","activitytobedone":"75 desks Purchase","index":35700,"longitude":39.477498,"projectname":"Miguneni Primary School","id":"a65ye2hf3e15","province":"Coast","location":"Kasemeni","constituency":"Kinango"},"type":"Feature","geometry":{"type":"Point","coordinates":[39.477498,-4.017261]}},{"properties":{"latitude":-4.012008,"amountspttodate":200000,"district":"Kwale","activitytobedone":"One New Classroom Construction","index":35718,"longitude":39.544705,"projectname":"Bonje Primary School","id":"a65ye2o2bbnu","province":"Coast","location":"Kasemeni","constituency":"Kinango"},"type":"Feature","geometry":{"type":"Point","coordinates":[39.544705,-4.012008]}},{"properties":{"latitude":-4.012008,"amountspttodate":150000,"district":"Kwale","activitytobedone":"75 desks Purchase","index":35718,"longitude":39.544705,"projectname":"Bonje Primary School","id":"a65ye2m1s8cg","province":"Coast","location":"Kasemeni","constituency":"Kinango"},"type":"Feature","geometry":{"type":"Point","coordinates":[39.544705,-4.012008]}},{"properties":{"latitude":-4.00852,"amountspttodate":200000,"district":"Kwale","activitytobedone":"One New Classroom Construction","index":35780,"longitude":39.13444,"projectname":"Kideri Primary School","id":"a65ye2sh8sug","province":"Coast","location":"Vigurungani","constituency":"Kinango"},"type":"Feature","geometry":{"type":"Point","coordinates":[39.13444,-4.00852]}},{"properties":{"latitude":-4.00852,"amountspttodate":150000,"district":"Kwale","activitytobedone":"75 desks Purchase","index":35780,"longitude":39.13444,"projectname":"Kideri Primary School","id":"a65ye2lknm2w","province":"Coast","location":"Vigurungani","constituency":"Kinango"},"type":"Feature","geometry":{"type":"Point","coordinates":[39.13444,-4.00852]}},{"properties":{"latitude":-4.006459,"amountspttodate":200000,"district":"Kwale","activitytobedone":"One New Classroom Construction","index":35750,"longitude":39.384103,"projectname":"Mabesheni Primary School","id":"a65ye2icf4gs","province":"Coast","location":"Mtaa","constituency":"Kinango"},"type":"Feature","geometry":{"type":"Point","coordinates":[39.384103,-4.006459]}},{"properties":{"latitude":-4.004961,"amountspttodate":200000,"district":"Kwale","activitytobedone":"One New Classroom Construction","index":35788,"longitude":39.342629,"projectname":"Mtaa Primary School","id":"a65ye2ggrra9","province":"Coast","location":"Mtaa","constituency":"Kinango"},"type":"Feature","geometry":{"type":"Point","coordinates":[39.342629,-4.004961]}},{"properties":{"latitude":-4.004961,"amountspttodate":150000,"district":"Kwale","activitytobedone":"75 desks Purchase","index":35788,"longitude":39.342629,"projectname":"Mtaa Primary School","id":"a65ye2ja6j71","province":"Coast","location":"Mtaa","constituency":"Kinango"},"type":"Feature","geometry":{"type":"Point","coordinates":[39.342629,-4.004961]}},{"properties":{"latitude":-4.000336,"amountspttodate":150000,"district":"Kwale","activitytobedone":"One New Classroom Construction","index":35702,"longitude":39.504778,"projectname":"Miyani Primary School","id":"a65ye2vdmj25","province":"Coast","location":"Kasemeni","constituency":"Kinango"},"type":"Feature","geometry":{"type":"Point","coordinates":[39.504778,-4.000336]}},{"properties":{"latitude":-3.996534,"amountspttodate":200000,"district":"Kwale","activitytobedone":"One New Classroom Construction","index":35787,"longitude":39.448394,"projectname":"Gona Primary School","id":"a65ye2qyf942","province":"Coast","location":"Mtaa","constituency":"Kinango"},"type":"Feature","geometry":{"type":"Point","coordinates":[39.448394,-3.996534]}},{"properties":{"latitude":-3.988267,"amountspttodate":250000,"district":"Kwale","activitytobedone":"24 Concrete Laboratory Tables Construction","index":35829,"longitude":39.486967,"projectname":"Mnyenzeni Secondary School","id":"a65ye2miqk28","province":"Coast","location":"Kasemeni","constituency":"Kinango"},"type":"Feature","geometry":{"type":"Point","coordinates":[39.486967,-3.988267]}},{"properties":{"latitude":-3.988267,"amountspttodate":500000,"district":"Kwale","activitytobedone":"Two Classrooms Construction","index":35829,"longitude":39.486967,"projectname":"Mnyenzeni Secondary School","id":"a65ye2rhgg9k","province":"Coast","location":"Kasemeni","constituency":"Kinango"},"type":"Feature","geometry":{"type":"Point","coordinates":[39.486967,-3.988267]}},{"properties":{"latitude":-3.988267,"amountspttodate":2000000,"district":"Kwale","activitytobedone":"Administration Block Construction","index":35829,"longitude":39.486967,"projectname":"Mnyenzeni Secondary School","id":"a65ye2khig7r","province":"Coast","location":"Kasemeni","constituency":"Kinango"},"type":"Feature","geometry":{"type":"Point","coordinates":[39.486967,-3.988267]}},{"properties":{"latitude":-3.988267,"amountspttodate":1800000,"district":"Kwale","activitytobedone":"Two Classrooms Construction","index":35829,"longitude":39.486967,"projectname":"Mnyenzeni Secondary School","id":"a65ye2i1eutf","province":"Coast","location":"Kasemeni","constituency":"Kinango"},"type":"Feature","geometry":{"type":"Point","coordinates":[39.486967,-3.988267]}},{"properties":{"latitude":-3.984527,"amountspttodate":200000,"district":"Kwale","activitytobedone":"One New Classroom Construction","index":35778,"longitude":39.487203,"projectname":"Mnyenzeni Primary School","id":"a65ye2pi7jag","province":"Coast","location":"Kasemeni","constituency":"Kinango"},"type":"Feature","geometry":{"type":"Point","coordinates":[39.487203,-3.984527]}},{"properties":{"latitude":-3.983298,"amountspttodate":150000,"district":"Kwale","activitytobedone":"75 desks Purchase","index":35814,"longitude":39.24342,"projectname":"Makamini Primary School","id":"a65ye2m6vcaf","province":"Coast","location":"Makamini","constituency":"Kinango"},"type":"Feature","geometry":{"type":"Point","coordinates":[39.24342,-3.983298]}},{"properties":{"latitude":-3.978645,"amountspttodate":150000,"district":"Kwale","activitytobedone":"75 desks Purchase","index":35816,"longitude":39.432632,"projectname":"Bofu Primary School","id":"a65ye2hf0wzx","province":"Coast","location":"Mtaa","constituency":"Kinango"},"type":"Feature","geometry":{"type":"Point","coordinates":[39.432632,-3.978645]}},{"properties":{"latitude":-3.975886,"amountspttodate":200000,"district":"Kwale","activitytobedone":"One New Classroom Construction","index":35795,"longitude":39.530566,"projectname":"Fulugani Primary School","id":"a65ye2kqdl21","province":"Coast","location":"Kasemeni","constituency":"Kinango"},"type":"Feature","geometry":{"type":"Point","coordinates":[39.530566,-3.975886]}},{"properties":{"latitude":-3.969702,"amountspttodate":200000,"district":"Kwale","activitytobedone":"One New Classroom Construction","index":35731,"longitude":39.409093,"projectname":"Guro Primary School","id":"a65ye2vy1e69","province":"Coast","location":"Mtaa","constituency":"Kinango"},"type":"Feature","geometry":{"type":"Point","coordinates":[39.409093,-3.969702]}},{"properties":{"latitude":-3.969276,"amountspttodate":150000,"district":"Kwale","activitytobedone":"One New Classroom Construction","index":35710,"longitude":38.94888,"projectname":"Kilibasi Primary School","id":"a65ye2ue82oj","province":"Coast","location":"Mackinon Rd","constituency":"Kinango"},"type":"Feature","geometry":{"type":"Point","coordinates":[38.94888,-3.969276]}},{"properties":{"latitude":-3.965972,"amountspttodate":1750000,"district":"Kwale","activitytobedone":"Girls Hostel Construction","index":35890,"longitude":39.543748,"projectname":"Mazeras Youth Polytechnic","id":"a65ye2pfprom","province":"Coast","location":"Kasemeni","constituency":"Kinango"},"type":"Feature","geometry":{"type":"Point","coordinates":[39.543748,-3.965972]}},{"properties":{"latitude":-3.963814,"amountspttodate":200000,"district":"Kwale","activitytobedone":"One New Classroom Construction","index":35760,"longitude":39.46545,"projectname":"Nunguni Primary School","id":"a65ye2hp6f0v","province":"Coast","location":"Mtaa","constituency":"Kinango"},"type":"Feature","geometry":{"type":"Point","coordinates":[39.46545,-3.963814]}},{"properties":{"latitude":-3.963224,"amountspttodate":200000,"district":"Kwale","activitytobedone":"One New Classroom Construction","index":35751,"longitude":39.49571,"projectname":"Mwache Primary School","id":"a65ye2pssxjm","province":"Coast","location":"Kasemeni","constituency":"Kinango"},"type":"Feature","geometry":{"type":"Point","coordinates":[39.49571,-3.963224]}},{"properties":{"latitude":-3.960075,"amountspttodate":200000,"district":"Kwale","activitytobedone":"One New Classroom Construction","index":35727,"longitude":39.526918,"projectname":"Mpirani Primary School","id":"a65ye2noeor6","province":"Coast","location":"Kasemeni","constituency":"Kinango"},"type":"Feature","geometry":{"type":"Point","coordinates":[39.526918,-3.960075]}},{"properties":{"latitude":-3.960075,"amountspttodate":150000,"district":"Kwale","activitytobedone":"75 desks Purchase","index":35727,"longitude":39.526918,"projectname":"Mpirani Primary School","id":"a65ye2s5h0rz","province":"Coast","location":"Kasemeni","constituency":"Kinango"},"type":"Feature","geometry":{"type":"Point","coordinates":[39.526918,-3.960075]}},{"properties":{"latitude":-3.959841,"amountspttodate":150000,"district":"Kwale","activitytobedone":"75 desks Purchase","index":35810,"longitude":39.541496,"projectname":"Mazeras Primary School","id":"a65ye2huen2m","province":"Coast","location":"Kasemeni","constituency":"Kinango"},"type":"Feature","geometry":{"type":"Point","coordinates":[39.541496,-3.959841]}},{"properties":{"latitude":-3.952529,"amountspttodate":200000,"district":"Kwale","activitytobedone":"One New Classroom Construction","index":35707,"longitude":39.201853,"projectname":"Chigutu Primary School","id":"a65ye2kjjir9","province":"Coast","location":"Makamini","constituency":"Kinango"},"type":"Feature","geometry":{"type":"Point","coordinates":[39.201853,-3.952529]}},{"properties":{"latitude":-3.951533,"amountspttodate":200000,"district":"Kwale","activitytobedone":"One New Classroom Construction","index":35792,"longitude":39.434153,"projectname":"Pemba Primary School","id":"a65ye2hmiq9h","province":"Coast","location":"Mwatate","constituency":"Kinango"},"type":"Feature","geometry":{"type":"Point","coordinates":[39.434153,-3.951533]}},{"properties":{"latitude":-3.95128,"amountspttodate":1150000,"district":"Taita Taveta","activitytobedone":"Construction Of 2 Classrooms","index":36882,"longitude":38.92653,"projectname":"Zungulukani Primary School","id":"a65ye2ob435q","province":"Coast","location":"Kasigau","constituency":"Voi"},"type":"Feature","geometry":{"type":"Point","coordinates":[38.92653,-3.95128]}},{"properties":{"latitude":-3.950853,"amountspttodate":210000,"district":"Kwale","activitytobedone":"One New Classroom Construction","index":35708,"longitude":39.302595,"projectname":"Bumburi Primary School","id":"a65ye2pcu8g9","province":"Coast","location":"Makamini","constituency":"Kinango"},"type":"Feature","geometry":{"type":"Point","coordinates":[39.302595,-3.950853]}},{"properties":{"latitude":-3.949768,"amountspttodate":200000,"district":"Kwale","activitytobedone":"One New Classroom Construction","index":35777,"longitude":39.140582,"projectname":"Vinyunduni Primary School","id":"a65ye2guec1y","province":"Coast","location":"Makamini","constituency":"Kinango"},"type":"Feature","geometry":{"type":"Point","coordinates":[39.140582,-3.949768]}},{"properties":{"latitude":-3.941496,"amountspttodate":200000,"district":"Kwale","activitytobedone":"One New Classroom Construction","index":35715,"longitude":39.463383,"projectname":"Maweu Primary School","id":"a65ye2p9v6z3","province":"Coast","location":"Mwatate","constituency":"Kinango"},"type":"Feature","geometry":{"type":"Point","coordinates":[39.463383,-3.941496]}},{"properties":{"latitude":-3.940112,"amountspttodate":525000,"district":"Kilifi","activitytobedone":"To Construction of 1 Classroom","index":35284,"longitude":39.538191,"projectname":"Kajiwe Primary School","id":"a65ye2oqzqw0","province":"Coast","location":"Rabai","constituency":"Kaloleni"},"type":"Feature","geometry":{"type":"Point","coordinates":[39.538191,-3.940112]}},{"properties":{"latitude":-3.937864,"amountspttodate":200000,"district":"Kwale","activitytobedone":"One New Classroom Construction","index":35732,"longitude":39.486642,"projectname":"Mwashanga Primary School","id":"a65ye2r9ou2k","province":"Coast","location":"Mwatate","constituency":"Kinango"},"type":"Feature","geometry":{"type":"Point","coordinates":[39.486642,-3.937864]}},{"properties":{"latitude":-3.937864,"amountspttodate":150000,"district":"Kwale","activitytobedone":"75 desks Purchase","index":35732,"longitude":39.486642,"projectname":"Mwashanga Primary School","id":"a65ye2i8qhyt","province":"Coast","location":"Mwatate","constituency":"Kinango"},"type":"Feature","geometry":{"type":"Point","coordinates":[39.486642,-3.937864]}},{"properties":{"latitude":-3.927713,"amountspttodate":525000,"district":"Kilifi","activitytobedone":"To Construction of 1 Classroom","index":35285,"longitude":39.568135,"projectname":"Lugwe Primary School","id":"a65ye2hsxyfl","province":"Coast","location":"Rabai","constituency":"Kaloleni"},"type":"Feature","geometry":{"type":"Point","coordinates":[39.568135,-3.927713]}},{"properties":{"latitude":-3.924112,"amountspttodate":4200000,"district":"Kilifi","activitytobedone":"Construction Of 4 Classrooms, Office And Toilets (New)","index":35279,"longitude":39.547697,"projectname":"Rabai Secondary School","id":"a65ye2r2wcgv","province":"Coast","location":"Rabai","constituency":"Kaloleni"},"type":"Feature","geometry":{"type":"Point","coordinates":[39.547697,-3.924112]}},{"properties":{"latitude":-3.917482,"amountspttodate":525000,"district":"Kilifi","activitytobedone":"To Construction of 1 Classroom","index":35283,"longitude":39.539512,"projectname":"Kaliangombe Primary School","id":"a65ye2ussj9f","province":"Coast","location":"Rabai","constituency":"Kaloleni"},"type":"Feature","geometry":{"type":"Point","coordinates":[39.539512,-3.917482]}},{"properties":{"latitude":-3.917383,"amountspttodate":850000,"district":"Kilifi","activitytobedone":"Construction Of 2 Classroom","index":35269,"longitude":39.595845,"projectname":"Changombe Primary School","id":"a65ye2ley3sn","province":"Coast","location":"Mwawesa","constituency":"Kaloleni"},"type":"Feature","geometry":{"type":"Point","coordinates":[39.595845,-3.917383]}},{"properties":{"latitude":-3.916104,"amountspttodate":600000,"district":"Kilifi","activitytobedone":"Construction Of 2 Classroom","index":35268,"longitude":39.618636,"projectname":"Chiferi Primary School","id":"a65ye2uknpku","province":"Coast","location":"Mwawesa","constituency":"Kaloleni"},"type":"Feature","geometry":{"type":"Point","coordinates":[39.618636,-3.916104]}},{"properties":{"latitude":-3.913343,"amountspttodate":150000,"district":"Kwale","activitytobedone":"One New Classroom Construction","index":35711,"longitude":39.054732,"projectname":"Busho Primary School","id":"a65ye2kvv50v","province":"Coast","location":"Mackinon Rd","constituency":"Kinango"},"type":"Feature","geometry":{"type":"Point","coordinates":[39.054732,-3.913343]}},{"properties":{"latitude":-3.91289,"amountspttodate":200000,"district":"Kwale","activitytobedone":"One New Classroom Construction","index":35798,"longitude":39.470473,"projectname":"Mavirivirini Primary School","id":"a65ye2sdta90","province":"Coast","location":"Mwatate","constituency":"Kinango"},"type":"Feature","geometry":{"type":"Point","coordinates":[39.470473,-3.91289]}},{"properties":{"latitude":-3.91289,"amountspttodate":150000,"district":"Kwale","activitytobedone":"75 desks Purchase","index":35798,"longitude":39.470473,"projectname":"Mavirivirini Primary School","id":"a65ye2klthdg","province":"Coast","location":"Mwatate","constituency":"Kinango"},"type":"Feature","geometry":{"type":"Point","coordinates":[39.470473,-3.91289]}},{"properties":{"latitude":-3.901246,"amountspttodate":210000,"district":"Kwale","activitytobedone":"One New Classroom Construction","index":35706,"longitude":39.224343,"projectname":"Mdomo Primary School","id":"a65ye2w4xttr","province":"Coast","location":"Makamini","constituency":"Kinango"},"type":"Feature","geometry":{"type":"Point","coordinates":[39.224343,-3.901246]}},{"properties":{"latitude":-3.900048,"amountspttodate":500238,"district":"Kilifi","activitytobedone":"Construction Of 1 Classroom &amp; Office","index":35270,"longitude":39.617871,"projectname":"Bedida Primary School","id":"a65ye2s3i84e","province":"Coast","location":"Mwawesa","constituency":"Kaloleni"},"type":"Feature","geometry":{"type":"Point","coordinates":[39.617871,-3.900048]}},{"properties":{"latitude":-3.892855,"amountspttodate":150000,"district":"Kilifi","activitytobedone":"To Construction of 1 Classroom","index":35347,"longitude":39.552419,"projectname":"Jimba Primary School","id":"a65ye2wh9pie","province":"Coast","location":"Ruruma","constituency":"Kaloleni"},"type":"Feature","geometry":{"type":"Point","coordinates":[39.552419,-3.892855]}},{"properties":{"latitude":-3.885211,"amountspttodate":200000,"district":"Kwale","activitytobedone":"One New Classroom Construction","index":35790,"longitude":39.433424,"projectname":"Mwanda Primary School","id":"a65ye2kfdo74","province":"Coast","location":"Mwavumbo","constituency":"Kinango"},"type":"Feature","geometry":{"type":"Point","coordinates":[39.433424,-3.885211]}},{"properties":{"latitude":-3.881384,"amountspttodate":200000,"district":"Kwale","activitytobedone":"One New Classroom Construction","index":35793,"longitude":39.405504,"projectname":"Kumbulu Primary School","id":"a65ye2wfbsx6","province":"Coast","location":"Mwavumbo","constituency":"Kinango"},"type":"Feature","geometry":{"type":"Point","coordinates":[39.405504,-3.881384]}},{"properties":{"latitude":-3.881384,"amountspttodate":150000,"district":"Kwale","activitytobedone":"75 desks Purchase","index":35793,"longitude":39.405504,"projectname":"Kumbulu Primary School","id":"a65ye2h1atqi","province":"Coast","location":"Mwavumbo","constituency":"Kinango"},"type":"Feature","geometry":{"type":"Point","coordinates":[39.405504,-3.881384]}},{"properties":{"latitude":-3.881384,"amountspttodate":200000,"district":"Kwale","activitytobedone":"One New Classroom Construction","index":35793,"longitude":39.405504,"projectname":"Kumbulu Primary School","id":"a65ye2wed7i5","province":"Coast","location":"Mwavumbo","constituency":"Kinango"},"type":"Feature","geometry":{"type":"Point","coordinates":[39.405504,-3.881384]}},{"properties":{"latitude":-3.881384,"amountspttodate":150000,"district":"Kwale","activitytobedone":"75 desks Purchase","index":35793,"longitude":39.405504,"projectname":"Kumbulu Primary School","id":"a65ye2mjs5vi","province":"Coast","location":"Mwavumbo","constituency":"Kinango"},"type":"Feature","geometry":{"type":"Point","coordinates":[39.405504,-3.881384]}},{"properties":{"latitude":-3.879889,"amountspttodate":9315000,"district":"Kilifi","activitytobedone":"Construction. Of Twin Dormitory","index":35292,"longitude":39.633683,"projectname":"Ribe Girls Secondary School","id":"a65ye2n2s8ad","province":"Coast","location":"Ribe","constituency":"Kaloleni"},"type":"Feature","geometry":{"type":"Point","coordinates":[39.633683,-3.879889]}},{"properties":{"latitude":-3.878359,"amountspttodate":456281,"district":"Kilifi","activitytobedone":"Construction Of 2 Classroom","index":35293,"longitude":39.630573,"projectname":"Ribe Primary School","id":"a65ye2v3mdip","province":"Coast","location":"Ribe","constituency":"Kaloleni"},"type":"Feature","geometry":{"type":"Point","coordinates":[39.630573,-3.878359]}},{"properties":{"latitude":-3.876504,"amountspttodate":1500000,"district":"Kilifi","activitytobedone":"Construction Of 2 Classroom &amp; Library","index":35340,"longitude":39.606626,"projectname":"Kasidi Secondary School","id":"a65ye2g6zsi7","province":"Coast","location":"Ruruma","constituency":"Kaloleni"},"type":"Feature","geometry":{"type":"Point","coordinates":[39.606626,-3.876504]}},{"properties":{"latitude":-3.87506,"amountspttodate":1400000,"district":"Kilifi","activitytobedone":"Construction Of 2 Classroom","index":35299,"longitude":39.69207,"projectname":"Jeuri Primary School","id":"a65ye2nz0ksd","province":"Coast","location":"Kambe","constituency":"Kaloleni"},"type":"Feature","geometry":{"type":"Point","coordinates":[39.69207,-3.87506]}},{"properties":{"latitude":-3.87506,"amountspttodate":1600000,"district":"Kilifi","activitytobedone":"Construction Of 2 Classroom","index":35299,"longitude":39.69207,"projectname":"Jeuri Primary School","id":"a65ye2jtp65h","province":"Coast","location":"Kambe","constituency":"Kaloleni"},"type":"Feature","geometry":{"type":"Point","coordinates":[39.69207,-3.87506]}},{"properties":{"latitude":-3.873932,"amountspttodate":150000,"district":"Kilifi","activitytobedone":"To Construction of 1 Classroom","index":35346,"longitude":39.582901,"projectname":"Kawala Primary School","id":"a65ye2q9oz3i","province":"Coast","location":"Ruruma","constituency":"Kaloleni"},"type":"Feature","geometry":{"type":"Point","coordinates":[39.582901,-3.873932]}},{"properties":{"latitude":-3.871301,"amountspttodate":200000,"district":"Kwale","activitytobedone":"One New Classroom Construction","index":35755,"longitude":39.203615,"projectname":"Mwambani Primary School","id":"a65ye2ghtrxi","province":"Coast","location":"Samburu","constituency":"Kinango"},"type":"Feature","geometry":{"type":"Point","coordinates":[39.203615,-3.871301]}},{"properties":{"latitude":-3.871301,"amountspttodate":150000,"district":"Kwale","activitytobedone":"75 desks Purchase","index":35755,"longitude":39.203615,"projectname":"Mwambani Primary School","id":"a65ye2tikq7g","province":"Coast","location":"Samburu","constituency":"Kinango"},"type":"Feature","geometry":{"type":"Point","coordinates":[39.203615,-3.871301]}},{"properties":{"latitude":-3.86929,"amountspttodate":150000,"district":"Kwale","activitytobedone":"75 desks Purchase","index":35815,"longitude":39.25356,"projectname":"Kinagoni Primary School","id":"a65ye2vd2xgb","province":"Coast","location":"Samburu","constituency":"Kinango"},"type":"Feature","geometry":{"type":"Point","coordinates":[39.25356,-3.86929]}},{"properties":{"latitude":-3.867702,"amountspttodate":200000,"district":"Kwale","activitytobedone":"One New Classroom Construction","index":35766,"longitude":39.472714,"projectname":"Mariakani Primary School","id":"a65ye2ozkgbk","province":"Coast","location":"Mwavumbo","constituency":"Kinango"},"type":"Feature","geometry":{"type":"Point","coordinates":[39.472714,-3.867702]}},{"properties":{"latitude":-3.867702,"amountspttodate":150000,"district":"Kwale","activitytobedone":"75 desks Purchase","index":35766,"longitude":39.472714,"projectname":"Mariakani Primary School","id":"a65ye2sa896o","province":"Coast","location":"Mwavumbo","constituency":"Kinango"},"type":"Feature","geometry":{"type":"Point","coordinates":[39.472714,-3.867702]}},{"properties":{"latitude":-3.86674,"amountspttodate":500000,"district":"Kilifi","activitytobedone":"Construction Of 2 Classrooms","index":35297,"longitude":39.655534,"projectname":"Maereni Primary School","id":"a65ye2ifh007","province":"Coast","location":"Kambe","constituency":"Kaloleni"},"type":"Feature","geometry":{"type":"Point","coordinates":[39.655534,-3.86674]}},{"properties":{"latitude":-3.864169,"amountspttodate":500000,"district":"Kilifi","activitytobedone":"Construction Of 2 Classroom","index":35766,"longitude":39.472551,"projectname":"Mariakani Primary School","id":"a65ye2qxgsvy","province":"Coast","location":"Mariakani","constituency":"Kaloleni"},"type":"Feature","geometry":{"type":"Point","coordinates":[39.472551,-3.864169]}},{"properties":{"latitude":-3.861812,"amountspttodate":1597554,"district":"Kilifi","activitytobedone":"Construction Of 3 Classroom And A Dinning All","index":35298,"longitude":39.655415,"projectname":"Kambe Secondary School","id":"a65ye2tgiep8","province":"Coast","location":"Kambe","constituency":"Kaloleni"},"type":"Feature","geometry":{"type":"Point","coordinates":[39.655415,-3.861812]}},{"properties":{"latitude":-3.85934,"amountspttodate":1000000,"district":"Kilifi","activitytobedone":"To Construction of Store For Equipments","index":35263,"longitude":39.481381,"projectname":"Mariakani Youth Polytechnic","id":"a65ye2udotx3","province":"Coast","location":"Mariakani","constituency":"Kaloleni"},"type":"Feature","geometry":{"type":"Point","coordinates":[39.481381,-3.85934]}},{"properties":{"latitude":-3.853638,"amountspttodate":200000,"district":"Kwale","activitytobedone":"One New Classroom Construction","index":35712,"longitude":39.392831,"projectname":"Mwabila Primary School","id":"a65ye2tuy80z","province":"Coast","location":"Mwavumbo","constituency":"Kinango"},"type":"Feature","geometry":{"type":"Point","coordinates":[39.392831,-3.853638]}},{"properties":{"latitude":-3.853638,"amountspttodate":150000,"district":"Kwale","activitytobedone":"75 desks Purchase","index":35712,"longitude":39.392831,"projectname":"Mwabila Primary School","id":"a65ye2mr0vfi","province":"Coast","location":"Mwavumbo","constituency":"Kinango"},"type":"Feature","geometry":{"type":"Point","coordinates":[39.392831,-3.853638]}},{"properties":{"latitude":-3.848086,"amountspttodate":1099141,"district":"Kilifi","activitytobedone":"To Construction of 1 Classroom And Office","index":35260,"longitude":39.506429,"projectname":"Kadzonzo Primary School","id":"a65ye2fz6web","province":"Coast","location":"Mariakani","constituency":"Kaloleni"},"type":"Feature","geometry":{"type":"Point","coordinates":[39.506429,-3.848086]}},{"properties":{"latitude":-3.84608,"amountspttodate":600000,"district":"Taita Taveta","activitytobedone":"Construction Of Kitche And Purchase Of Desks","index":36883,"longitude":38.66515,"projectname":"Bungule Primary School","id":"a65ye2rz2u64","province":"Coast","location":"Kasigau","constituency":"Voi"},"type":"Feature","geometry":{"type":"Point","coordinates":[38.66515,-3.84608]}},{"properties":{"latitude":-3.844572,"amountspttodate":900000,"district":"Kilifi","activitytobedone":"Renovation Of All Classrooms","index":35327,"longitude":39.661898,"projectname":"Mgamboni Primary School","id":"a65ye2mckdbo","province":"Coast","location":"Jibana","constituency":"Kaloleni"},"type":"Feature","geometry":{"type":"Point","coordinates":[39.661898,-3.844572]}},{"properties":{"latitude":-3.83758,"amountspttodate":200000,"district":"Taita Taveta","activitytobedone":"Renovation Of 3 Classrooms","index":36889,"longitude":38.61992,"projectname":"Jora Primary School","id":"a65ye2vca7te","province":"Coast","location":"Kasigau","constituency":"Voi"},"type":"Feature","geometry":{"type":"Point","coordinates":[38.61992,-3.83758]}},{"properties":{"latitude":-3.836129,"amountspttodate":1546053,"district":"Kilifi","activitytobedone":"Digging Of Borehole","index":35326,"longitude":39.643141,"projectname":"Maandani Secondary School","id":"a65ye2iecrol","province":"Coast","location":"Jibana","constituency":"Kaloleni"},"type":"Feature","geometry":{"type":"Point","coordinates":[39.643141,-3.836129]}},{"properties":{"latitude":-3.8298,"amountspttodate":700000,"district":"Kilifi","activitytobedone":"Construction Of 3 Classrooms","index":35252,"longitude":39.491249,"projectname":"Madzimbani Primary School","id":"a65ye2qw3z3h","province":"Coast","location":"Mariakani","constituency":"Kaloleni"},"type":"Feature","geometry":{"type":"Point","coordinates":[39.491249,-3.8298]}},{"properties":{"latitude":-3.82755,"amountspttodate":500000,"district":"Kilifi","activitytobedone":"Construction Of 2 Classrooms","index":35216,"longitude":39.60163,"projectname":"Imani Primary School","id":"a65ye2uvpv4z","province":"Coast","location":"Kaloleni","constituency":"Kaloleni"},"type":"Feature","geometry":{"type":"Point","coordinates":[39.60163,-3.82755]}},{"properties":{"latitude":-3.823161,"amountspttodate":1600000,"district":"Kilifi","activitytobedone":"To Construction of 1 Classroom","index":35336,"longitude":39.63326,"projectname":"Walea Primary School","id":"a65ye2jt9i5u","province":"Coast","location":"Jibana","constituency":"Kaloleni"},"type":"Feature","geometry":{"type":"Point","coordinates":[39.63326,-3.823161]}},{"properties":{"latitude":-3.816854,"amountspttodate":500000,"district":"Kilifi","activitytobedone":"Construction Of 2 Classrooms","index":35325,"longitude":39.659553,"projectname":"Tsunguni Primary School","id":"a65ye2gysd2m","province":"Coast","location":"Jibana","constituency":"Kaloleni"},"type":"Feature","geometry":{"type":"Point","coordinates":[39.659553,-3.816854]}},{"properties":{"latitude":-3.815599,"amountspttodate":1100000,"district":"Kilifi","activitytobedone":"To Construction of 2 Workshops And 4 Lavatories","index":35227,"longitude":39.626837,"projectname":"Kaloleni Youth Polytechnic","id":"a65ye2t41yvj","province":"Coast","location":"Kaloleni","constituency":"Kaloleni"},"type":"Feature","geometry":{"type":"Point","coordinates":[39.626837,-3.815599]}},{"properties":{"latitude":-3.810352,"amountspttodate":500000,"district":"Kilifi","activitytobedone":"Construction Of 2 Classrooms","index":35215,"longitude":39.619433,"projectname":"Kizurini Secondary School","id":"a65ye2uefwzf","province":"Coast","location":"Kaloleni","constituency":"Kaloleni"},"type":"Feature","geometry":{"type":"Point","coordinates":[39.619433,-3.810352]}},{"properties":{"latitude":-3.80957,"amountspttodate":560000,"district":"Taita Taveta","activitytobedone":"Construction Of Modern Jiko, Class And Purchase Of Desks","index":36887,"longitude":38.63919,"projectname":"Rukanga Primary School","id":"a65ye2pb2y76","province":"Coast","location":"Kasigau","constituency":"Voi"},"type":"Feature","geometry":{"type":"Point","coordinates":[38.63919,-3.80957]}},{"properties":{"latitude":-3.80425,"amountspttodate":800000,"district":"Kilifi","activitytobedone":"Construction Of 2 Classroom","index":35253,"longitude":39.438123,"projectname":"Mariakani Garrison Primary School","id":"a65ye2j3n2b0","province":"Coast","location":"Mariakani","constituency":"Kaloleni"},"type":"Feature","geometry":{"type":"Point","coordinates":[39.438123,-3.80425]}},{"properties":{"latitude":-3.801825,"amountspttodate":959321,"district":"Kilifi","activitytobedone":"To Construction of 1 Classroom","index":35332,"longitude":39.664568,"projectname":"Vuga Primary School","id":"a65ye2omvy34","province":"Coast","location":"Jibana","constituency":"Kaloleni"},"type":"Feature","geometry":{"type":"Point","coordinates":[39.664568,-3.801825]}},{"properties":{"latitude":-3.797106,"amountspttodate":200000,"district":"Kwale","activitytobedone":"One New Classroom Construction","index":35759,"longitude":39.307461,"projectname":"Gora Primary School","id":"a65ye2pf329p","province":"Coast","location":"Samburu","constituency":"Kinango"},"type":"Feature","geometry":{"type":"Point","coordinates":[39.307461,-3.797106]}},{"properties":{"latitude":-3.793061,"amountspttodate":800000,"district":"Kwale","activitytobedone":"Administration Block Construction","index":35838,"longitude":39.257312,"projectname":"Samburu Secondary School","id":"a65ye2qmtck6","province":"Coast","location":"Samburu","constituency":"Kinango"},"type":"Feature","geometry":{"type":"Point","coordinates":[39.257312,-3.793061]}},{"properties":{"latitude":-3.793061,"amountspttodate":2000000,"district":"Kwale","activitytobedone":"Laboratory Construction","index":35838,"longitude":39.257312,"projectname":"Samburu Secondary School","id":"a65ye2pmwrcl","province":"Coast","location":"Samburu","constituency":"Kinango"},"type":"Feature","geometry":{"type":"Point","coordinates":[39.257312,-3.793061]}},{"properties":{"latitude":-3.793061,"amountspttodate":1800000,"district":"Kwale","activitytobedone":"Two Classrooms Construction","index":35838,"longitude":39.257312,"projectname":"Samburu Secondary School","id":"a65ye2qj5vdk","province":"Coast","location":"Samburu","constituency":"Kinango"},"type":"Feature","geometry":{"type":"Point","coordinates":[39.257312,-3.793061]}},{"properties":{"latitude":-3.792272,"amountspttodate":300000,"district":"Kilifi","activitytobedone":"Construction Of 1 Classroom","index":35778,"longitude":39.493598,"projectname":"Mnyenzeni Primary School","id":"a65ye2gdvuep","province":"Coast","location":"Mariakani","constituency":"Kaloleni"},"type":"Feature","geometry":{"type":"Point","coordinates":[39.493598,-3.792272]}},{"properties":{"latitude":-3.785409,"amountspttodate":200000,"district":"Kwale","activitytobedone":"One New Classroom Construction","index":35770,"longitude":39.093428,"projectname":"Bahakwenu Primary School","id":"a65ye2uhyu49","province":"Coast","location":"Taru","constituency":"Kinango"},"type":"Feature","geometry":{"type":"Point","coordinates":[39.093428,-3.785409]}},{"properties":{"latitude":-3.7849,"amountspttodate":0,"district":"Kilifi","activitytobedone":"Construction Of 2 Classroom","index":35218,"longitude":39.618461,"projectname":"Mihingoni Primary School","id":"a65ye2qh3m2b","province":"Coast","location":"Kaloleni","constituency":"Kaloleni"},"type":"Feature","geometry":{"type":"Point","coordinates":[39.618461,-3.7849]}},{"properties":{"latitude":-3.777099,"amountspttodate":400000,"district":"Kilifi","activitytobedone":"Construction Of 1 Classroom &amp; Office","index":35256,"longitude":39.441018,"projectname":"Kavuka Primary School","id":"a65ye2w6jeuy","province":"Coast","location":"Mariakani","constituency":"Kaloleni"},"type":"Feature","geometry":{"type":"Point","coordinates":[39.441018,-3.777099]}},{"properties":{"latitude":-3.771524,"amountspttodate":900000,"district":"Kilifi","activitytobedone":"Construction Of Water Tank (Rain Water And Kaloleni Pipe)","index":35229,"longitude":39.637024,"projectname":"Chanagande Secondary School","id":"a65ye2hpi12o","province":"Coast","location":"Kaloleni","constituency":"Kaloleni"},"type":"Feature","geometry":{"type":"Point","coordinates":[39.637024,-3.771524]}},{"properties":{"latitude":-3.771524,"amountspttodate":500000,"district":"Kilifi","activitytobedone":"Renovation Of A Burnt Library","index":35229,"longitude":39.637024,"projectname":"Chanagande Secondary School","id":"a65ye2sgqh2z","province":"Coast","location":"Kaloleni","constituency":"Kaloleni"},"type":"Feature","geometry":{"type":"Point","coordinates":[39.637024,-3.771524]}},{"properties":{"latitude":-3.769796,"amountspttodate":350000,"district":"Kwale","activitytobedone":"One New Classroom Construction","index":35757,"longitude":39.191815,"projectname":"Mwembeni Primary School","id":"a65ye2j2o737","province":"Coast","location":"Samburu","constituency":"Kinango"},"type":"Feature","geometry":{"type":"Point","coordinates":[39.191815,-3.769796]}},{"properties":{"latitude":-3.769796,"amountspttodate":0,"district":"Kwale","activitytobedone":"75 desks Purchase","index":35757,"longitude":39.191815,"projectname":"Mwembeni Primary School","id":"a65ye2r12lb8","province":"Coast","location":"Samburu","constituency":"Kinango"},"type":"Feature","geometry":{"type":"Point","coordinates":[39.191815,-3.769796]}},{"properties":{"latitude":-3.767097,"amountspttodate":200000,"district":"Kwale","activitytobedone":"One New Classroom Construction","index":35791,"longitude":39.151292,"projectname":"Fuleye Primary School","id":"a65ye2n4szsv","province":"Coast","location":"Taru","constituency":"Kinango"},"type":"Feature","geometry":{"type":"Point","coordinates":[39.151292,-3.767097]}},{"properties":{"latitude":-3.760874,"amountspttodate":545316,"district":"Kilifi","activitytobedone":"To Construction of 2 Classrooms","index":35702,"longitude":39.498626,"projectname":"Miyani Primary School","id":"a65ye2ktbgbr","province":"Coast","location":"Kayafungo","constituency":"Kaloleni"},"type":"Feature","geometry":{"type":"Point","coordinates":[39.498626,-3.760874]}},{"properties":{"latitude":-3.758641,"amountspttodate":500000,"district":"Kilifi","activitytobedone":"Construction Of 2 Classroom","index":35219,"longitude":39.650437,"projectname":"Mikiriani Primary School","id":"a65ye2o0zd9l","province":"Coast","location":"Kaloleni","constituency":"Kaloleni"},"type":"Feature","geometry":{"type":"Point","coordinates":[39.650437,-3.758641]}},{"properties":{"latitude":-3.758217,"amountspttodate":200000,"district":"Kwale","activitytobedone":"One New Classroom Construction","index":35776,"longitude":39.260772,"projectname":"Chengoni Primary School","id":"a65ye2iwqh4r","province":"Coast","location":"Chengoni","constituency":"Kinango"},"type":"Feature","geometry":{"type":"Point","coordinates":[39.260772,-3.758217]}},{"properties":{"latitude":-3.756527,"amountspttodate":200000,"district":"Kwale","activitytobedone":"One New Classroom Construction","index":35742,"longitude":39.241657,"projectname":"Mtulu Primary School","id":"a65ye2ufrq1s","province":"Coast","location":"Chengoni","constituency":"Kinango"},"type":"Feature","geometry":{"type":"Point","coordinates":[39.241657,-3.756527]}},{"properties":{"latitude":-3.754662,"amountspttodate":2373460,"district":"Kwale","activitytobedone":"One New Laboratory Construction","index":35825,"longitude":39.129453,"projectname":"Taru Secondary School","id":"a65ye2h0fu3w","province":"Coast","location":"Taru","constituency":"Kinango"},"type":"Feature","geometry":{"type":"Point","coordinates":[39.129453,-3.754662]}},{"properties":{"latitude":-3.754662,"amountspttodate":1800000,"district":"Kwale","activitytobedone":"Two New Classrooms Construction","index":35825,"longitude":39.129453,"projectname":"Taru Secondary School","id":"a65ye2ks3fk6","province":"Coast","location":"Taru","constituency":"Kinango"},"type":"Feature","geometry":{"type":"Point","coordinates":[39.129453,-3.754662]}},{"properties":{"latitude":-3.754615,"amountspttodate":200000,"district":"Kwale","activitytobedone":"One New Classroom Construction","index":35775,"longitude":39.362534,"projectname":"Mwangoloto Primary School","id":"a65ye2nhohti","province":"Coast","location":"Chengoni","constituency":"Kinango"},"type":"Feature","geometry":{"type":"Point","coordinates":[39.362534,-3.754615]}},{"properties":{"latitude":-3.749049,"amountspttodate":400000,"district":"Kilifi","activitytobedone":"Construction Of 1 Classroom &amp; Office","index":35755,"longitude":39.639301,"projectname":"Mwambani Primary School","id":"a65ye2uli2gq","province":"Coast","location":"Kaloleni","constituency":"Kaloleni"},"type":"Feature","geometry":{"type":"Point","coordinates":[39.639301,-3.749049]}},{"properties":{"latitude":-3.744445,"amountspttodate":456092,"district":"Kilifi","activitytobedone":"To Construction of 1 Classroom","index":35311,"longitude":39.463161,"projectname":"Kirumbi Primary School","id":"a65ye2qmlply","province":"Coast","location":"Tsangatsini","constituency":"Kaloleni"},"type":"Feature","geometry":{"type":"Point","coordinates":[39.463161,-3.744445]}},{"properties":{"latitude":-3.738928,"amountspttodate":150000,"district":"Kwale","activitytobedone":"75 desks Purchase","index":35813,"longitude":39.146477,"projectname":"Taru Primary School","id":"a65ye2i37k6u","province":"Coast","location":"Taru","constituency":"Kinango"},"type":"Feature","geometry":{"type":"Point","coordinates":[39.146477,-3.738928]}},{"properties":{"latitude":-3.737368,"amountspttodate":5000000,"district":"Kwale","activitytobedone":"Tuition Block (4 Classrooms) Construction","index":35841,"longitude":39.034615,"projectname":"Mackinnon Road Secondary School","id":"a65ye2rjocx8","province":"Coast","location":"Mackinnon Road","constituency":"Kinango"},"type":"Feature","geometry":{"type":"Point","coordinates":[39.034615,-3.737368]}},{"properties":{"latitude":-3.737368,"amountspttodate":500000,"district":"Kwale","activitytobedone":"Furniture Purchase","index":35841,"longitude":39.034615,"projectname":"Mackinnon Road Secondary School","id":"a65ye2owvpcb","province":"Coast","location":"Mackinnon Road","constituency":"Kinango"},"type":"Feature","geometry":{"type":"Point","coordinates":[39.034615,-3.737368]}},{"properties":{"latitude":-3.737368,"amountspttodate":2000000,"district":"Kwale","activitytobedone":"Two Classrooms Construction","index":35841,"longitude":39.034615,"projectname":"Mackinnon Road Secondary School","id":"a65ye2maetqu","province":"Coast","location":"Mackinnon Road","constituency":"Kinango"},"type":"Feature","geometry":{"type":"Point","coordinates":[39.034615,-3.737368]}},{"properties":{"latitude":-3.72513,"amountspttodate":200000,"district":"Kwale","activitytobedone":"One New Classroom Construction","index":35800,"longitude":39.04283,"projectname":"Mbele Primary School","id":"a65ye2mgucp5","province":"Coast","location":"Mackinnon Road","constituency":"Kinango"},"type":"Feature","geometry":{"type":"Point","coordinates":[39.04283,-3.72513]}},{"properties":{"latitude":-3.72513,"amountspttodate":150000,"district":"Kwale","activitytobedone":"75 desks Purchase","index":35800,"longitude":39.04283,"projectname":"Mbele Primary School","id":"a65ye2icpada","province":"Coast","location":"Mackinnon Road","constituency":"Kinango"},"type":"Feature","geometry":{"type":"Point","coordinates":[39.04283,-3.72513]}},{"properties":{"latitude":-3.723947,"amountspttodate":6466519,"district":"Kilifi","activitytobedone":"Construction Of 2 Classrooms And An Office Block (New)","index":35316,"longitude":39.571812,"projectname":"Kinarani Secondary School","id":"a65ye2lc3epg","province":"Coast","location":"Mwanamwinga","constituency":"Kaloleni"},"type":"Feature","geometry":{"type":"Point","coordinates":[39.571812,-3.723947]}},{"properties":{"latitude":-3.723947,"amountspttodate":3637500,"district":"Kilifi","activitytobedone":"Construction Of 4 Classrooms","index":35316,"longitude":39.571812,"projectname":"Kinarani Secondary School","id":"a65ye2kej9si","province":"Coast","location":"Mwanamwinga","constituency":"Kaloleni"},"type":"Feature","geometry":{"type":"Point","coordinates":[39.571812,-3.723947]}},{"properties":{"latitude":-3.72262,"amountspttodate":950000,"district":"Taita Taveta","activitytobedone":"Construction Of Admin Block And Classroom","index":36884,"longitude":38.64488,"projectname":"Kisimenyi Primary School","id":"a65ye2vu3niv","province":"Coast","location":"Kasigau","constituency":"Voi"},"type":"Feature","geometry":{"type":"Point","coordinates":[38.64488,-3.72262]}},{"properties":{"latitude":-3.721167,"amountspttodate":170000,"district":"Kwale","activitytobedone":"One New Classroom Construction","index":35697,"longitude":39.317276,"projectname":"Chanzou Primary School","id":"a65ye2r28f6e","province":"Coast","location":"Chengoni","constituency":"Kinango"},"type":"Feature","geometry":{"type":"Point","coordinates":[39.317276,-3.721167]}},{"properties":{"latitude":-3.721167,"amountspttodate":150000,"district":"Kwale","activitytobedone":"75 desks Purchase","index":35697,"longitude":39.317276,"projectname":"Chanzou Primary School","id":"a65ye2i0dvhk","province":"Coast","location":"Chengoni","constituency":"Kinango"},"type":"Feature","geometry":{"type":"Point","coordinates":[39.317276,-3.721167]}},{"properties":{"latitude":-3.7119,"amountspttodate":500000,"district":"Kilifi","activitytobedone":"Construction Of 2 Classroom","index":35307,"longitude":39.450866,"projectname":"Tsangatsini Primary School","id":"a65ye2rb5ib0","province":"Coast","location":"Tsangatsini","constituency":"Kaloleni"},"type":"Feature","geometry":{"type":"Point","coordinates":[39.450866,-3.7119]}},{"properties":{"latitude":-3.711728,"amountspttodate":500000,"district":"Kwale","activitytobedone":"Bakery Building Construction","index":35889,"longitude":39.011524,"projectname":"Chuphi Youth Polytechnic","id":"a65ye2oku45i","province":"Coast","location":"Mackinnon Road","constituency":"Kinango"},"type":"Feature","geometry":{"type":"Point","coordinates":[39.011524,-3.711728]}},{"properties":{"latitude":-3.705571,"amountspttodate":200000,"district":"Kwale","activitytobedone":"One New Classroom Construction","index":35740,"longitude":39.205958,"projectname":"Nyari Primary School","id":"a65ye2s1qvcx","province":"Coast","location":"Taru","constituency":"Kinango"},"type":"Feature","geometry":{"type":"Point","coordinates":[39.205958,-3.705571]}},{"properties":{"latitude":-3.68859,"amountspttodate":360000,"district":"Taita Taveta","activitytobedone":"Construction Of Classroom","index":36876,"longitude":38.66644,"projectname":"Buguta Primary School","id":"a65ye2kq35iq","province":"Coast","location":"Kasigau","constituency":"Voi"},"type":"Feature","geometry":{"type":"Point","coordinates":[38.66644,-3.68859]}},{"properties":{"latitude":-3.688113,"amountspttodate":466092,"district":"Kilifi","activitytobedone":"To Construction of 1 Classroom","index":35312,"longitude":39.402071,"projectname":"Ndatani Primary School","id":"a65ye2sy27hh","province":"Coast","location":"Tsangatsini","constituency":"Kaloleni"},"type":"Feature","geometry":{"type":"Point","coordinates":[39.402071,-3.688113]}},{"properties":{"latitude":-3.68354,"amountspttodate":1050000,"district":"Taita Taveta","activitytobedone":"Construction Of Toilets And Classrooms","index":36895,"longitude":38.71007,"projectname":"Sasenyi Primary School","id":"a65ye2jk93hs","province":"Coast","location":"Kasigau","constituency":"Voi"},"type":"Feature","geometry":{"type":"Point","coordinates":[38.71007,-3.68354]}},{"properties":{"latitude":-3.676911,"amountspttodate":200000,"district":"Kwale","activitytobedone":"One New Classroom Construction","index":35709,"longitude":39.134333,"projectname":"Egu Primary School","id":"a65ye2ubraps","province":"Coast","location":"Taru","constituency":"Kinango"},"type":"Feature","geometry":{"type":"Point","coordinates":[39.134333,-3.676911]}},{"properties":{"latitude":-3.672424,"amountspttodate":400000,"district":"Kilifi","activitytobedone":"Pay For Casual Labour For The Cdtf Project Of 5 Classes Pit Latrines&amp;1 Water Tank At Mayowe Primary School","index":35137,"longitude":39.712946,"projectname":"Mayowe Primary School","id":"a65ye2lz7hup","province":"Coast","location":"Jaribuni","constituency":"Ganze"},"type":"Feature","geometry":{"type":"Point","coordinates":[39.712946,-3.672424]}},{"properties":{"latitude":-3.6722,"amountspttodate":1145000,"district":"Taita Taveta","activitytobedone":"Renovvation Of Classrooms","index":36867,"longitude":38.94316,"projectname":"Miasenyi Primary School","id":"a65ye2wcx6nt","province":"Coast","location":"Marungu","constituency":"Voi"},"type":"Feature","geometry":{"type":"Point","coordinates":[38.94316,-3.6722]}},{"properties":{"latitude":-3.663386,"amountspttodate":1800000,"district":"Kilifi","activitytobedone":"Construction Of 2 Classrooms","index":35156,"longitude":39.730766,"projectname":"Marere Primary School","id":"a65ye2hpbsif","province":"Coast","location":"Jaribuni","constituency":"Ganze"},"type":"Feature","geometry":{"type":"Point","coordinates":[39.730766,-3.663386]}},{"properties":{"latitude":-3.63892,"amountspttodate":445000,"district":"Taita Taveta","activitytobedone":"Renovation Of Classroom","index":36860,"longitude":38.70224,"projectname":"Kale Primary School","id":"a65ye2ojp15f","province":"Coast","location":"Marungu","constituency":"Voi"},"type":"Feature","geometry":{"type":"Point","coordinates":[38.70224,-3.63892]}},{"properties":{"latitude":-3.63633,"amountspttodate":1160000,"district":"Taita Taveta","activitytobedone":"Renovate 8 Classes","index":37359,"longitude":38.3707,"projectname":"Kamtonga Primary School","id":"a65ye2odpn5c","province":"Coast","location":"Mwachabo","constituency":"Mwatate"},"type":"Feature","geometry":{"type":"Point","coordinates":[38.3707,-3.63633]}},{"properties":{"latitude":-3.62656,"amountspttodate":950000,"district":"Taita Taveta","activitytobedone":"Construction Of Classrromm And Purchase Of Desks","index":36872,"longitude":38.72293,"projectname":"Marungu Primary School","id":"a65ye2vqt39f","province":"Coast","location":"Marungu","constituency":"Voi"},"type":"Feature","geometry":{"type":"Point","coordinates":[38.72293,-3.62656]}},{"properties":{"latitude":-3.626087,"amountspttodate":919240,"district":"Kilifi","activitytobedone":"Renovations Of Kilifi Pry. School","index":9811,"longitude":39.850902,"projectname":"Kilifi Primary School","id":"a65ye2hvrj74","province":"Coast","location":"Kilifin T/Ship","constituency":"Bahari"},"type":"Feature","geometry":{"type":"Point","coordinates":[39.850902,-3.626087]}},{"properties":{"latitude":-3.619495,"amountspttodate":150000,"district":"Kwale","activitytobedone":"75 desks Purchase","index":35812,"longitude":39.282931,"projectname":"Silaloni Primary School","id":"a65ye2sx0usz","province":"Coast","location":"Chengoni","constituency":"Kinango"},"type":"Feature","geometry":{"type":"Point","coordinates":[39.282931,-3.619495]}},{"properties":{"latitude":-3.618536,"amountspttodate":200000,"district":"Kilifi","activitytobedone":"Repair Of Burned Roof.","index":35207,"longitude":39.742425,"projectname":"Jaribuni Secondary School","id":"a65ye2m58o5n","province":"Coast","location":null,"constituency":"Ganze"},"type":"Feature","geometry":{"type":"Point","coordinates":[39.742425,-3.618536]}},{"properties":{"latitude":-3.611209,"amountspttodate":528000,"district":"Kilifi","activitytobedone":"Construction Of Ablution Block","index":9812,"longitude":39.847617,"projectname":"Kilifi Township Secondary School","id":"a65ye2u24fk1","province":"Coast","location":"Kilifi T/Ship","constituency":"Bahari"},"type":"Feature","geometry":{"type":"Point","coordinates":[39.847617,-3.611209]}},{"properties":{"latitude":-3.59441,"amountspttodate":6700000,"district":"Taita Taveta","activitytobedone":"Construction Of 4 Classrooms, Admin Block And Toilets","index":36861,"longitude":38.73591,"projectname":"Marungu Secondary School","id":"a65ye2p5d8qx","province":"Coast","location":"Marungu","constituency":"Voi"},"type":"Feature","geometry":{"type":"Point","coordinates":[38.73591,-3.59441]}},{"properties":{"latitude":-3.59349,"amountspttodate":400000,"district":"Taita Taveta","activitytobedone":"Construction Of Classroom","index":36863,"longitude":38.73557,"projectname":"Itinyi Primary School","id":"a65ye2sumnvb","province":"Coast","location":"Marungu","constituency":"Voi"},"type":"Feature","geometry":{"type":"Point","coordinates":[38.73557,-3.59349]}},{"properties":{"latitude":-3.589842,"amountspttodate":600000,"district":"Kilifi","activitytobedone":"Construction Of 4 Pit Latrines","index":9742,"longitude":39.850116,"projectname":"Basi Primary School","id":"a65ye2pr7264","province":"Coast","location":"Kilifi T/Ship","constituency":"Bahari"},"type":"Feature","geometry":{"type":"Point","coordinates":[39.850116,-3.589842]}},{"properties":{"latitude":-3.589842,"amountspttodate":125000,"district":"Kilifi","activitytobedone":"Construction Pit Latrine","index":9742,"longitude":39.850116,"projectname":"Basi Primary School","id":"a65ye2txgpxi","province":"Coast","location":"Tezo","constituency":"Bahari"},"type":"Feature","geometry":{"type":"Point","coordinates":[39.850116,-3.589842]}},{"properties":{"latitude":-3.576736,"amountspttodate":352940,"district":"Kilifi","activitytobedone":"Class Room Completion","index":9861,"longitude":39.852531,"projectname":"Mikingirini Primary School","id":"a65ye2v2ictj","province":"Coast","location":"Tezo","constituency":"Bahari"},"type":"Feature","geometry":{"type":"Point","coordinates":[39.852531,-3.576736]}},{"properties":{"latitude":-3.573557,"amountspttodate":200000,"district":"Kwale","activitytobedone":"One New Classroom Construction","index":35743,"longitude":39.250378,"projectname":"Shauri Moyo Primary School","id":"a65ye2i0uec6","province":"Coast","location":"Chengoni","constituency":"Kinango"},"type":"Feature","geometry":{"type":"Point","coordinates":[39.250378,-3.573557]}},{"properties":{"latitude":-3.56694,"amountspttodate":550000,"district":"Taita Taveta","activitytobedone":"Purchase Of School Furniture","index":37376,"longitude":38.36304,"projectname":"Mwachabo Primary School","id":"a65ye2salep4","province":"Coast","location":"Mwachabo","constituency":"Mwatate"},"type":"Feature","geometry":{"type":"Point","coordinates":[38.36304,-3.56694]}},{"properties":{"latitude":-3.56226,"amountspttodate":440000,"district":"Taita Taveta","activitytobedone":"Construction Of 8 Classrooms","index":37283,"longitude":37.76874,"projectname":"Jipe Primary School","id":"a65ye2u7uv3w","province":"Coast","location":"Jipe","constituency":"Taveta"},"type":"Feature","geometry":{"type":"Point","coordinates":[37.76874,-3.56226]}},{"properties":{"latitude":-3.559687,"amountspttodate":2625154,"district":"Kilifi","activitytobedone":"Construction Of 4 Classrooms","index":9837,"longitude":39.866723,"projectname":"Majaoni Secondary School","id":"a65ye2sxlplj","province":"Coast","location":"Tezo","constituency":"Bahari"},"type":"Feature","geometry":{"type":"Point","coordinates":[39.866723,-3.559687]}},{"properties":{"latitude":-3.55824,"amountspttodate":100000,"district":"Kilifi","activitytobedone":"Construction Of A Toilet","index":9836,"longitude":39.864581,"projectname":"Majaoni Primary School","id":"a65ye2na2p2m","province":"Coast","location":"Mavueni","constituency":"Bahari"},"type":"Feature","geometry":{"type":"Point","coordinates":[39.864581,-3.55824]}},{"properties":{"latitude":-3.55772,"amountspttodate":450000,"district":"Taita Taveta","activitytobedone":"Construction Of Classrromm And Purchase Of Desks","index":36871,"longitude":38.75076,"projectname":"Marasi Primary School","id":"a65ye2shyfm4","province":"Coast","location":"Marungu","constituency":"Voi"},"type":"Feature","geometry":{"type":"Point","coordinates":[38.75076,-3.55772]}},{"properties":{"latitude":-3.551735,"amountspttodate":564300,"district":"Kilifi","activitytobedone":"Renovation Of 3 Classrooms","index":9877,"longitude":39.78972,"projectname":"Mrima Wa Kuku Primary School","id":"a65ye2ufik9x","province":"Coast","location":"Tezo","constituency":"Bahari"},"type":"Feature","geometry":{"type":"Point","coordinates":[39.78972,-3.551735]}},{"properties":{"latitude":-3.54806,"amountspttodate":7600000,"district":"Kilifi","activitytobedone":"Construction Of A Multipurpose Hall With Energey Saving Jiko Changing Rooms, Toilets, Store, And Office Electrical Installation","index":35149,"longitude":39.69333,"projectname":"Ganze Secondary School","id":"a65ye2g7x478","province":"Coast","location":"Ganze","constituency":"Ganze"},"type":"Feature","geometry":{"type":"Point","coordinates":[39.69333,-3.54806]}},{"properties":{"latitude":-3.53463,"amountspttodate":30000,"district":"Taita Taveta","activitytobedone":"Renovation Of Classroom","index":36919,"longitude":38.56537,"projectname":"Mwachoki Pre-School","id":"a65ye2g4yrju","province":"Coast","location":"Sagalla","constituency":"Voi"},"type":"Feature","geometry":{"type":"Point","coordinates":[38.56537,-3.53463]}},{"properties":{"latitude":-3.533873,"amountspttodate":2650000,"district":"Kilifi","activitytobedone":"Renovation Of 2 Classrooms And Construction Of 2 New Classrooms","index":35134,"longitude":39.629394,"projectname":"Petanguo Primary School","id":"a65ye2j9bgyn","province":"Coast","location":"Ganze","constituency":"Ganze"},"type":"Feature","geometry":{"type":"Point","coordinates":[39.629394,-3.533873]}},{"properties":{"latitude":-3.52486,"amountspttodate":745000,"district":"Taita Taveta","activitytobedone":"Renovation Of Admin Block","index":36910,"longitude":38.58032,"projectname":"Talio Primary School","id":"a65ye2jxgqy2","province":"Coast","location":"Sagalla","constituency":"Voi"},"type":"Feature","geometry":{"type":"Point","coordinates":[38.58032,-3.52486]}},{"properties":{"latitude":-3.51613,"amountspttodate":450000,"district":"Taita Taveta","activitytobedone":"Renovation Of Classroom","index":36931,"longitude":38.59158,"projectname":"Marie Primary School","id":"a65ye2htc15i","province":"Coast","location":"Sagalla","constituency":"Voi"},"type":"Feature","geometry":{"type":"Point","coordinates":[38.59158,-3.51613]}},{"properties":{"latitude":-3.51306,"amountspttodate":3000000,"district":"Taita Taveta","activitytobedone":"Construction Of Dormitory","index":36928,"longitude":38.61142,"projectname":"Kajire Secondary School","id":"a65ye2pxs0hd","province":"Coast","location":"Sagalla","constituency":"Voi"},"type":"Feature","geometry":{"type":"Point","coordinates":[38.61142,-3.51306]}},{"properties":{"latitude":-3.510403,"amountspttodate":1252890,"district":"Kilifi","activitytobedone":"2 Classroom Block To Be Constructed","index":35740,"longitude":39.80571,"projectname":"Nyari Primary School","id":"a65ye2k8r6na","province":"Coast","location":"Sokoke","constituency":"Ganze"},"type":"Feature","geometry":{"type":"Point","coordinates":[39.80571,-3.510403]}},{"properties":{"latitude":-3.50991,"amountspttodate":1000000,"district":"Taita Taveta","activitytobedone":"Construction Of Laboratory And Library","index":36936,"longitude":38.57393,"projectname":"Mwakichuchu Secondary School","id":"a65ye2plr03w","province":"Coast","location":"Sagalla","constituency":"Voi"},"type":"Feature","geometry":{"type":"Point","coordinates":[38.57393,-3.50991]}},{"properties":{"latitude":-3.50869,"amountspttodate":800000,"district":"Taita Taveta","activitytobedone":"Construction of 3 Classrooms","index":37372,"longitude":38.3743,"projectname":"Kitivo Primary School","id":"a65ye2hkufbb","province":"Coast","location":"Mwachabo","constituency":"Mwatate"},"type":"Feature","geometry":{"type":"Point","coordinates":[38.3743,-3.50869]}},{"properties":{"latitude":-3.50754,"amountspttodate":250000,"district":"Taita Taveta","activitytobedone":"Construction Of 1 Classroom","index":37293,"longitude":37.71043,"projectname":"Marodo Pre-School","id":"a65ye2owue8i","province":"Coast","location":"Kimorigo","constituency":"Taveta"},"type":"Feature","geometry":{"type":"Point","coordinates":[37.71043,-3.50754]}},{"properties":{"latitude":-3.50705,"amountspttodate":200000,"district":"Taita Taveta","activitytobedone":"Renovation Of Classroom","index":36930,"longitude":38.57489,"projectname":"Wray Primary School","id":"a65ye2r8shiw","province":"Coast","location":"Sagalla","constituency":"Voi"},"type":"Feature","geometry":{"type":"Point","coordinates":[38.57489,-3.50705]}},{"properties":{"latitude":-3.500681,"amountspttodate":1000000,"district":"Kilifi","activitytobedone":"Roofing And Plastering Of Two Classrooms","index":35201,"longitude":39.682159,"projectname":"Malomani Primary School","id":"a65ye2qnfqrw","province":"Coast","location":null,"constituency":"Ganze"},"type":"Feature","geometry":{"type":"Point","coordinates":[39.682159,-3.500681]}},{"properties":{"latitude":-3.49969,"amountspttodate":800000,"district":"Taita Taveta","activitytobedone":"Construction Of 3 Classrooms And 1 Pit Latrine","index":37227,"longitude":37.70481,"projectname":"Lotima Primary School","id":"a65ye2gz0zr2","province":"Coast","location":"Kimorigo","constituency":"Taveta"},"type":"Feature","geometry":{"type":"Point","coordinates":[37.70481,-3.49969]}},{"properties":{"latitude":-3.49814,"amountspttodate":545000,"district":"Taita Taveta","activitytobedone":"Construction Of Classroom","index":36914,"longitude":38.62508,"projectname":"Mwambiti Primary School","id":"a65ye2urqo6c","province":"Coast","location":"Sagalla","constituency":"Voi"},"type":"Feature","geometry":{"type":"Point","coordinates":[38.62508,-3.49814]}},{"properties":{"latitude":-3.49814,"amountspttodate":2116000,"district":"Taita Taveta","activitytobedone":"Construction Of Laboratory And Water Pump","index":36935,"longitude":38.62508,"projectname":"Mwambiti Secondary School","id":"a65ye2ib7ouf","province":"Coast","location":"Sagalla","constituency":"Voi"},"type":"Feature","geometry":{"type":"Point","coordinates":[38.62508,-3.49814]}},{"properties":{"latitude":-3.4942,"amountspttodate":480000,"district":"Taita Taveta","activitytobedone":"Renovation Of Classrooms","index":36941,"longitude":38.58119,"projectname":"Mlondo Primary School","id":"a65ye2s97ejz","province":"Coast","location":"Sagalla","constituency":"Voi"},"type":"Feature","geometry":{"type":"Point","coordinates":[38.58119,-3.4942]}},{"properties":{"latitude":-3.49329,"amountspttodate":220000,"district":"Taita Taveta","activitytobedone":"Renovation Of Classrooms","index":36909,"longitude":38.59314,"projectname":"Sagalla Primary School","id":"a65ye2t1vqjm","province":"Coast","location":"Sagalla","constituency":"Voi"},"type":"Feature","geometry":{"type":"Point","coordinates":[38.59314,-3.49329]}},{"properties":{"latitude":-3.48969,"amountspttodate":650000,"district":"Taita Taveta","activitytobedone":"Renovation Of Classes And Construction Of Toilet","index":37365,"longitude":38.30174,"projectname":"Mlughi Primary School","id":"a65ye2sy5ddw","province":"Coast","location":"Mwakitau","constituency":"Mwatate"},"type":"Feature","geometry":{"type":"Point","coordinates":[38.30174,-3.48969]}},{"properties":{"latitude":-3.48263,"amountspttodate":700000,"district":"Taita Taveta","activitytobedone":"Construction Of Workshop And Equipments","index":36932,"longitude":38.58239,"projectname":"Sagalla Youth Polytechnic","id":"a65ye2vczqyq","province":"Coast","location":"Sagalla","constituency":"Voi"},"type":"Feature","geometry":{"type":"Point","coordinates":[38.58239,-3.48263]}},{"properties":{"latitude":-3.478707,"amountspttodate":300000,"district":"Kilifi","activitytobedone":"Renovation And Upgrading Of 2 Semi","index":35135,"longitude":39.629062,"projectname":"Dungicha Primary School","id":"a65ye2rm3249","province":"Coast","location":"Dungicha","constituency":"Ganze"},"type":"Feature","geometry":{"type":"Point","coordinates":[39.629062,-3.478707]}},{"properties":{"latitude":-3.478707,"amountspttodate":1500000,"district":"Kilifi","activitytobedone":"Construction Of Two Classes","index":35135,"longitude":39.629062,"projectname":"Dungicha Primary School","id":"a65ye2liir19","province":"Coast","location":null,"constituency":"Ganze"},"type":"Feature","geometry":{"type":"Point","coordinates":[39.629062,-3.478707]}},{"properties":{"latitude":-3.47849,"amountspttodate":1200000,"district":"Taita Taveta","activitytobedone":"Construction Of 3 Classrooms And 1 Pit Latrine","index":37239,"longitude":37.69268,"projectname":"Eldoro Primary School","id":"a65ye2swjx53","province":"Coast","location":"Kimorigo","constituency":"Taveta"},"type":"Feature","geometry":{"type":"Point","coordinates":[37.69268,-3.47849]}},{"properties":{"latitude":-3.47328,"amountspttodate":3000000,"district":"Taita Taveta","activitytobedone":"n/a","index":37391,"longitude":38.36204,"projectname":"Chawia Secondary School","id":"a65ye2sc7ebj","province":"Coast","location":"Chawia","constituency":"Mwatate"},"type":"Feature","geometry":{"type":"Point","coordinates":[38.36204,-3.47328]}},{"properties":{"latitude":-3.473,"amountspttodate":220000,"district":"Taita Taveta","activitytobedone":"Renovation Of Classrooms","index":36912,"longitude":38.58633,"projectname":"Kizumanzi Primary School","id":"a65ye2msqu7g","province":"Coast","location":"Sagalla","constituency":"Voi"},"type":"Feature","geometry":{"type":"Point","coordinates":[38.58633,-3.473]}},{"properties":{"latitude":-3.47238,"amountspttodate":950000,"district":"Taita Taveta","activitytobedone":"Construction Of New Pre School","index":37367,"longitude":38.39764,"projectname":"Msisinenyi Nursery","id":"a65ye2lnda19","province":"Coast","location":"Mwatate","constituency":"Mwatate"},"type":"Feature","geometry":{"type":"Point","coordinates":[38.39764,-3.47238]}},{"properties":{"latitude":-3.47021,"amountspttodate":800000,"district":"Taita Taveta","activitytobedone":"Construction Of 3 Classrooms","index":37269,"longitude":37.75433,"projectname":"Mata Primary School","id":"a65ye2ivt4d5","province":"Coast","location":"Jipe","constituency":"Taveta"},"type":"Feature","geometry":{"type":"Point","coordinates":[37.75433,-3.47021]}},{"properties":{"latitude":-3.469632,"amountspttodate":80000,"district":"Kilifi","activitytobedone":"Construction Of A Pit Latrine","index":9770,"longitude":39.897259,"projectname":"Chumani Primary School","id":"a65ye2isq82b","province":"Coast","location":"Roka","constituency":"Bahari"},"type":"Feature","geometry":{"type":"Point","coordinates":[39.897259,-3.469632]}},{"properties":{"latitude":-3.46576,"amountspttodate":840000,"district":"Taita Taveta","activitytobedone":"Construction Of 8 Classrooms","index":37229,"longitude":37.64142,"projectname":"Mrabani Primary School","id":"a65ye2oy3byo","province":"Coast","location":"Kimorigo","constituency":"Taveta"},"type":"Feature","geometry":{"type":"Point","coordinates":[37.64142,-3.46576]}},{"properties":{"latitude":-3.45778,"amountspttodate":2300000,"district":"Taita Taveta","activitytobedone":"Construction Of 4 Classrooms And Renovation Of 6 Classrooms","index":37258,"longitude":37.69279,"projectname":"Abori Primary School","id":"a65ye2w42mpx","province":"Coast","location":"Bomeni","constituency":"Taveta"},"type":"Feature","geometry":{"type":"Point","coordinates":[37.69279,-3.45778]}},{"properties":{"latitude":-3.45278,"amountspttodate":1500000,"district":"Taita Taveta","activitytobedone":"Re-Construction of Burnt Down Dorm","index":37387,"longitude":38.3072,"projectname":"Ngami Secondary School","id":"a65ye2s5dk1h","province":"Coast","location":"Bura","constituency":"Mwatate"},"type":"Feature","geometry":{"type":"Point","coordinates":[38.3072,-3.45278]}},{"properties":{"latitude":-3.45052,"amountspttodate":900000,"district":"Taita Taveta","activitytobedone":"Constructed One Classroom To Completetion","index":36830,"longitude":38.532,"projectname":"Kalambe Primary School","id":"a65ye2ue8vul","province":"Coast","location":"Voi","constituency":"Voi"},"type":"Feature","geometry":{"type":"Point","coordinates":[38.532,-3.45052]}},{"properties":{"latitude":-3.44995,"amountspttodate":840000,"district":"Taita Taveta","activitytobedone":"Construction Of 8 Classrooms","index":37228,"longitude":37.59036,"projectname":"Madarasani Primary School","id":"a65ye2lonebd","province":"Coast","location":"Kimorigo","constituency":"Taveta"},"type":"Feature","geometry":{"type":"Point","coordinates":[37.59036,-3.44995]}},{"properties":{"latitude":-3.447855,"amountspttodate":1450000,"district":"Kilifi","activitytobedone":"Upgrade 2 Mud Class Classrooms And Particion Three Classes Renovated 1 Staffroom","index":35133,"longitude":39.42242,"projectname":"Goshi Primary School","id":"a65ye2j9qo6h","province":"Coast","location":"Mitangani","constituency":"Ganze"},"type":"Feature","geometry":{"type":"Point","coordinates":[39.42242,-3.447855]}},{"properties":{"latitude":-3.43946,"amountspttodate":820000,"district":"Taita Taveta","activitytobedone":"Construction Of Classroom","index":36842,"longitude":38.55525,"projectname":"Gimba Primary School","id":"a65ye2lyh3bu","province":"Coast","location":"Voi","constituency":"Voi"},"type":"Feature","geometry":{"type":"Point","coordinates":[38.55525,-3.43946]}},{"properties":{"latitude":-3.4393,"amountspttodate":450000,"district":"Taita Taveta","activitytobedone":"3 Classroom construction","index":37393,"longitude":38.34085,"projectname":"Mwafuga Secondary School","id":"a65ye2n2o9wa","province":"Coast","location":"Kidaya Ngerenyi","constituency":"Mwatate"},"type":"Feature","geometry":{"type":"Point","coordinates":[38.34085,-3.4393]}},{"properties":{"latitude":-3.43896,"amountspttodate":200000,"district":"Taita Taveta","activitytobedone":"Construction Of Toilets And Desks","index":36824,"longitude":38.55503,"projectname":"Voi Primary School","id":"a65ye2fzie3x","province":"Coast","location":"Voi","constituency":"Voi"},"type":"Feature","geometry":{"type":"Point","coordinates":[38.55503,-3.43896]}},{"properties":{"latitude":-3.43864,"amountspttodate":370000,"district":"Taita Taveta","activitytobedone":"Construction Of Classroom","index":35311,"longitude":38.60088,"projectname":"Kirumbi Primary School","id":"a65ye2lvoys3","province":"Coast","location":"Sagalla","constituency":"Voi"},"type":"Feature","geometry":{"type":"Point","coordinates":[38.60088,-3.43864]}},{"properties":{"latitude":-3.43846,"amountspttodate":640000,"district":"Taita Taveta","activitytobedone":"Construction Of 8 Classrooms 2 Pit Latrine","index":37230,"longitude":37.61262,"projectname":"Kitobo Primary School","id":"a65ye2o209fl","province":"Coast","location":"Kimorigo","constituency":"Taveta"},"type":"Feature","geometry":{"type":"Point","coordinates":[37.61262,-3.43846]}},{"properties":{"latitude":-3.436182,"amountspttodate":1700000,"district":"Kilifi","activitytobedone":"Construction Of 2 Classroom Block","index":35153,"longitude":39.764989,"projectname":"Bale Primary School","id":"a65ye2gjxjk4","province":"Coast","location":"Sokoke","constituency":"Ganze"},"type":"Feature","geometry":{"type":"Point","coordinates":[39.764989,-3.436182]}},{"properties":{"latitude":-3.43537,"amountspttodate":50000,"district":"Taita Taveta","activitytobedone":"n/a","index":37377,"longitude":38.3219,"projectname":"Kilulunyi Primary School","id":"a65ye2sbs8rq","province":"Coast","location":null,"constituency":"Mwatate"},"type":"Feature","geometry":{"type":"Point","coordinates":[38.3219,-3.43537]}},{"properties":{"latitude":-3.43158,"amountspttodate":2800000,"district":"Taita Taveta","activitytobedone":"Construction Of Dinig Hall","index":37396,"longitude":38.38899,"projectname":"Mwandango Secondary School","id":"a65ye2iysauz","province":"Coast","location":"Kishamba","constituency":"Mwatate"},"type":"Feature","geometry":{"type":"Point","coordinates":[38.38899,-3.43158]}},{"properties":{"latitude":-3.43061,"amountspttodate":1000000,"district":"Taita Taveta","activitytobedone":"Construction Of 2 Classrooms &amp; 2 Pit Latrine","index":37232,"longitude":37.68644,"projectname":"Kiwalwa Primary School","id":"a65ye2jopl2n","province":"Coast","location":"Kimorigo","constituency":"Taveta"},"type":"Feature","geometry":{"type":"Point","coordinates":[37.68644,-3.43061]}},{"properties":{"latitude":-3.42977,"amountspttodate":19000000,"district":"Taita Taveta","activitytobedone":"Constuction Of 3 Streamed Day School","index":37389,"longitude":38.3042,"projectname":"Mlamba Secondary School","id":"a65ye2g3milp","province":"Coast","location":"Bura","constituency":"Mwatate"},"type":"Feature","geometry":{"type":"Point","coordinates":[38.3042,-3.42977]}},{"properties":{"latitude":-3.42967,"amountspttodate":500000,"district":"Taita Taveta","activitytobedone":"n/a","index":37357,"longitude":38.41541,"projectname":"Mambura Primary School","id":"a65ye2jl9fw5","province":"Coast","location":"Kishamba","constituency":"Mwatate"},"type":"Feature","geometry":{"type":"Point","coordinates":[38.41541,-3.42967]}},{"properties":{"latitude":-3.42782,"amountspttodate":300000,"district":"Taita Taveta","activitytobedone":"Renovation Of Classes","index":37364,"longitude":38.37555,"projectname":"Kishamba Primary School","id":"a65ye2rbavnk","province":"Coast","location":"Kishamba","constituency":"Mwatate"},"type":"Feature","geometry":{"type":"Point","coordinates":[38.37555,-3.42782]}},{"properties":{"latitude":-3.42627,"amountspttodate":1200000,"district":"Taita Taveta","activitytobedone":"Construction Of 3 And I Pit Latrine","index":37289,"longitude":37.65341,"projectname":"Riata Primary School","id":"a65ye2hn0lj6","province":"Coast","location":"Kimorogo","constituency":"Taveta"},"type":"Feature","geometry":{"type":"Point","coordinates":[37.65341,-3.42627]}},{"properties":{"latitude":-3.41781,"amountspttodate":150000,"district":"Taita Taveta","activitytobedone":"Construction Of Classroom","index":36848,"longitude":38.55603,"projectname":"Mnaoni Pre-School","id":"a65ye2ioq040","province":"Coast","location":"Voi","constituency":"Voi"},"type":"Feature","geometry":{"type":"Point","coordinates":[38.55603,-3.41781]}},{"properties":{"latitude":-3.41779,"amountspttodate":1300000,"district":"Taita Taveta","activitytobedone":"Constuction Of Staff House","index":37394,"longitude":38.41171,"projectname":"Mshimba Secondary School","id":"a65ye2np89ta","province":"Coast","location":"Rong'E Kati","constituency":"Mwatate"},"type":"Feature","geometry":{"type":"Point","coordinates":[38.41171,-3.41779]}},{"properties":{"latitude":-3.4176,"amountspttodate":800000,"district":"Taita Taveta","activitytobedone":"Construction Of 3 Classrooms","index":37287,"longitude":37.73362,"projectname":"Rekeke Primary School","id":"a65ye2sz3hu9","province":"Coast","location":"Jipe","constituency":"Taveta"},"type":"Feature","geometry":{"type":"Point","coordinates":[37.73362,-3.4176]}},{"properties":{"latitude":-3.41554,"amountspttodate":2000000,"district":"Taita Taveta","activitytobedone":"Building Of Dormitory And Installing Electricity","index":37388,"longitude":38.15308,"projectname":"Mwakitau Secondary School","id":"a65ye2jw7w5s","province":"Coast","location":"Mwakitau","constituency":"Mwatate"},"type":"Feature","geometry":{"type":"Point","coordinates":[38.15308,-3.41554]}},{"properties":{"latitude":-3.4116,"amountspttodate":200000,"district":"Kilifi","activitytobedone":"Roofing Of One Classroom","index":35204,"longitude":39.486422,"projectname":"Dodosa Primary School","id":"a65ye2u1qwmv","province":"Coast","location":null,"constituency":"Ganze"},"type":"Feature","geometry":{"type":"Point","coordinates":[39.486422,-3.4116]}},{"properties":{"latitude":-3.40947,"amountspttodate":840000,"district":"Taita Taveta","activitytobedone":"Construction Of 8 Classrooms 3 Pit Latrine","index":37231,"longitude":37.69084,"projectname":"Njoro Primary School","id":"a65ye2idun92","province":"Coast","location":"Kimorigo","constituency":"Taveta"},"type":"Feature","geometry":{"type":"Point","coordinates":[37.69084,-3.40947]}},{"properties":{"latitude":-3.406244,"amountspttodate":220000,"district":"Kilifi","activitytobedone":"Construction Of New Toilets","index":9932,"longitude":39.915182,"projectname":"Sidzeni Nursery School","id":"a65ye2rom8ek","province":"Coast","location":"Bahari","constituency":"Bahari"},"type":"Feature","geometry":{"type":"Point","coordinates":[39.915182,-3.406244]}},{"properties":{"latitude":-3.39769,"amountspttodate":1200000,"district":"Taita Taveta","activitytobedone":"Construction Of 2 Classrooms And Adm. Block","index":37255,"longitude":37.67488,"projectname":"Taveta Primary School","id":"a65ye2wdo01r","province":"Coast","location":"Bomeni","constituency":"Taveta"},"type":"Feature","geometry":{"type":"Point","coordinates":[37.67488,-3.39769]}},{"properties":{"latitude":-3.396617,"amountspttodate":600000,"district":"Kilifi","activitytobedone":"Construction Of A Nursery School","index":9831,"longitude":39.933123,"projectname":"Madeteni Nursery School","id":"a65ye2u989i8","province":"Coast","location":"Matsangoni","constituency":"Bahari"},"type":"Feature","geometry":{"type":"Point","coordinates":[39.933123,-3.396617]}},{"properties":{"latitude":-3.39525,"amountspttodate":300000,"district":"Taita Taveta","activitytobedone":"Renovation Of 2 Classrooms","index":36841,"longitude":38.581,"projectname":"Kalela Primary School","id":"a65ye2ls4oun","province":"Coast","location":"Voi","constituency":"Voi"},"type":"Feature","geometry":{"type":"Point","coordinates":[38.581,-3.39525]}},{"properties":{"latitude":-3.39102,"amountspttodate":250000,"district":"Taita Taveta","activitytobedone":"Construction Of 1 Classroom","index":37298,"longitude":37.70378,"projectname":"Msengoni Pre-School","id":"a65ye2nmo1rt","province":"Coast","location":"Bomeni","constituency":"Taveta"},"type":"Feature","geometry":{"type":"Point","coordinates":[37.70378,-3.39102]}},{"properties":{"latitude":-3.390766,"amountspttodate":1300000,"district":"Kilifi","activitytobedone":"Construction Of 2 Classrooms","index":9797,"longitude":39.925697,"projectname":"Katana Ngala Secondary School","id":"a65ye2kpigr0","province":"Coast","location":"Matsangoni","constituency":"Bahari"},"type":"Feature","geometry":{"type":"Point","coordinates":[39.925697,-3.390766]}},{"properties":{"latitude":-3.390766,"amountspttodate":795000,"district":"Kilifi","activitytobedone":"Renovation Of 4 Classrooms","index":9797,"longitude":39.925697,"projectname":"Katana Ngala Secondary School","id":"a65ye2pho9y1","province":"Coast","location":"Matsangoni","constituency":"Bahari"},"type":"Feature","geometry":{"type":"Point","coordinates":[39.925697,-3.390766]}},{"properties":{"latitude":-3.39018,"amountspttodate":2500000,"district":"Taita Taveta","activitytobedone":"Construction Of 6 Classrooms And 1 Kitchen","index":37256,"longitude":37.68778,"projectname":"Mahoo Primary School","id":"a65ye2gdkazy","province":"Coast","location":"Bomeni","constituency":"Taveta"},"type":"Feature","geometry":{"type":"Point","coordinates":[37.68778,-3.39018]}},{"properties":{"latitude":-3.39018,"amountspttodate":250000,"district":"Taita Taveta","activitytobedone":"Construction Of 1 Classroom","index":37291,"longitude":37.68778,"projectname":"Mahoo Pre-School","id":"a65ye2lawp6c","province":"Coast","location":"Bomeni","constituency":"Taveta"},"type":"Feature","geometry":{"type":"Point","coordinates":[37.68778,-3.39018]}},{"properties":{"latitude":-3.38975,"amountspttodate":1200000,"district":"Taita Taveta","activitytobedone":"Construction Of Toilets And Desks","index":36829,"longitude":38.56385,"projectname":"Mwanyambo Primary School","id":"a65ye2nzqqvw","province":"Coast","location":"Voi","constituency":"Voi"},"type":"Feature","geometry":{"type":"Point","coordinates":[38.56385,-3.38975]}},{"properties":{"latitude":-3.3896,"amountspttodate":1200000,"district":"Taita Taveta","activitytobedone":"Constrution OfClassrooms And Library","index":37260,"longitude":37.67141,"projectname":"Sowene Primary School","id":"a65ye2s3c701","province":"Coast","location":"Bomeni","constituency":"Taveta"},"type":"Feature","geometry":{"type":"Point","coordinates":[37.67141,-3.3896]}},{"properties":{"latitude":-3.38881,"amountspttodate":9920000,"district":"Taita Taveta","activitytobedone":"Constructio Of 8 Classes,Dorm &amp; Admni.Block And Lab And Fencing","index":37238,"longitude":37.68027,"projectname":"Mahoo Secondary School","id":"a65ye2o6lkw1","province":"Coast","location":"Bomeni","constituency":"Taveta"},"type":"Feature","geometry":{"type":"Point","coordinates":[37.68027,-3.38881]}},{"properties":{"latitude":-3.38873,"amountspttodate":200000,"district":"Taita Taveta","activitytobedone":"Renovation Of Classrooms","index":36825,"longitude":38.55502,"projectname":"Mwakingali Primary School","id":"a65ye2jxv5vw","province":"Coast","location":"Voi","constituency":"Voi"},"type":"Feature","geometry":{"type":"Point","coordinates":[38.55502,-3.38873]}},{"properties":{"latitude":-3.38872,"amountspttodate":3600000,"district":"Taita Taveta","activitytobedone":"Renovation Of Dorm,Sinking Of Borehole And Equipping, Fencing, Purchase Texbooks","index":37246,"longitude":37.71546,"projectname":"Timbila Secondary School","id":"a65ye2vpftea","province":"Coast","location":"Jipe","constituency":"Taveta"},"type":"Feature","geometry":{"type":"Point","coordinates":[37.71546,-3.38872]}},{"properties":{"latitude":-3.38872,"amountspttodate":400000,"district":"Taita Taveta","activitytobedone":"Construction Of 2 Classrooms","index":37272,"longitude":37.76469,"projectname":"Ziwani Primary School","id":"a65ye2hl6lfu","province":"Coast","location":"Chala","constituency":"Taveta"},"type":"Feature","geometry":{"type":"Point","coordinates":[37.76469,-3.38872]}},{"properties":{"latitude":-3.38366,"amountspttodate":3000000,"district":"Taita Taveta","activitytobedone":"Construction Of 2 Classrooms/Laboratories","index":36823,"longitude":38.56599,"projectname":"Mwangea Secondary School","id":"a65ye2vgnlfc","province":"Coast","location":"Voi","constituency":"Voi"},"type":"Feature","geometry":{"type":"Point","coordinates":[38.56599,-3.38366]}},{"properties":{"latitude":-3.38307,"amountspttodate":300000,"district":"Taita Taveta","activitytobedone":"Construction of Boys Hostel","index":36837,"longitude":38.56672,"projectname":"Voi Youth Polytechnic","id":"a65ye2p3i51t","province":"Coast","location":"Voi","constituency":"Voi"},"type":"Feature","geometry":{"type":"Point","coordinates":[38.56672,-3.38307]}},{"properties":{"latitude":-3.38139,"amountspttodate":250000,"district":"Taita Taveta","activitytobedone":"Building Blown Off Roof","index":37363,"longitude":38.41465,"projectname":"Baghau Primary School","id":"a65ye2sln554","province":"Coast","location":"Rong'E Juu","constituency":"Mwatate"},"type":"Feature","geometry":{"type":"Point","coordinates":[38.41465,-3.38139]}},{"properties":{"latitude":-3.38074,"amountspttodate":1800000,"district":"Taita Taveta","activitytobedone":"Construction Of Staff House","index":36840,"longitude":38.56868,"projectname":"Voi Secondary School","id":"a65ye2moyg4o","province":"Coast","location":"Voi","constituency":"Voi"},"type":"Feature","geometry":{"type":"Point","coordinates":[38.56868,-3.38074]}},{"properties":{"latitude":-3.38047,"amountspttodate":4250000,"district":"Taita Taveta","activitytobedone":"Construction And Completion Of Admin Block","index":36822,"longitude":38.57819,"projectname":"Coast Institute Of Technology","id":"a65ye2uaeegn","province":"Coast","location":"Voi","constituency":"Voi"},"type":"Feature","geometry":{"type":"Point","coordinates":[38.57819,-3.38047]}},{"properties":{"latitude":-3.37523,"amountspttodate":300000,"district":"Taita Taveta","activitytobedone":"Renovation Of Classes","index":37362,"longitude":38.43491,"projectname":"Kishau Primary School","id":"a65ye2lzzmc9","province":"Coast","location":"Rong'E Juu","constituency":"Mwatate"},"type":"Feature","geometry":{"type":"Point","coordinates":[38.43491,-3.37523]}},{"properties":{"latitude":-3.37128,"amountspttodate":1500000,"district":"Taita Taveta","activitytobedone":"Building Of Dining Hall","index":37386,"longitude":38.42177,"projectname":"Mwanyambo Secondary School","id":"a65ye2mct4dk","province":"Coast","location":"Rong'E Juu","constituency":"Mwatate"},"type":"Feature","geometry":{"type":"Point","coordinates":[38.42177,-3.37128]}},{"properties":{"latitude":-3.36009,"amountspttodate":800000,"district":"Taita Taveta","activitytobedone":"Constuction Of 2 Classrooms","index":37314,"longitude":37.70536,"projectname":"Malukiloriti Primary School","id":"a65ye2o9y858","province":"Coast","location":"Bomeni","constituency":"Taveta"},"type":"Feature","geometry":{"type":"Point","coordinates":[37.70536,-3.36009]}},{"properties":{"latitude":-3.35873,"amountspttodate":500000,"district":"Malindi","activitytobedone":"Construction Of 1 Classroom","index":36209,"longitude":39.91861,"projectname":"Mkangagani Primary School","id":"a65ye2inhoqm","province":"Coast","location":"Gede","constituency":"Malindi"},"type":"Feature","geometry":{"type":"Point","coordinates":[39.91861,-3.35873]}},{"properties":{"latitude":-3.35009,"amountspttodate":2000000,"district":"Malindi","activitytobedone":"Renovation Of School","index":36315,"longitude":40.0123,"projectname":"Watamu Primary School","id":"a65ye2jhgmzb","province":"Coast","location":"Watamu","constituency":"Malindi"},"type":"Feature","geometry":{"type":"Point","coordinates":[40.0123,-3.35009]}},{"properties":{"latitude":-3.34159,"amountspttodate":1350000,"district":"Malindi","activitytobedone":"Installing Electricity &amp; Construction Of Administration Block","index":36283,"longitude":39.99648,"projectname":"Dabaso Primary School","id":"a65ye2soqxqc","province":"Coast","location":"Malindi","constituency":"Malindi"},"type":"Feature","geometry":{"type":"Point","coordinates":[39.99648,-3.34159]}},{"properties":{"latitude":-3.33698,"amountspttodate":850000,"district":"Malindi","activitytobedone":"Construction Of One Classroom","index":36211,"longitude":39.94325,"projectname":"Mida Primary School","id":"a65ye2o5ls1h","province":"Coast","location":"Gede","constituency":"Malindi"},"type":"Feature","geometry":{"type":"Point","coordinates":[39.94325,-3.33698]}},{"properties":{"latitude":-3.325453,"amountspttodate":13600000,"district":"Kilifi","activitytobedone":"Construction Of 4 Classroom&amp;Admin Block;Provide Desks Construction Of Staff Room;Equipments Construction Of Science Laboratory","index":35148,"longitude":39.798599,"projectname":"Mwangea Girls Secondary School","id":"a65ye2oglg76","province":"Coast","location":"Mwahera","constituency":"Ganze"},"type":"Feature","geometry":{"type":"Point","coordinates":[39.798599,-3.325453]}},{"properties":{"latitude":-3.30273,"amountspttodate":2000000,"district":"Malindi","activitytobedone":"Renovation Of The Entire School","index":36229,"longitude":40.01434,"projectname":"Gede Secondary School","id":"a65ye2kvr2lq","province":"Coast","location":"Gede","constituency":"Malindi"},"type":"Feature","geometry":{"type":"Point","coordinates":[40.01434,-3.30273]}},{"properties":{"latitude":-3.30165,"amountspttodate":260000,"district":"Malindi","activitytobedone":"Installation And Electrification Of The Polytechnic","index":36268,"longitude":40.01073,"projectname":"Gede Youth Polytechnic","id":"a65ye2i4tgwz","province":"Coast","location":"Ganda","constituency":"Malindi"},"type":"Feature","geometry":{"type":"Point","coordinates":[40.01073,-3.30165]}},{"properties":{"latitude":-3.29202,"amountspttodate":1200000,"district":"Taita Taveta","activitytobedone":"Construction Of 4 Classrooms","index":37268,"longitude":37.73361,"projectname":"Chala Primary School","id":"a65ye2gu7olt","province":"Coast","location":"Chala","constituency":"Taveta"},"type":"Feature","geometry":{"type":"Point","coordinates":[37.73361,-3.29202]}},{"properties":{"latitude":-3.2859,"amountspttodate":5000000,"district":"Taita Taveta","activitytobedone":"Construction Of Lab And Staff Houses And 3 Classrooms","index":37248,"longitude":37.74375,"projectname":"Chala Secondary School","id":"a65ye2lunaeb","province":"Coast","location":"Chala","constituency":"Taveta"},"type":"Feature","geometry":{"type":"Point","coordinates":[37.74375,-3.2859]}},{"properties":{"latitude":-3.26211,"amountspttodate":110000,"district":"Malindi","activitytobedone":"Purchase And Installation Of A Solar Panel","index":36284,"longitude":40.00155,"projectname":"Mijomboni Primary School","id":"a65ye2ju606v","province":"Coast","location":"Gede","constituency":"Malindi"},"type":"Feature","geometry":{"type":"Point","coordinates":[40.00155,-3.26211]}},{"properties":{"latitude":-3.25413,"amountspttodate":500000,"district":"Malindi","activitytobedone":"Construction Of A Toilet","index":36210,"longitude":40.03907,"projectname":"Msabaha Primary School","id":"a65ye2t3zom7","province":"Coast","location":"Gede","constituency":"Malindi"},"type":"Feature","geometry":{"type":"Point","coordinates":[40.03907,-3.25413]}},{"properties":{"latitude":-3.251463,"amountspttodate":1200000,"district":"Kilifi","activitytobedone":"Construction Of 2 Classrooms","index":35159,"longitude":39.744039,"projectname":"Ndugumnani Primary School","id":"a65ye2rospvg","province":"Coast","location":"Mwahera","constituency":"Ganze"},"type":"Feature","geometry":{"type":"Point","coordinates":[39.744039,-3.251463]}},{"properties":{"latitude":-3.24659,"amountspttodate":1050000,"district":"Malindi","activitytobedone":"Construction Of Two Classrooms","index":36206,"longitude":39.83038,"projectname":"Girimacha Primary School","id":"a65ye2rlonw3","province":"Coast","location":"Jilore","constituency":"Malindi"},"type":"Feature","geometry":{"type":"Point","coordinates":[39.83038,-3.24659]}},{"properties":{"latitude":-3.24391,"amountspttodate":800000,"district":"Taita Taveta","activitytobedone":"Construction Of 3 Classrooms","index":37271,"longitude":37.72876,"projectname":"Mahandakini Primary School","id":"a65ye2p9lwv1","province":"Coast","location":"Chala","constituency":"Taveta"},"type":"Feature","geometry":{"type":"Point","coordinates":[37.72876,-3.24391]}},{"properties":{"latitude":-3.24323,"amountspttodate":450000,"district":"Taita Taveta","activitytobedone":"Construction Of 1 Classroom","index":37297,"longitude":37.74454,"projectname":"Machungwani Pre-School","id":"a65ye2gtkdtk","province":"Coast","location":"Chala","constituency":"Taveta"},"type":"Feature","geometry":{"type":"Point","coordinates":[37.74454,-3.24323]}},{"properties":{"latitude":-3.23799,"amountspttodate":300000,"district":"Malindi","activitytobedone":"Renovation Of Six Classrooms","index":36285,"longitude":40.11523,"projectname":"Karima Primary School","id":"a65ye2qgvkk6","province":"Coast","location":"Malindi","constituency":"Malindi"},"type":"Feature","geometry":{"type":"Point","coordinates":[40.11523,-3.23799]}},{"properties":{"latitude":-3.23782,"amountspttodate":500000,"district":"Malindi","activitytobedone":"Construction Of A Classroom","index":36308,"longitude":40.01231,"projectname":"Baguo Primary School","id":"a65ye2t1dw5g","province":"Coast","location":"Mijomboni","constituency":"Malindi"},"type":"Feature","geometry":{"type":"Point","coordinates":[40.01231,-3.23782]}},{"properties":{"latitude":-3.23431,"amountspttodate":600000,"district":"Malindi","activitytobedone":"Construction Of A Dormitory.","index":36220,"longitude":40.10771,"projectname":"Malindi Secondary School","id":"a65ye2w7lkfb","province":"Coast","location":"Malindi","constituency":"Malindi"},"type":"Feature","geometry":{"type":"Point","coordinates":[40.10771,-3.23431]}},{"properties":{"latitude":-3.23354,"amountspttodate":500000,"district":"Malindi","activitytobedone":"Construction Of A Classroom","index":36212,"longitude":39.8029,"projectname":"Yembe Primary School","id":"a65ye2nurgx8","province":"Coast","location":"Langobaya","constituency":"Malindi"},"type":"Feature","geometry":{"type":"Point","coordinates":[39.8029,-3.23354]}},{"properties":{"latitude":-3.22675,"amountspttodate":1100000,"district":"Malindi","activitytobedone":"Construction Of Two Classrooms","index":36201,"longitude":40.02879,"projectname":"Kwa Upanga Primary School","id":"a65ye2sb2d41","province":"Coast","location":"Ganda","constituency":"Malindi"},"type":"Feature","geometry":{"type":"Point","coordinates":[40.02879,-3.22675]}},{"properties":{"latitude":-3.22675,"amountspttodate":850000,"district":"Malindi","activitytobedone":"Renovation Of 5 Classrooms","index":36201,"longitude":40.02879,"projectname":"Kwa Upanga Primary School","id":"a65ye2unrrq9","province":"Coast","location":"Ganda","constituency":"Malindi"},"type":"Feature","geometry":{"type":"Point","coordinates":[40.02879,-3.22675]}},{"properties":{"latitude":-3.22434,"amountspttodate":2700000,"district":"Malindi","activitytobedone":"Construction Of Five Classrooms","index":36196,"longitude":40.10872,"projectname":"Upweoni Primary School","id":"a65ye2la1nuh","province":"Coast","location":"Malindi","constituency":"Malindi"},"type":"Feature","geometry":{"type":"Point","coordinates":[40.10872,-3.22434]}},{"properties":{"latitude":-3.21812,"amountspttodate":800000,"district":"Malindi","activitytobedone":"Construction Of A Classroom","index":36202,"longitude":40.09406,"projectname":"Ganda Primary School","id":"a65ye2poh5zt","province":"Coast","location":"Malindi","constituency":"Malindi"},"type":"Feature","geometry":{"type":"Point","coordinates":[40.09406,-3.21812]}},{"properties":{"latitude":-3.21654,"amountspttodate":3780000,"district":"Malindi","activitytobedone":"Construction Of Administration Block","index":36227,"longitude":40.11163,"projectname":"Barani Secondary School","id":"a65ye2nyzw21","province":"Coast","location":"Malindi","constituency":"Malindi"},"type":"Feature","geometry":{"type":"Point","coordinates":[40.11163,-3.21654]}},{"properties":{"latitude":-3.21308,"amountspttodate":600000,"district":"Malindi","activitytobedone":"Construction Of A Classroom","index":36221,"longitude":39.98569,"projectname":"Kakuyuni Boys Secondary School","id":"a65ye2u0u95o","province":"Coast","location":"Goshi","constituency":"Malindi"},"type":"Feature","geometry":{"type":"Point","coordinates":[39.98569,-3.21308]}},{"properties":{"latitude":-3.20512,"amountspttodate":6000000,"district":"Taita Taveta","activitytobedone":"Construction Of 8 Classrooms, Ablution Block And Adm. Block","index":37249,"longitude":37.71381,"projectname":"Bishop Njenga Secondary School","id":"a65ye2kqdti3","province":"Coast","location":"Njukini","constituency":"Taveta"},"type":"Feature","geometry":{"type":"Point","coordinates":[37.71381,-3.20512]}},{"properties":{"latitude":-3.20473,"amountspttodate":800000,"district":"Taita Taveta","activitytobedone":"Construction Of 4 Classrooms","index":37288,"longitude":37.7167,"projectname":"Chokaa Primary School","id":"a65ye2nhn52b","province":"Coast","location":"Njukini","constituency":"Taveta"},"type":"Feature","geometry":{"type":"Point","coordinates":[37.7167,-3.20473]}},{"properties":{"latitude":-3.19567,"amountspttodate":900000,"district":"Taita Taveta","activitytobedone":"Construction Of 2 Classroom 2 Pit Latrines","index":37243,"longitude":37.75223,"projectname":"Lumi Primary School","id":"a65ye2hc0dce","province":"Coast","location":"Njukini","constituency":"Taveta"},"type":"Feature","geometry":{"type":"Point","coordinates":[37.75223,-3.19567]}},{"properties":{"latitude":-3.18474,"amountspttodate":1200000,"district":"Taita Taveta","activitytobedone":"Constrution Of 4 Classrooms","index":37259,"longitude":37.72554,"projectname":"Njukini Primary School","id":"a65ye2syr7mo","province":"Coast","location":"Njukini","constituency":"Taveta"},"type":"Feature","geometry":{"type":"Point","coordinates":[37.72554,-3.18474]}},{"properties":{"latitude":-3.18035,"amountspttodate":500000,"district":"Malindi","activitytobedone":"Purchase Of Desks","index":36159,"longitude":39.93435,"projectname":"Bate Primary School","id":"a65ye2lr83o3","province":"Coast","location":null,"constituency":"Magarini"},"type":"Feature","geometry":{"type":"Point","coordinates":[39.93435,-3.18035]}},{"properties":{"latitude":-3.16884,"amountspttodate":1000000,"district":"Malindi","activitytobedone":"Construction Of A Classroom","index":36219,"longitude":39.90562,"projectname":"Jilore Secondary School","id":"a65ye2jwbmdy","province":"Coast","location":"Jilore","constituency":"Malindi"},"type":"Feature","geometry":{"type":"Point","coordinates":[39.90562,-3.16884]}},{"properties":{"latitude":-3.16316,"amountspttodate":600000,"district":"Malindi","activitytobedone":"Construction Of A Classroom","index":36222,"longitude":39.86651,"projectname":"Kakoneni Girls Secondary School","id":"a65ye2pl2g7n","province":"Coast","location":"Jilore","constituency":"Malindi"},"type":"Feature","geometry":{"type":"Point","coordinates":[39.86651,-3.16316]}},{"properties":{"latitude":-3.16316,"amountspttodate":500000,"district":"Malindi","activitytobedone":"Renovation Of A Dormitory","index":36222,"longitude":39.86651,"projectname":"Kakoneni Girls Secondary School","id":"a65ye2pk0qu9","province":"Coast","location":"Jilore","constituency":"Malindi"},"type":"Feature","geometry":{"type":"Point","coordinates":[39.86651,-3.16316]}},{"properties":{"latitude":-3.14281,"amountspttodate":9211460,"district":"Malindi","activitytobedone":"Renovation Of School","index":36280,"longitude":39.82192,"projectname":"Marikano Primary School","id":"a65ye2s0883a","province":"Coast","location":"Langobaya","constituency":"Malindi"},"type":"Feature","geometry":{"type":"Point","coordinates":[39.82192,-3.14281]}},{"properties":{"latitude":-3.11016,"amountspttodate":850000,"district":"Malindi","activitytobedone":"Renovation Of 5 Classrooms Blown Off By Wind","index":36282,"longitude":39.55079,"projectname":"Shakahola Primary School","id":"a65ye2q32wgu","province":"Coast","location":"Chakama","constituency":"Malindi"},"type":"Feature","geometry":{"type":"Point","coordinates":[39.55079,-3.11016]}},{"properties":{"latitude":-3.10039,"amountspttodate":100000,"district":"Malindi","activitytobedone":"n/a","index":36129,"longitude":39.78276,"projectname":"Baricho Primary School","id":"a65ye2fz9ql6","province":"Coast","location":"Bungale","constituency":"Magarini"},"type":"Feature","geometry":{"type":"Point","coordinates":[39.78276,-3.10039]}},{"properties":{"latitude":-3.09524,"amountspttodate":500000,"district":"Malindi","activitytobedone":"Construction Of A Classroom","index":36311,"longitude":39.56094,"projectname":"Hawe Wanje Primary School","id":"a65ye2qdtq92","province":"Coast","location":"Chakama","constituency":"Malindi"},"type":"Feature","geometry":{"type":"Point","coordinates":[39.56094,-3.09524]}},{"properties":{"latitude":-3.09087,"amountspttodate":1000000,"district":"Malindi","activitytobedone":"Construction Of Two Classrooms","index":36200,"longitude":39.39696,"projectname":"Kulalu Primary School","id":"a65ye2j9wbqt","province":"Coast","location":"Chakama","constituency":"Malindi"},"type":"Feature","geometry":{"type":"Point","coordinates":[39.39696,-3.09087]}},{"properties":{"latitude":-3.02411,"amountspttodate":6000000,"district":"Malindi","activitytobedone":"n/a","index":36149,"longitude":39.84575,"projectname":"Shujaa Mekatilili Secondary School","id":"a65ye2ia4o4f","province":"Coast","location":"Marafa","constituency":"Magarini"},"type":"Feature","geometry":{"type":"Point","coordinates":[39.84575,-3.02411]}},{"properties":{"latitude":-2.05956,"amountspttodate":6100000,"district":"Lamu","activitytobedone":"Rehabilitation Of Dinning Hall Roof; Repair School Laboratory","index":36017,"longitude":41.10566,"projectname":"Faza Secondary School","id":"a65ye2pmsix4","province":"Coast","location":"Rasini","constituency":"Lamu East"},"type":"Feature","geometry":{"type":"Point","coordinates":[41.10566,-2.05956]}},{"properties":{"latitude":-2.05409,"amountspttodate":85000,"district":"Lamu","activitytobedone":"Ceiling Finishes, Fixing Metal Burglar Proof Doors And Window Grills &amp; Installation Of Electrical Computer Accessories","index":36109,"longitude":41.108802,"projectname":"Rasini Girls Primary School","id":"a65ye2hwezry","province":"Coast","location":null,"constituency":"Lamu East"},"type":"Feature","geometry":{"type":"Point","coordinates":[41.108802,-2.05409]}},{"properties":{"latitude":-1.89437,"amountspttodate":6000000,"district":"Kilifi","activitytobedone":"Construction Of 4 Classrooms And Administration Block","index":35250,"longitude":37.62801,"projectname":"Miyani Sc","id":"a65ye2hf05j0","province":"Coast","location":null,"constituency":"Kaloleni"},"type":"Feature","geometry":{"type":"Point","coordinates":[37.62801,-1.89437]}},{"properties":{"latitude":-1.84561,"amountspttodate":600000,"district":"Kilifi","activitytobedone":"Construction Of 1 Classroom &amp; Office","index":35251,"longitude":37.65655,"projectname":"Kadzandani Primary School","id":"a65ye2s5tt0b","province":"Coast","location":"Mariakani","constituency":"Kaloleni"},"type":"Feature","geometry":{"type":"Point","coordinates":[37.65655,-1.84561]}},{"properties":{"latitude":-1.70994,"amountspttodate":900000,"district":"Kilifi","activitytobedone":"Construction Of A Classroom And An Office","index":35244,"longitude":37.30933,"projectname":"Katsangani Nursery School","id":"a65ye2s8dcze","province":"Coast","location":"Kayafungo","constituency":"Kaloleni"},"type":"Feature","geometry":{"type":"Point","coordinates":[37.30933,-1.70994]}},{"properties":{"latitude":-1.438843,"amountspttodate":6020000,"district":"Tana River","activitytobedone":"Rehabilitation Of Admin block, Boys And Girls Dormitories, Fencing Of Girls Dormitory, Installation Of 4 Water Storage Tanks","index":37850,"longitude":37.3547,"projectname":"Tarasaa Secondary School","id":"a65ye2nja2az","province":"Coast","location":"Ngao","constituency":"Garsen"},"type":"Feature","geometry":{"type":"Point","coordinates":[37.3547,-1.438843]}},{"properties":{"latitude":-1.313663,"amountspttodate":500000,"district":"Tana River","activitytobedone":"n/a","index":37630,"longitude":36.837072,"projectname":"Laini Primary School","id":"a65ye2mhunwu","province":"Coast","location":"Milalulu","constituency":"Galole"},"type":"Feature","geometry":{"type":"Point","coordinates":[36.837072,-1.313663]}},{"properties":{"latitude":0.708294,"amountspttodate":1000000,"district":"Kilifi","activitytobedone":"Construction Of A 2 Classrooms And An Office","index":35354,"longitude":35.220685,"projectname":"Bofu Secondary School","id":"a65ye2r4xeat","province":"Coast","location":"Ruruma","constituency":"Kaloleni"},"type":"Feature","geometry":{"type":"Point","coordinates":[35.220685,0.708294]}},{"properties":{"latitude":1.8453,"amountspttodate":4724450,"district":"Malindi","activitytobedone":"n/a","index":36150,"longitude":40.09904,"projectname":"Fundisa Secondary School","id":"a65ye2mtgx37","province":"Coast","location":"Magarini","constituency":"Magarini"},"type":"Feature","geometry":{"type":"Point","coordinates":[40.09904,1.8453]}}],"is_temporal":false,"author":{"url":"","metadata":"","contact_name":"","contact_address":"","source":"","contact_phone":""},"source":"","pagination":{"sort":null,"start":0,"total":325,"limit":1000000},"state":"complete","tags":"","published":"2014-08-13T06:54:30-04:00","id":116641}