{"type":"FeatureCollection","data_type":"Dataset","url_type":null,"permissions":[{"permissions":{"download":true,"view":true},"group_id":"everyone"}],"classification":null,"title":"Book3","count":29,"stream_id":117082,"contributor":{"url":"http://geocommons.com/users/26981","name":"amiablesoul"},"data_attributes":null,"calculation_params":null,"icon_link":null,"link":"http://geocommons.com/overlays/117082.json","extent":[-80.6333,-27.0167,95.3667,30.7372],"geometry_types":["point"],"unique_name":null,"name":"Book3","feature_count":29,"description":"","next_feature":null,"is_raster":false,"short_classification":"Y","stats":{},"features":[{"properties":{"city":"Trivandrum","geo_score":0.753,"retailer name":"ASWATHY  SILKS","id":"a68rfi6pvein","geo_precision":"zip"},"type":"Feature","geometry":{"type":"Point","coordinates":[30.45,-27.0166667]}},{"properties":{"city":"PAURI","geo_score":0.8,"retailer name":"blues collection","id":"a68rfi9ajk38","geo_precision":"zip"},"type":"Feature","geometry":{"type":"Point","coordinates":[-80.6333333,-5.2]}},{"properties":{"city":"SECUNDERABAD","geo_score":0.81,"retailer name":"Esquire Creations","id":"a68rfi5e94z9","geo_precision":"zip"},"type":"Feature","geometry":{"type":"Point","coordinates":[77.7,28.45]}},{"properties":{"city":"Jaunpur","geo_score":0.857,"retailer name":"kaysons","id":"a68rfhv568un","geo_precision":"zip"},"type":"Feature","geometry":{"type":"Point","coordinates":[82.6833333,25.7333333]}},{"properties":{"city":"Lucknow","geo_score":0.857,"retailer name":"kaysons","id":"a68rfi07ow0m","geo_precision":"zip"},"type":"Feature","geometry":{"type":"Point","coordinates":[80.9166667,26.85]}},{"properties":{"city":"HUBLI-DHARWAD","geo_score":0.798,"retailer name":"MARUTI","id":"a68rfi553oy3","geo_precision":"zip"},"type":"Feature","geometry":{"type":"Point","coordinates":[55.4,25.1166667]}},{"properties":{"city":"CHIKHLI","geo_score":0.857,"retailer name":"Nanak House of Readymade","id":"a68rfi17s5h8","geo_precision":"zip"},"type":"Feature","geometry":{"type":"Point","coordinates":[76.25,20.35]}},{"properties":{"city":"Mansa","geo_score":0.786,"retailer name":"Pehnawa Garments","id":"a68rfhwsvrzb","geo_precision":"zip"},"type":"Feature","geometry":{"type":"Point","coordinates":[-60.025,-3.101944444]}},{"properties":{"city":"Ghaziabad","geo_score":0.857,"retailer name":"Radhika Collection","id":"a68rfhyr6iu1","geo_precision":"zip"},"type":"Feature","geometry":{"type":"Point","coordinates":[77.4333333,28.6666667]}},{"properties":{"city":"Alappuzha","geo_score":0.857,"retailer name":"SKY COLLECTIONS","id":"a68rfhxdoog2","geo_precision":"zip"},"type":"Feature","geometry":{"type":"Point","coordinates":[76.5,9.4166667]}},{"properties":{"city":"KODUNGALLOOR","geo_score":0.833,"retailer name":"Sobha Kids Kemp","id":"a68rfi0vr414","geo_precision":"zip"},"type":"Feature","geometry":{"type":"Point","coordinates":[76.2166667,10.2166667]}},{"properties":{"city":"Nagpur","geo_score":0.857,"retailer name":"SOLO","id":"a68rfi6exk5t","geo_precision":"zip"},"type":"Feature","geometry":{"type":"Point","coordinates":[79.1,21.15]}},{"properties":{"city":"TINSUKIA","geo_score":0.857,"retailer name":"VANDANA","id":"a68rfi2bmhlx","geo_precision":"zip"},"type":"Feature","geometry":{"type":"Point","coordinates":[95.3666667,27.5]}},{"properties":{"city":"Mohali","geo_score":0.81,"retailer name":"Yougal Sons Fashions (P) Ltd","id":"a68rfi38sba3","geo_precision":"zip"},"type":"Feature","geometry":{"type":"Point","coordinates":[80.4666667,27.6666667]}},{"properties":{"city":"Chandigarh","geo_score":0.857,"retailer name":"Jain Elite Clothing (P) Ltd.,","id":"a68rfhxhjj2z","geo_precision":"zip"},"type":"Feature","geometry":{"type":"Point","coordinates":[76.7872222,30.7372222]}},{"properties":{"city":"Chandigarh","geo_score":0.857,"retailer name":"Jainsons Outfits","id":"a68rfi4p2a0t","geo_precision":"zip"},"type":"Feature","geometry":{"type":"Point","coordinates":[76.7872222,30.7372222]}},{"properties":{"city":"Durgapur","geo_score":0.857,"retailer name":"Life Style Marketing Pvt. Ltd.","id":"a68rfi9217ly","geo_precision":"zip"},"type":"Feature","geometry":{"type":"Point","coordinates":[87.3166667,23.4833333]}},{"properties":{"city":"Kolkata","geo_score":0.768,"retailer name":"Marda Enterprises (P) Ltd.","id":"a68rfi1jd947","geo_precision":"zip"},"type":"Feature","geometry":{"type":"Point","coordinates":[88.3697222,22.5697222]}},{"properties":{"city":"Kolkata","geo_score":0.768,"retailer name":"Marda Enterprises Pvt Ltd","id":"a68rfi7cd8qq","geo_precision":"zip"},"type":"Feature","geometry":{"type":"Point","coordinates":[88.3697222,22.5697222]}},{"properties":{"city":"Kolkata","geo_score":0.768,"retailer name":"Marda Enterprises Pvt Ltd.","id":"a68rfi58n9ll","geo_precision":"zip"},"type":"Feature","geometry":{"type":"Point","coordinates":[88.3697222,22.5697222]}},{"properties":{"city":"Kolkata","geo_score":0.768,"retailer name":"MARDA ENTERPRISES PVT. LTD.","id":"a68rfi63ienn","geo_precision":"zip"},"type":"Feature","geometry":{"type":"Point","coordinates":[88.3697222,22.5697222]}},{"properties":{"city":"Kolkata","geo_score":0.768,"retailer name":"MARDA AGENCIES","id":"a68rfi4ce79a","geo_precision":"zip"},"type":"Feature","geometry":{"type":"Point","coordinates":[88.3697222,22.5697222]}},{"properties":{"city":"Kolkata","geo_score":0.768,"retailer name":"MARDA COLLECTIONS PVT.  LTD.","id":"a68rfhumh28s","geo_precision":"zip"},"type":"Feature","geometry":{"type":"Point","coordinates":[88.3697222,22.5697222]}},{"properties":{"city":"Kolkata","geo_score":0.768,"retailer name":"MARDA COLLECTIONS PVT. LTD.","id":"a68rfhxtpdo3","geo_precision":"zip"},"type":"Feature","geometry":{"type":"Point","coordinates":[88.3697222,22.5697222]}},{"properties":{"city":"Bihar","geo_score":0.786,"retailer name":"Sagar Readymade","id":"a68rfi390i0s","geo_precision":"zip"},"type":"Feature","geometry":{"type":"Point","coordinates":[79.5,28.7833333]}},{"properties":{"city":"Jaipur","geo_score":0.857,"retailer name":"FASHION SQUARE","id":"a68rfi173rv5","geo_precision":"zip"},"type":"Feature","geometry":{"type":"Point","coordinates":[75.8166667,26.9166667]}},{"properties":{"city":"Lucknow","geo_score":0.857,"retailer name":"Vaishnavi Enterprises","id":"a68rfi48xlae","geo_precision":"zip"},"type":"Feature","geometry":{"type":"Point","coordinates":[80.9166667,26.85]}},{"properties":{"city":"NEW DELHI","geo_score":0.804,"retailer name":"Bharat Furnishing Co.","id":"a68rfiae2ro3","geo_precision":"zip"},"type":"Feature","geometry":{"type":"Point","coordinates":[77.2166667,28.6666667]}},{"properties":{"city":"NEW DELHI","geo_score":0.804,"retailer name":"Dev Impex","id":"a68rfi45vxsu","geo_precision":"zip"},"type":"Feature","geometry":{"type":"Point","coordinates":[77.2166667,28.6666667]}}],"is_temporal":false,"author":{"url":"","metadata":"","contact_name":"","contact_address":"","source":"","contact_phone":""},"source":"","pagination":{"sort":null,"start":0,"total":29,"limit":1000000},"state":"complete","tags":"","published":"2014-08-13T07:27:58-04:00","id":117082}