{"type":"FeatureCollection","data_type":"Dataset","url_type":null,"permissions":[{"permissions":{"download":true,"view":true},"group_id":"everyone"}],"classification":null,"title":"my bars","count":175,"stream_id":117373,"contributor":{"url":"http://geocommons.com/users/27055","name":"mmcgunagle"},"data_attributes":null,"calculation_params":null,"icon_link":null,"link":"http://geocommons.com/overlays/117373.json","extent":[-122.511,37.7271,-122.392,37.8063],"geometry_types":["point"],"unique_name":null,"name":"my bars","feature_count":175,"description":"","next_feature":null,"is_raster":false,"short_classification":"Y","stats":{},"features":[{"properties":{"city":"San Francisco","company name":"50 Mason Social House","geo_score":1.0,"zip code":"94102","been there?":"yes","id":"a63bagpv06fg","geo_precision":"range","address":"50 Mason St","state":"CA"},"type":"Feature","geometry":{"type":"Point","coordinates":[-122.408982,37.783286]}},{"properties":{"city":"San Francisco","company name":"83 Proof","geo_score":0.883,"zip code":"94105","been there?":"yes","id":"a63bagyxw0yn","geo_precision":"range","address":"83 1st St","state":"CA"},"type":"Feature","geometry":{"type":"Point","coordinates":[-122.397815,37.789929]}},{"properties":{"city":"San Francisco","company name":"Abbey Tavern","geo_score":1.0,"zip code":"94118","been there?":"yes","id":"a63bagua5dsf","geo_precision":"range","address":"4100 Geary Blvd","state":"CA"},"type":"Feature","geometry":{"type":"Point","coordinates":[-122.463211,37.78107]}},{"properties":{"city":"San Francisco","company name":"Ace's","geo_score":1.0,"zip code":"94109","been there?":"yes","id":"a63bagnq28nb","geo_precision":"range","address":"998 Sutter St","state":"CA"},"type":"Feature","geometry":{"type":"Point","coordinates":[-122.416827,37.788177]}},{"properties":{"city":"San Francisco","company name":"Amsterdam Cafe","geo_score":1.0,"zip code":"94109","been there?":"yes","id":"a63bagu65145","geo_precision":"range","address":"937 Geary St","state":"CA"},"type":"Feature","geometry":{"type":"Point","coordinates":[-122.418567,37.786024]}},{"properties":{"city":"San Francisco","company name":"ANU","geo_score":0.883,"zip code":"94103","been there?":"yes","id":"a63bagybp8ay","geo_precision":"range","address":"43 6th St","state":"CA"},"type":"Feature","geometry":{"type":"Point","coordinates":[-122.409536,37.781595]}},{"properties":{"city":"San Francisco","company name":"Apartment 24","geo_score":0.927,"zip code":"94133","been there?":"yes","id":"a63bah355aur","geo_precision":"range","address":"440 Broadway","state":"CA"},"type":"Feature","geometry":{"type":"Point","coordinates":[-122.404841,37.798091]}},{"properties":{"city":"San Francisco","company name":"Bacchus KIRK","geo_score":1.0,"zip code":"94109","been there?":"yes","id":"a63bagrb8r8h","geo_precision":"range","address":"925 Bush St","state":"CA"},"type":"Feature","geometry":{"type":"Point","coordinates":[-122.412396,37.789688]}},{"properties":{"city":"San Francisco","company name":"Badlands","geo_score":0.902,"zip code":"94114","been there?":"yes","id":"a63bags44ttm","geo_precision":"range","address":"4121 18th St","state":"CA"},"type":"Feature","geometry":{"type":"Point","coordinates":[-122.435181,37.760876]}},{"properties":{"city":"San Francisco","company name":"Bamboo Hut","geo_score":0.927,"zip code":"94133","been there?":"yes","id":"a63bah38wp28","geo_precision":"range","address":"479 Broadway","state":"CA"},"type":"Feature","geometry":{"type":"Point","coordinates":[-122.405066,37.798055]}},{"properties":{"city":"San Francisco","company name":"Bar Tartine","geo_score":1.0,"zip code":"94110","been there?":"yes","id":"a63bagz9d1zq","geo_precision":"range","address":"561 Valencia St","state":"CA"},"type":"Feature","geometry":{"type":"Point","coordinates":[-122.421811,37.763927]}},{"properties":{"city":"San Francisco","company name":"Beach Chalet Brewery &amp; Rstrnt","geo_score":1.0,"zip code":"94121","been there?":"yes","id":"a63bagvivz4w","geo_precision":"range","address":"1000 Great Hwy","state":"CA"},"type":"Feature","geometry":{"type":"Point","coordinates":[-122.510537,37.768279]}},{"properties":{"city":"San Francisco","company name":"Beauty Bar","geo_score":1.0,"zip code":"94110","been there?":"yes","id":"a63bagxrxbmo","geo_precision":"range","address":"2299 Mission St","state":"CA"},"type":"Feature","geometry":{"type":"Point","coordinates":[-122.419206,37.760235]}},{"properties":{"city":"San Francisco","company name":"Bender's Bar &amp; Grill","geo_score":1.0,"zip code":"94110","been there?":"yes","id":"a63bagtvl8hv","geo_precision":"range","address":"806 S Van Ness Ave","state":"CA"},"type":"Feature","geometry":{"type":"Point","coordinates":[-122.417019,37.760268]}},{"properties":{"city":"San Francisco","company name":"Big Foot Lodge","geo_score":1.0,"zip code":"94109","been there?":"yes","id":"a63bagsepdn4","geo_precision":"range","address":"1750 Polk St","state":"CA"},"type":"Feature","geometry":{"type":"Point","coordinates":[-122.421124,37.792829]}},{"properties":{"city":"San Francisco","company name":"Bimbo's 365 Club","geo_score":0.927,"zip code":"94133","been there?":"yes","id":"a63bagn8raf8","geo_precision":"range","address":"1025 Columbus Ave","state":"CA"},"type":"Feature","geometry":{"type":"Point","coordinates":[-122.415093,37.803732]}},{"properties":{"city":"San Francisco","company name":"Bitter End","geo_score":1.0,"zip code":"94118","been there?":"yes","id":"a63bagqm9cni","geo_precision":"range","address":"441 Clement St","state":"CA"},"type":"Feature","geometry":{"type":"Point","coordinates":[-122.463697,37.782969]}},{"properties":{"city":"San Francisco","company name":"Black Magic","geo_score":1.0,"zip code":"94123","been there?":"yes","id":"a63bagry1w9j","geo_precision":"range","address":"1400 Lombard St","state":"CA"},"type":"Feature","geometry":{"type":"Point","coordinates":[-122.424538,37.801304]}},{"properties":{"city":"San Francisco","company name":"Blondies' Bar &amp; No Grill","geo_score":1.0,"zip code":"94110","been there?":"yes","id":"a63bagzbgqf7","geo_precision":"range","address":"540 Valencia St","state":"CA"},"type":"Feature","geometry":{"type":"Point","coordinates":[-122.421836,37.764257]}},{"properties":{"city":"San Francisco","company name":"Blue Lamp","geo_score":0.911,"zip code":"94108","been there?":"yes","id":"a63bagseo53o","geo_precision":"range","address":"555 Pine St","state":"CA"},"type":"Feature","geometry":{"type":"Point","coordinates":[-122.405008,37.791575]}},{"properties":{"city":"San Francisco","company name":"Blur","geo_score":1.0,"zip code":"94109","been there?":"yes","id":"a63bagwuznk1","geo_precision":"range","address":"1121 Polk St","state":"CA"},"type":"Feature","geometry":{"type":"Point","coordinates":[-122.41998,37.78715]}},{"properties":{"city":"San Francisco","company name":"Board Room","geo_score":0.927,"zip code":"94133","been there?":"yes","id":"a63bah2t4wfl","geo_precision":"range","address":"1609 Powell St","state":"CA"},"type":"Feature","geometry":{"type":"Point","coordinates":[-122.410655,37.799378]}},{"properties":{"city":"San Francisco","company name":"Bottom Of The Hill","geo_score":0.902,"zip code":"94107","been there?":"yes","id":"a63bagsfdiow","geo_precision":"range","address":"1233 17th St","state":"CA"},"type":"Feature","geometry":{"type":"Point","coordinates":[-122.396055,37.76517]}},{"properties":{"city":"San Francisco","company name":"Broadway Showgirls","geo_score":0.927,"zip code":"94133","been there?":"yes","id":"a63bagva53gr","geo_precision":"range","address":"412 Broadway","state":"CA"},"type":"Feature","geometry":{"type":"Point","coordinates":[-122.404293,37.798152]}},{"properties":{"city":"San Francisco","company name":"Buccaneer","geo_score":1.0,"zip code":"94109","been there?":"yes","id":"a63bagtytlcg","geo_precision":"range","address":"2155 Polk St","state":"CA"},"type":"Feature","geometry":{"type":"Point","coordinates":[-122.421852,37.796471]}},{"properties":{"city":"San Francisco","company name":"Buckshop Bar &amp; Gameroom","geo_score":1.0,"zip code":"94118","been there?":"yes","id":"a63bagn910sj","geo_precision":"range","address":"3848 Geary Blvd","state":"CA"},"type":"Feature","geometry":{"type":"Point","coordinates":[-122.461073,37.781166]}},{"properties":{"city":"San Francisco","company name":"Buddha Lounge Inc","geo_score":0.911,"zip code":"94108","been there?":"yes","id":"a63bagqff50f","geo_precision":"range","address":"901 Grant Ave","state":"CA"},"type":"Feature","geometry":{"type":"Point","coordinates":[-122.406476,37.795144]}},{"properties":{"city":"San Francisco","company name":"Buena Vista Cafe","geo_score":1.0,"zip code":"94109","been there?":"yes","id":"a63bah3feckv","geo_precision":"range","address":"2765 Hyde St","state":"CA"},"type":"Feature","geometry":{"type":"Point","coordinates":[-122.420468,37.806333]}},{"properties":{"city":"San Francisco","company name":"Bus Stop","geo_score":1.0,"zip code":"94123","been there?":"yes","id":"a63bagyoqqfm","geo_precision":"range","address":"1901 Union St","state":"CA"},"type":"Feature","geometry":{"type":"Point","coordinates":[-122.430559,37.797716]}},{"properties":{"city":"San Francisco","company name":"Butter","geo_score":0.902,"zip code":"94103","been there?":"yes","id":"a63bagyts4uy","geo_precision":"range","address":"354 11th St","state":"CA"},"type":"Feature","geometry":{"type":"Point","coordinates":[-122.413353,37.771184]}},{"properties":{"city":"San Francisco","company name":"Cafe","geo_score":1.0,"zip code":"94114","been there?":"yes","id":"a63bagq8gvu8","geo_precision":"range","address":"2369 Market St","state":"CA"},"type":"Feature","geometry":{"type":"Point","coordinates":[-122.434464,37.763032]}},{"properties":{"city":"San Francisco","company name":"Cafe Du Nord","geo_score":1.0,"zip code":"94114","been there?":"yes","id":"a63bagzkg7l8","geo_precision":"range","address":"2170 Market St","state":"CA"},"type":"Feature","geometry":{"type":"Point","coordinates":[-122.42994,37.766656]}},{"properties":{"city":"San Francisco","company name":"Cafe Royale","geo_score":1.0,"zip code":"94109","been there?":"yes","id":"a63bagt3mmb2","geo_precision":"range","address":"800 Post St","state":"CA"},"type":"Feature","geometry":{"type":"Point","coordinates":[-122.414995,37.787454]}},{"properties":{"city":"San Francisco","company name":"Casanova Lounge","geo_score":1.0,"zip code":"94110","been there?":"yes","id":"a63bagpcbqvu","geo_precision":"range","address":"527 Valencia St","state":"CA"},"type":"Feature","geometry":{"type":"Point","coordinates":[-122.421853,37.764488]}},{"properties":{"city":"San Francisco","company name":"Castle Club","geo_score":1.0,"zip code":"94109","been there?":"yes","id":"a63bagtcxzn8","geo_precision":"range","address":"823 Geary St","state":"CA"},"type":"Feature","geometry":{"type":"Point","coordinates":[-122.416891,37.786251]}},{"properties":{"city":"San Francisco","company name":"Cellar","geo_score":1.0,"zip code":"94102","been there?":"yes","id":"a63bagwau174","geo_precision":"range","address":"685 Sutter St","state":"CA"},"type":"Feature","geometry":{"type":"Point","coordinates":[-122.411481,37.788841]}},{"properties":{"city":"San Francisco","company name":"Cha Cha Cha","geo_score":1.0,"zip code":"94110","been there?":"yes","id":"a63bags8b6cp","geo_precision":"range","address":"2327 Mission St","state":"CA"},"type":"Feature","geometry":{"type":"Point","coordinates":[-122.419174,37.75981]}},{"properties":{"city":"San Francisco","company name":"Chelsea Place","geo_score":0.911,"zip code":"94108","been there?":"yes","id":"a63bah0ntu3a","geo_precision":"range","address":"641 Bush St","state":"CA"},"type":"Feature","geometry":{"type":"Point","coordinates":[-122.407719,37.790287]}},{"properties":{"city":"San Francisco","company name":"Chieftain Irish Pub","geo_score":0.883,"zip code":"94103","been there?":"yes","id":"a63bagy74nlj","geo_precision":"range","address":"198 5th St","state":"CA"},"type":"Feature","geometry":{"type":"Point","coordinates":[-122.404933,37.7815]}},{"properties":{"city":"San Francisco","company name":"Cigar Bar &amp; Grill","geo_score":0.464,"zip code":"94133","been there?":"yes","id":"a63bah328nlj","geo_precision":"street","address":"850 Montgomery St # C-1","state":"CA"},"type":"Feature","geometry":{"type":"Point","coordinates":[-122.403549,37.796671]}},{"properties":{"city":"San Francisco","company name":"Cinch","geo_score":1.0,"zip code":"94109","been there?":"yes","id":"a63bagt09lfw","geo_precision":"range","address":"1723 Polk St","state":"CA"},"type":"Feature","geometry":{"type":"Point","coordinates":[-122.421084,37.792579]}},{"properties":{"city":"San Francisco","company name":"City Tavern","geo_score":1.0,"zip code":"94123","been there?":"yes","id":"a63bagz7ot92","geo_precision":"range","address":"3200 Fillmore St","state":"CA"},"type":"Feature","geometry":{"type":"Point","coordinates":[-122.435866,37.798952]}},{"properties":{"city":"San Francisco","company name":"Club NV","geo_score":1.0,"zip code":"94105","been there?":"yes","id":"a63bagxs2uhf","geo_precision":"range","address":"525 Howard St","state":"CA"},"type":"Feature","geometry":{"type":"Point","coordinates":[-122.396575,37.787996]}},{"properties":{"city":"San Francisco","company name":"Club Six","geo_score":0.883,"zip code":"94103","been there?":"yes","id":"a63bagyrsspr","geo_precision":"range","address":"60 6th St","state":"CA"},"type":"Feature","geometry":{"type":"Point","coordinates":[-122.409354,37.781412]}},{"properties":{"city":"San Francisco","company name":"Comet Club","geo_score":1.0,"zip code":"94123","been there?":"yes","id":"a63bagvcvzsp","geo_precision":"range","address":"3111 Fillmore St","state":"CA"},"type":"Feature","geometry":{"type":"Point","coordinates":[-122.435703,37.798176]}},{"properties":{"city":"San Francisco","company name":"Comstock Saloon","geo_score":0.927,"zip code":"94133","been there?":"yes","id":"a63bags8ng9g","geo_precision":"range","address":"155 Columbus Ave","state":"CA"},"type":"Feature","geometry":{"type":"Point","coordinates":[-122.404793,37.796636]}},{"properties":{"city":"San Francisco","company name":"Cresta's Twenty Two Eleven Clb","geo_score":1.0,"zip code":"94109","been there?":"yes","id":"a63bagruxaqo","geo_precision":"range","address":"2211 Polk St","state":"CA"},"type":"Feature","geometry":{"type":"Point","coordinates":[-122.421979,37.797012]}},{"properties":{"city":"San Francisco","company name":"Dalva","geo_score":0.902,"zip code":"94103","been there?":"yes","id":"a63bagr8rmw4","geo_precision":"range","address":"3121 16th St","state":"CA"},"type":"Feature","geometry":{"type":"Point","coordinates":[-122.422278,37.764887]}},{"properties":{"city":"San Francisco","company name":"Danny Coyle's","geo_score":1.0,"zip code":"94117","been there?":"yes","id":"a63bagrzt1l8","geo_precision":"range","address":"668 Haight St","state":"CA"},"type":"Feature","geometry":{"type":"Point","coordinates":[-122.432993,37.771752]}},{"properties":{"city":"San Francisco","company name":"Dave's","geo_score":0.883,"zip code":"94103","been there?":"yes","id":"a63bagyr99xg","geo_precision":"range","address":"29 3rd St","state":"CA"},"type":"Feature","geometry":{"type":"Point","coordinates":[-122.403307,37.787239]}},{"properties":{"city":"San Francisco","company name":"Delirium","geo_score":0.902,"zip code":"94103","been there?":"yes","id":"a63bah30x33q","geo_precision":"range","address":"3139 16th St","state":"CA"},"type":"Feature","geometry":{"type":"Point","coordinates":[-122.422853,37.764859]}},{"properties":{"city":"San Francisco","company name":"Deluxe Club","geo_score":1.0,"zip code":"94117","been there?":"yes","id":"a63bagvf5ezb","geo_precision":"range","address":"1511 Haight St","state":"CA"},"type":"Feature","geometry":{"type":"Point","coordinates":[-122.447067,37.769987]}},{"properties":{"city":"San Francisco","company name":"Diva's","geo_score":1.0,"zip code":"94109","been there?":"yes","id":"a63bagqr3no8","geo_precision":"range","address":"1081 Post St","state":"CA"},"type":"Feature","geometry":{"type":"Point","coordinates":[-122.420083,37.786803]}},{"properties":{"city":"San Francisco","company name":"DNA Lounge","geo_score":0.902,"zip code":"94103","been there?":"yes","id":"a63bagte00j4","geo_precision":"range","address":"375 11th St","state":"CA"},"type":"Feature","geometry":{"type":"Point","coordinates":[-122.413104,37.770932]}},{"properties":{"city":"San Francisco","company name":"Doc's Clock","geo_score":1.0,"zip code":"94110","been there?":"yes","id":"a63bagtr1vuq","geo_precision":"range","address":"2575 Mission St","state":"CA"},"type":"Feature","geometry":{"type":"Point","coordinates":[-122.41881,37.755828]}},{"properties":{"city":"San Francisco","company name":"Edinburgh Castle","geo_score":1.0,"zip code":"94109","been there?":"yes","id":"a63bah1du5gi","geo_precision":"range","address":"950 Geary St","state":"CA"},"type":"Feature","geometry":{"type":"Point","coordinates":[-122.418754,37.785994]}},{"properties":{"city":"San Francisco","company name":"El Rio","geo_score":1.0,"zip code":"94110","been there?":"yes","id":"a63bah2bmgk1","geo_precision":"range","address":"3158 Mission St","state":"CA"},"type":"Feature","geometry":{"type":"Point","coordinates":[-122.419655,37.745888]}},{"properties":{"city":"San Francisco","company name":"Elbo Room","geo_score":1.0,"zip code":"94110","been there?":"yes","id":"a63bagq3qnw7","geo_precision":"range","address":"647 Valencia St","state":"CA"},"type":"Feature","geometry":{"type":"Point","coordinates":[-122.421644,37.762334]}},{"properties":{"city":"San Francisco","company name":"Element Lounge","geo_score":1.0,"zip code":"94109","been there?":"yes","id":"a63bagoiogky","geo_precision":"range","address":"1028 Geary St","state":"CA"},"type":"Feature","geometry":{"type":"Point","coordinates":[-122.420112,37.785834]}},{"properties":{"city":"San Francisco","company name":"Elixir","geo_score":0.902,"zip code":"94103","been there?":"yes","id":"a63bagrr6qe6","geo_precision":"range","address":"3200 16th St","state":"CA"},"type":"Feature","geometry":{"type":"Point","coordinates":[-122.424103,37.764783]}},{"properties":{"city":"San Francisco","company name":"Encore Karaoke Lounge","geo_score":0.805,"zip code":"94109","been there?":"yes","id":"a63bagu81z0u","geo_precision":"street","address":"1550 California St # 2","state":"CA"},"type":"Feature","geometry":{"type":"Point","coordinates":[-122.414107,37.791416]}},{"properties":{"city":"San Francisco","company name":"Endup","geo_score":0.883,"zip code":"94103","been there?":"yes","id":"a63bah38y0sl","geo_precision":"range","address":"401 6th St","state":"CA"},"type":"Feature","geometry":{"type":"Point","coordinates":[-122.404069,37.777273]}},{"properties":{"city":"San Francisco","company name":"EZ5 Inc","geo_score":1.0,"zip code":"94111","been there?":"yes","id":"a63bagmyn5ob","geo_precision":"range","address":"684 Commercial St","state":"CA"},"type":"Feature","geometry":{"type":"Point","coordinates":[-122.404173,37.794049]}},{"properties":{"city":"San Francisco","company name":"Fairmont","geo_score":0.911,"zip code":"94108","been there?":"yes","id":"a63bah0y4lp1","geo_precision":"range","address":"950 Mason St","state":"CA"},"type":"Feature","geometry":{"type":"Point","coordinates":[-122.410894,37.792307]}},{"properties":{"city":"San Francisco","company name":"Festa Wine &amp; Cocktail Lounge","geo_score":1.0,"zip code":"94115","been there?":"yes","id":"a63bags28xeb","geo_precision":"range","address":"1581 Webster St","state":"CA"},"type":"Feature","geometry":{"type":"Point","coordinates":[-122.431406,37.785231]}},{"properties":{"city":"San Francisco","company name":"Fillmore","geo_score":1.0,"zip code":"94115","been there?":"yes","id":"a63bagmzho7x","geo_precision":"range","address":"1805 Geary Blvd","state":"CA"},"type":"Feature","geometry":{"type":"Point","coordinates":[-122.433002,37.784285]}},{"properties":{"city":"San Francisco","company name":"Finnegans Wake","geo_score":1.0,"zip code":"94117","been there?":"yes","id":"a63bagr5aelq","geo_precision":"range","address":"937 Cole St","state":"CA"},"type":"Feature","geometry":{"type":"Point","coordinates":[-122.449903,37.765457]}},{"properties":{"city":"San Francisco","company name":"Fuse","geo_score":0.927,"zip code":"94133","been there?":"yes","id":"a63bagsdw3jj","geo_precision":"range","address":"493 Broadway","state":"CA"},"type":"Feature","geometry":{"type":"Point","coordinates":[-122.405234,37.798029]}},{"properties":{"city":"San Francisco","company name":"Glas KAT Nightclub","geo_score":0.883,"zip code":"94107","been there?":"yes","id":"a63bagwjztdq","geo_precision":"range","address":"520 4th St","state":"CA"},"type":"Feature","geometry":{"type":"Point","coordinates":[-122.397766,37.779256]}},{"properties":{"city":"San Francisco","company name":"Gold Club","geo_score":1.0,"zip code":"94105","been there?":"yes","id":"a63bagoizmlp","geo_precision":"range","address":"650 Howard St","state":"CA"},"type":"Feature","geometry":{"type":"Point","coordinates":[-122.39937,37.785899]}},{"properties":{"city":"San Francisco","company name":"Gold Dust Lounge","geo_score":1.0,"zip code":"94102","been there?":"yes","id":"a63bagrnxw27","geo_precision":"range","address":"247 Powell St","state":"CA"},"type":"Feature","geometry":{"type":"Point","coordinates":[-122.408107,37.786855]}},{"properties":{"city":"San Francisco","company name":"Grant &amp; Green Saloon","geo_score":0.927,"zip code":"94133","been there?":"yes","id":"a63bagv1cvrf","geo_precision":"range","address":"1371 Grant Ave","state":"CA"},"type":"Feature","geometry":{"type":"Point","coordinates":[-122.407309,37.799415]}},{"properties":{"city":"San Francisco","company name":"Great American Music Hall","geo_score":1.0,"zip code":"94109","been there?":"yes","id":"a63bagwf6ypt","geo_precision":"range","address":"859 Ofarrell St","state":"CA"},"type":"Feature","geometry":{"type":"Point","coordinates":[-122.418671,37.785044]}},{"properties":{"city":"San Francisco","company name":"Greens Sports Bar","geo_score":1.0,"zip code":"94109","been there?":"yes","id":"a63baguk2pzr","geo_precision":"range","address":"2239 Polk St","state":"CA"},"type":"Feature","geometry":{"type":"Point","coordinates":[-122.422029,37.797326]}},{"properties":{"city":"San Francisco","company name":"Hanaro","geo_score":1.0,"zip code":"94109","been there?":"yes","id":"a63baguom11n","geo_precision":"range","address":"939 Geary St","state":"CA"},"type":"Feature","geometry":{"type":"Point","coordinates":[-122.418594,37.78602]}},{"properties":{"city":"San Francisco","company name":"Harry Denton's Starlight Room","geo_score":1.0,"zip code":"94102","been there?":"yes","id":"a63bagokant7","geo_precision":"range","address":"450 Powell St","state":"CA"},"type":"Feature","geometry":{"type":"Point","coordinates":[-122.408479,37.788769]}},{"properties":{"city":"San Francisco","company name":"Harry's Bar","geo_score":1.0,"zip code":"94115","been there?":"yes","id":"a63bagp0p09x","geo_precision":"range","address":"2020 Fillmore St","state":"CA"},"type":"Feature","geometry":{"type":"Point","coordinates":[-122.433678,37.788144]}},{"properties":{"city":"San Francisco","company name":"Hemlock Tavern","geo_score":1.0,"zip code":"94109","been there?":"yes","id":"a63bah1r3kk0","geo_precision":"range","address":"1131 Polk St","state":"CA"},"type":"Feature","geometry":{"type":"Point","coordinates":[-122.42002,37.787279]}},{"properties":{"city":"San Francisco","company name":"High Tide","geo_score":1.0,"zip code":"94102","been there?":"yes","id":"a63bah25z8a0","geo_precision":"range","address":"600 Geary St","state":"CA"},"type":"Feature","geometry":{"type":"Point","coordinates":[-122.413573,37.786677]}},{"properties":{"city":"San Francisco","company name":"Hole In The Wall Saloon","geo_score":1.0,"zip code":"94103","been there?":"yes","id":"a63bagvwkshd","geo_precision":"range","address":"1369 Folsom St","state":"CA"},"type":"Feature","geometry":{"type":"Point","coordinates":[-122.41239,37.77312]}},{"properties":{"city":"San Francisco","company name":"Holy Cow","geo_score":1.0,"zip code":"94103","been there?":"yes","id":"a63bagq1zelm","geo_precision":"range","address":"1535 Folsom St","state":"CA"},"type":"Feature","geometry":{"type":"Point","coordinates":[-122.4144,37.771431]}},{"properties":{"city":"San Francisco","company name":"Horseshoe Tavern","geo_score":1.0,"zip code":"94123","been there?":"yes","id":"a63bagvc26v4","geo_precision":"range","address":"2024 Chestnut St","state":"CA"},"type":"Feature","geometry":{"type":"Point","coordinates":[-122.436697,37.800746]}},{"properties":{"city":"San Francisco","company name":"House Of Prime Rib","geo_score":1.0,"zip code":"94109","been there?":"yes","id":"a63bah2jumcl","geo_precision":"range","address":"1906 Van Ness Ave","state":"CA"},"type":"Feature","geometry":{"type":"Point","coordinates":[-122.42284,37.7931]}},{"properties":{"city":"San Francisco","company name":"Hungry I","geo_score":0.927,"zip code":"94133","been there?":"yes","id":"a63bagounf0v","geo_precision":"range","address":"546 Broadway","state":"CA"},"type":"Feature","geometry":{"type":"Point","coordinates":[-122.40623,37.79792]}},{"properties":{"city":"San Francisco","company name":"Hyde-Out","geo_score":1.0,"zip code":"94109","been there?":"yes","id":"a63bah1jcpd8","geo_precision":"range","address":"1068 Hyde St","state":"CA"},"type":"Feature","geometry":{"type":"Point","coordinates":[-122.417307,37.790689]}},{"properties":{"city":"San Francisco","company name":"Infusion Lounge","geo_score":1.0,"zip code":"94102","been there?":"yes","id":"a63bah08n13j","geo_precision":"range","address":"124 Ellis St","state":"CA"},"type":"Feature","geometry":{"type":"Point","coordinates":[-122.408221,37.785433]}},{"properties":{"city":"San Francisco","company name":"Jack's Club","geo_score":0.902,"zip code":"94110","been there?":"yes","id":"a63bah2qo7l5","geo_precision":"range","address":"2545 24th St","state":"CA"},"type":"Feature","geometry":{"type":"Point","coordinates":[-122.404707,37.753095]}},{"properties":{"city":"San Francisco","company name":"John Murio's Trophy Room","geo_score":1.0,"zip code":"94117","been there?":"yes","id":"a63bagncbmwy","geo_precision":"range","address":"1811 Haight St","state":"CA"},"type":"Feature","geometry":{"type":"Point","coordinates":[-122.452001,37.769357]}},{"properties":{"city":"San Francisco","company name":"Joxer Dalys","geo_score":1.0,"zip code":"94127","been there?":"yes","id":"a63baguq52g4","geo_precision":"range","address":"46 West Portal Ave","state":"CA"},"type":"Feature","geometry":{"type":"Point","coordinates":[-122.466322,37.740344]}},{"properties":{"city":"San Francisco","company name":"Kate O'Brien's Irish Bar &amp; Grl","geo_score":1.0,"zip code":"94105","been there?":"yes","id":"a63bagqudl0g","geo_precision":"range","address":"579 Howard St","state":"CA"},"type":"Feature","geometry":{"type":"Point","coordinates":[-122.39764,37.787181]}},{"properties":{"city":"San Francisco","company name":"Kilowatt","geo_score":0.902,"zip code":"94103","been there?":"yes","id":"a63bagzoa6js","geo_precision":"range","address":"3160 16th St","state":"CA"},"type":"Feature","geometry":{"type":"Point","coordinates":[-122.422693,37.764867]}},{"properties":{"city":"San Francisco","company name":"Kimo's","geo_score":1.0,"zip code":"94109","been there?":"yes","id":"a63bagqvoafk","geo_precision":"range","address":"1351 Polk St","state":"CA"},"type":"Feature","geometry":{"type":"Point","coordinates":[-122.420422,37.789299]}},{"properties":{"city":"San Francisco","company name":"Knockout","geo_score":1.0,"zip code":"94110","been there?":"yes","id":"a63bah324z00","geo_precision":"range","address":"3223 Mission St","state":"CA"},"type":"Feature","geometry":{"type":"Point","coordinates":[-122.420019,37.745388]}},{"properties":{"city":"San Francisco","company name":"KOKO Cocktails","geo_score":1.0,"zip code":"94109","been there?":"yes","id":"a63bagobj0a4","geo_precision":"range","address":"1060 Geary St","state":"CA"},"type":"Feature","geometry":{"type":"Point","coordinates":[-122.420539,37.785766]}},{"properties":{"city":"San Francisco","company name":"KOZY Kar Bar","geo_score":1.0,"zip code":"94109","been there?":"yes","id":"a63bagvm07g9","geo_precision":"range","address":"1548 Polk St","state":"CA"},"type":"Feature","geometry":{"type":"Point","coordinates":[-122.420759,37.791027]}},{"properties":{"city":"San Francisco","company name":"Kum Bak Club","geo_score":1.0,"zip code":"94102","been there?":"yes","id":"a63bagnxmnfu","geo_precision":"range","address":"486 Ellis St","state":"CA"},"type":"Feature","geometry":{"type":"Point","coordinates":[-122.414161,37.784674]}},{"properties":{"city":"San Francisco","company name":"Lamour Club","geo_score":0.927,"zip code":"94133","been there?":"yes","id":"a63bagze0x0x","geo_precision":"range","address":"931 Kearny St","state":"CA"},"type":"Feature","geometry":{"type":"Point","coordinates":[-122.405178,37.796425]}},{"properties":{"city":"San Francisco","company name":"Larry Flynt's Hustler Club","geo_score":0.927,"zip code":"94133","been there?":"yes","id":"a63bagzrzpb5","geo_precision":"range","address":"1031 Kearny St","state":"CA"},"type":"Feature","geometry":{"type":"Point","coordinates":[-122.405352,37.79731]}},{"properties":{"city":"San Francisco","company name":"Li Po","geo_score":0.911,"zip code":"94108","been there?":"yes","id":"a63bagrrnh0g","geo_precision":"range","address":"916 Grant Ave","state":"CA"},"type":"Feature","geometry":{"type":"Point","coordinates":[-122.406539,37.795542]}},{"properties":{"city":"San Francisco","company name":"Lion Pub","geo_score":1.0,"zip code":"94115","been there?":"yes","id":"a63bagwko1og","geo_precision":"range","address":"2062 Divisadero St","state":"CA"},"type":"Feature","geometry":{"type":"Point","coordinates":[-122.440487,37.788663]}},{"properties":{"city":"San Francisco","company name":"Lucky 13","geo_score":1.0,"zip code":"94114","been there?":"yes","id":"a63baguz4jy0","geo_precision":"range","address":"2140 Market St","state":"CA"},"type":"Feature","geometry":{"type":"Point","coordinates":[-122.429295,37.7673]}},{"properties":{"city":"San Francisco","company name":"Mad Dog In The Fog","geo_score":1.0,"zip code":"94117","been there?":"yes","id":"a63bagrsli97","geo_precision":"range","address":"530 Haight St","state":"CA"},"type":"Feature","geometry":{"type":"Point","coordinates":[-122.430834,37.772042]}},{"properties":{"city":"San Francisco","company name":"Magnolia Pub &amp; Brewery","geo_score":1.0,"zip code":"94117","been there?":"yes","id":"a63bagxbaypp","geo_precision":"range","address":"1398 Haight St","state":"CA"},"type":"Feature","geometry":{"type":"Point","coordinates":[-122.445345,37.77021]}},{"properties":{"city":"San Francisco","company name":"Make-Out Room","geo_score":0.902,"zip code":"94110","been there?":"yes","id":"a63bagtpvmdb","geo_precision":"range","address":"3225 22nd St","state":"CA"},"type":"Feature","geometry":{"type":"Point","coordinates":[-122.419187,37.755401]}},{"properties":{"city":"San Francisco","company name":"Marina Lounge","geo_score":1.0,"zip code":"94123","been there?":"yes","id":"a63bagy4c9eo","geo_precision":"range","address":"2138 Chestnut St","state":"CA"},"type":"Feature","geometry":{"type":"Point","coordinates":[-122.438314,37.80054]}},{"properties":{"city":"San Francisco","company name":"Marlena's","geo_score":1.0,"zip code":"94102","been there?":"yes","id":"a63bah2wystp","geo_precision":"range","address":"488 Hayes St","state":"CA"},"type":"Feature","geometry":{"type":"Point","coordinates":[-122.424146,37.776695]}},{"properties":{"city":"San Francisco","company name":"Mauna Loa Club","geo_score":1.0,"zip code":"94123","been there?":"yes","id":"a63bagp5tegm","geo_precision":"range","address":"3009 Fillmore St","state":"CA"},"type":"Feature","geometry":{"type":"Point","coordinates":[-122.435502,37.797165]}},{"properties":{"city":"San Francisco","company name":"Mc Teague's Saloon","geo_score":1.0,"zip code":"94109","been there?":"yes","id":"a63bags2gugw","geo_precision":"range","address":"1237 Polk St","state":"CA"},"type":"Feature","geometry":{"type":"Point","coordinates":[-122.420226,37.78832]}},{"properties":{"city":"San Francisco","company name":"Mercury Lounge Sf","geo_score":1.0,"zip code":"94103","been there?":"yes","id":"a63bags13fyj","geo_precision":"range","address":"1582 Folsom St","state":"CA"},"type":"Feature","geometry":{"type":"Point","coordinates":[-122.414774,37.771066]}},{"properties":{"city":"San Francisco","company name":"Mezzanine","geo_score":0.805,"zip code":"94103","been there?":"yes","id":"a63bah34m6qg","geo_precision":"street","address":"433 Natoma St # 2","state":"CA"},"type":"Feature","geometry":{"type":"Point","coordinates":[-122.405466,37.781925]}},{"properties":{"city":"San Francisco","company name":"Mighty Galleries","geo_score":0.805,"zip code":"94103","been there?":"yes","id":"a63bagyhl7a5","geo_precision":"range","address":"550 15th St # 3","state":"CA"},"type":"Feature","geometry":{"type":"Point","coordinates":[-122.400893,37.767487]}},{"properties":{"city":"San Francisco","company name":"Minx","geo_score":1.0,"zip code":"94109","been there?":"yes","id":"a63bagsn0tto","geo_precision":"range","address":"827 Sutter St","state":"CA"},"type":"Feature","geometry":{"type":"Point","coordinates":[-122.413886,37.788542]}},{"properties":{"city":"San Francisco","company name":"Miraloma Club","geo_score":1.0,"zip code":"94127","been there?":"yes","id":"a63bah1isewz","geo_precision":"range","address":"749 Portola Dr","state":"CA"},"type":"Feature","geometry":{"type":"Point","coordinates":[-122.453749,37.744273]}},{"properties":{"city":"San Francisco","company name":"Mission Bar","geo_score":1.0,"zip code":"94110","been there?":"yes","id":"a63bagyce4ck","geo_precision":"range","address":"2695 Mission St","state":"CA"},"type":"Feature","geometry":{"type":"Point","coordinates":[-122.418631,37.753902]}},{"properties":{"city":"San Francisco","company name":"Mister Bing's","geo_score":0.927,"zip code":"94133","been there?":"yes","id":"a63bagv3j7ga","geo_precision":"range","address":"201 Columbus Ave","state":"CA"},"type":"Feature","geometry":{"type":"Point","coordinates":[-122.405513,37.797065]}},{"properties":{"city":"San Francisco","company name":"Moby Dick Bar","geo_score":0.902,"zip code":"94114","been there?":"yes","id":"a63bagwt9f0q","geo_precision":"range","address":"4049 18th St","state":"CA"},"type":"Feature","geometry":{"type":"Point","coordinates":[-122.433904,37.760954]}},{"properties":{"city":"San Francisco","company name":"Mojito","geo_score":0.927,"zip code":"94133","been there?":"yes","id":"a63bagznjyfl","geo_precision":"range","address":"1337 Grant Ave","state":"CA"},"type":"Feature","geometry":{"type":"Point","coordinates":[-122.407252,37.799065]}},{"properties":{"city":"San Francisco","company name":"Molotov's","geo_score":1.0,"zip code":"94117","been there?":"yes","id":"a63bah079ful","geo_precision":"range","address":"582 Haight St","state":"CA"},"type":"Feature","geometry":{"type":"Point","coordinates":[-122.43153,37.77193]}},{"properties":{"city":"San Francisco","company name":"Monk's Kettle","geo_score":0.902,"zip code":"94103","been there?":"yes","id":"a63bah1vfbdz","geo_precision":"range","address":"3141 16th St","state":"CA"},"type":"Feature","geometry":{"type":"Point","coordinates":[-122.422853,37.764859]}},{"properties":{"city":"San Francisco","company name":"Motherlode","geo_score":1.0,"zip code":"94109","been there?":"yes","id":"a63bah2e84up","geo_precision":"range","address":"1081 Post St","state":"CA"},"type":"Feature","geometry":{"type":"Point","coordinates":[-122.420083,37.786803]}},{"properties":{"city":"San Francisco","company name":"Murphy's Pub","geo_score":0.911,"zip code":"94108","been there?":"yes","id":"a63bagyhn170","geo_precision":"range","address":"217 Kearny St","state":"CA"},"type":"Feature","geometry":{"type":"Point","coordinates":[-122.403866,37.789981]}},{"properties":{"city":"San Francisco","company name":"Nite Cap","geo_score":1.0,"zip code":"94109","been there?":"yes","id":"a63bagtevfge","geo_precision":"range","address":"699 Ofarrell St","state":"CA"},"type":"Feature","geometry":{"type":"Point","coordinates":[-122.41626,37.785376]}},{"properties":{"city":"San Francisco","company name":"Noc Noc","geo_score":1.0,"zip code":"94117","been there?":"yes","id":"a63bagwdv24p","geo_precision":"range","address":"557 Haight St","state":"CA"},"type":"Feature","geometry":{"type":"Point","coordinates":[-122.431182,37.771986]}},{"properties":{"city":"San Francisco","company name":"O'Farrell Street Bar","geo_score":1.0,"zip code":"94109","been there?":"yes","id":"a63bagph1jaf","geo_precision":"range","address":"800 Larkin St","state":"CA"},"type":"Feature","geometry":{"type":"Point","coordinates":[-122.417901,37.785167]}},{"properties":{"city":"San Francisco","company name":"O'Neill's Irish Pub","geo_score":0.883,"zip code":"94107","been there?":"yes","id":"a63bagv88gcy","geo_precision":"range","address":"747 3rd St","state":"CA"},"type":"Feature","geometry":{"type":"Point","coordinates":[-122.392413,37.778511]}},{"properties":{"city":"San Francisco","company name":"Occidental Cigar Club","geo_score":1.0,"zip code":"94104","been there?":"yes","id":"a63bah03p753","geo_precision":"range","address":"471 Pine St","state":"CA"},"type":"Feature","geometry":{"type":"Point","coordinates":[-122.403387,37.791768]}},{"properties":{"city":"San Francisco","company name":"Outsiders","geo_score":1.0,"zip code":"94109","been there?":"yes","id":"a63bagoaxb1r","geo_precision":"range","address":"894 Geary St","state":"CA"},"type":"Feature","geometry":{"type":"Point","coordinates":[-122.417757,37.786111]}},{"properties":{"city":"San Francisco","company name":"Pancho's Salsa Bar &amp; Grill","geo_score":1.0,"zip code":"94109","been there?":"yes","id":"a63bagudja0l","geo_precision":"range","address":"1639 Polk St","state":"CA"},"type":"Feature","geometry":{"type":"Point","coordinates":[-122.420928,37.791839]}},{"properties":{"city":"San Francisco","company name":"Parea Wine Bar &amp; Cafe","geo_score":1.0,"zip code":"94110","been there?":"yes","id":"a63bagz266i8","geo_precision":"range","address":"795 Valencia St","state":"CA"},"type":"Feature","geometry":{"type":"Point","coordinates":[-122.421462,37.760166]}},{"properties":{"city":"San Francisco","company name":"Philospher's Club","geo_score":1.0,"zip code":"94127","been there?":"yes","id":"a63bagzbvbyu","geo_precision":"range","address":"824 Ulloa St","state":"CA"},"type":"Feature","geometry":{"type":"Point","coordinates":[-122.465408,37.740719]}},{"properties":{"city":"San Francisco","company name":"Pier 23 Cafe","geo_score":0.619,"zip code":"94111","been there?":"yes","id":"a63bagwrc86b","geo_precision":"street","address":"23 Pier # 4","state":"CA"},"type":"Feature","geometry":{"type":"Point","coordinates":[-122.394324,37.794996]}},{"properties":{"city":"San Francisco","company name":"Pour Hours","geo_score":1.0,"zip code":"94109","been there?":"yes","id":"a63bagujzdn2","geo_precision":"range","address":"1327 Polk St","state":"CA"},"type":"Feature","geometry":{"type":"Point","coordinates":[-122.420376,37.789132]}},{"properties":{"city":"San Francisco","company name":"Q Bar","geo_score":1.0,"zip code":"94114","been there?":"yes","id":"a63bagn1ir5x","geo_precision":"range","address":"456 Castro St","state":"CA"},"type":"Feature","geometry":{"type":"Point","coordinates":[-122.435086,37.761654]}},{"properties":{"city":"San Francisco","company name":"R Bar","geo_score":1.0,"zip code":"94109","been there?":"yes","id":"a63bagp59ir7","geo_precision":"range","address":"1176 Sutter St","state":"CA"},"type":"Feature","geometry":{"type":"Point","coordinates":[-122.419477,37.787804]}},{"properties":{"city":"San Francisco","company name":"R J's Sports Bar","geo_score":1.0,"zip code":"94109","been there?":"yes","id":"a63bagy03rhk","geo_precision":"range","address":"701 Geary St","state":"CA"},"type":"Feature","geometry":{"type":"Point","coordinates":[-122.414807,37.786519]}},{"properties":{"city":"San Francisco","company name":"Red's Place","geo_score":0.927,"zip code":"94133","been there?":"yes","id":"a63bagoce5i5","geo_precision":"range","address":"672 Jackson St","state":"CA"},"type":"Feature","geometry":{"type":"Point","coordinates":[-122.406442,37.796048]}},{"properties":{"city":"San Francisco","company name":"Rex Cafe","geo_score":1.0,"zip code":"94109","been there?":"yes","id":"a63bagtbxsmu","geo_precision":"range","address":"2323 Polk St","state":"CA"},"type":"Feature","geometry":{"type":"Point","coordinates":[-122.422182,37.798035]}},{"properties":{"city":"San Francisco","company name":"Rockit Room","geo_score":1.0,"zip code":"94118","been there?":"yes","id":"a63bagtcngm5","geo_precision":"range","address":"406 Clement St","state":"CA"},"type":"Feature","geometry":{"type":"Point","coordinates":[-122.463403,37.782986]}},{"properties":{"city":"San Francisco","company name":"Room Ultra Lounge","geo_score":0.883,"zip code":"94103","been there?":"yes","id":"a63bagokwtdl","geo_precision":"range","address":"101 6th St","state":"CA"},"type":"Feature","geometry":{"type":"Point","coordinates":[-122.408709,37.780971]}},{"properties":{"city":"San Francisco","company name":"Rouge Night Club","geo_score":1.0,"zip code":"94109","been there?":"yes","id":"a63bah25zz84","geo_precision":"range","address":"1500 Broadway","state":"CA"},"type":"Feature","geometry":{"type":"Point","coordinates":[-122.421768,37.795944]}},{"properties":{"city":"San Francisco","company name":"Route 101","geo_score":1.0,"zip code":"94109","been there?":"yes","id":"a63bah16hgau","geo_precision":"range","address":"1332 Van Ness Ave","state":"CA"},"type":"Feature","geometry":{"type":"Point","coordinates":[-122.421755,37.788056]}},{"properties":{"city":"San Francisco","company name":"Royal Oak","geo_score":1.0,"zip code":"94109","been there?":"yes","id":"a63bah1tf6z5","geo_precision":"range","address":"2201 Polk St","state":"CA"},"type":"Feature","geometry":{"type":"Point","coordinates":[-122.421961,37.7969]}},{"properties":{"city":"San Francisco","company name":"Royale","geo_score":0.927,"zip code":"94133","been there?":"yes","id":"a63bah20gw5m","geo_precision":"range","address":"1326 Grant Ave","state":"CA"},"type":"Feature","geometry":{"type":"Point","coordinates":[-122.407246,37.799022]}},{"properties":{"city":"San Francisco","company name":"Ruth's Chris Steak House","geo_score":1.0,"zip code":"94109","been there?":"yes","id":"a63bagygs3e6","geo_precision":"range","address":"1601 Van Ness Ave","state":"CA"},"type":"Feature","geometry":{"type":"Point","coordinates":[-122.422328,37.790369]}},{"properties":{"city":"San Francisco","company name":"Saloon","geo_score":0.927,"zip code":"94133","been there?":"yes","id":"a63bagovf84w","geo_precision":"range","address":"1232 Grant Ave","state":"CA"},"type":"Feature","geometry":{"type":"Point","coordinates":[-122.407149,37.79849]}},{"properties":{"city":"San Francisco","company name":"Savoy Tivoli","geo_score":0.927,"zip code":"94133","been there?":"yes","id":"a63bagzxr37x","geo_precision":"range","address":"1434 Grant Ave","state":"CA"},"type":"Feature","geometry":{"type":"Point","coordinates":[-122.407447,37.800028]}},{"properties":{"city":"San Francisco","company name":"Shanghai Kelly's","geo_score":1.0,"zip code":"94109","been there?":"yes","id":"a63bah25ixia","geo_precision":"range","address":"2064 Polk St","state":"CA"},"type":"Feature","geometry":{"type":"Point","coordinates":[-122.421678,37.795626]}},{"properties":{"city":"San Francisco","company name":"Sip Lounge","geo_score":0.927,"zip code":"94133","been there?":"yes","id":"a63bah0wwcjw","geo_precision":"range","address":"787 Broadway","state":"CA"},"type":"Feature","geometry":{"type":"Point","coordinates":[-122.409983,37.797445]}},{"properties":{"city":"San Francisco","company name":"Skylark","geo_score":0.902,"zip code":"94103","been there?":"yes","id":"a63bagtyo95a","geo_precision":"range","address":"3089 16th St","state":"CA"},"type":"Feature","geometry":{"type":"Point","coordinates":[-122.421495,37.764939]}},{"properties":{"city":"San Francisco","company name":"Slim's","geo_score":0.902,"zip code":"94103","been there?":"yes","id":"a63bagy00cql","geo_precision":"range","address":"333 11th St","state":"CA"},"type":"Feature","geometry":{"type":"Point","coordinates":[-122.413628,37.771461]}},{"properties":{"city":"San Francisco","company name":"Sloane","geo_score":1.0,"zip code":"94103","been there?":"yes","id":"a63bah0g8gs2","geo_precision":"range","address":"1525 Mission St","state":"CA"},"type":"Feature","geometry":{"type":"Point","coordinates":[-122.417405,37.773996]}},{"properties":{"city":"San Francisco","company name":"Som Bar","geo_score":0.902,"zip code":"94103","been there?":"yes","id":"a63bagxi1qv9","geo_precision":"range","address":"2925 16th St","state":"CA"},"type":"Feature","geometry":{"type":"Point","coordinates":[-122.417919,37.76515]}},{"properties":{"city":"San Francisco","company name":"Specs' Twelve Adler Museum Cf","geo_score":0.927,"zip code":"94133","been there?":"yes","id":"a63bagou19q5","geo_precision":"range","address":"12 Saroyan Pl","state":"CA"},"type":"Feature","geometry":{"type":"Point","coordinates":[-122.406202,37.797563]}},{"properties":{"city":"San Francisco","company name":"Steffs","geo_score":0.883,"zip code":"94105","been there?":"yes","id":"a63bagrjl54r","geo_precision":"range","address":"141 2nd St","state":"CA"},"type":"Feature","geometry":{"type":"Point","coordinates":[-122.39914,37.787461]}},{"properties":{"city":"San Francisco","company name":"Stud Bar","geo_score":0.883,"zip code":"94103","been there?":"yes","id":"a63bagzuc8rg","geo_precision":"range","address":"399 9th St","state":"CA"},"type":"Feature","geometry":{"type":"Point","coordinates":[-122.410077,37.772526]}},{"properties":{"city":"San Francisco","company name":"Summer Place","geo_score":0.911,"zip code":"94108","been there?":"yes","id":"a63bagpt24rj","geo_precision":"range","address":"801 Bush St","state":"CA"},"type":"Feature","geometry":{"type":"Point","coordinates":[-122.410433,37.78995]}},{"properties":{"city":"San Francisco","company name":"Sutter Station Tavern","geo_score":1.0,"zip code":"94104","been there?":"yes","id":"a63bagvqem4s","geo_precision":"range","address":"25 Sutter St","state":"CA"},"type":"Feature","geometry":{"type":"Point","coordinates":[-122.40076,37.790214]}},{"properties":{"city":"San Francisco","company name":"Sutter Station Tavern","geo_score":1.0,"zip code":"94104","been there?":"yes","id":"a63bagymkhxx","geo_precision":"range","address":"554 Market St","state":"CA"},"type":"Feature","geometry":{"type":"Point","coordinates":[-122.400727,37.789716]}},{"properties":{"city":"San Francisco","company name":"Swig","geo_score":1.0,"zip code":"94102","been there?":"yes","id":"a63bagyyba6i","geo_precision":"range","address":"561 Geary St","state":"CA"},"type":"Feature","geometry":{"type":"Point","coordinates":[-122.412564,37.786799]}},{"properties":{"city":"San Francisco","company name":"Ted Sports Bar &amp; Grill","geo_score":1.0,"zip code":"94103","been there?":"yes","id":"a63bagnc53yc","geo_precision":"range","address":"312 Harriet St","state":"CA"},"type":"Feature","geometry":{"type":"Point","coordinates":[-122.402901,37.775464]}},{"properties":{"city":"San Francisco","company name":"Temple Bar &amp; Bistro","geo_score":1.0,"zip code":"94102","been there?":"yes","id":"a63bagu189p7","geo_precision":"range","address":"600 Polk St","state":"CA"},"type":"Feature","geometry":{"type":"Point","coordinates":[-122.418993,37.782168]}},{"properties":{"city":"San Francisco","company name":"Ten 15 Club Inc","geo_score":1.0,"zip code":"94103","been there?":"yes","id":"a63bagol7a8w","geo_precision":"range","address":"1015 Folsom St","state":"CA"},"type":"Feature","geometry":{"type":"Point","coordinates":[-122.405862,37.778258]}},{"properties":{"city":"San Francisco","company name":"Tony Nik's Cafe","geo_score":0.927,"zip code":"94133","been there?":"yes","id":"a63bagrvhxzi","geo_precision":"range","address":"1534 Stockton St","state":"CA"},"type":"Feature","geometry":{"type":"Point","coordinates":[-122.409066,37.799844]}},{"properties":{"city":"San Francisco","company name":"Trax","geo_score":1.0,"zip code":"94117","been there?":"yes","id":"a63bagtrncj7","geo_precision":"range","address":"1437 Haight St","state":"CA"},"type":"Feature","geometry":{"type":"Point","coordinates":[-122.445806,37.770136]}},{"properties":{"city":"San Francisco","company name":"Underground SF","geo_score":1.0,"zip code":"94117","been there?":"yes","id":"a63bagtfb19u","geo_precision":"range","address":"424 Haight St","state":"CA"},"type":"Feature","geometry":{"type":"Point","coordinates":[-122.429117,37.772265]}},{"properties":{"city":"San Francisco","company name":"Union Square Sports Bar","geo_score":1.0,"zip code":"94102","been there?":"yes","id":"a63bagzevm6h","geo_precision":"range","address":"115 Mason St","state":"CA"},"type":"Feature","geometry":{"type":"Point","coordinates":[-122.40933,37.784482]}},{"properties":{"city":"San Francisco","company name":"Utah Saloon","geo_score":0.883,"zip code":"94107","been there?":"yes","id":"a63baguuec17","geo_precision":"range","address":"500 4th St","state":"CA"},"type":"Feature","geometry":{"type":"Point","coordinates":[-122.39806,37.779567]}},{"properties":{"city":"San Francisco","company name":"Vertigo Bar","geo_score":1.0,"zip code":"94109","been there?":"yes","id":"a63bah04xo1p","geo_precision":"range","address":"1160 Polk St","state":"CA"},"type":"Feature","geometry":{"type":"Point","coordinates":[-122.420052,37.787482]}},{"properties":{"city":"San Francisco","company name":"Vesuvio","geo_score":0.927,"zip code":"94133","been there?":"yes","id":"a63bagu31mpu","geo_precision":"range","address":"255 Columbus Ave","state":"CA"},"type":"Feature","geometry":{"type":"Point","coordinates":[-122.406226,37.797559]}},{"properties":{"city":"San Francisco","company name":"Wine Bar","geo_score":1.0,"zip code":"94109","been there?":"yes","id":"a63baguu70r0","geo_precision":"range","address":"2032 Polk St","state":"CA"},"type":"Feature","geometry":{"type":"Point","coordinates":[-122.421631,37.795326]}},{"properties":{"city":"San Francisco","company name":"Wipe Out Bar &amp; Grill","geo_score":0.286,"zip code":"94133","been there?":"yes","id":"a63bagu9pjya","geo_precision":"street","address":"39 Pier # C4","state":"CA"},"type":"Feature","geometry":{"type":"Point","coordinates":[-122.426504,37.727076]}},{"properties":{"city":"San Francisco","company name":"WISH","geo_score":1.0,"zip code":"94103","been there?":"yes","id":"a63bagt5x528","geo_precision":"range","address":"1539 Folsom St","state":"CA"},"type":"Feature","geometry":{"type":"Point","coordinates":[-122.414526,37.771405]}},{"properties":{"city":"San Francisco","company name":"Yong San","geo_score":0.911,"zip code":"94108","been there?":"yes","id":"a63bah33y8jd","geo_precision":"range","address":"895 Bush St","state":"CA"},"type":"Feature","geometry":{"type":"Point","coordinates":[-122.411678,37.789748]}},{"properties":{"city":"San Francisco","company name":"Zeitgeist","geo_score":1.0,"zip code":"94103","been there?":"yes","id":"a63bagzopuny","geo_precision":"range","address":"199 Valencia St","state":"CA"},"type":"Feature","geometry":{"type":"Point","coordinates":[-122.422365,37.769867]}},{"properties":{"city":"San Francisco","company name":"Zeki's Bar","geo_score":1.0,"zip code":"94109","been there?":"yes","id":"a63bagn0lyo9","geo_precision":"range","address":"1319 California St","state":"CA"},"type":"Feature","geometry":{"type":"Point","coordinates":[-122.416154,37.791146]}}],"is_temporal":false,"author":{"url":"","metadata":"","contact_name":"","contact_address":"","source":"","contact_phone":""},"source":"","pagination":{"sort":null,"start":0,"total":175,"limit":1000000},"state":"complete","tags":"","published":"2014-08-13T07:50:30-04:00","id":117373}