{"type":"FeatureCollection","data_type":"Dataset","url_type":null,"permissions":[{"permissions":{"download":true,"view":true},"group_id":"everyone"}],"classification":null,"title":"NCAA Men's Lacrosse Matchup Locations, USA, 4.18.2009 ","count":92,"stream_id":11746,"contributor":{"url":"http://geocommons.com/users/139","name":"Burkey"},"data_attributes":null,"calculation_params":null,"icon_link":null,"link":"http://geocommons.com/overlays/11746.json","extent":[-112.132,33.5138,-69.6595,44.6776],"geometry_types":["point"],"unique_name":null,"name":"NCAA Men's Lacrosse Matchup Locations, USA, 4.18.2009 ","feature_count":92,"description":"&quot;This dataset displays the locations of sites were NCAA Men's Lacrosse matchups will be taking on Saturday, April 18th, 2009.\n\nThe data comes from LaxPower and includes: Matchup, time, location, city, state, lat/lon location &quot;\n","next_feature":null,"is_raster":false,"short_classification":"Y","stats":{"lon":{"max":-69.659478,"mean":-75.2500111304348,"variance":25.6839118225669,"stdev":5.06792973733524,"min":-112.132443,"median":-74.836708},"lat":{"max":44.677558,"mean":41.1033558369565,"variance":4.34103947896282,"stdev":2.08351613359792,"min":33.513797,"median":41.422765}},"features":[{"properties":{"city":"Old Westbury","lon":-73.601074,"time":"1:00 PM","matchup":"Adelphi at NYIT","id":"a64nn4b5jbpd","lat":40.81022,"location":"NYIT","state":"NY"},"type":"Feature","geometry":{"type":"Point","coordinates":[-73.601074,40.81022]}},{"properties":{"city":"Rochester","lon":-77.509963,"time":"1:00 PM","matchup":"Alfred at St. John Fisher","id":"a64nn4k82txt","lat":43.114539,"location":"St. John Fisher","state":"NY"},"type":"Feature","geometry":{"type":"Point","coordinates":[-77.509963,43.114539]}},{"properties":{"city":"Waterville","lon":-69.659478,"time":"1:00 PM","matchup":"Amherst at Colby","id":"a64nn4cmaxb4","lat":44.566927,"location":"Colby","state":"ME"},"type":"Feature","geometry":{"type":"Point","coordinates":[-69.659478,44.566927]}},{"properties":{"city":"Durham","lon":-78.943993,"time":"1:00 PM","matchup":"Army at Duke","id":"a64nn4ng0s8z","lat":35.995791,"location":"Duke","state":"NC"},"type":"Feature","geometry":{"type":"Point","coordinates":[-78.943993,35.995791]}},{"properties":{"city":"Springfield","lon":-72.55383,"time":"1:00 PM","matchup":"Babson at Springfield","id":"a64nn4br6d20","lat":42.105475,"location":"Springfield","state":"MA"},"type":"Feature","geometry":{"type":"Point","coordinates":[-72.55383,42.105475]}},{"properties":{"city":"Smithfield","lon":-71.536923,"time":"7:00 PM","matchup":"Bellarmine at Bryant","id":"a64nn4c2qfs5","lat":41.924201,"location":"Bryant","state":"RI"},"type":"Feature","geometry":{"type":"Point","coordinates":[-71.536923,41.924201]}},{"properties":{"city":"Worcester","lon":-71.827081,"time":"1:00 PM","matchup":"Bentley at Assumption","id":"a64nn4jzqb6w","lat":42.29629,"location":"Assumption","state":"MA"},"type":"Feature","geometry":{"type":"Point","coordinates":[-71.827081,42.29629]}},{"properties":{"city":"Stony Brook","lon":-73.124308,"time":"7:00 PM","matchup":"Binghamton at Stony Brook","id":"a64nn4dcoc5q","lat":40.918879,"location":"Stony Brook","state":"NY"},"type":"Feature","geometry":{"type":"Point","coordinates":[-73.124308,40.918879]}},{"properties":{"city":"Potsdam","lon":-74.967957,"time":"1:30 PM","matchup":"Brockport at Potsdam","id":"a64nn49mfokp","lat":44.661832,"location":"Potsdam","state":"NY"},"type":"Feature","geometry":{"type":"Point","coordinates":[-74.967957,44.661832]}},{"properties":{"city":"Providence","lon":-71.432843,"time":"7:00 PM","matchup":"Brown at Providence","id":"a64nn4obj7ac","lat":41.842105,"location":"Providence","state":"RI"},"type":"Feature","geometry":{"type":"Point","coordinates":[-71.432843,41.842105]}},{"properties":{"city":"Hamilton","lon":-75.543784,"time":"1:00 PM","matchup":"Bucknell at Colgate","id":"a64nn4js1pfz","lat":42.81662,"location":"Colgate","state":"NY"},"type":"Feature","geometry":{"type":"Point","coordinates":[-75.543784,42.81662]}},{"properties":{"city":"Winchester","lon":-78.157974,"time":"1:00 PM","matchup":"Cabrini at Shenandoah","id":"a64nn4b9hhn3","lat":39.166314,"location":"Shenandoah","state":"VA"},"type":"Feature","geometry":{"type":"Point","coordinates":[-78.157974,39.166314]}},{"properties":{"city":"Riverdale","lon":-73.898783,"time":"1:00 PM","matchup":"Canisius at Manhattan","id":"a64nn4gsniqn","lat":40.899218,"location":"Manhattan","state":"NY"},"type":"Feature","geometry":{"type":"Point","coordinates":[-73.898783,40.899218]}},{"properties":{"city":"Lynchburg","lon":-79.171184,"time":"1:00 PM","matchup":"Christopher Newport at Randolph","id":"a64nn4ljjs3x","lat":37.439041,"location":"Randolph","state":"VA"},"type":"Feature","geometry":{"type":"Point","coordinates":[-79.171184,37.439041]}},{"properties":{"city":"Medford","lon":-71.113106,"time":"1:00 PM","matchup":"Connecticut College at Tufts","id":"a64nn4ah8l8b","lat":42.406551,"location":"Tufts","state":"MA"},"type":"Feature","geometry":{"type":"Point","coordinates":[-71.113106,42.406551]}},{"properties":{"city":"Oneonta","lon":-75.064131,"time":"2:00 PM","matchup":"Cortland at Oneonta","id":"a64nn48h2vxa","lat":42.472843,"location":"Oneonta","state":"NY"},"type":"Feature","geometry":{"type":"Point","coordinates":[-75.064131,42.472843]}},{"properties":{"city":"New London","lon":-72.099342,"time":"2:00 PM","matchup":"Daniel Webster at Mitchell","id":"a64nn4lx2if2","lat":41.328973,"location":"Mitchell","state":"CT"},"type":"Feature","geometry":{"type":"Point","coordinates":[-72.099342,41.328973]}},{"properties":{"city":"Charlottesville","lon":-78.512507,"time":"12:00 PM","matchup":"Dartmouth at Virginia","id":"a64nn4egqaod","lat":38.046765,"location":"Virginia","state":"VA"},"type":"Feature","geometry":{"type":"Point","coordinates":[-78.512507,38.046765]}},{"properties":{"city":"Collegeville","lon":-75.452911,"time":"1:00 PM","matchup":"Dickinson at Ursinus","id":"a64nn4nkx6ed","lat":40.195319,"location":"Ursinus","state":"PA"},"type":"Feature","geometry":{"type":"Point","coordinates":[-75.452911,40.195319]}},{"properties":{"city":"Phoenix","lon":-112.132443,"time":"1:00 PM","matchup":"Dominican U. vs. Westminster","id":"a64nn4jkheok","lat":33.513797,"location":"Grand Canyon","state":"AZ"},"type":"Feature","geometry":{"type":"Point","coordinates":[-112.132443,33.513797]}},{"properties":{"city":"Rockville Centre","lon":-73.635228,"time":"1:00 PM","matchup":"Dowling at Molloy","id":"a64nn4fz6qx5","lat":40.686665,"location":"Molloy","state":"NY"},"type":"Feature","geometry":{"type":"Point","coordinates":[-73.635228,40.686665]}},{"properties":{"city":"Baltimore","lon":-76.588068,"time":"1:00 PM","matchup":"Drew at Goucher","id":"a64nn4ful62i","lat":39.41008,"location":"Goucher","state":"MD"},"type":"Feature","geometry":{"type":"Point","coordinates":[-76.588068,39.41008]}},{"properties":{"city":"Fairfield","lon":-73.24599,"time":"7:00 PM","matchup":"Drexel at Sacred Heart","id":"a64nn4b7iot8","lat":41.219283,"location":"Sacred Heart","state":"CT"},"type":"Feature","geometry":{"type":"Point","coordinates":[-73.24599,41.219283]}},{"properties":{"city":"Reading","lon":-75.933712,"time":"1:00 PM","matchup":"Elizabethtown at Alvernia","id":"a64nn4hzr5ci","lat":40.307877,"location":"Alvernia","state":"PA"},"type":"Feature","geometry":{"type":"Point","coordinates":[-75.933712,40.307877]}},{"properties":{"city":"Boston","lon":-71.093992,"time":"1:00 PM","matchup":"Endicott at Wentworth Tech.","id":"a64nn4o72kms","lat":42.337795,"location":"Wentworth Tech","state":"MA"},"type":"Feature","geometry":{"type":"Point","coordinates":[-71.093992,42.337795]}},{"properties":{"city":"Baltimore","lon":-76.618009,"time":"1:00 PM","matchup":"Fairfield at Loyola","id":"a64nn4ethszk","lat":39.346037,"location":"Loyola","state":"MD"},"type":"Feature","geometry":{"type":"Point","coordinates":[-76.618009,39.346037]}},{"properties":{"city":"Wilkes-Barre","lon":-75.860992,"time":"5:00 PM","matchup":"Fairleigh Dickinson at King's","id":"a64nn4bewcr5","lat":41.233239,"location":"King's","state":"PA"},"type":"Feature","geometry":{"type":"Point","coordinates":[-75.860992,41.233239]}},{"properties":{"city":"Amherst","lon":-72.529294,"time":"1:00 PM","matchup":"Georgetown at Massachusetts","id":"a64nn4f12ub0","lat":42.386547,"location":"Massachusetts","state":"MA"},"type":"Feature","geometry":{"type":"Point","coordinates":[-72.529294,42.386547]}},{"properties":{"city":"Swarthmore","lon":-75.354284,"time":"1:00 PM","matchup":"Gettysburg at Swarthmore","id":"a64nn4m34up1","lat":39.900079,"location":"Swarthmore","state":"PA"},"type":"Feature","geometry":{"type":"Point","coordinates":[-75.354284,39.900079]}},{"properties":{"city":"Lyndonville","lon":-72.025509,"time":"1:00 PM","matchup":"Green Mountain at Lyndon State","id":"a64nn4b7sus9","lat":44.533013,"location":"Lyndon State","state":"VT"},"type":"Feature","geometry":{"type":"Point","coordinates":[-72.025509,44.533013]}},{"properties":{"city":"Ithaca","lon":-76.500155,"time":"1:00 PM","matchup":"Hartwick at Ithaca","id":"a64nn4ijocu8","lat":42.418458,"location":"Ithaca","state":"NY"},"type":"Feature","geometry":{"type":"Point","coordinates":[-76.500155,42.418458]}},{"properties":{"city":"Westminster","lon":-77.003658,"time":"3:00 PM","matchup":"Haverford at McDaniel","id":"a64nn4je8ntj","lat":39.584867,"location":"McDaniel","state":"MD"},"type":"Feature","geometry":{"type":"Point","coordinates":[-77.003658,39.584867]}},{"properties":{"city":"Cambridge","lon":-71.127571,"time":"1:00 PM","matchup":"Holy Cross at Harvard","id":"a64nn4n61niz","lat":42.37012,"location":"Harvard","state":"MA"},"type":"Feature","geometry":{"type":"Point","coordinates":[-71.127571,42.37012]}},{"properties":{"city":"Castleton","lon":-73.183277,"time":"12:00 PM","matchup":"Husson at Castleton","id":"a64nn49vrh3r","lat":43.605985,"location":"Castleton","state":"VT"},"type":"Feature","geometry":{"type":"Point","coordinates":[-73.183277,43.605985]}},{"properties":{"city":"Hackettstown","lon":-74.836708,"time":"1:00 PM","matchup":"Immaculata at Centenary","id":"a64nn4d5rrxc","lat":40.845591,"location":"Centenary","state":"NJ"},"type":"Feature","geometry":{"type":"Point","coordinates":[-74.836708,40.845591]}},{"properties":{"city":"Standish","lon":-70.485993,"time":"1:00 PM","matchup":"Johnson State at St. Joseph's","id":"a64nn4d6b3wy","lat":43.82701,"location":"St. Joseph's","state":"ME"},"type":"Feature","geometry":{"type":"Point","coordinates":[-70.485993,43.82701]}},{"properties":{"city":"Danbury","lon":-73.492608,"time":"1:00 PM","matchup":"Keene State at Western Connecticut","id":"a64nn4i7czqk","lat":41.396174,"location":"Western Connecticut","state":"CT"},"type":"Feature","geometry":{"type":"Point","coordinates":[-73.492608,41.396174]}},{"properties":{"city":"Delaware","lon":-83.063424,"time":"1:00 PM","matchup":"Kenyon at Ohio Wesleyan","id":"a64nn49whvg2","lat":40.296561,"location":"Ohio Wesleyan","state":"OH"},"type":"Feature","geometry":{"type":"Point","coordinates":[-83.063424,40.296561]}},{"properties":{"city":"Cazenovia","lon":-75.855026,"time":"2:00 PM","matchup":"Keuka at Cazenovia","id":"a64nn4mwq6t5","lat":42.932299,"location":"Cazenovia","state":"NY"},"type":"Feature","geometry":{"type":"Point","coordinates":[-75.855026,42.932299]}},{"properties":{"city":"Bethlehem","lon":-75.359732,"time":"7:00 PM","matchup":"Lafayette at Lehigh","id":"a64nn4kydulw","lat":40.586483,"location":"Lehigh","state":"PA"},"type":"Feature","geometry":{"type":"Point","coordinates":[-75.359732,40.586483]}},{"properties":{"city":"Buzzards Bay","lon":-70.622698,"time":"1:00 PM","matchup":"Lasell at Mass. Maritime","id":"a64nn4dkzovb","lat":41.740457,"location":"Mass. Maritime","state":"MA"},"type":"Feature","geometry":{"type":"Point","coordinates":[-70.622698,41.740457]}},{"properties":{"city":"Greensboro","lon":-79.885991,"time":"1:00 PM","matchup":"Lynchburg at Guilford","id":"a64nn4czmqb8","lat":36.091502,"location":"Guilford","state":"NC"},"type":"Feature","geometry":{"type":"Point","coordinates":[-79.885991,36.091502]}},{"properties":{"city":"Worcester","lon":-71.830118,"time":"11:00 AM","matchup":"MIT at Clark","id":"a64nn4ev89da","lat":42.249097,"location":"Clark","state":"MA"},"type":"Feature","geometry":{"type":"Point","coordinates":[-71.830118,42.249097]}},{"properties":{"city":"Boston","lon":-71.066845,"time":"4:00 PM","matchup":"Maine Maritime at Emerson","id":"a64nn4hl37ft","lat":42.353503,"location":"Emerson","state":"MA"},"type":"Feature","geometry":{"type":"Point","coordinates":[-71.066845,42.353503]}},{"properties":{"city":"Philadelphia","lon":-75.236598,"time":"1:00 PM","matchup":"Marist at Saint Joseph's","id":"a64nn4mupluj","lat":39.994637,"location":"Saint Joseph's","state":"PA"},"type":"Feature","geometry":{"type":"Point","coordinates":[-75.236598,39.994637]}},{"properties":{"city":"Philadelphia","lon":-75.189918,"time":"4:30 PM","matchup":"Maryland at Penn","id":"a64nn4lvx23s","lat":39.950037,"location":"Penn","state":"PA"},"type":"Feature","geometry":{"type":"Point","coordinates":[-75.189918,39.950037]}},{"properties":{"city":"Willamantic","lon":-72.221745,"time":"1:00 PM","matchup":"Mass-Boston at Eastern Connecticut","id":"a64nn4ewdibm","lat":41.722136,"location":"Eastern Connecticut","state":"CT"},"type":"Feature","geometry":{"type":"Point","coordinates":[-72.221745,41.722136]}},{"properties":{"city":"Selinsgrove","lon":-76.875946,"time":"12:00 PM","matchup":"Merchant Marine at Susquehanna","id":"a64nn4ak26r0","lat":40.793895,"location":"Susquehanna","state":"PA"},"type":"Feature","geometry":{"type":"Point","coordinates":[-76.875946,40.793895]}},{"properties":{"city":"Brookville","lon":-73.60107,"time":"12:00 PM","matchup":"Mercyhurst at C. W. Post","id":"a64nn4hn5m2t","lat":40.810211,"location":"C. W. Post","state":"NY"},"type":"Feature","geometry":{"type":"Point","coordinates":[-73.60107,40.810211]}},{"properties":{"city":"Purchase","lon":-73.717943,"time":"1:00 PM","matchup":"Messiah at Manhattanville","id":"a64nn4a5m7tg","lat":41.032369,"location":"Manhattanville","state":"NY"},"type":"Feature","geometry":{"type":"Point","coordinates":[-73.717943,41.032369]}},{"properties":{"city":"Hartford","lon":-72.689396,"time":"1:00 PM","matchup":"Middlebury at Trinity","id":"a64nn4gd2uhb","lat":41.749767,"location":"Trinity","state":"CT"},"type":"Feature","geometry":{"type":"Point","coordinates":[-72.689396,41.749767]}},{"properties":{"city":"Center Valley","lon":-75.384951,"time":"1:00 PM","matchup":"Misericordia at DeSales","id":"a64nn4o02c3k","lat":40.535438,"location":"DeSales","state":"PA"},"type":"Feature","geometry":{"type":"Point","coordinates":[-75.384951,40.535438]}},{"properties":{"city":"Union","lon":-74.238411,"time":"3:00 PM","matchup":"Moravian at Kean","id":"a64nn4k6hq5z","lat":40.681086,"location":"Kean","state":"NJ"},"type":"Feature","geometry":{"type":"Point","coordinates":[-74.238411,40.681086]}},{"properties":{"city":"Geneseo","lon":-77.825383,"time":"4:00 PM","matchup":"Morrisville at Geneseo","id":"a64nn4evegsd","lat":42.797383,"location":"Geneseo","state":"NY"},"type":"Feature","geometry":{"type":"Point","coordinates":[-77.825383,42.797383]}},{"properties":{"city":"Waterville","lon":-69.663766,"time":"3:00 PM","matchup":"Mount Ida at Thomas","id":"a64nn4bk8wml","lat":44.528352,"location":"Thomas","state":"ME"},"type":"Feature","geometry":{"type":"Point","coordinates":[-69.663766,44.528352]}},{"properties":{"city":"Sewanee","lon":-85.92228,"time":"4:00 PM","matchup":"Mount St. Joseph at Sewanee","id":"a64nn49pngp1","lat":35.209314,"location":"Sewanee","state":"TN"},"type":"Feature","geometry":{"type":"Point","coordinates":[-85.92228,35.209314]}},{"properties":{"city":"Loundonville","lon":-73.745989,"time":"1:00 PM","matchup":"Mount St. Mary's at Siena","id":"a64nn4jfx71c","lat":42.716549,"location":"Siena","state":"NY"},"type":"Feature","geometry":{"type":"Point","coordinates":[-73.745989,42.716549]}},{"properties":{"city":"Montclair","lon":-74.201179,"time":"12:00 PM","matchup":"Muhlenberg at Montclair State","id":"a64nn4miz1z9","lat":40.85858,"location":"Montclair State","state":"NJ"},"type":"Feature","geometry":{"type":"Point","coordinates":[-74.201179,40.85858]}},{"properties":{"city":"Baltimore","lon":-76.620865,"time":"2:00 PM","matchup":"Navy at Johns Hopkins","id":"a64nn4cb0n43","lat":39.333476,"location":"Johns Hopkins","state":"MD"},"type":"Feature","geometry":{"type":"Point","coordinates":[-76.620865,39.333476]}},{"properties":{"city":"Gwynedd Valley","lon":-75.24043,"time":"1:00 PM","matchup":"Neumann at Gwynedd-Mercy","id":"a64nn4kjxj9m","lat":40.198662,"location":"Gwynedd-Mercy","state":"PA"},"type":"Feature","geometry":{"type":"Point","coordinates":[-75.24043,40.198662]}},{"properties":{"city":"Hempstead","lon":-73.596183,"time":"7:00 PM","matchup":"North Carolina at Hofstra","id":"a64nn48jwpb1","lat":40.715534,"location":"Hofstra","state":"NY"},"type":"Feature","geometry":{"type":"Point","coordinates":[-73.596183,40.715534]}},{"properties":{"city":"Wheaton","lon":-88.096022,"time":"1:00 PM","matchup":"Norwich at Wheaton","id":"a64nn4mrfc0b","lat":41.867363,"location":"Wheaton","state":"IL"},"type":"Feature","geometry":{"type":"Point","coordinates":[-88.096022,41.867363]}},{"properties":{"city":"Hamden","lon":-72.888144,"time":"1:00 PM","matchup":"Notre Dame at Quinnipiac","id":"a64nn4hel9d0","lat":41.422765,"location":"Quinnipiac","state":"CT"},"type":"Feature","geometry":{"type":"Point","coordinates":[-72.888144,41.422765]}},{"properties":{"city":"Washington","lon":-80.245653,"time":"1:00 PM","matchup":"PSU - Abington at Washington &amp; Jefferson","id":"a64nn4912sar","lat":40.1645,"location":"Washington &amp; Jefferson","state":"PA"},"type":"Feature","geometry":{"type":"Point","coordinates":[-80.245653,40.1645]}},{"properties":{"city":"North Andover","lon":-71.123037,"time":"1:00 PM","matchup":"Pace at Merrimack","id":"a64nn4nypyuw","lat":42.665374,"location":"Merrimack","state":"MA"},"type":"Feature","geometry":{"type":"Point","coordinates":[-71.123037,42.665374]}},{"properties":{"city":"Oswego","lon":-76.535805,"time":"1:00 PM","matchup":"Plattsburgh at Oswego","id":"a64nn4jhatrm","lat":43.447756,"location":"Oswego","state":"NY"},"type":"Feature","geometry":{"type":"Point","coordinates":[-76.535805,43.447756]}},{"properties":{"city":"Dartmouth","lon":-71.005672,"time":"1:00 PM","matchup":"Plymouth State at Mass-Dartmouth","id":"a64nn4kg0l0y","lat":41.622386,"location":"Mass-Dartmouth","state":"MA"},"type":"Feature","geometry":{"type":"Point","coordinates":[-71.005672,41.622386]}},{"properties":{"city":"Ithaca","lon":-76.476306,"time":"1:00 PM","matchup":"Princeton at Cornell","id":"a64nn4a9b81o","lat":42.443222,"location":"Cornell","state":"NY"},"type":"Feature","geometry":{"type":"Point","coordinates":[-76.476306,42.443222]}},{"properties":{"city":"Villanova","lon":-75.336677,"time":"1:00 PM","matchup":"Robert Morris at Villanova","id":"a64nn4bizs5f","lat":40.032967,"location":"Villanova","state":"PA"},"type":"Feature","geometry":{"type":"Point","coordinates":[-75.336677,40.032967]}},{"properties":{"city":"Springfield","lon":-72.553136,"time":"3:00 PM","matchup":"S. New Hampshire at American International","id":"a64nn4n5emy1","lat":42.11732,"location":"American International","state":"MA"},"type":"Feature","geometry":{"type":"Point","coordinates":[-72.553136,42.11732]}},{"properties":{"city":"Rindge","lon":-72.054201,"time":"1:00 PM","matchup":"Saint Anselm at Franklin Pierce","id":"a64nn4a2kiax","lat":42.77809,"location":"Franklin Pierce","state":"NH"},"type":"Feature","geometry":{"type":"Point","coordinates":[-72.054201,42.77809]}},{"properties":{"city":"Syracuse","lon":-76.08409,"time":"1:00 PM","matchup":"Saint Michael's at Le Moyne","id":"a64nn4d8ltpn","lat":43.049084,"location":"Le Moyne","state":"NY"},"type":"Feature","geometry":{"type":"Point","coordinates":[-76.08409,43.049084]}},{"properties":{"city":"Greensboro","lon":-79.800562,"time":"1:00 PM","matchup":"Saint Vincent at Greensboro","id":"a64nn4ncmnae","lat":36.069828,"location":"Greensboro","state":"NC"},"type":"Feature","geometry":{"type":"Point","coordinates":[-79.800562,36.069828]}},{"properties":{"city":"Milton","lon":-71.112283,"time":"12:00 PM","matchup":"Salve Regina at Curry","id":"a64nn4elozsc","lat":42.240645,"location":"Curry","state":"MA"},"type":"Feature","geometry":{"type":"Point","coordinates":[-71.112283,42.240645]}},{"properties":{"city":"Washington","lon":-77.002786,"time":"2:30 PM","matchup":"Scranton at Catholic","id":"a64nn4dvmgjf","lat":38.928495,"location":"Catholic","state":"DC"},"type":"Feature","geometry":{"type":"Point","coordinates":[-77.002786,38.928495]}},{"properties":{"city":"Poughkeepsie","lon":-73.904568,"time":"1:00 PM","matchup":"Skidmore at Vassar","id":"a64nn4e2fulr","lat":41.686689,"location":"Vassar","state":"NY"},"type":"Feature","geometry":{"type":"Point","coordinates":[-73.904568,41.686689]}},{"properties":{"city":"Salem","lon":-70.894107,"time":"1:00 PM","matchup":"Southern Maine at Salem State","id":"a64nn4duaca9","lat":42.504622,"location":"Salem State","state":"MA"},"type":"Feature","geometry":{"type":"Point","coordinates":[-70.894107,42.504622]}},{"properties":{"city":"Troy","lon":-73.679977,"time":"1:00 PM","matchup":"St. Lawrence at Rensselaer","id":"a64nn4blyr0u","lat":42.730205,"location":"Rensselaer","state":"NY"},"type":"Feature","geometry":{"type":"Point","coordinates":[-73.679977,42.730205]}},{"properties":{"city":"Throgs Neck","lon":-73.797751,"time":"1:00 PM","matchup":"Stockton at Maritime","id":"a64nn4aq7d1z","lat":40.807477,"location":"Maritime","state":"NY"},"type":"Feature","geometry":{"type":"Point","coordinates":[-73.797751,40.807477]}},{"properties":{"city":"Newark","lon":-75.749538,"time":"1:00 PM","matchup":"Towson at Delaware","id":"a64nn4g1w5qu","lat":39.659258,"location":"Delaware","state":"DE"},"type":"Feature","geometry":{"type":"Point","coordinates":[-75.749538,39.659258]}},{"properties":{"city":"Bristol","lon":-75.645095,"time":"3:30 PM","matchup":"U. of New England at Roger Williams","id":"a64nn4hwyefh","lat":42.89371,"location":"Roger Williams","state":"RI"},"type":"Feature","geometry":{"type":"Point","coordinates":[-75.645095,42.89371]}},{"properties":{"city":"Hartford","lon":-72.702778,"time":"1:00 PM","matchup":"UMBC at Hartford","id":"a64nn4dujktw","lat":41.765242,"location":"Hartford","state":"CT"},"type":"Feature","geometry":{"type":"Point","coordinates":[-72.702778,41.765242]}},{"properties":{"city":"Potsdam","lon":-74.977854,"time":"4:00 PM","matchup":"Union vs. Clarkson","id":"a64nn4cgs389","lat":44.677558,"location":"Potsdam HS","state":"NY"},"type":"Feature","geometry":{"type":"Point","coordinates":[-74.977854,44.677558]}},{"properties":{"city":"Elmira","lon":-76.817141,"time":"1:00 PM","matchup":"Utica College at Elmira","id":"a64nn4g3q4un","lat":42.094846,"location":"Elmira","state":"NY"},"type":"Feature","geometry":{"type":"Point","coordinates":[-76.817141,42.094846]}},{"properties":{"city":"Staten Island","lon":-74.094851,"time":"1:00 PM","matchup":"VMI at Wagner","id":"a64nn4bdygkb","lat":40.617442,"location":"Wagner","state":"NY"},"type":"Feature","geometry":{"type":"Point","coordinates":[-74.094851,40.617442]}},{"properties":{"city":"Salem","lon":-80.055562,"time":"2:00 PM","matchup":"Virginia Wesleyan at Roanoke","id":"a64nn4o3qek0","lat":37.296947,"location":"Roanoke","state":"VA"},"type":"Feature","geometry":{"type":"Point","coordinates":[-80.055562,37.296947]}},{"properties":{"city":"Hampden-Sydney","lon":-78.455328,"time":"1:00 PM","matchup":"Washington &amp; Lee at Hampden-Sydney","id":"a64nn4nbsucv","lat":37.246564,"location":"Hampden-Sydney","state":"VA"},"type":"Feature","geometry":{"type":"Point","coordinates":[-78.455328,37.246564]}},{"properties":{"city":"Lancaster","lon":-76.318697,"time":"1:00 PM","matchup":"Washington College at Franklin &amp; Marshall","id":"a64nn4hbaspe","lat":40.049,"location":"Franklin &amp; Marshall","state":"PA"},"type":"Feature","geometry":{"type":"Point","coordinates":[-76.318697,40.049]}},{"properties":{"city":"Scranton","lon":-75.630277,"time":"12:00 PM","matchup":"Wells at Marywood","id":"a64nn4g0duhv","lat":41.435154,"location":"Marywood","state":"PA"},"type":"Feature","geometry":{"type":"Point","coordinates":[-75.630277,41.435154]}},{"properties":{"city":"Wenham","lon":-70.829292,"time":"2:30 PM","matchup":"Western New England at Gordon","id":"a64nn4f1fibw","lat":42.587996,"location":"Gordon","state":"MA"},"type":"Feature","geometry":{"type":"Point","coordinates":[-70.829292,42.587996]}},{"properties":{"city":"Williamsport","lon":-77.0028,"time":"1:00 PM","matchup":"Widener at Lycoming","id":"a64nn4neo0uj","lat":41.244379,"location":"Lycoming","state":"PA"},"type":"Feature","geometry":{"type":"Point","coordinates":[-77.0028,41.244379]}},{"properties":{"city":"Middletown","lon":-72.656484,"time":"1:00 PM","matchup":"Williams at Wesleyan","id":"a64nn4f8y1vm","lat":41.554005,"location":"Wesleyan","state":"CT"},"type":"Feature","geometry":{"type":"Point","coordinates":[-72.656484,41.554005]}}],"is_temporal":true,"author":{"url":"http://www.laxpower.com/calendar/gcalendar.php# ","metadata":"","contact_name":"","contact_address":"","source":"LaxPower ","contact_phone":""},"source":"http://www.laxpower.com/calendar/gcalendar.php# ","pagination":{"sort":null,"start":0,"total":92,"limit":1000000},"state":"complete","tags":"athletics,college,lacrosse,ncaa","published":"2009-04-18T12:00:00Z","id":11746}