{"type":"FeatureCollection","data_type":"Dataset","url_type":null,"permissions":[{"permissions":{"download":true,"view":true},"group_id":"everyone"}],"classification":null,"title":"mapinfo-builder","count":30,"stream_id":117697,"contributor":{"url":"http://geocommons.com/users/27101","name":"27101"},"data_attributes":null,"calculation_params":null,"icon_link":null,"link":"http://geocommons.com/overlays/117697.json","extent":[-81.8109,35.6414,-79.8005,36.5579],"geometry_types":["point"],"unique_name":null,"name":"mapinfo-builder","feature_count":30,"description":"","next_feature":null,"is_raster":false,"short_classification":"Y","stats":{},"features":[{"properties":{"name":"Brian Weaver Construction","city":"Todd","zip":"28684","geo_score":0.497,"url":null,"type":"Builder","phone":"336-877-3230","id":"a74ue5rbdio5","geo_precision":"street","address":"367 Mission Oaks Drive","state":"NC"},"type":"Feature","geometry":{"type":"Point","coordinates":[-81.4768,35.828108]}},{"properties":{"name":"Cross Creek Construction","city":"West Jefferson","zip":"28694","geo_score":0.446,"url":null,"type":"Builder","phone":"336-384-3802","id":"a74ue6163h4n","geo_precision":"street","address":"PO Box 642","state":"NC"},"type":"Feature","geometry":{"type":"Point","coordinates":[-81.030647,35.73251]}},{"properties":{"name":"Dan Wineberg Construction Co.","city":"Jefferson","zip":"28640","geo_score":0.874,"url":null,"type":"Builder","phone":"336-846-1286","id":"a74ue5tnminr","geo_precision":"range","address":"212 Sunnyside Park Rd","state":"NC"},"type":"Feature","geometry":{"type":"Point","coordinates":[-81.445407,36.420155]}},{"properties":{"name":"DARREL HAMILTON BUILDER","city":"Jefferson","zip":"28640","geo_score":0.913,"url":"<a href=\"www.darrelhamiltonbuilder.com%20\">www.darrelhamiltonbuilder.com </a>","type":"Builder","phone":"336-982-4845","id":"a74ue5nnimgt","geo_precision":"range","address":"480 Greenview Dr","state":"NC"},"type":"Feature","geometry":{"type":"Point","coordinates":[-81.35168,36.379657]}},{"properties":{"name":"D. L. Shepherd Construction","city":"Warrensville","zip":"28693","geo_score":0.902,"url":null,"type":"Builder","phone":"336-384-1400","id":"a74ue5zvcghs","geo_precision":"range","address":"317 W Staggs Creek Road","state":"NC"},"type":"Feature","geometry":{"type":"Point","coordinates":[-81.562484,36.4759]}},{"properties":{"name":"EGGERS &amp; EGGERS CONSTRUCTION","city":"Jefferson","zip":"28640","geo_score":0.442,"url":"www.eggersconstruction.us","type":"Builder","phone":"336-982-9456","id":"a74ue5xamdue","geo_precision":"street","address":"PO Box 1151","state":"NC"},"type":"Feature","geometry":{"type":"Point","coordinates":[-81.810926,36.14944]}},{"properties":{"name":"EWB Construction","city":"Crumpler","zip":"28617","geo_score":0.911,"url":null,"type":"Builder","phone":"336-982-3828","id":"a74ue5y0ma3m","geo_precision":"range","address":"316 Beau Rivage Drive","state":"NC"},"type":"Feature","geometry":{"type":"Point","coordinates":[-81.386763,36.505956]}},{"properties":{"name":"Fairway Ridge Development","city":"West Jefferson","zip":"28694","geo_score":0.917,"url":"www.mountainaire.com/realestate.htm","type":"Builder","phone":"336-877-4718","id":"a74ue62eiim6","geo_precision":"range","address":"1104 Golf Course Road","state":"NC"},"type":"Feature","geometry":{"type":"Point","coordinates":[-81.531118,36.376317]}},{"properties":{"name":"Fleetwood Falls, Inc","city":"Fleetwood","zip":"28626","geo_score":0.883,"url":"www.fleetwoodfallsinc.com/","type":"Builder","phone":"336-877-1110","id":"a74ue5w42vt2","geo_precision":"range","address":"3108 Railroad Grade Road","state":"NC"},"type":"Feature","geometry":{"type":"Point","coordinates":[-81.532241,36.289127]}},{"properties":{"name":"Heart Pine Homes","city":"Fleetwood","zip":"28626","geo_score":1.0,"url":null,"type":"Builder","phone":"980-521-2724","id":"a74ue5rirbcd","geo_precision":"range","address":"111 Worth McNeil Road","state":"NC"},"type":"Feature","geometry":{"type":"Point","coordinates":[-81.464887,36.288097]}},{"properties":{"name":"Herman Construction","city":"Jefferson","zip":"28640","geo_score":0.446,"url":null,"type":"Builder","phone":"336-977-2943","id":"a74ue5s574bu","geo_precision":"street","address":"PO Box 278","state":"NC"},"type":"Feature","geometry":{"type":"Point","coordinates":[-81.030647,35.73251]}},{"properties":{"name":"Hess &amp; Son Construction","city":"Lansing","zip":"28643","geo_score":0.902,"url":null,"type":"Builder","phone":"336-384-3880","id":"a74ue5s37s2f","geo_precision":"range","address":"322 Whenlin Ridge Road","state":"NC"},"type":"Feature","geometry":{"type":"Point","coordinates":[-81.619181,36.557856]}},{"properties":{"name":"HODGSON CONSTRUCTION","city":"West Jefferson","zip":"28694","geo_score":0.917,"url":"www.ashecountybuilder.com","type":"Builder","phone":"336-384-8810","id":"a74ue5n37gtv","geo_precision":"range","address":"668 Old Buffalo Road","state":"NC"},"type":"Feature","geometry":{"type":"Point","coordinates":[-81.522154,36.426813]}},{"properties":{"name":"Joel Carpenter","city":"Jefferson","zip":"28640","geo_score":0.719,"url":"www.ecomountainbuilder.com/","type":"Builder","phone":"336-973-0228","id":"a74ue5so6cpq","geo_precision":"street","address":"916 Walnut Drive","state":"NC"},"type":"Feature","geometry":{"type":"Point","coordinates":[-81.346289,36.366229]}},{"properties":{"name":"Johnson Construction","city":"West Jefferson","zip":"28694","geo_score":0.917,"url":null,"type":"Builder","phone":"336-977-3790","id":"a74ue5nucytl","geo_precision":"range","address":"341 Bald Mountain Road","state":"NC"},"type":"Feature","geometry":{"type":"Point","coordinates":[-81.532997,36.360025]}},{"properties":{"name":"Karu Construction","city":"West Jefferson","zip":"28694","geo_score":0.446,"url":null,"type":"Builder","phone":"828-406-2187","id":"a74ue5xba9vq","geo_precision":"street","address":"PO Box 281","state":"NC"},"type":"Feature","geometry":{"type":"Point","coordinates":[-81.030647,35.73251]}},{"properties":{"name":"Kenneth T. Parson Construction","city":"Jefferson","zip":"28640","geo_score":0.446,"url":null,"type":"Builder","phone":"336-246-7002","id":"a74ue5qwsjqk","geo_precision":"street","address":"PO Box 517","state":"NC"},"type":"Feature","geometry":{"type":"Point","coordinates":[-81.030647,35.73251]}},{"properties":{"name":"MARC WADDELL CONSTRUCTION","city":"Jefferson","zip":"28640","geo_score":0.442,"url":"www.ashewataugabuilder.com","type":"Builder","phone":"336-246-6369","id":"a74ue5t3frxg","geo_precision":"street","address":"PO Box 1162","state":"NC"},"type":"Feature","geometry":{"type":"Point","coordinates":[-81.504157,35.85993]}},{"properties":{"name":"MasterCraft Log &amp; Custom Homes,LLC","city":"West Jefferson","zip":"28694","geo_score":0.917,"url":"www.mcloghomes.com/","type":"Builder","phone":"336-877-3366","id":"a74ue61j5bvc","geo_precision":"range","address":"6502 US Hwy 221 S","state":"NC"},"type":"Feature","geometry":{"type":"Point","coordinates":[-81.53092,36.342182]}},{"properties":{"name":"NEW RIVER CUSTOM BUILDERS","city":"Grassey Creek","zip":"28631","geo_score":0.911,"url":"www.newrivercustombuilders.com","type":"Builder","phone":"336-384-1209","id":"a74ue5u4439f","geo_precision":"range","address":"637 Low Notch Road","state":"NC"},"type":"Feature","geometry":{"type":"Point","coordinates":[-81.425341,36.52564]}},{"properties":{"name":"North Ridge Building Company","city":"Kernersville","zip":"27284","geo_score":0.475,"url":null,"type":"Builder","phone":"336-996-3915","id":"a74ue5r7mllz","geo_precision":"street","address":"609 Nickel Creek Ct","state":"NC"},"type":"Feature","geometry":{"type":"Point","coordinates":[-79.80053,35.641373]}},{"properties":{"name":"Paddy Mountain Log Homes","city":"West Jefferson","zip":"28694","geo_score":0.446,"url":null,"type":"Builder","phone":"336-246-3923","id":"a74ue61hjy9n","geo_precision":"street","address":"PO Box 330","state":"NC"},"type":"Feature","geometry":{"type":"Point","coordinates":[-81.030647,35.73251]}},{"properties":{"name":"PRUITT CONSTRUCTION","city":"Jefferson","zip":"28640","geo_score":0.6,"url":"www.ashebuildercontractor.com","type":"Builder","phone":"336-846-1088","id":"a74ue5yr9m04","geo_precision":"street","address":"PO Box 1206","state":"NC"},"type":"Feature","geometry":{"type":"Point","coordinates":[-81.454593,36.415659]}},{"properties":{"name":"Russell Electric &amp; Builders","city":"Fleetwood","zip":"28626","geo_score":1.0,"url":null,"type":"Builder","phone":"336-977-6902","id":"a74ue5zmn03k","geo_precision":"range","address":"179 Jordan Road","state":"NC"},"type":"Feature","geometry":{"type":"Point","coordinates":[-81.534412,36.316607]}},{"properties":{"name":"SHATLEY CONSTRUCTION &amp; PAVING","city":"West Jefferson","zip":"28694","geo_score":0.917,"url":"www.shatleyconstruction.com","type":"Builder","phone":"336-877-8824","id":"a74ue5tej2qt","geo_precision":"range","address":"515 Clarence Lyall Road","state":"NC"},"type":"Feature","geometry":{"type":"Point","coordinates":[-81.522145,36.356846]}},{"properties":{"name":"Thomas Howell Construction &amp; Management Company, LLC","city":"West Jefferson","zip":"28694","geo_score":0.446,"url":"www.thomashowellconstruction.com/","type":"Builder","phone":"336-246-5797","id":"a74ue5wtc6lh","geo_precision":"street","address":"PO Box 222","state":"NC"},"type":"Feature","geometry":{"type":"Point","coordinates":[-81.030647,35.73251]}},{"properties":{"name":"Timber Solutions","city":"Jefferson","zip":"28640","geo_score":0.476,"url":"www.timbersolutionsinc.com/","type":"Builder","phone":"336-846-1002","id":"a74ue5un7od3","geo_precision":"street","address":"PO Box 1712","state":"NC"},"type":"Feature","geometry":{"type":"Point","coordinates":[-81.035719,35.754349]}},{"properties":{"name":"Western Carolina Gutter Works","city":"Vilas","zip":"28692","geo_score":0.655,"url":null,"type":"Builder","phone":null,"id":"a74ue5sxry3k","geo_precision":"street","address":"3769 Old US Hwy 421","state":"NC"},"type":"Feature","geometry":{"type":"Point","coordinates":[-81.779388,36.278497]}},{"properties":{"name":"WGS Contractors","city":"West Jefferson","zip":"28694","geo_score":0.442,"url":"www.warrenshepherd.com/","type":"Builder","phone":"336- 877-7332","id":"a74ue5ngk451","geo_precision":"street","address":"PO Box 1858","state":"NC"},"type":"Feature","geometry":{"type":"Point","coordinates":[-80.898951,35.970983]}},{"properties":{"name":"Woodland Construction, LLC","city":"Todd","zip":"28684","geo_score":0.446,"url":"www.thewoodlands-nc.com/woodlands-construction.html","type":"Builder","phone":"828-773-5134","id":"a74ue62c4n8w","geo_precision":"street","address":"PO Box 151","state":"NC"},"type":"Feature","geometry":{"type":"Point","coordinates":[-81.030647,35.73251]}}],"is_temporal":false,"author":{"url":null,"metadata":null,"contact_name":null,"contact_address":null,"source":null,"contact_phone":null},"source":null,"pagination":{"sort":null,"start":0,"total":30,"limit":1000000},"state":"complete","tags":"","published":"2014-08-13T08:10:19-04:00","id":117697}