{"type":"FeatureCollection","data_type":"Dataset","url_type":null,"permissions":[{"permissions":{"download":true,"view":true},"group_id":"everyone"}],"classification":null,"title":"Regional Headquarters, Pennsylvania, 2008","count":7,"stream_id":11824,"contributor":{"url":"http://geocommons.com/users/955","name":"williambenjaminiv"},"data_attributes":null,"calculation_params":null,"icon_link":null,"link":"http://geocommons.com/overlays/11824.json","extent":[-80.2023,40.0233,-76.13,41.6254],"geometry_types":["point"],"unique_name":null,"name":"Regional Headquarters, Pennsylvania, 2008","feature_count":7,"description":"Regional Pennsylvania Fish and Boat Commission Bureau of Law Enforcement office locations. ","next_feature":null,"is_raster":false,"short_classification":"Y","stats":{"X":{"max":-76.1299802741,"mean":-77.6639858689143,"variance":2.22690563612969,"stdev":1.49228202298684,"min":-80.202348736,"median":-77.3079823555},"Y":{"max":41.6254245191,"mean":40.6304486120429,"variance":0.403701676110108,"stdev":0.635375224658711,"min":40.0233777043,"median":40.2923550731}},"features":[{"properties":{"X":-76.8617488178,"Y":40.2923550731,"REGION_ABB":"HQ","PHONE_NUMB":"(717) 705-7800","id":"a648cluzsxbm","REGION":"Southcentral","COUNTY":"Dauphin"},"type":"Feature","geometry":{"type":"Point","coordinates":[-76.86175,40.2923599999995]}},{"properties":{"X":-77.7576275294,"Y":40.8654033628,"REGION_ABB":"NC","PHONE_NUMB":"(717) 726-6056","id":"a648clks91dd","REGION":"Northcentral","COUNTY":"Clinton"},"type":"Feature","geometry":{"type":"Point","coordinates":[-77.7576300000001,40.8654000000006]}},{"properties":{"X":-76.1299802741,"Y":41.2933486771,"REGION_ABB":"NE","PHONE_NUMB":"(717) 477 5717","id":"a648clylo0ig","REGION":"Northeast","COUNTY":"Luzerne"},"type":"Feature","geometry":{"type":"Point","coordinates":[-76.1299799999997,41.2933499999999]}},{"properties":{"X":-80.202348736,"Y":41.6254245191,"REGION_ABB":"NW","PHONE_NUMB":"(814) 437-5774","id":"a648clnieb55","REGION":"Northwest","COUNTY":"Venango"},"type":"Feature","geometry":{"type":"Point","coordinates":[-80.2023499999996,41.6254200000003]}},{"properties":{"X":-77.3079823555,"Y":40.1031610248,"REGION_ABB":"SC","PHONE_NUMB":"(717) 486-7087","id":"a648clmjm3v8","REGION":"Southcentral","COUNTY":"Cumberland"},"type":"Feature","geometry":{"type":"Point","coordinates":[-77.3079799999996,40.1031600000005]}},{"properties":{"X":-76.31859432,"Y":40.2100699231,"REGION_ABB":"SE","PHONE_NUMB":"(717) 626-0228","id":"a648cllg78e1","REGION":"Southeast","COUNTY":"Lancaster"},"type":"Feature","geometry":{"type":"Point","coordinates":[-76.3185900000008,40.2100699999992]}},{"properties":{"X":-79.0696190496,"Y":40.0233777043,"REGION_ABB":"SW","PHONE_NUMB":"(814) 445-8974","id":"a648clu0qd3s","REGION":"Southwest","COUNTY":"Somerset"},"type":"Feature","geometry":{"type":"Point","coordinates":[-79.0692799999997,40.0232699999997]}}],"is_temporal":false,"author":{"url":"http://www.pasda.psu.edu","metadata":"http://www.pasda.psu.edu/uci/FullMetadataDisplay.aspx?file=Regional_Headquarters200810.xml","contact_name":"","contact_address":"","source":"Pennsylvania Spatial Data Access ","contact_phone":""},"source":"http://www.pasda.psu.edu","pagination":{"sort":null,"start":0,"total":7,"limit":1000000},"state":"complete","tags":"enforcement,headquaters,infrastructure,law","published":"2008-01-01T12:00:00Z","id":11824}