{"type":"FeatureCollection","data_type":"Dataset","url_type":null,"permissions":[{"permissions":{"download":true,"view":true},"group_id":"everyone"}],"classification":null,"title":"Map Data","count":80,"stream_id":118367,"contributor":{"url":"http://geocommons.com/users/27195","name":"schaeferg"},"data_attributes":null,"calculation_params":null,"icon_link":null,"link":"http://geocommons.com/overlays/118367.json","extent":[-7.41667,33.0833,19.94,43.3236],"geometry_types":["point"],"unique_name":null,"name":"Map Data","feature_count":80,"description":"","next_feature":null,"is_raster":false,"short_classification":"Y","stats":{"count":{"max":34,"mean":5.075,"variance":45.6145569620253,"stdev":6.75385497046134,"min":1,"median":2}},"features":[{"properties":{"city":"Portland","zipcode":"04103","county":"Cumberland","geo_score":0.0,"count":34,"id":"a6ot5p7hq7k9","geo_precision":"unmatched","state":"ME"},"type":"Feature","geometry":null},{"properties":{"city":"South Portland","zipcode":"04106","county":"Cumberland","geo_score":0.0,"count":28,"id":"a6ot5oyv0w2k","geo_precision":"unmatched","state":"ME"},"type":"Feature","geometry":null},{"properties":{"city":"Westbrook","zipcode":"04092","county":"Cumberland","geo_score":0.0,"count":26,"id":"a6ot5otp6jq8","geo_precision":"unmatched","state":"ME"},"type":"Feature","geometry":null},{"properties":{"city":"Portland","zipcode":"04101","county":"Cumberland","geo_score":0.0,"count":22,"id":"a6ot5p5hbgxk","geo_precision":"unmatched","state":"ME"},"type":"Feature","geometry":null},{"properties":{"city":"Biddeford","zipcode":"04005","county":"York","geo_score":0.0,"count":19,"id":"a6ot5p83vjhx","geo_precision":"unmatched","state":"ME"},"type":"Feature","geometry":null},{"properties":{"city":"Gorham","zipcode":"04038","county":"Cumberland","geo_score":0.0,"count":17,"id":"a6ot5p7zzu6u","geo_precision":"unmatched","state":"ME"},"type":"Feature","geometry":null},{"properties":{"city":"Saco","zipcode":"04072","county":"York","geo_score":0.914,"count":16,"id":"a6ot5p4nuzkq","geo_precision":"zip","state":"ME"},"type":"Feature","geometry":{"type":"Point","coordinates":[19.2816667,42.5533333]}},{"properties":{"city":"Portland","zipcode":"04102","county":"Cumberland","geo_score":0.0,"count":15,"id":"a6ot5oxq1edh","geo_precision":"unmatched","state":"ME"},"type":"Feature","geometry":null},{"properties":{"city":"Windham","zipcode":"04062","county":"Cumberland","geo_score":0.0,"count":14,"id":"a6ot5p02lpga","geo_precision":"unmatched","state":"ME"},"type":"Feature","geometry":null},{"properties":{"city":"Scarborough","zipcode":"04074","county":"Cumberland","geo_score":0.0,"count":14,"id":"a6ot5p6fs0ou","geo_precision":"unmatched","state":"ME"},"type":"Feature","geometry":null},{"properties":{"city":"Poland","zipcode":"04274","county":"Androscoggin","geo_score":0.0,"count":13,"id":"a6ot5p6uqvez","geo_precision":"unmatched","state":"ME"},"type":"Feature","geometry":null},{"properties":{"city":"Falmouth","zipcode":"04105","county":"Cumberland","geo_score":0.0,"count":10,"id":"a6ot5ox401h7","geo_precision":"unmatched","state":"ME"},"type":"Feature","geometry":null},{"properties":{"city":"Standish","zipcode":"04084","county":"Cumberland","geo_score":0.0,"count":9,"id":"a6ot5p66ej1w","geo_precision":"unmatched","state":"ME"},"type":"Feature","geometry":null},{"properties":{"city":"Gray","zipcode":"04039","county":"Cumberland","geo_score":0.857,"count":8,"id":"a6ot5p6gmp4o","geo_precision":"zip","state":"ME"},"type":"Feature","geometry":{"type":"Point","coordinates":[19.0269444,43.1963889]}},{"properties":{"city":"Hollis","zipcode":"04042","county":"York","geo_score":0.0,"count":8,"id":"a6ot5owom2ld","geo_precision":"unmatched","state":"ME"},"type":"Feature","geometry":null},{"properties":{"city":"Old Orchard Beach","zipcode":"04064","county":"York","geo_score":0.0,"count":8,"id":"a6ot5oyy8jfz","geo_precision":"unmatched","state":"ME"},"type":"Feature","geometry":null},{"properties":{"city":"Auburn","zipcode":"04210","county":"Androscoggin","geo_score":0.0,"count":8,"id":"a6ot5p5xve57","geo_precision":"unmatched","state":"ME"},"type":"Feature","geometry":null},{"properties":{"city":"New Gloucester","zipcode":"04260","county":"Cumberland","geo_score":0.0,"count":8,"id":"a6ot5oxrdu8l","geo_precision":"unmatched","state":"ME"},"type":"Feature","geometry":null},{"properties":{"city":"Buxton","zipcode":"04093","county":"York","geo_score":0.0,"count":6,"id":"a6ot5p5q9lxz","geo_precision":"unmatched","state":"ME"},"type":"Feature","geometry":null},{"properties":{"city":"Raymond","zipcode":"04071","county":"Cumberland","geo_score":0.0,"count":5,"id":"a6ot5ouneruv","geo_precision":"unmatched","state":"ME"},"type":"Feature","geometry":null},{"properties":{"city":"Yarmouth","zipcode":"04096","county":"Cumberland","geo_score":0.0,"count":5,"id":"a6ot5p0robg8","geo_precision":"unmatched","state":"ME"},"type":"Feature","geometry":null},{"properties":{"city":"Lewiston","zipcode":"04240","county":"Androscoggin","geo_score":0.0,"count":5,"id":"a6ot5ot5oam4","geo_precision":"unmatched","state":"ME"},"type":"Feature","geometry":null},{"properties":{"city":"out of state","zipcode":null,"county":null,"geo_score":0.771,"count":4,"id":"a6ot5p83an5g","geo_precision":"zip","state":null},"type":"Feature","geometry":{"type":"Point","coordinates":[-7.4166667,33.0833333]}},{"properties":{"city":"Brunswick","zipcode":"04011","county":"Cumberland","geo_score":0.0,"count":4,"id":"a6ot5osrs8q2","geo_precision":"unmatched","state":"ME"},"type":"Feature","geometry":null},{"properties":{"city":"Casco","zipcode":"04015","county":"Cumberland","geo_score":0.886,"count":4,"id":"a6ot5p4ewi4a","geo_precision":"zip","state":"ME"},"type":"Feature","geometry":{"type":"Point","coordinates":[19.1544444,42.5344444]}},{"properties":{"city":"Scarborough","zipcode":"04070","county":"Cumberland","geo_score":0.0,"count":4,"id":"a6ot5p8wjsm4","geo_precision":"unmatched","state":"ME"},"type":"Feature","geometry":null},{"properties":{"city":"Wells","zipcode":"04090","county":"York","geo_score":0.0,"count":4,"id":"a6ot5oubp260","geo_precision":"unmatched","state":"ME"},"type":"Feature","geometry":null},{"properties":{"city":"Alfred","zipcode":"04002","county":"York","geo_score":0.0,"count":3,"id":"a6ot5p71qern","geo_precision":"unmatched","state":"ME"},"type":"Feature","geometry":null},{"properties":{"city":"Cumberland","zipcode":"04021","county":"Cumberland","geo_score":0.0,"count":3,"id":"a6ot5ovw48qn","geo_precision":"unmatched","state":"ME"},"type":"Feature","geometry":null},{"properties":{"city":"East Waterboro","zipcode":"04030","county":"York","geo_score":0.0,"count":3,"id":"a6ot5p2paulc","geo_precision":"unmatched","state":"ME"},"type":"Feature","geometry":null},{"properties":{"city":"Freeport","zipcode":"04032","county":"Cumberland","geo_score":0.0,"count":3,"id":"a6ot5p8irc1n","geo_precision":"unmatched","state":"ME"},"type":"Feature","geometry":null},{"properties":{"city":"Sanford","zipcode":"04073","county":"York","geo_score":0.0,"count":3,"id":"a6ot5p7j4cr3","geo_precision":"unmatched","state":"ME"},"type":"Feature","geometry":null},{"properties":{"city":"Topsham","zipcode":"04086","county":"Sagadahoc","geo_score":0.0,"count":3,"id":"a6ot5p4yhrbx","geo_precision":"unmatched","state":"ME"},"type":"Feature","geometry":null},{"properties":{"city":"North Yarmouth","zipcode":"04097","county":"Cumberland","geo_score":0.0,"count":3,"id":"a6ot5oz4tama","geo_precision":"unmatched","state":"ME"},"type":"Feature","geometry":null},{"properties":{"city":"Cape Elizabeth","zipcode":"04107","county":"Cumberland","geo_score":0.89,"count":3,"id":"a6ot5p8z4yhd","geo_precision":"zip","state":"ME"},"type":"Feature","geometry":{"type":"Point","coordinates":[18.4991667,42.5666667]}},{"properties":{"city":"Lisbon","zipcode":"04250","county":"Androscoggin","geo_score":0.0,"count":3,"id":"a6ot5p5eonoi","geo_precision":"unmatched","state":"ME"},"type":"Feature","geometry":null},{"properties":{"city":"Oxford","zipcode":"04270","county":"Oxford","geo_score":0.0,"count":3,"id":"a6ot5p3osn1w","geo_precision":"unmatched","state":"ME"},"type":"Feature","geometry":null},{"properties":{"city":"Sabattus","zipcode":"04280","county":"Kennebec","geo_score":0.929,"count":3,"id":"a6ot5oy6hspa","geo_precision":"zip","state":"ME"},"type":"Feature","geometry":{"type":"Point","coordinates":[19.94,42.9275]}},{"properties":{"city":"Bridgton","zipcode":"04009","county":"Cumberland","geo_score":0.0,"count":2,"id":"a6ot5p75rebd","geo_precision":"unmatched","state":"ME"},"type":"Feature","geometry":null},{"properties":{"city":"Cornish","zipcode":"04020","county":"York","geo_score":0.0,"count":2,"id":"a6ot5p04he5v","geo_precision":"unmatched","state":"ME"},"type":"Feature","geometry":null},{"properties":{"city":"Kennebunk","zipcode":"04043","county":"York","geo_score":0.0,"count":2,"id":"a6ot5p7rmbuh","geo_precision":"unmatched","state":"ME"},"type":"Feature","geometry":null},{"properties":{"city":"Porter","zipcode":"04068","county":"Oxford","geo_score":0.0,"count":2,"id":"a6ot5p2fca2m","geo_precision":"unmatched","state":"ME"},"type":"Feature","geometry":null},{"properties":{"city":"Springvale","zipcode":"04083","county":"York","geo_score":0.871,"count":2,"id":"a6ot5oy45y2q","geo_precision":"zip","state":"ME"},"type":"Feature","geometry":{"type":"Point","coordinates":[19.8977778,42.6383333]}},{"properties":{"city":"Steep Falls","zipcode":"04085","county":"Cumberland","geo_score":0.871,"count":2,"id":"a6ot5p208zgr","geo_precision":"zip","state":"ME"},"type":"Feature","geometry":{"type":"Point","coordinates":[18.5952778,42.7275]}},{"properties":{"city":"Waterboro","zipcode":"04087","county":"York","geo_score":0.0,"count":2,"id":"a6ot5p5fohk6","geo_precision":"unmatched","state":"ME"},"type":"Feature","geometry":null},{"properties":{"city":"Portland","zipcode":"04104","county":"Cumberland","geo_score":0.0,"count":2,"id":"a6ot5p404rdi","geo_precision":"unmatched","state":"ME"},"type":"Feature","geometry":null},{"properties":{"city":"Durham","zipcode":"04222","county":"Androscoggin","geo_score":0.0,"count":2,"id":"a6ot5oubcnkz","geo_precision":"unmatched","state":"ME"},"type":"Feature","geometry":null},{"properties":{"city":"Greene","zipcode":"04236","county":"Androscoggin","geo_score":0.905,"count":2,"id":"a6ot5p0pv7gm","geo_precision":"zip","state":"ME"},"type":"Feature","geometry":{"type":"Point","coordinates":[18.6102778,42.7283333]}},{"properties":{"city":"West Paris","zipcode":"04289","county":"Oxford","geo_score":0.905,"count":2,"id":"a6ot5p2f3ayy","geo_precision":"zip","state":"ME"},"type":"Feature","geometry":{"type":"Point","coordinates":[19.0905556,42.4013889]}},{"properties":{"city":"West Gardiner","zipcode":"04345","county":"Kennebec","geo_score":0.0,"count":2,"id":"a6ot5p3t8a3z","geo_precision":"unmatched","state":"ME"},"type":"Feature","geometry":null},{"properties":{"city":"West Bath","zipcode":"04530","county":"Sagadahoc","geo_score":0.0,"count":2,"id":"a6ot5p3a63db","geo_precision":"unmatched","state":"ME"},"type":"Feature","geometry":null},{"properties":{"city":"Berwick","zipcode":"03901","county":"York","geo_score":0.0,"count":1,"id":"a6ot5otqyk92","geo_precision":"unmatched","state":"ME"},"type":"Feature","geometry":null},{"properties":{"city":"Kittery","zipcode":"03904","county":"York","geo_score":0.918,"count":1,"id":"a6ot5p37239m","geo_precision":"zip","state":"ME"},"type":"Feature","geometry":{"type":"Point","coordinates":[18.7719444,42.4258333]}},{"properties":{"city":"North Berwick","zipcode":"03906","county":"York","geo_score":0.0,"count":1,"id":"a6ot5p46b6fw","geo_precision":"unmatched","state":"ME"},"type":"Feature","geometry":null},{"properties":{"city":"Ogunquit","zipcode":"03907","county":"York","geo_score":0.0,"count":1,"id":"a6ot5ovjj4rb","geo_precision":"unmatched","state":"ME"},"type":"Feature","geometry":null},{"properties":{"city":"South Berwick","zipcode":"03908","county":"York","geo_score":0.0,"count":1,"id":"a6ot5osy0qq3","geo_precision":"unmatched","state":"ME"},"type":"Feature","geometry":null},{"properties":{"city":"Acton","zipcode":"04001","county":"York","geo_score":0.0,"count":1,"id":"a6ot5p4z3onf","geo_precision":"unmatched","state":"ME"},"type":"Feature","geometry":null},{"properties":{"city":"Bar Mills","zipcode":"04004","county":"York","geo_score":0.911,"count":1,"id":"a6ot5p4zb9nq","geo_precision":"zip","state":"ME"},"type":"Feature","geometry":{"type":"Point","coordinates":[19.1002778,42.0930556]}},{"properties":{"city":"Brownfield","zipcode":"04010","county":"Oxford","geo_score":0.0,"count":1,"id":"a6ot5ozsgz1s","geo_precision":"unmatched","state":"ME"},"type":"Feature","geometry":null},{"properties":{"city":"East Parsonsfield","zipcode":"04028","county":"York","geo_score":0.0,"count":1,"id":"a6ot5p4o8ei4","geo_precision":"unmatched","state":"ME"},"type":"Feature","geometry":null},{"properties":{"city":"Arundel","zipcode":"04046","county":"York","geo_score":0.0,"count":1,"id":"a6ot5p5fphc9","geo_precision":"unmatched","state":"ME"},"type":"Feature","geometry":null},{"properties":{"city":"Parsonsfield","zipcode":"04047","county":"York","geo_score":0.0,"count":1,"id":"a6ot5p482twp","geo_precision":"unmatched","state":"ME"},"type":"Feature","geometry":null},{"properties":{"city":"Limerick","zipcode":"04048","county":"York","geo_score":0.0,"count":1,"id":"a6ot5p3qzdut","geo_precision":"unmatched","state":"ME"},"type":"Feature","geometry":null},{"properties":{"city":"Naples","zipcode":"04055","county":"Cumberland","geo_score":0.0,"count":1,"id":"a6ot5p8lpxqh","geo_precision":"unmatched","state":"ME"},"type":"Feature","geometry":null},{"properties":{"city":"N Waterboro","zipcode":"04061","county":"York","geo_score":0.0,"count":1,"id":"a6ot5owmt6tn","geo_precision":"unmatched","state":"ME"},"type":"Feature","geometry":null},{"properties":{"city":"Shapleigh","zipcode":"04076","county":"York","geo_score":0.0,"count":1,"id":"a6ot5otl0qhw","geo_precision":"unmatched","state":"ME"},"type":"Feature","geometry":null},{"properties":{"city":"South Windham","zipcode":"04082","county":"Cumberland","geo_score":0.0,"count":1,"id":"a6ot5oteymy7","geo_precision":"unmatched","state":"ME"},"type":"Feature","geometry":null},{"properties":{"city":"Buckfield","zipcode":"04220","county":"Oxford","geo_score":0.0,"count":1,"id":"a6ot5p8ahwqy","geo_precision":"unmatched","state":"ME"},"type":"Feature","geometry":null},{"properties":{"city":"Canton","zipcode":"04221","county":"Oxford","geo_score":0.0,"count":1,"id":"a6ot5p29b21j","geo_precision":"unmatched","state":"ME"},"type":"Feature","geometry":null},{"properties":{"city":"East Wilton","zipcode":"04234","county":"Franklin","geo_score":0.0,"count":1,"id":"a6ot5ovlnuip","geo_precision":"unmatched","state":"ME"},"type":"Feature","geometry":null},{"properties":{"city":"Leeds","zipcode":"04263","county":"Androscoggin","geo_score":0.881,"count":1,"id":"a6ot5owfwj3d","geo_precision":"zip","state":"ME"},"type":"Feature","geometry":{"type":"Point","coordinates":[19.4430556,43.3236111]}},{"properties":{"city":"Turner","zipcode":"04282","county":"Androscoggin","geo_score":0.0,"count":1,"id":"a6ot5oxl5bkw","geo_precision":"unmatched","state":"ME"},"type":"Feature","geometry":null},{"properties":{"city":"Augusta","zipcode":"04330","county":"Kennebec","geo_score":0.0,"count":1,"id":"a6ot5p7rcfxg","geo_precision":"unmatched","state":"ME"},"type":"Feature","geometry":null},{"properties":{"city":"Bangor","zipcode":"04401","county":"Penobscot","geo_score":0.0,"count":1,"id":"a6ot5ow5mtwh","geo_precision":"unmatched","state":"ME"},"type":"Feature","geometry":null},{"properties":{"city":"Brownville","zipcode":"04414","county":"Piscataquis","geo_score":0.0,"count":1,"id":"a6ot5oylvbku","geo_precision":"unmatched","state":"ME"},"type":"Feature","geometry":null},{"properties":{"city":"Alna","zipcode":"04535","county":"Lincoln","geo_score":0.0,"count":1,"id":"a6ot5ozqs3tr","geo_precision":"unmatched","state":"ME"},"type":"Feature","geometry":null},{"properties":{"city":"Newcastle","zipcode":"04553","county":"Lincoln","geo_score":0.0,"count":1,"id":"a6ot5p3zcgcf","geo_precision":"unmatched","state":"ME"},"type":"Feature","geometry":null},{"properties":{"city":"Woolwich","zipcode":"04579","county":"Sagadahoc","geo_score":0.0,"count":1,"id":"a6ot5p3ncxtg","geo_precision":"unmatched","state":"ME"},"type":"Feature","geometry":null},{"properties":{"city":"Solon","zipcode":"04979","county":"Somerset","geo_score":0.905,"count":1,"id":"a6ot5p0kmrkw","geo_precision":"zip","state":"ME"},"type":"Feature","geometry":{"type":"Point","coordinates":[18.8583333,42.9052778]}},{"properties":{"city":"Strong","zipcode":"04983","county":"Franklin","geo_score":0.905,"count":1,"id":"a6ot5owpwpfj","geo_precision":"zip","state":"ME"},"type":"Feature","geometry":{"type":"Point","coordinates":[19.1236111,42.5808333]}}],"is_temporal":false,"author":{"url":null,"metadata":null,"contact_name":null,"contact_address":null,"source":null,"contact_phone":null},"source":null,"pagination":{"sort":null,"start":0,"total":80,"limit":1000000},"state":"complete","tags":"","published":"2014-08-13T08:42:22-04:00","id":118367}