{"type":"FeatureCollection","data_type":"Dataset","url_type":null,"permissions":[{"permissions":{"download":true,"view":true},"group_id":"everyone"}],"classification":null,"title":"Ensign - Bandera","count":11,"stream_id":11869,"contributor":{"url":"http://geocommons.com/users/618","name":"jusgra98"},"data_attributes":null,"calculation_params":null,"icon_link":null,"link":"http://geocommons.com/overlays/11869.json","extent":[-112.184,32.2433,-110.868,33.5897],"geometry_types":["point"],"unique_name":null,"name":"Ensign - Bandera","feature_count":11,"description":"","next_feature":null,"is_raster":false,"short_classification":"Y","stats":{"zipcode":{"max":85719,"mean":85298.1818181818,"variance":85096.9636363637,"stdev":291.713838609627,"min":85008,"median":85251},"lat":{"max":33.589665,"mean":33.1639949090909,"variance":0.348333538421892,"stdev":0.590197880733142,"min":32.243258,"median":33.485697},"long":{"max":-110.868096,"mean":-111.730889090909,"variance":0.284759360974092,"stdev":0.533628485909525,"min":-112.183842,"median":-112.030067}},"features":[{"properties":{"city":"Phoenix","zipcode":85029,"facility":"Coronado","url":"10.124.37.1","color":"Yellow","phone":"(602) 256-7500","id":"a66uyrr9ikh2","address":"11411 North 19th Avenue","group":"Bandera","lat":33.589665,"state":"AZ","long":-112.099524},"type":"Feature","geometry":{"type":"Point","coordinates":[-112.099524,33.589665]}},{"properties":{"city":"Tucson","zipcode":85719,"facility":"Park Avenue (AKA- Waverly Park)","url":"10.124.39.1","color":"Yellow","phone":"(520) 882-6151","id":"a66uyrko4bmw","address":"2001 North Park Avenue","group":"Bandera","lat":32.245841,"state":"AZ","long":-110.956905},"type":"Feature","geometry":{"type":"Point","coordinates":[-110.956905,32.245841]}},{"properties":{"city":"Phoenix","zipcode":85008,"facility":"Desert Terrace","url":"10.124.24.1","color":"Yellow","phone":"(602) 273-1347","id":"a66uyrle3lmj","address":"2509 North 24th Street","group":"Bandera","lat":33.474995,"state":"AZ","long":-112.030067},"type":"Feature","geometry":{"type":"Point","coordinates":[-112.030067,33.474995]}},{"properties":{"city":"Tucson","zipcode":85719,"facility":"Catalina Care","url":"10.124.29.1","color":"Yellow","phone":"(520) 795-9574","id":"a66uyrditx7x","address":"2611 North Warren Avenue","group":"Bandera","lat":32.254368,"state":"AZ","long":-110.947036},"type":"Feature","geometry":{"type":"Point","coordinates":[-110.947036,32.254368]}},{"properties":{"city":"Scottsdale","zipcode":85251,"facility":"Osborne Health (AKA- Scottsdale)","url":"10.124.64.1","color":"Yellow","phone":"(480) 994-1333","id":"a66uyrs3i19c","address":"3333 North Civic Center Plaza","group":"Bandera","lat":33.485697,"state":"AZ","long":-111.921704},"type":"Feature","geometry":{"type":"Point","coordinates":[-111.921704,33.485697]}},{"properties":{"city":"Phoenix","zipcode":85014,"facility":"Highland Manor","url":"10.124.11.1","color":"Yellow","phone":"(602) 264-9039","id":"a66uyrikovhm","address":"4635 North 14th Street","group":"Bandera","lat":33.504542,"state":"AZ","long":-112.051764},"type":"Feature","geometry":{"type":"Point","coordinates":[-112.051764,33.504542]}},{"properties":{"city":"Mesa","zipcode":85206,"facility":"East Mesa","url":"10.124.38.1","color":"Yellow","phone":"(480) 832-8333","id":"a66uyrrup754","address":"51 South 48th Street","group":"Bandera","lat":33.414194,"state":"AZ","long":-111.727598},"type":"Feature","geometry":{"type":"Point","coordinates":[-111.727598,33.414194]}},{"properties":{"city":"Glendale","zipcode":85301,"facility":"Desert Sky","url":"10.124.25.1","color":"Yellow","phone":"(623) 931-5800","id":"a66uyrjtkb96","address":"5125 N. 58th Avenue","group":"Bandera","lat":33.510976,"state":"AZ","long":-112.183842},"type":"Feature","geometry":{"type":"Point","coordinates":[-112.183842,33.510976]}},{"properties":{"city":"Glendale","zipcode":85301,"facility":"Desert Sky ALF","url":"10.124.25.1","color":"Yellow","phone":"(623) 931-5800","id":"a66uyrkr25l8","address":"5125 N. 58th Avenue","group":"Bandera","lat":33.510976,"state":"AZ","long":-112.183842},"type":"Feature","geometry":{"type":"Point","coordinates":[-112.183842,33.510976]}},{"properties":{"city":"Tucson","zipcode":85712,"facility":"Sabino Canyon","url":"10.124.1.1","color":"Yellow","phone":"(520) 722-5515","id":"a66uyrgcy1in","address":"5830 East Pima Street","group":"Bandera","lat":32.243258,"state":"AZ","long":-110.868096},"type":"Feature","geometry":{"type":"Point","coordinates":[-110.868096,32.243258]}},{"properties":{"city":"Phoenix","zipcode":85020,"facility":"North Mountain","url":"10.124.46.1","color":"Yellow","phone":"(602) 944-1666","id":"a66uyrg72ecg","address":"9155 North 3rd Street","group":"Bandera","lat":33.569432,"state":"AZ","long":-112.069402},"type":"Feature","geometry":{"type":"Point","coordinates":[-112.069402,33.569432]}}],"is_temporal":false,"author":{"url":"","metadata":"","contact_name":"","contact_address":"","source":"","contact_phone":""},"source":"","pagination":{"sort":null,"start":0,"total":11,"limit":1000000},"state":"complete","tags":"bandera,ensign","published":"2014-08-10T14:22:51-04:00","id":11869}