{"type":"FeatureCollection","data_type":"Dataset","url_type":null,"permissions":[{"permissions":{"download":true,"view":true},"group_id":"everyone"}],"classification":null,"title":"Ensign - Keystone","count":11,"stream_id":11871,"contributor":{"url":"http://geocommons.com/users/618","name":"jusgra98"},"data_attributes":null,"calculation_params":null,"icon_link":null,"link":"http://geocommons.com/overlays/11871.json","extent":[-99.7461,26.2132,-94.6914,33.0718],"geometry_types":["point"],"unique_name":null,"name":"Ensign - Keystone","feature_count":11,"description":"","next_feature":null,"is_raster":false,"short_classification":"Y","stats":{"zipcode":{"max":79603,"mean":76930.0909090909,"variance":2365097.89090909,"stdev":1537.88747667347,"min":75006,"median":77351},"lat":{"max":33.07182,"mean":30.8452116363636,"variance":4.27667577617246,"stdev":2.06801251837905,"min":26.213174,"median":31.083676},"long":{"max":-94.691391,"mean":-96.8636964545455,"variance":2.39077171174308,"stdev":1.54621205264449,"min":-99.746121,"median":-96.898554}},"features":[{"properties":{"city":"Richmond","zipcode":77469,"facility":"Cambridge Health","url":"10.124.61.1","color":"Purple","phone":"(281) 344-9191","id":"a6ntlg64w80j","address":"1106 Golfview Drive","group":"Keystone","lat":29.563936,"state":"TX","long":-95.758528},"type":"Feature","geometry":{"type":"Point","coordinates":[-95.758528,29.563936]}},{"properties":{"city":"Carrollton","zipcode":75006,"facility":"Carrollton Care","url":"10.124.65.1","color":"Purple","phone":"(972) 245-1573","id":"a6ntlgkd8znc","address":"1618 Kirby Road","group":"Keystone","lat":32.94783,"state":"TX","long":-96.898554},"type":"Feature","geometry":{"type":"Point","coordinates":[-96.898554,32.94783]}},{"properties":{"city":"Lewisville","zipcode":75057,"facility":"Lake Village","url":"10.124.67.1","color":"Purple","phone":"(972) 436-7571","id":"a6ntlg57azu8","address":"169 Lake Park Road","group":"Keystone","lat":33.07182,"state":"TX","long":-97.011934},"type":"Feature","geometry":{"type":"Point","coordinates":[-97.011934,33.07182]}},{"properties":{"city":"Temple","zipcode":76504,"facility":"Wellington Place","url":"10.124.6.1","color":"Purple","phone":"(254) 778-4231","id":"a6ntlg8xyb3p","address":"1802 South 31st Street","group":"Keystone","lat":31.083676,"state":"TX","long":-97.364178},"type":"Feature","geometry":{"type":"Point","coordinates":[-97.364178,31.083676]}},{"properties":{"city":"Mesquite","zipcode":75150,"facility":"Willow Bend","url":"10.124.71.1","color":"Purple","phone":"(972) 279-3601","id":"a6ntlg9fkpcu","address":"2231 US Hwy 80 East","group":"Keystone","lat":32.79293,"state":"TX","long":-96.631201},"type":"Feature","geometry":{"type":"Point","coordinates":[-96.631201,32.79293]}},{"properties":{"city":"Rosenberg","zipcode":77471,"facility":"Cambridge Square","url":"10.124.60.1","color":"Purple","phone":"(281) 344-8444","id":"a6ntlgdu26ly","address":"2700 Ave N","group":"Keystone","lat":29.551884,"state":"TX","long":-95.799011},"type":"Feature","geometry":{"type":"Point","coordinates":[-95.799011,29.551884]}},{"properties":{"city":"Abilene","zipcode":79603,"facility":"Northern Oaks","url":"10.124.8.1","color":"Purple","phone":"(325) 676-1677","id":"a6ntlgkl6ziz","address":"2722 Old Anson Road","group":"Keystone","lat":32.48371,"state":"TX","long":-99.746121},"type":"Feature","geometry":{"type":"Point","coordinates":[-99.746121,32.48371]}},{"properties":{"city":"Livingston","zipcode":77351,"facility":"Timberwood","url":"10.124.56.1","color":"Purple","phone":"(936) 327-4446","id":"a6ntlg65x8mx","address":"4001 Hwy 59 North","group":"Keystone","lat":30.754446,"state":"TX","long":-94.912995},"type":"Feature","geometry":{"type":"Point","coordinates":[-94.912995,30.754446]}},{"properties":{"city":"Lufkin","zipcode":75901,"facility":"Southland in Lufkin","url":"10.124.73.1","color":"Purple","phone":"(936) 639-1252","id":"a6ntlgim27j4","address":"501 North Medford Drive","group":"Keystone","lat":31.340987,"state":"TX","long":-94.691391},"type":"Feature","geometry":{"type":"Point","coordinates":[-94.691391,31.340987]}},{"properties":{"city":"San Antonio","zipcode":78218,"facility":"Salado Creek","url":"10.124.5.1","color":"Purple","phone":"(210) 824-7331","id":"a6ntlgj3nb4z","address":"603 Corrine Drive","group":"Keystone","lat":29.492935,"state":"TX","long":-98.425926},"type":"Feature","geometry":{"type":"Point","coordinates":[-98.425926,29.492935]}},{"properties":{"city":"McAllen","zipcode":78501,"facility":"Village Care","url":"10.124.7.1","color":"Purple","phone":"(956) 664-8900","id":"a6ntlg83uova","address":"615 North Ware Road","group":"Keystone","lat":26.213174,"state":"TX","long":-98.260822},"type":"Feature","geometry":{"type":"Point","coordinates":[-98.260822,26.213174]}}],"is_temporal":false,"author":{"url":"","metadata":"","contact_name":"","contact_address":"","source":"","contact_phone":""},"source":"","pagination":{"sort":null,"start":0,"total":11,"limit":1000000},"state":"complete","tags":"ensign,keystone","published":"2014-08-10T14:22:51-04:00","id":11871}