{"type":"FeatureCollection","data_type":"Dataset","url_type":null,"permissions":[{"permissions":{"download":true,"view":true},"group_id":"everyone"}],"classification":null,"title":"NCAA Men's Lacrosse Matchup Locations, USA, 4.25.2009 ","count":83,"stream_id":11920,"contributor":{"url":"http://geocommons.com/users/139","name":"Burkey"},"data_attributes":null,"calculation_params":null,"icon_link":null,"link":"http://geocommons.com/overlays/11920.json","extent":[-104.965,35.0554,-70.4494,44.6618],"geometry_types":["point"],"unique_name":null,"name":"NCAA Men's Lacrosse Matchup Locations, USA, 4.25.2009 ","feature_count":83,"description":"This dataset displays the locations of sites were NCAA Men's Lacrosse matchups will be taking on Saturday, April 25th, 2009.\n\nThe data comes from LaxPower and includes: Matchup, time, location, city, state, lat/lon location \n","next_feature":null,"is_raster":false,"short_classification":"Y","stats":{"lon":{"max":-70.449369,"mean":-76.2200123734939,"variance":34.1247138416279,"stdev":5.84163622982704,"min":-104.965444,"median":-75.165211},"lat":{"max":44.661832,"mean":41.3092153855422,"variance":3.00133635823731,"stdev":1.73243653801151,"min":35.055415,"median":41.161692}},"features":[{"properties":{"city":"Shirley","lon":-72.854448,"time":"7:00 PM","matchup":"Adelphi at Dowling","id":"a64n3b7w5tpb","lat":40.780492,"location":"Dowling","state":"NY"},"type":"Feature","geometry":{"type":"Point","coordinates":[-72.854448,40.780492]}},{"properties":{"city":"Angola","lon":-85.009012,"time":"1:00 PM","matchup":"Adrian at Trine","id":"a64n3b6wlius","lat":41.630963,"location":"Trine","state":"IN"},"type":"Feature","geometry":{"type":"Point","coordinates":[-85.009012,41.630963]}},{"properties":{"city":"Denver","lon":-104.965444,"time":"1:00 PM","matchup":"Air Force at Denver","id":"a64n3b20z6b6","lat":39.689156,"location":"Denver","state":"CO"},"type":"Feature","geometry":{"type":"Point","coordinates":[-104.965444,39.689156]}},{"properties":{"city":"Stony Brook","lon":-73.124308,"time":"7:00 PM","matchup":"Albany at Stony Brook","id":"a64n3b0whuvl","lat":40.918879,"location":"Stony Brook","state":"NY"},"type":"Feature","geometry":{"type":"Point","coordinates":[-73.124308,40.918879]}},{"properties":{"city":"Oneonta","lon":-75.073474,"time":"1:00 PM","matchup":"Alfred at Hartwick","id":"a64n3b2jvxp5","lat":42.458319,"location":"Hartwick","state":"NY"},"type":"Feature","geometry":{"type":"Point","coordinates":[-75.073474,42.458319]}},{"properties":{"city":"St. Davids","lon":-75.373251,"time":"12:00 PM","matchup":"Alvernia at Eastern","id":"a64n3b6qu2jq","lat":40.051451,"location":"Eastern","state":"PA"},"type":"Feature","geometry":{"type":"Point","coordinates":[-75.373251,40.051451]}},{"properties":{"city":"Manchester","lon":-71.50287,"time":"1:00 PM","matchup":"American International at Saint Anselm","id":"a64n3b2za0fb","lat":42.983289,"location":"Saint Anselm","state":"NH"},"type":"Feature","geometry":{"type":"Point","coordinates":[-71.50287,42.983289]}},{"properties":{"city":"Colchester","lon":-73.165139,"time":"3:30 PM","matchup":"Assumption at Saint Michael's","id":"a64n3b90fq62","lat":44.497879,"location":"Saint Michael's","state":"VT"},"type":"Feature","geometry":{"type":"Point","coordinates":[-73.165139,44.497879]}},{"properties":{"city":"New London","lon":-72.099342,"time":"2:00 PM","matchup":"Becker at Mitchell","id":"a64n3ay0b1kz","lat":41.328973,"location":"Mitchell","state":"CT"},"type":"Feature","geometry":{"type":"Point","coordinates":[-72.099342,41.328973]}},{"properties":{"city":"Pleasantville","lon":-73.810677,"time":"1:00 PM","matchup":"Bentley at Pace","id":"a64n3au19d6s","lat":41.128556,"location":"Pace","state":"NY"},"type":"Feature","geometry":{"type":"Point","coordinates":[-73.810677,41.128556]}},{"properties":{"city":"Oberlin","lon":-82.227808,"time":"1:00 PM","matchup":"Carthage at Oberlin","id":"a64n3b7hhuo5","lat":41.292984,"location":"Oberlin","state":"OH"},"type":"Feature","geometry":{"type":"Point","coordinates":[-82.227808,41.292984]}},{"properties":{"city":"Gaffney","lon":-81.643348,"time":"1:00 PM","matchup":"Catawba at Limestone","id":"a64n3b5y8iyp","lat":35.055415,"location":"Limestone","state":"SC"},"type":"Feature","geometry":{"type":"Point","coordinates":[-81.643348,35.055415]}},{"properties":{"city":"Bethlehem","lon":-75.376525,"time":"2:00 PM","matchup":"Catholic at Moravian","id":"a64n3b4192rm","lat":40.630234,"location":"Moravian","state":"PA"},"type":"Feature","geometry":{"type":"Point","coordinates":[-75.376525,40.630234]}},{"properties":{"city":"Winchester","lon":-78.157974,"time":"2:00 PM","matchup":"Centenary at Shenandoah","id":"a64n3b79vkne","lat":39.166314,"location":"Shenandoah","state":"VA"},"type":"Feature","geometry":{"type":"Point","coordinates":[-78.157974,39.166314]}},{"properties":{"city":"Saratoga Springs","lon":-73.788022,"time":"1:00 PM","matchup":"Clarkson at Skidmore","id":"a64n3b4bek24","lat":43.093971,"location":"Skidmore","state":"NY"},"type":"Feature","geometry":{"type":"Point","coordinates":[-73.788022,43.093971]}},{"properties":{"city":"Poughkeepsie","lon":-73.904568,"time":"2:00 PM","matchup":"Cobleskill at Vassar","id":"a64n3ax3xriu","lat":41.686689,"location":"Vassar","state":"NY"},"type":"Feature","geometry":{"type":"Point","coordinates":[-73.904568,41.686689]}},{"properties":{"city":"Providence","lon":-71.395793,"time":"1:00 PM","matchup":"Cornell at Brown","id":"a64n3b5j2jua","lat":41.831814,"location":"Brown","state":"RI"},"type":"Feature","geometry":{"type":"Point","coordinates":[-71.395793,41.831814]}},{"properties":{"city":"Beverly","lon":-70.842253,"time":"3:00 PM","matchup":"Curry at Endicott","id":"a64n3at62qs6","lat":42.555535,"location":"Endicott","state":"MA"},"type":"Feature","geometry":{"type":"Point","coordinates":[-70.842253,42.555535]}},{"properties":{"city":"Lyndonville","lon":-72.025509,"time":"3:30 PM","matchup":"Daniel Webster at Lyndon State","id":"a64n3az0bbs7","lat":44.533013,"location":"Lyndon State","state":"VT"},"type":"Feature","geometry":{"type":"Point","coordinates":[-72.025509,44.533013]}},{"properties":{"city":"Priceton","lon":-74.649966,"time":"12:00 PM","matchup":"Dartmouth at Princeton","id":"a64n3b3tq9al","lat":40.345744,"location":"Princeton","state":"NJ"},"type":"Feature","geometry":{"type":"Point","coordinates":[-74.649966,40.345744]}},{"properties":{"city":"Gambier","lon":-82.396811,"time":"1:00 PM","matchup":"Denison at Kenyon","id":"a64n3awz6ck6","lat":40.376332,"location":"Kenyon","state":"OH"},"type":"Feature","geometry":{"type":"Point","coordinates":[-82.396811,40.376332]}},{"properties":{"city":"Old Westbury","lon":-73.601074,"time":"1:00 PM","matchup":"Dominican College at NYIT","id":"a64n3b4oqwlj","lat":40.81022,"location":"NYIT","state":"NY"},"type":"Feature","geometry":{"type":"Point","coordinates":[-73.601074,40.81022]}},{"properties":{"city":"Keuka Park","lon":-77.09179,"time":"2:00 PM","matchup":"Elmira at Keuka","id":"a64n3b07woh7","lat":42.615161,"location":"Keuka","state":"NY"},"type":"Feature","geometry":{"type":"Point","coordinates":[-77.09179,42.615161]}},{"properties":{"city":"Riverdale","lon":-73.903352,"time":"1:00 PM","matchup":"Farmingdale State at Mt. St. Vincent","id":"a64n3aszoaw9","lat":40.913616,"location":"Mt. St. Vincent","state":"NY"},"type":"Feature","geometry":{"type":"Point","coordinates":[-73.903352,40.913616]}},{"properties":{"city":"Gettysburg","lon":-77.240583,"time":"1:00 PM","matchup":"Franklin &amp; Marshall at Gettysburg","id":"a64n3b0rb2ly","lat":39.834708,"location":"Gettysburg","state":"PA"},"type":"Feature","geometry":{"type":"Point","coordinates":[-77.240583,39.834708]}},{"properties":{"city":"Potsdam","lon":-74.967957,"time":"1:00 PM","matchup":"Geneseo at Potsdam","id":"a64n3b73s2s0","lat":44.661832,"location":"Potsdam","state":"NY"},"type":"Feature","geometry":{"type":"Point","coordinates":[-74.967957,44.661832]}},{"properties":{"city":"Bristol","lon":-75.645095,"time":"1:00 PM","matchup":"Gordon at Roger Williams","id":"a64n3b20nglo","lat":42.89371,"location":"Roger Williams","state":"RI"},"type":"Feature","geometry":{"type":"Point","coordinates":[-75.645095,42.89371]}},{"properties":{"city":"Dover","lon":-75.542751,"time":"1:00 PM","matchup":"Greensboro at Wesley","id":"a64n3awgbmzq","lat":39.163009,"location":"Wesley","state":"DE"},"type":"Feature","geometry":{"type":"Point","coordinates":[-75.542751,39.163009]}},{"properties":{"city":"Aurora","lon":-76.693291,"time":"2:00 PM","matchup":"Gwynedd-Mercy at Wells","id":"a64n3awbttve","lat":42.747094,"location":"Wells","state":"NY"},"type":"Feature","geometry":{"type":"Point","coordinates":[-76.693291,42.747094]}},{"properties":{"city":"Canton","lon":-75.165211,"time":"1:00 PM","matchup":"Hamilton at St. Lawrence","id":"a64n3aug2ssw","lat":44.586851,"location":"St. Lawrence","state":"NY"},"type":"Feature","geometry":{"type":"Point","coordinates":[-75.165211,44.586851]}},{"properties":{"city":"Binghamton","lon":-75.966046,"time":"7:00 PM","matchup":"Hartford at Binghamton","id":"a64n3b0kgj5k","lat":42.092683,"location":"Binghamton","state":"NY"},"type":"Feature","geometry":{"type":"Point","coordinates":[-75.966046,42.092683]}},{"properties":{"city":"Baltimore","lon":-76.618009,"time":"1:00 PM","matchup":"Hobart at Loyola","id":"a64n3atl99vy","lat":39.346037,"location":"Loyola","state":"MD"},"type":"Feature","geometry":{"type":"Point","coordinates":[-76.618009,39.346037]}},{"properties":{"city":"Hoboken","lon":-74.026511,"time":"7:00 PM","matchup":"Ithaca at Stevens","id":"a64n3b32ry9v","lat":40.744354,"location":"Stevens","state":"NJ"},"type":"Feature","geometry":{"type":"Point","coordinates":[-74.026511,40.744354]}},{"properties":{"city":"Gorham","lon":-70.449369,"time":"1:00 PM","matchup":"Keene State at Southern Maine","id":"a64n3aue7sxo","lat":43.68129,"location":"Southern Maine","state":"ME"},"type":"Feature","geometry":{"type":"Point","coordinates":[-70.449369,43.68129]}},{"properties":{"city":"Manchester","lon":-71.45539,"time":"1:00 PM","matchup":"Le Moyne at S. New Hampshire","id":"a64n3au4uhz4","lat":43.039095,"location":"S. New Hampshire","state":"NH"},"type":"Feature","geometry":{"type":"Point","coordinates":[-71.45539,43.039095]}},{"properties":{"city":"Purchase","lon":-73.717943,"time":"1:00 PM","matchup":"Lycoming at Manhattanville","id":"a64n3b8pek16","lat":41.032369,"location":"Manhattanville","state":"NY"},"type":"Feature","geometry":{"type":"Point","coordinates":[-73.717943,41.032369]}},{"properties":{"city":"Springfield","lon":-72.55383,"time":"3:00 PM","matchup":"MIT at Springfield","id":"a64n3auw8n8m","lat":42.105475,"location":"Springfield","state":"MA"},"type":"Feature","geometry":{"type":"Point","coordinates":[-72.55383,42.105475]}},{"properties":{"city":"Poughkeepsie","lon":-73.932798,"time":"1:00 PM","matchup":"Manhattan at Marist","id":"a64n3b2ox4ib","lat":41.719208,"location":"Marist","state":"NY"},"type":"Feature","geometry":{"type":"Point","coordinates":[-73.932798,41.719208]}},{"properties":{"city":"Wayne","lon":-75.377875,"time":"1:00 PM","matchup":"Marywood at Cabrini","id":"a64n3azjfxcs","lat":40.057151,"location":"Cabrini","state":"PA"},"type":"Feature","geometry":{"type":"Point","coordinates":[-75.377875,40.057151]}},{"properties":{"city":"Plymouth","lon":-71.681615,"time":"1:00 PM","matchup":"Mass-Boston at Plymouth State","id":"a64n3av16ayl","lat":43.762805,"location":"Plymouth State","state":"NH"},"type":"Feature","geometry":{"type":"Point","coordinates":[-71.681615,43.762805]}},{"properties":{"city":"Danbury","lon":-73.492608,"time":"1:00 PM","matchup":"Mass-Dartmouth at Western Connecticut","id":"a64n3aysjfmp","lat":41.396174,"location":"Western Connecticut","state":"CT"},"type":"Feature","geometry":{"type":"Point","coordinates":[-73.492608,41.396174]}},{"properties":{"city":"Northfield","lon":-72.660011,"time":"1:00 PM","matchup":"Mass. Maritime at Norwich","id":"a64n3ay29hy2","lat":44.141609,"location":"Norwich","state":"VT"},"type":"Feature","geometry":{"type":"Point","coordinates":[-72.660011,44.141609]}},{"properties":{"city":"Washington","lon":-80.245653,"time":"1:00 PM","matchup":"Medaille at Washington &amp; Jefferson","id":"a64n3b8tmn00","lat":40.1645,"location":"Washington &amp; Jefferson","state":"PA"},"type":"Feature","geometry":{"type":"Point","coordinates":[-80.245653,40.1645]}},{"properties":{"city":"Rindge","lon":-72.054201,"time":"4:00 PM","matchup":"Merrimack at Franklin Pierce","id":"a64n3avbwiei","lat":42.77809,"location":"Franklin Pierce","state":"NH"},"type":"Feature","geometry":{"type":"Point","coordinates":[-72.054201,42.77809]}},{"properties":{"city":"Center Valley","lon":-75.384951,"time":"1:00 PM","matchup":"Messiah at DeSales","id":"a64n3avbsdh2","lat":40.535438,"location":"DeSales","state":"PA"},"type":"Feature","geometry":{"type":"Point","coordinates":[-75.384951,40.535438]}},{"properties":{"city":"Elizabethtown","lon":-76.58685,"time":"1:00 PM","matchup":"Misericordia at Elizabethtown","id":"a64n3b7vyhk6","lat":40.151085,"location":"Elizabethtown","state":"PA"},"type":"Feature","geometry":{"type":"Point","coordinates":[-76.58685,40.151085]}},{"properties":{"city":"Brookville","lon":-73.60107,"time":"12:00 PM","matchup":"Molloy at C. W. Post","id":"a64n3b1jyp58","lat":40.810211,"location":"C. W. Post","state":"NY"},"type":"Feature","geometry":{"type":"Point","coordinates":[-73.60107,40.810211]}},{"properties":{"city":"Throgs Neck","lon":-73.797751,"time":"1:00 PM","matchup":"Montclair State at Maritime","id":"a64n3ax4sg7d","lat":40.807477,"location":"Maritime","state":"NY"},"type":"Feature","geometry":{"type":"Point","coordinates":[-73.797751,40.807477]}},{"properties":{"city":"St. Louis","lon":-90.351691,"time":"3:00 PM","matchup":"Mount St. Joseph at Fontbonne","id":"a64n3b0pb6p3","lat":38.656425,"location":"Fontbonne","state":"MO"},"type":"Feature","geometry":{"type":"Point","coordinates":[-90.351691,38.656425]}},{"properties":{"city":"Rochester","lon":-77.671981,"time":"1:00 PM","matchup":"Nazareth at RIT","id":"a64n3b5mv15w","lat":43.086728,"location":"RIT","state":"NY"},"type":"Feature","geometry":{"type":"Point","coordinates":[-77.671981,43.086728]}},{"properties":{"city":"Immaculata","lon":-75.572639,"time":"1:00 PM","matchup":"Neumann at Immaculata","id":"a64n3azes0ws","lat":40.0276,"location":"Immaculata","state":"PA"},"type":"Feature","geometry":{"type":"Point","coordinates":[-75.572639,40.0276]}},{"properties":{"city":"Columbus","lon":-83.029291,"time":"1:00 PM","matchup":"Notre Dame at Ohio State","id":"a64n3avi3bmt","lat":40.012652,"location":"Ohio State","state":"OH"},"type":"Feature","geometry":{"type":"Point","coordinates":[-83.029291,40.012652]}},{"properties":{"city":"Erie","lon":-80.053411,"time":"1:00 PM","matchup":"Notre Dame de Namur at Mercyhurst","id":"a64n3b7tusok","lat":42.102456,"location":"Mercyhurst","state":"PA"},"type":"Feature","geometry":{"type":"Point","coordinates":[-80.053411,42.102456]}},{"properties":{"city":"Oswego","lon":-76.535805,"time":"1:00 PM","matchup":"Oneonta at Oswego","id":"a64n3b4dwuof","lat":43.447756,"location":"Oswego","state":"NY"},"type":"Feature","geometry":{"type":"Point","coordinates":[-76.535805,43.447756]}},{"properties":{"city":"Brockport","lon":-77.95396,"time":"12:00 PM","matchup":"Plattsburgh at Brockport","id":"a64n3ayqfxw8","lat":43.206608,"location":"Brockport","state":"NY"},"type":"Feature","geometry":{"type":"Point","coordinates":[-77.95396,43.206608]}},{"properties":{"city":"Louisville","lon":-85.703207,"time":"1:00 PM","matchup":"Quinnipiac at Bellarmine","id":"a64n3b6e66rh","lat":38.215561,"location":"Bellarmine","state":"KY"},"type":"Feature","geometry":{"type":"Point","coordinates":[-85.703207,38.215561]}},{"properties":{"city":"Schenectady","lon":-73.92562,"time":"7:00 PM","matchup":"Rensselaer at Union","id":"a64n3b3evvvi","lat":42.816874,"location":"Union","state":"NY"},"type":"Feature","geometry":{"type":"Point","coordinates":[-73.92562,42.816874]}},{"properties":{"city":"Washington","lon":-77.075423,"time":"1:00 PM","matchup":"Rutgers at Georgetown","id":"a64n3b7q5ish","lat":38.908514,"location":"Georgetown","state":"DC"},"type":"Feature","geometry":{"type":"Point","coordinates":[-77.075423,38.908514]}},{"properties":{"city":"Coraopolis","lon":-80.216242,"time":"12:00 PM","matchup":"Sacred Heart at Robert Morris","id":"a64n3b3s27fc","lat":40.521189,"location":"Robert Morris","state":"PA"},"type":"Feature","geometry":{"type":"Point","coordinates":[-80.216242,40.521189]}},{"properties":{"city":"University Park","lon":-77.854243,"time":"7:30 PM","matchup":"Saint Joseph's at Penn State","id":"a64n3awp9pta","lat":40.805195,"location":"Penn State","state":"PA"},"type":"Feature","geometry":{"type":"Point","coordinates":[-77.854243,40.805195]}},{"properties":{"city":"Willamantic","lon":-72.221745,"time":"1:00 PM","matchup":"Salem State at Eastern Connecticut","id":"a64n3b2po4c7","lat":41.722136,"location":"Eastern Connecticut","state":"CT"},"type":"Feature","geometry":{"type":"Point","coordinates":[-72.221745,41.722136]}},{"properties":{"city":"Chestertown","lon":-76.07087,"time":"1:00 PM","matchup":"Salisbury at Washington College","id":"a64n3at8exft","lat":39.218584,"location":"Washington College","state":"MD"},"type":"Feature","geometry":{"type":"Point","coordinates":[-76.07087,39.218584]}},{"properties":{"city":"Henniker","lon":-71.829615,"time":"1:00 PM","matchup":"Salve Regina at New England College","id":"a64n3b5onhjs","lat":43.178281,"location":"New England College","state":"NH"},"type":"Feature","geometry":{"type":"Point","coordinates":[-71.829615,43.178281]}},{"properties":{"city":"Madison","lon":-74.427715,"time":"3:00 PM","matchup":"Scranton at Drew","id":"a64n3b0blwll","lat":40.763255,"location":"Drew","state":"NJ"},"type":"Feature","geometry":{"type":"Point","coordinates":[-74.427715,40.763255]}},{"properties":{"city":"Colorado Springs","lon":-104.827752,"time":"3:00 PM","matchup":"Sewanee vs. Hendrix","id":"a64n3b7r7qxi","lat":38.84807,"location":"Colorado College","state":"CO"},"type":"Feature","geometry":{"type":"Point","coordinates":[-104.827752,38.84807]}},{"properties":{"city":"Providence","lon":-71.432843,"time":"2:00 PM","matchup":"Siena at Providence","id":"a64n3b2dkryv","lat":41.842105,"location":"Providence","state":"RI"},"type":"Feature","geometry":{"type":"Point","coordinates":[-71.432843,41.842105]}},{"properties":{"city":"Utica","lon":-75.268961,"time":"1:00 PM","matchup":"St. John Fisher at Utica College","id":"a64n3b4hn82g","lat":43.098824,"location":"Utica College","state":"NY"},"type":"Feature","geometry":{"type":"Point","coordinates":[-75.268961,43.098824]}},{"properties":{"city":"Fairfield","lon":-73.25819,"time":"1:00 PM","matchup":"St. John's at Fairfield","id":"a64n3ayd22ra","lat":41.161692,"location":"Fairfield","state":"CT"},"type":"Feature","geometry":{"type":"Point","coordinates":[-73.25819,41.161692]}},{"properties":{"city":"Newport News","lon":-76.500745,"time":"1:00 PM","matchup":"St. Mary's at Christopher Newport","id":"a64n3atzu34r","lat":37.064741,"location":"Christopher Newport","state":"VA"},"type":"Feature","geometry":{"type":"Point","coordinates":[-76.500745,37.064741]}},{"properties":{"city":"Union","lon":-74.238411,"time":"1:00 PM","matchup":"Stockton at Kean","id":"a64n3aupvg8l","lat":40.681086,"location":"Kean","state":"NJ"},"type":"Feature","geometry":{"type":"Point","coordinates":[-74.238411,40.681086]}},{"properties":{"city":"Haverford","lon":-75.309011,"time":"1:00 PM","matchup":"Swarthmore at Haverford","id":"a64n3b25o1ay","lat":40.00762,"location":"Haverford","state":"PA"},"type":"Feature","geometry":{"type":"Point","coordinates":[-75.309011,40.00762]}},{"properties":{"city":"Amherst","lon":-72.529294,"time":"1:00 PM","matchup":"Syracuse at Massachusetts","id":"a64n3b6r5niv","lat":42.386547,"location":"Massachusetts","state":"MA"},"type":"Feature","geometry":{"type":"Point","coordinates":[-72.529294,42.386547]}},{"properties":{"city":"Dudley","lon":-71.931714,"time":"11:00 AM","matchup":"U. of New England at Nichols","id":"a64n3ayvacyl","lat":42.042884,"location":"Nichols","state":"MA"},"type":"Feature","geometry":{"type":"Point","coordinates":[-71.931714,42.042884]}},{"properties":{"city":"Allentown","lon":-75.511162,"time":"1:30 PM","matchup":"Ursinus at Muhlenberg","id":"a64n3b7wetmx","lat":40.59868,"location":"Muhlenberg","state":"PA"},"type":"Feature","geometry":{"type":"Point","coordinates":[-75.511162,40.59868]}},{"properties":{"city":"Buffalo","lon":-78.855791,"time":"1:00 PM","matchup":"VMI at Canisius","id":"a64n3awg9tcd","lat":42.921276,"location":"Canisius","state":"NY"},"type":"Feature","geometry":{"type":"Point","coordinates":[-78.855791,42.921276]}},{"properties":{"city":"Baltimore","lon":-76.707548,"time":"1:00 PM","matchup":"Vermont at UMBC","id":"a64n3b46oxfd","lat":39.25052,"location":"UMBC","state":"MD"},"type":"Feature","geometry":{"type":"Point","coordinates":[-76.707548,39.25052]}},{"properties":{"city":"Hempstead","lon":-73.596183,"time":"7:00 PM","matchup":"Villanova at Hofstra","id":"a64n3b459331","lat":40.715534,"location":"Hofstra","state":"NY"},"type":"Feature","geometry":{"type":"Point","coordinates":[-73.596183,40.715534]}},{"properties":{"city":"Emmitsburg","lon":-77.679348,"time":"1:00 PM","matchup":"Wagner at Mount St. Mary's","id":"a64n3ayu03cw","lat":39.679348,"location":"Mount St. Mary's","state":"MD"},"type":"Feature","geometry":{"type":"Point","coordinates":[-77.679348,39.679348]}},{"properties":{"city":"Boston","lon":-71.093992,"time":"7:00 PM","matchup":"Western New England at Wentworth Tech.","id":"a64n3awqcodn","lat":42.337795,"location":"Wentworth Tech","state":"MA"},"type":"Feature","geometry":{"type":"Point","coordinates":[-71.093992,42.337795]}},{"properties":{"city":"Babson Park","lon":-71.267154,"time":"1:00 PM","matchup":"Wheaton at Babson","id":"a64n3axquy4p","lat":42.297033,"location":"Babson","state":"MA"},"type":"Feature","geometry":{"type":"Point","coordinates":[-71.267154,42.297033]}},{"properties":{"city":"Wilkes-Barre","lon":-75.860992,"time":"4:00 PM","matchup":"Widener at King's","id":"a64n3b6qvghc","lat":41.233239,"location":"King's","state":"PA"},"type":"Feature","geometry":{"type":"Point","coordinates":[-75.860992,41.233239]}},{"properties":{"city":"Wooster","lon":-81.93078,"time":"1:00 PM","matchup":"Wittenberg at Wooster","id":"a64n3b39dcl0","lat":40.810695,"location":"Wooster","state":"OH"},"type":"Feature","geometry":{"type":"Point","coordinates":[-81.93078,40.810695]}},{"properties":{"city":"Cambridge","lon":-71.127571,"time":"1:00 PM","matchup":"Yale at Harvard","id":"a64n3b568lsp","lat":42.37012,"location":"Harvard","state":"MA"},"type":"Feature","geometry":{"type":"Point","coordinates":[-71.127571,42.37012]}}],"is_temporal":true,"author":{"url":"http://www.laxpower.com/calendar/gcalendar.php# ","metadata":"","contact_name":"","contact_address":"","source":"LaxPower ","contact_phone":""},"source":"http://www.laxpower.com/calendar/gcalendar.php# ","pagination":{"sort":null,"start":0,"total":83,"limit":1000000},"state":"complete","tags":"athletics,college,lacrosse,ncaa","published":"2009-04-25T12:00:00Z","id":11920}