{"type":"FeatureCollection","data_type":"Dataset","url_type":null,"permissions":[{"permissions":{"download":true,"view":true},"group_id":"everyone"}],"classification":null,"title":"Public schools togeocode","count":192,"stream_id":120470,"contributor":{"url":"http://geocommons.com/users/27482","name":"strainor"},"data_attributes":null,"calculation_params":null,"icon_link":null,"link":"http://geocommons.com/overlays/120470.json","extent":[0.0,0.0,0.0,0.0],"geometry_types":null,"unique_name":null,"name":"Public schools togeocode","feature_count":192,"description":"California Department of Education database of public schools, schools without lat/lon coordinates in their database for the 9-county San Francisco Bay Area.  CDSCode is the unique identifier that links the data with other CDE school data.","next_feature":null,"is_raster":false,"short_classification":"Y","stats":{"latitude":{"max":null,"min":null,"median":null},"longitude":{"max":null,"min":null,"median":null}},"features":[{"properties":{"city":"Oakland","statustype":"Active","zip":"94612-3355","latitude":null,"county":"Alameda","district":"Alameda County Office of Education","streetabr":"1515 Webster St.","longitude":null,"id":"a694q8rzaexo","cdscode":"01100170112607","school":"Envision Academy for Arts &amp; Technology","state":"CA"},"type":"Feature","geometry":null},{"properties":{"city":"Berkeley","statustype":"Active","zip":"94703-1414","latitude":null,"county":"Alameda","district":"Alameda County Office of Education","streetabr":"2125 Jefferson Ave.","longitude":null,"id":"a694q8k8lmtv","cdscode":"01100170118489","school":"Aspire California College Preparatory Academy","state":"CA"},"type":"Feature","geometry":null},{"properties":{"city":"Oakland","statustype":"Active","zip":"94603-2750","latitude":null,"county":"Alameda","district":"Alameda County Office of Education","streetabr":"9860 Sunnyside St.","longitude":null,"id":"a694q8q986v9","cdscode":"01100176001788","school":"Cox Academy","state":"CA"},"type":"Feature","geometry":null},{"properties":{"city":"Alameda","statustype":"Active","zip":"94501","latitude":null,"county":"Alameda","district":"Alameda City Unified","streetabr":"351 Jack London Ave.","longitude":null,"id":"a694q8ltg2hy","cdscode":"01611190111765","school":"Ruby Bridges Elementary","state":"CA"},"type":"Feature","geometry":null},{"properties":{"city":"Alameda","statustype":"Active","zip":"94501","latitude":null,"county":"Alameda","district":"Alameda City Unified","streetabr":"500 Pacific Ave.","longitude":null,"id":"a694q8na2d8i","cdscode":"01611190119222","school":"Nea Community Learning Center","state":"CA"},"type":"Feature","geometry":null},{"properties":{"city":"Alameda","statustype":"Active","zip":"94501-1837","latitude":null,"county":"Alameda","district":"Alameda City Unified","streetabr":"401 Pacific Ave.","longitude":null,"id":"a694q8pl3kud","cdscode":"01611190122085","school":"Academy of Alameda","state":"CA"},"type":"Feature","geometry":null},{"properties":{"city":"Berkeley","statustype":"Active","zip":"94704-1180","latitude":null,"county":"Alameda","district":"Berkeley Unified","streetabr":"2134 Martin Luther King Jr. Way","longitude":null,"id":"a694q8nmksi0","cdscode":"01611430122804","school":"Berkeley Special Education Preschool","state":"CA"},"type":"Feature","geometry":null},{"properties":{"city":"Castro Valley","statustype":"Active","zip":"94546","latitude":null,"county":"Alameda","district":"Castro Valley Unified","streetabr":"4400 Alma Ave.","longitude":null,"id":"a694q8scmrzt","cdscode":"01611500118216","school":"Alma Preschool","state":"CA"},"type":"Feature","geometry":null},{"properties":{"city":"Emeryville","statustype":"Active","zip":"94608","latitude":null,"county":"Alameda","district":"Emery Unified","streetabr":"4727 San Pablo Ave.","longitude":null,"id":"a694q8klo1hj","cdscode":"01611680119933","school":"Emeryville Preschool Students","state":"CA"},"type":"Feature","geometry":null},{"properties":{"city":"Hayward","statustype":"Active","zip":"94545-4600","latitude":null,"county":"Alameda","district":"Hayward Unified","streetabr":"28000 Calaroga Ave.","longitude":null,"id":"a694q8r20qh1","cdscode":"01611920108670","school":"Leadership Public Schools - Hayward","state":"CA"},"type":"Feature","geometry":null},{"properties":{"city":"Hayward","statustype":"Active","zip":"94542","latitude":null,"county":"Alameda","district":"Hayward Unified","streetabr":"28761 Hayward Blvd.","longitude":null,"id":"a694q8t8l4a2","cdscode":"01611920111815","school":"Stonebrae Elementary","state":"CA"},"type":"Feature","geometry":null},{"properties":{"city":"Hayward","statustype":"Active","zip":"94545-3451","latitude":null,"county":"Alameda","district":"Hayward Unified","streetabr":"2560 Darwin St.","longitude":null,"id":"a694q8kjsb0t","cdscode":"01611920113902","school":"Impact Academy of Arts &amp; Technology","state":"CA"},"type":"Feature","geometry":null},{"properties":{"city":"Hayward","statustype":"Active","zip":"94542","latitude":null,"county":"Alameda","district":"Hayward Unified","streetabr":"931 Palisade St.","longitude":null,"id":"a694q8jcig30","cdscode":"01611920119248","school":"Golden Oak Montessori of Hayward","state":"CA"},"type":"Feature","geometry":null},{"properties":{"city":"Castro Valley","statustype":"Active","zip":"94546","latitude":null,"county":"Alameda","district":"Hayward Unified","streetabr":"2652 Vergil Ct.","longitude":null,"id":"a694q8ogcn5s","cdscode":"01611920119842","school":"Special Education-Preschool-Laurel","state":"CA"},"type":"Feature","geometry":null},{"properties":{"city":"Livermore","statustype":"Active","zip":"94551","latitude":null,"county":"Alameda","district":"Livermore Valley Joint Unified","streetabr":"5650 Senic Ave.","longitude":null,"id":"a694q8gnasog","cdscode":"01612000123554","school":"Special Education Preschool","state":"CA"},"type":"Feature","geometry":null},{"properties":{"city":"Newark","statustype":"Active","zip":"94560","latitude":null,"county":"Alameda","district":"Newark Unified","streetabr":"35725 Cedar Blvd.","longitude":null,"id":"a694q8wdngfh","cdscode":"01612340116301","school":"Whiteford (June) Special Education Preschool","state":"CA"},"type":"Feature","geometry":null},{"properties":{"city":"Union City","statustype":"Active","zip":"94587-4714","latitude":null,"county":"Alameda","district":"New Haven Unified","streetabr":"34200 Alvarado-Niles Rd.","longitude":null,"id":"a694q8j9zihc","cdscode":"01612420114629","school":"New Haven Community Day","state":"CA"},"type":"Feature","geometry":null},{"properties":{"city":"Oakland","statustype":"Active","zip":"94601-2455","latitude":null,"county":"Alameda","district":"Oakland Unified","streetabr":"1700 28th Ave.","longitude":null,"id":"a694q8iydbmt","cdscode":"01612590111476","school":"Achieve Academy","state":"CA"},"type":"Feature","geometry":null},{"properties":{"city":"Oakland","statustype":"Active","zip":"94621","latitude":null,"county":"Alameda","district":"Oakland Unified","streetabr":"7801 Edgewater Dr.\t Ste. 2000","longitude":null,"id":"a694q8ucxkgk","cdscode":"01612590111823","school":"Oakland Aviation High","state":"CA"},"type":"Feature","geometry":null},{"properties":{"city":"Oakland","statustype":"Active","zip":"94619","latitude":null,"county":"Alameda","district":"Oakland Unified","streetabr":"3626 35th Ave.","longitude":null,"id":"a694q8o33vgz","cdscode":"01612590111856","school":"American Indian Public High","state":"CA"},"type":"Feature","geometry":null},{"properties":{"city":"Oakland","statustype":"Active","zip":"94601-3124","latitude":null,"county":"Alameda","district":"Oakland Unified","streetabr":"2101 35th Ave.","longitude":null,"id":"a694q8rqcq4v","cdscode":"01612590112763","school":"United for Success Academy","state":"CA"},"type":"Feature","geometry":null},{"properties":{"city":"Oakland","statustype":"Active","zip":"94603-2702","latitude":null,"county":"Alameda","district":"Oakland Unified","streetabr":"1800 98th Ave.","longitude":null,"id":"a694q8m6mo5q","cdscode":"01612590112771","school":"Alliance Academy","state":"CA"},"type":"Feature","geometry":null},{"properties":{"city":"Oakland","statustype":"Active","zip":"94603-2702","latitude":null,"county":"Alameda","district":"Oakland Unified","streetabr":"1800 98th Ave.","longitude":null,"id":"a694q8ux5mvx","cdscode":"01612590112789","school":"Elmhurst Community Prep","state":"CA"},"type":"Feature","geometry":null},{"properties":{"city":"Oakland","statustype":"Active","zip":"94621-3506","latitude":null,"county":"Alameda","district":"Oakland Unified","streetabr":"1390 66th Ave.","longitude":null,"id":"a694q8th0abm","cdscode":"01612590112797","school":"Coliseum College Prep Academy","state":"CA"},"type":"Feature","geometry":null},{"properties":{"city":"Oakland","statustype":"Active","zip":"94621-3506","latitude":null,"county":"Alameda","district":"Oakland Unified","streetabr":"1390 66th Ave.","longitude":null,"id":"a694q8t6ksfo","cdscode":"01612590112805","school":"ROOTS International Academy","state":"CA"},"type":"Feature","geometry":null},{"properties":{"city":"Oakland","statustype":"Active","zip":"94603-3133","latitude":null,"county":"Alameda","district":"Oakland Unified","streetabr":"10315 E St.","longitude":null,"id":"a694q8o8q2sf","cdscode":"01612590112813","school":"Fred T. Korematsu Discovery Academy","state":"CA"},"type":"Feature","geometry":null},{"properties":{"city":"Oakland","statustype":"Active","zip":"94607-4900","latitude":null,"county":"Alameda","district":"Oakland Unified","streetabr":"171 12th St.","longitude":null,"id":"a694q8hlroab","cdscode":"01612590114363","school":"American Indian Public Charter School II","state":"CA"},"type":"Feature","geometry":null},{"properties":{"city":"Oakland","statustype":"Active","zip":"94619-1630","latitude":null,"county":"Alameda","district":"Oakland Unified","streetabr":"3800 Mountain Blvd.","longitude":null,"id":"a694q8n6zmr5","cdscode":"01612590114454","school":"Conservatory of Vocal/Instrumental Arts","state":"CA"},"type":"Feature","geometry":null},{"properties":{"city":"Oakland","statustype":"Active","zip":"94607","latitude":null,"county":"Alameda","district":"Oakland Unified","streetabr":"345 12th St.","longitude":null,"id":"a694q8j6c33m","cdscode":"01612590114868","school":"Oakland Charter High","state":"CA"},"type":"Feature","geometry":null},{"properties":{"city":"Oakland","statustype":"Active","zip":"94607-3230","latitude":null,"county":"Alameda","district":"Oakland Unified","streetabr":"991 14th St.","longitude":null,"id":"a694q8wgqb20","cdscode":"01612590115014","school":"KIPP Bridge Charter","state":"CA"},"type":"Feature","geometry":null},{"properties":{"city":"Oakland","statustype":"Active","zip":"94621","latitude":null,"county":"Alameda","district":"Oakland Unified","streetabr":"6701 International Blvd.","longitude":null,"id":"a694q8i4pzcc","cdscode":"01612590115204","school":"Community United Elementary","state":"CA"},"type":"Feature","geometry":null},{"properties":{"city":"Oakland","statustype":"Active","zip":"94601-2940","latitude":null,"county":"Alameda","district":"Oakland Unified","streetabr":"3301 East 12th St.\t Ste. 205","longitude":null,"id":"a694q8nm1hcq","cdscode":"01612590115238","school":"ARISE High","state":"CA"},"type":"Feature","geometry":null},{"properties":{"city":"Oakland","statustype":"Active","zip":"94607-2507","latitude":null,"county":"Alameda","district":"Oakland Unified","streetabr":"101 Myrtle St.","longitude":null,"id":"a694q8k24lkr","cdscode":"01612590115386","school":"Civicorps Corpsmember Academy","state":"CA"},"type":"Feature","geometry":null},{"properties":{"city":"Oakland","statustype":"Active","zip":"94621-3501","latitude":null,"county":"Alameda","district":"Oakland Unified","streetabr":"6701 International Blvd.","longitude":null,"id":"a694q8t9cq3s","cdscode":"01612590115576","school":"Futures Elementary","state":"CA"},"type":"Feature","geometry":null},{"properties":{"city":"Oakland","statustype":"Active","zip":"94601-4203","latitude":null,"county":"Alameda","district":"Oakland Unified","streetabr":"2035 40th Ave.","longitude":null,"id":"a694q8u5mg6n","cdscode":"01612590115584","school":"Global Family","state":"CA"},"type":"Feature","geometry":null},{"properties":{"city":"Oakland","statustype":"Active","zip":"94601-4203","latitude":null,"county":"Alameda","district":"Oakland Unified","streetabr":"2035 40th Ave.","longitude":null,"id":"a694q8oawext","cdscode":"01612590115592","school":"Learning Without Limits","state":"CA"},"type":"Feature","geometry":null},{"properties":{"city":"Oakland","statustype":"Active","zip":"94621-2123","latitude":null,"county":"Alameda","district":"Oakland Unified","streetabr":"8000 Birch St.","longitude":null,"id":"a694q8o9y8qr","cdscode":"01612590115600","school":"East Oakland Pride Elementary","state":"CA"},"type":"Feature","geometry":null},{"properties":{"city":"Oakland","statustype":"Active","zip":"94621-3832","latitude":null,"county":"Alameda","district":"Oakland Unified","streetabr":"6328 East 17th St.","longitude":null,"id":"a694q8qu4y5b","cdscode":"01612590115618","school":"Greenleaf Elementary","state":"CA"},"type":"Feature","geometry":null},{"properties":{"city":"Oakland","statustype":"Active","zip":"94607-3230","latitude":null,"county":"Alameda","district":"Oakland Unified","streetabr":"991 14th St.","longitude":null,"id":"a694q8ugk2ob","cdscode":"01612590115626","school":"West Oakland Middle","state":"CA"},"type":"Feature","geometry":null},{"properties":{"city":"Oakland","statustype":"Active","zip":"94605","latitude":null,"county":"Alameda","district":"Oakland Unified","streetabr":"9736 Lawlor St.","longitude":null,"id":"a694q8su5g95","cdscode":"01612590115634","school":"Barack Obama Academy","state":"CA"},"type":"Feature","geometry":null},{"properties":{"city":"Oakland","statustype":"Active","zip":"94609-2140","latitude":null,"county":"Alameda","district":"Oakland Unified","streetabr":"4521 Webster St.","longitude":null,"id":"a694q8lsxd5e","cdscode":"01612590115667","school":"Oakland International High","state":"CA"},"type":"Feature","geometry":null},{"properties":{"city":"Oakland","statustype":"Active","zip":"94605","latitude":null,"county":"Alameda","district":"Oakland Unified","streetabr":"2614 Seminary Ave.","longitude":null,"id":"a694q8oqhjc4","cdscode":"01612590116137","school":"East Oakland Leadership Academy High","state":"CA"},"type":"Feature","geometry":null},{"properties":{"city":"Oakland","statustype":"Active","zip":"94605-3430","latitude":null,"county":"Alameda","district":"Oakland Unified","streetabr":"8030 Atherton St.","longitude":null,"id":"a694q8qsru2s","cdscode":"01612590118224","school":"Aspire Millsmont Secondary Academy","state":"CA"},"type":"Feature","geometry":null},{"properties":{"city":"Oakland","statustype":"Active","zip":"94607-2223","latitude":null,"county":"Alameda","district":"Oakland Unified","streetabr":"1240 18th St.","longitude":null,"id":"a694q8qsrfav","cdscode":"01612590118653","school":"Ralph J. Bunche High","state":"CA"},"type":"Feature","geometry":null},{"properties":{"city":"Oakland","statustype":"Active","zip":"94607","latitude":null,"county":"Alameda","district":"Oakland Unified","streetabr":"900 Fallon St.","longitude":null,"id":"a694q8v27qmv","cdscode":"01612590119859","school":"Gateway to College at Laney College","state":"CA"},"type":"Feature","geometry":null},{"properties":{"city":"Oakland","statustype":"Active","zip":"94601","latitude":null,"county":"Alameda","district":"Oakland Unified","streetabr":"1936 Courtland Ave.","longitude":null,"id":"a694q8rattmf","cdscode":"01612590120188","school":"Aspire ERES Academy","state":"CA"},"type":"Feature","geometry":null},{"properties":{"city":"Oakland","statustype":"Active","zip":"94608","latitude":null,"county":"Alameda","district":"Oakland Unified","streetabr":"1086 Alcatraz Ave.","longitude":null,"id":"a694q8ighish","cdscode":"01612590120626","school":"Civicorps Middle","state":"CA"},"type":"Feature","geometry":null},{"properties":{"city":"Oakland","statustype":"Active","zip":"94606-2212","latitude":null,"county":"Alameda","district":"Oakland Unified","streetabr":"1025 Second Ave.","longitude":null,"id":"a694q8o4lipc","cdscode":"01612590121210","school":"Infant and Preschool Program","state":"CA"},"type":"Feature","geometry":null},{"properties":{"city":"Oakland","statustype":"Active","zip":"94608-4536","latitude":null,"county":"Alameda","district":"Oakland Unified","streetabr":"2850 West St.","longitude":null,"id":"a694q8mbk4tz","cdscode":"01612590121228","school":"Young Adult Program","state":"CA"},"type":"Feature","geometry":null},{"properties":{"city":"Oakland","statustype":"Active","zip":"94608-4536","latitude":null,"county":"Alameda","district":"Oakland Unified","streetabr":"2850 West St.","longitude":null,"id":"a694q8mx96qf","cdscode":"01612590121376","school":"Home and Hospital Program","state":"CA"},"type":"Feature","geometry":null},{"properties":{"city":"Oakland","statustype":"Active","zip":"94605-1802","latitude":null,"county":"Alameda","district":"Oakland Unified","streetabr":"3550 64th Ave.","longitude":null,"id":"a694q8rd5a35","cdscode":"01612590123026","school":"Burbank Preschool Center","state":"CA"},"type":"Feature","geometry":null},{"properties":{"city":"San Lorenzo","statustype":"Active","zip":"94580-1315","latitude":null,"county":"Alameda","district":"San Lorenzo Unified","streetabr":"2005 Via Barrett","longitude":null,"id":"a694q8j24had","cdscode":"01613090101212","school":"KIPP Summit Academy","state":"CA"},"type":"Feature","geometry":null},{"properties":{"city":"Hayward","statustype":"Active","zip":"94541","latitude":null,"county":"Alameda","district":"San Lorenzo Unified","streetabr":"20450 Royal Ave.","longitude":null,"id":"a694q8qaegd9","cdscode":"01613090111799","school":"East Bay Arts High","state":"CA"},"type":"Feature","geometry":null},{"properties":{"city":"San Lorenzo","statustype":"Active","zip":"94580-1315","latitude":null,"county":"Alameda","district":"San Lorenzo Unified","streetabr":"2005 Via Barrett","longitude":null,"id":"a694q8v14t2h","cdscode":"01613090114421","school":"KIPP King Collegiate High","state":"CA"},"type":"Feature","geometry":null},{"properties":{"city":"Livermore","statustype":"Active","zip":"94550","latitude":null,"county":"Alameda","district":"Tri-Valley ROP","streetabr":"543 Sonoma Ave.","longitude":null,"id":"a694q8i8vz1v","cdscode":"01740050000000","school":null,"state":"CA"},"type":"Feature","geometry":null},{"properties":{"city":"Hayward","statustype":"Active","zip":"94545","latitude":null,"county":"Alameda","district":"Eden Area ROP","streetabr":"26316 Hesperian Blvd.","longitude":null,"id":"a694q8maxi1c","cdscode":"01740130000000","school":null,"state":"CA"},"type":"Feature","geometry":null},{"properties":{"city":"Fremont","statustype":"Active","zip":"94538","latitude":null,"county":"Alameda","district":"Mission Valley ROC/P","streetabr":"5019 Stevenson Blvd","longitude":null,"id":"a694q8qomrrm","cdscode":"01740210000000","school":null,"state":"CA"},"type":"Feature","geometry":null},{"properties":{"city":"Oakland","statustype":"Active","zip":"94606","latitude":null,"county":"Alameda","district":"East Bay Regional Occupational Agency (ROP)","streetabr":"1025 Second Ave.","longitude":null,"id":"a694q8piac35","cdscode":"01740390000000","school":null,"state":"CA"},"type":"Feature","geometry":null},{"properties":{"city":"Dublin","statustype":"Active","zip":"94568","latitude":null,"county":"Alameda","district":"Dublin Unified","streetabr":"3300 Antone Way","longitude":null,"id":"a694q8m9izdo","cdscode":"01750930114579","school":"John Green Elementary","state":"CA"},"type":"Feature","geometry":null},{"properties":{"city":"Pleasanton","statustype":"Active","zip":"94566-5399","latitude":null,"county":"Alameda","district":"Pleasanton Unified","streetabr":"4900 Valley Ave.","longitude":null,"id":"a694q8ow97db","cdscode":"01751010122986","school":"Harvest Park Preschool Center","state":"CA"},"type":"Feature","geometry":null},{"properties":{"city":"Livermore","statustype":"Active","zip":"94551","latitude":null,"county":"Alameda","district":"SBE - Livermore Valley Charter","streetabr":"2451 Portola Ave.","longitude":null,"id":"a694q8gms3m0","cdscode":"01763720000000","school":null,"state":"CA"},"type":"Feature","geometry":null},{"properties":{"city":"Livermore","statustype":"Active","zip":"94551-1756","latitude":null,"county":"Alameda","district":"SBE - Livermore Valley Charter Preparatory High","streetabr":"2451 Portola Ave.","longitude":null,"id":"a694q8rnynfq","cdscode":"01766530000000","school":null,"state":"CA"},"type":"Feature","geometry":null},{"properties":{"city":"Livermore","statustype":"Active","zip":"94551-1756","latitude":null,"county":"Alameda","district":"SBE - Livermore Valley Charter Preparatory High","streetabr":"2451 Portola Ave.","longitude":null,"id":"a694q8o3on48","cdscode":"01766530120931","school":"Livermore Valley Charter Preparatory High","state":"CA"},"type":"Feature","geometry":null},{"properties":{"city":"Richmond","statustype":"Active","zip":"94806-1942","latitude":null,"county":"Contra Costa","district":"Contra Costa County Office of Education","streetabr":"4123 Lakeside Dr.","longitude":null,"id":"a694q8nvofm5","cdscode":"07100740114470","school":"Making Waves Academy","state":"CA"},"type":"Feature","geometry":null},{"properties":{"city":"Brentwood","statustype":"Active","zip":"94513","latitude":null,"county":"Contra Costa","district":"Contra Costa County Office of Education","streetabr":"101 American Ave.","longitude":null,"id":"a694q8vex04e","cdscode":"07100740118208","school":"Heritage CCCOE Special Education Programs","state":"CA"},"type":"Feature","geometry":null},{"properties":{"city":"Martinez","statustype":"Active","zip":"94553","latitude":null,"county":"Contra Costa","district":"Contra Costa County Office of Education","streetabr":"202 Glacier Dr.","longitude":null,"id":"a694q8p30041","cdscode":"07100740120444","school":"Mt. McKinley","state":"CA"},"type":"Feature","geometry":null},{"properties":{"city":"Oakley","statustype":"Active","zip":"94561-4127","latitude":null,"county":"Contra Costa","district":"Antioch Unified","streetabr":"5150 Live Oak Ave.","longitude":null,"id":"a694q8i0xhck","cdscode":"07616480113761","school":"Orchard Park","state":"CA"},"type":"Feature","geometry":null},{"properties":{"city":"Antioch","statustype":"Active","zip":"94509-1406","latitude":null,"county":"Contra Costa","district":"Antioch Unified","streetabr":"1201 West Tenth St.","longitude":null,"id":"a694q8q2wm2w","cdscode":"07616480115063","school":"Antioch Charter Academy II","state":"CA"},"type":"Feature","geometry":null},{"properties":{"city":"Antioch","statustype":"Active","zip":"94531","latitude":null,"county":"Contra Costa","district":"Antioch Unified","streetabr":"4900 Sand Creek Rd.","longitude":null,"id":"a694q8ty9m42","cdscode":"07616480117218","school":"Dozier-Libbey Medical High","state":"CA"},"type":"Feature","geometry":null},{"properties":{"city":"Antioch","statustype":"Active","zip":"94509","latitude":null,"county":"Contra Costa","district":"Antioch Unified","streetabr":"1413 F St.","longitude":null,"id":"a694q8i3ug05","cdscode":"07616480119586","school":"R.A.A.M.P. Charter Academy","state":"CA"},"type":"Feature","geometry":null},{"properties":{"city":"Brentwood","statustype":"Active","zip":"94513-4611","latitude":null,"county":"Contra Costa","district":"Brentwood Union Elementary","streetabr":"401 American Ave.","longitude":null,"id":"a694q8qbzo7o","cdscode":"07616550110528","school":"Adams (J. Douglas) Middle","state":"CA"},"type":"Feature","geometry":null},{"properties":{"city":"Martinez","statustype":"Active","zip":"94553","latitude":null,"county":"Contra Costa","district":"Martinez Unified","streetabr":"921 Susana St.","longitude":null,"id":"a694q8vq1jha","cdscode":"07617390116780","school":"Martinez Early Intervention Preschool Program (MEIPP)","state":"CA"},"type":"Feature","geometry":null},{"properties":{"city":"Walnut Creek","statustype":"Active","zip":"94598","latitude":null,"county":"Contra Costa","district":"Mt. Diablo Unified","streetabr":"800 Hutchinson Rd.","longitude":null,"id":"a694q8ug0y0i","cdscode":"07617546118087","school":"Eagle Peak Montessori","state":"CA"},"type":"Feature","geometry":null},{"properties":{"city":"Oakley","statustype":"Active","zip":"94561","latitude":null,"county":"Contra Costa","district":"Oakley Union Elementary","streetabr":"4801 Frank Hengel Way","longitude":null,"id":"a694q8sdkevi","cdscode":"07617620110684","school":"Iron House Elementary","state":"CA"},"type":"Feature","geometry":null},{"properties":{"city":"Pittsburg","statustype":"Active","zip":"94565","latitude":null,"county":"Contra Costa","district":"Pittsburg Unified","streetabr":"50 East Eighth St.","longitude":null,"id":"a694q8p81vbw","cdscode":"07617880116863","school":"Marina Vista Elementary","state":"CA"},"type":"Feature","geometry":null},{"properties":{"city":"Richmond","statustype":"Active","zip":"94804","latitude":null,"county":"Contra Costa","district":"West Contra Costa Unified","streetabr":"214 South 11th St.","longitude":null,"id":"a694q8l8tqqn","cdscode":"07617960110973","school":"Richmond College Prep K-5 Charter","state":"CA"},"type":"Feature","geometry":null},{"properties":{"city":"Richmond","statustype":"Active","zip":"94805-1534","latitude":null,"county":"Contra Costa","district":"West Contra Costa Unified","streetabr":"777 Sonoma St.","longitude":null,"id":"a694q8nfliej","cdscode":"07617960115352","school":"West County Community High","state":"CA"},"type":"Feature","geometry":null},{"properties":{"city":"El Cerritos","statustype":"Active","zip":"94530-3108","latitude":null,"county":"Contra Costa","district":"West Contra Costa Unified","streetabr":"7140 Gladys Ave.","longitude":null,"id":"a694q8x2qg6d","cdscode":"07617960116319","school":"Cameron","state":"CA"},"type":"Feature","geometry":null},{"properties":{"city":"Richmond","statustype":"Active","zip":"94801-3519","latitude":null,"county":"Contra Costa","district":"West Contra Costa Unified","streetabr":"157 Ninth St.","longitude":null,"id":"a694q8we8euf","cdscode":"07617960118539","school":"WCCUSD Community Day School Program","state":"CA"},"type":"Feature","geometry":null},{"properties":{"city":"San Ramon","statustype":"Active","zip":"94582","latitude":null,"county":"Contra Costa","district":"San Ramon Valley Unified","streetabr":"10550 Albion Rd.","longitude":null,"id":"a694q8vrwh60","cdscode":"07618040113118","school":"Dougherty Valley High","state":"CA"},"type":"Feature","geometry":null},{"properties":{"city":"San Ramon","statustype":"Active","zip":"94582","latitude":null,"county":"Contra Costa","district":"San Ramon Valley Unified","streetabr":"5151 Sherwood Way","longitude":null,"id":"a694q8n1f5lv","cdscode":"07618040113589","school":"Live Oak Elementary","state":"CA"},"type":"Feature","geometry":null},{"properties":{"city":"Danville","statustype":"Active","zip":"93526-4331","latitude":null,"county":"Contra Costa","district":"San Ramon Valley Unified","streetabr":"699 Old Orchard Dr.","longitude":null,"id":"a694q8v0taye","cdscode":"07618040114728","school":"INFANT- Pre","state":"CA"},"type":"Feature","geometry":null},{"properties":{"city":"San Ramon","statustype":"Active","zip":"94582","latitude":null,"county":"Contra Costa","district":"San Ramon Valley Unified","streetabr":"6400 Main Branch Rd.","longitude":null,"id":"a694q8i1yjqs","cdscode":"07618040116541","school":"Gale Ranch Middle","state":"CA"},"type":"Feature","geometry":null},{"properties":{"city":"Danville","statustype":"Active","zip":"94506","latitude":null,"county":"Contra Costa","district":"San Ramon Valley Unified","streetabr":"6011 Massara St.","longitude":null,"id":"a694q8lobz5c","cdscode":"07618040119032","school":"Creekside Elementary","state":"CA"},"type":"Feature","geometry":null},{"properties":{"city":"Pleasant Hill","statustype":"Active","zip":"94523","latitude":null,"county":"Contra Costa","district":"Contra Costa County ROP","streetabr":"75 Santa Barbara Rd.","longitude":null,"id":"a694q8ow8saw","cdscode":"07743440000000","school":null,"state":"CA"},"type":"Feature","geometry":null},{"properties":{"city":"San Rafael","statustype":"Active","zip":"94903","latitude":null,"county":"Marin","district":"Marin County Office of Education","streetabr":"16 Jeannette Prandi Way","longitude":null,"id":"a694q8piymqx","cdscode":"21102150113183","school":"Marin County Juvenile Court","state":"CA"},"type":"Feature","geometry":null},{"properties":{"city":"Novato","statustype":"Active","zip":"94949-5061","latitude":null,"county":"Marin","district":"Novato Unified","streetabr":"931 C St.","longitude":null,"id":"a694q8wumhtr","cdscode":"21654170122937","school":"Novato Early Intervention","state":"CA"},"type":"Feature","geometry":null},{"properties":{"city":"Novato","statustype":"Active","zip":"94945-1117","latitude":null,"county":"Marin","district":"Novato Unified","streetabr":"15 San Marin Dr.","longitude":null,"id":"a694q8njvfjl","cdscode":"21654170123018","school":"San Marin High School-Plus","state":"CA"},"type":"Feature","geometry":null},{"properties":{"city":"San Rafael","statustype":"Active","zip":"94901-4960","latitude":null,"county":"Marin","district":"San Rafael City Elementary","streetabr":"35 Marin St.","longitude":null,"id":"a694q8q44ngi","cdscode":"21654580121517","school":"Short Elementary","state":"CA"},"type":"Feature","geometry":null},{"properties":{"city":"Larkspur","statustype":"Active","zip":"94939-1536","latitude":null,"county":"Marin","district":"Tamalpais Union High","streetabr":"395 Doherty Dr.","longitude":null,"id":"a694q8krsmy1","cdscode":"21654820100396","school":"Tamalpais Adult/Community Education","state":"CA"},"type":"Feature","geometry":null},{"properties":{"city":"San Rafael","statustype":"Active","zip":"94903","latitude":null,"county":"Marin","district":"Marin County ROP","streetabr":"1111 Las Gallinas Ave.","longitude":null,"id":"a694q8ix2xst","cdscode":"21746580000000","school":null,"state":"CA"},"type":"Feature","geometry":null},{"properties":{"city":"Napa","statustype":"Active","zip":"94559-3625","latitude":null,"county":"Napa","district":"Napa County Office of Education","streetabr":"74 Wintun Ct.","longitude":null,"id":"a694q8vx4yzx","cdscode":"28102800116111","school":"Napa Preschool Program","state":"CA"},"type":"Feature","geometry":null},{"properties":{"city":"American Canyon","statustype":"Active","zip":"94503-1279","latitude":null,"county":"Napa","district":"Napa Valley Unified","streetabr":"300 Newell Dr.","longitude":null,"id":"a694q8phmnlg","cdscode":"28662660121087","school":"American Canyon High","state":"CA"},"type":"Feature","geometry":null},{"properties":{"city":"Napa","statustype":"Active","zip":"94558","latitude":null,"county":"Napa","district":"Napa County ROP","streetabr":"4032 Maher St.","longitude":null,"id":"a694q8ofwfi6","cdscode":"28744840000000","school":null,"state":"CA"},"type":"Feature","geometry":null},{"properties":{"city":"San Francisco","statustype":"Active","zip":"94116","latitude":null,"county":"San Francisco","district":"San Francisco Unified","streetabr":"2550 25th Ave.","longitude":null,"id":"a694q8qjf96q","cdscode":"38684780111427","school":"Dianne Feinstein Elementary","state":"CA"},"type":"Feature","geometry":null},{"properties":{"city":"San Francisco","statustype":"Active","zip":"94108","latitude":null,"county":"San Francisco","district":"San Francisco Unified","streetabr":"949 Washington St.","longitude":null,"id":"a694q8u7vp0a","cdscode":"38684780117465","school":"Commodore Stockton Children Center","state":"CA"},"type":"Feature","geometry":null},{"properties":{"city":"San Francisco","statustype":"Active","zip":"94122","latitude":null,"county":"San Francisco","district":"San Francisco Unified","streetabr":"1775 44th Ave.","longitude":null,"id":"a694q8vpk21m","cdscode":"38684780117473","school":"Noriega Children Center","state":"CA"},"type":"Feature","geometry":null},{"properties":{"city":"San Francisco","statustype":"Active","zip":"94112","latitude":null,"county":"San Francisco","district":"San Francisco Unified","streetabr":"300 Seneca Ave.","longitude":null,"id":"a694q8mlm6oc","cdscode":"38684780117481","school":"San Miguel Children Center","state":"CA"},"type":"Feature","geometry":null},{"properties":{"city":"San Francisco","statustype":"Active","zip":"94129","latitude":null,"county":"San Francisco","district":"San Francisco Unified","streetabr":"Bldg 387\t Presidio","longitude":null,"id":"a694q8ty867b","cdscode":"38684780117499","school":"Presidio Children Center","state":"CA"},"type":"Feature","geometry":null},{"properties":{"city":"San Francisco","statustype":"Active","zip":"94133","latitude":null,"county":"San Francisco","district":"San Francisco Unified","streetabr":"940 Filbert St.","longitude":null,"id":"a694q8sh4wee","cdscode":"38684780117507","school":"Sarah B. Cooper Children Center","state":"CA"},"type":"Feature","geometry":null},{"properties":{"city":"San Francisco","statustype":"Active","zip":"94115","latitude":null,"county":"San Francisco","district":"San Francisco Unified","streetabr":"1501 O'Farrell St.","longitude":null,"id":"a694q8tnnl8u","cdscode":"38684780117515","school":"Raphael Weill Children Center","state":"CA"},"type":"Feature","geometry":null},{"properties":{"city":"San Francisco","statustype":"Active","zip":"94123","latitude":null,"county":"San Francisco","district":"San Francisco Unified","streetabr":"2110 Greenwich St.","longitude":null,"id":"a694q8pljbab","cdscode":"38684780117523","school":"Tule Elk Park Children Center","state":"CA"},"type":"Feature","geometry":null},{"properties":{"city":"San Francisco","statustype":"Active","zip":"94134","latitude":null,"county":"San Francisco","district":"San Francisco Unified","streetabr":"2055 Sunnydale Ave.","longitude":null,"id":"a694q8u7lni0","cdscode":"38684780117531","school":"John McLaren Children Centers","state":"CA"},"type":"Feature","geometry":null},{"properties":{"city":"San Francisco","statustype":"Active","zip":"94124","latitude":null,"county":"San Francisco","district":"San Francisco Unified","streetabr":"1520 Oakdale Ave.","longitude":null,"id":"a694q8suop09","cdscode":"38684780117564","school":"Burnett Children Center","state":"CA"},"type":"Feature","geometry":null},{"properties":{"city":"San Francisco","statustype":"Active","zip":"94114","latitude":null,"county":"San Francisco","district":"San Francisco Unified","streetabr":"990 Church St.","longitude":null,"id":"a694q8q0xlqt","cdscode":"38684780117572","school":"Theresa S. Mahler Children Center","state":"CA"},"type":"Feature","geometry":null},{"properties":{"city":"San Francico","statustype":"Active","zip":"94110","latitude":null,"county":"San Francisco","district":"San Francisco Unified","streetabr":"801 Treat Ave.","longitude":null,"id":"a694q8ipehx1","cdscode":"38684780117580","school":"Las Americas Children Center","state":"CA"},"type":"Feature","geometry":null},{"properties":{"city":"San Francisco","statustype":"Active","zip":"94107-1019","latitude":null,"county":"San Francisco","district":"San Francisco Unified","streetabr":"70 Oak Grove","longitude":null,"id":"a694q8u8x113","cdscode":"38684780118133","school":"Five Keys Adult School (SF Sheriff's)","state":"CA"},"type":"Feature","geometry":null},{"properties":{"city":"San Francisco","statustype":"Active","zip":"94107-1019","latitude":null,"county":"San Francisco","district":"San Francisco Unified","streetabr":"70 Oak Grove","longitude":null,"id":"a694q8sxa6e0","cdscode":"38684780118141","school":"Five Keys Independence HS (SF Sheriff's)","state":"CA"},"type":"Feature","geometry":null},{"properties":{"city":"San Francisco","statustype":"Active","zip":"94114","latitude":null,"county":"San Francisco","district":"San Francisco Unified","streetabr":"3750 18th St.\t 4th Fl.","longitude":null,"id":"a694q8hhn9fy","cdscode":"38684780119875","school":"SF International High","state":"CA"},"type":"Feature","geometry":null},{"properties":{"city":"San Francisco","statustype":"Active","zip":"94131","latitude":null,"county":"San Francisco","district":"San Francisco Unified","streetabr":"555 Portola Dr.","longitude":null,"id":"a694q8qp4cjx","cdscode":"38684780119958","school":"Academy of Arts and Sciences","state":"CA"},"type":"Feature","geometry":null},{"properties":{"city":"San Francisco","statustype":"Active","zip":"94117","latitude":null,"county":"San Francisco","district":"San Francisco Unified","streetabr":"1250 Waller St.","longitude":null,"id":"a694q8k9ccbk","cdscode":"38684780120386","school":"Chinese Immersion School at DeAvila","state":"CA"},"type":"Feature","geometry":null},{"properties":{"city":"San Francisco","statustype":"Active","zip":"94115-1323","latitude":null,"county":"San Francisco","district":"San Francisco Unified","streetabr":"2340 Jackson St.","longitude":null,"id":"a694q8mw8dy7","cdscode":"38684780123117","school":"San Francisco Public Montessori","state":"CA"},"type":"Feature","geometry":null},{"properties":{"city":"San Francisco","statustype":"Active","zip":"94131","latitude":null,"county":"San Francisco","district":"San Francisco County ROP","streetabr":"555 Portola Dr. - Bungalow A","longitude":null,"id":"a694q8wzm3o1","cdscode":"38745340000000","school":null,"state":"CA"},"type":"Feature","geometry":null},{"properties":{"city":"San Francisco","statustype":"Active","zip":"94102-1228","latitude":null,"county":"San Francisco","district":"SBE - San Francisco Flex Academy","streetabr":"555 Post St.","longitude":null,"id":"a694q8wyufwn","cdscode":"38767030000000","school":null,"state":"CA"},"type":"Feature","geometry":null},{"properties":{"city":"San Francisco","statustype":"Active","zip":"94102-1228","latitude":null,"county":"San Francisco","district":"SBE - San Francisco Flex Academy","streetabr":"555 Post St.","longitude":null,"id":"a694q8oje0jy","cdscode":"38767030121814","school":"San Francisco Flex Academy","state":"CA"},"type":"Feature","geometry":null},{"properties":{"city":"San Mateo","statustype":"Active","zip":"94402","latitude":null,"county":"San Mateo","district":"San Mateo County Office of Education","streetabr":"400 Paul Scannell Dr.","longitude":null,"id":"a694q8koszx9","cdscode":"41104130113258","school":"Margaret Kemp Girls Camp","state":"CA"},"type":"Feature","geometry":null},{"properties":{"city":"La Honda","statustype":"Active","zip":"94020","latitude":null,"county":"San Mateo","district":"San Mateo County Office of Education","streetabr":"400 Log Cabin Ranch Rd.","longitude":null,"id":"a694q8jkl7nz","cdscode":"41104130113266","school":"Camp Glenwood","state":"CA"},"type":"Feature","geometry":null},{"properties":{"city":"South San Francisco","statustype":"Active","zip":"94080-4445","latitude":null,"county":"San Mateo","district":"San Mateo County Office of Education","streetabr":"201 W. Orange Ave.","longitude":null,"id":"a694q8kf7k3p","cdscode":"41104130113282","school":"North Community","state":"CA"},"type":"Feature","geometry":null},{"properties":{"city":"Redwood City","statustype":"Active","zip":"94063","latitude":null,"county":"San Mateo","district":"San Mateo County Office of Education","streetabr":"1109 Hilton St.","longitude":null,"id":"a694q8wd3kzj","cdscode":"41104130113316","school":"Central Community","state":"CA"},"type":"Feature","geometry":null},{"properties":{"city":"East Palo Alto","statustype":"Active","zip":"94303","latitude":null,"county":"San Mateo","district":"San Mateo County Office of Education","streetabr":"2031 Pulgas Ave.","longitude":null,"id":"a694q8vgc3de","cdscode":"41104130113324","school":"South Community","state":"CA"},"type":"Feature","geometry":null},{"properties":{"city":"San Mateo","statustype":"Active","zip":"94402","latitude":null,"county":"San Mateo","district":"San Mateo County Office of Education","streetabr":"35 Tower Rd.","longitude":null,"id":"a694q8rfpkcr","cdscode":"41104130113332","school":"Gateway Center","state":"CA"},"type":"Feature","geometry":null},{"properties":{"city":"Redwood City","statustype":"Active","zip":"94062","latitude":null,"county":"San Mateo","district":"San Mateo County Office of Education","streetabr":"400 Edmonds Rd.","longitude":null,"id":"a694q8gsuxpa","cdscode":"41104130117143","school":"Canyon Oaks Youth Center","state":"CA"},"type":"Feature","geometry":null},{"properties":{"city":"El Segundo","statustype":"Active","zip":"90245","latitude":null,"county":"San Mateo","district":"Bayshore Elementary","streetabr":"840 Apollo St.\t Ste. 222","longitude":null,"id":"a694q8m3ac91","cdscode":"41688580120162","school":"Kaplan Academy of California-San Francisco Bay","state":"CA"},"type":"Feature","geometry":null},{"properties":{"city":"Redwood City","statustype":"Active","zip":"94065","latitude":null,"county":"San Mateo","district":"Belmont-Redwood Shores Elementary","streetabr":"225 Shearwater Pkwy.","longitude":null,"id":"a694q8tvvjh6","cdscode":"41688660121111","school":"Redwood Shores Elementary","state":"CA"},"type":"Feature","geometry":null},{"properties":{"city":"Burlingame","statustype":"Active","zip":"94010-4509","latitude":null,"county":"San Mateo","district":"Burlingame Elementary","streetabr":"1825 Trousdale Dr.","longitude":null,"id":"a694q8m0cvg8","cdscode":"41688820119818","school":"BSD Preschool","state":"CA"},"type":"Feature","geometry":null},{"properties":{"city":"Simi Valley","statustype":"Active","zip":"93065","latitude":null,"county":"San Mateo","district":"Jefferson Elementary","streetabr":"2360 Shasta Way\t Unit A","longitude":null,"id":"a694q8i946ku","cdscode":"41689160112284","school":"California Virtual Academy @ San Mateo","state":"CA"},"type":"Feature","geometry":null},{"properties":{"city":"Menlo Park","statustype":"Active","zip":"94025-2826","latitude":null,"county":"San Mateo","district":"Ravenswood City Elementary","streetabr":"475 Pope St.","longitude":null,"id":"a694q8ux8433","cdscode":"41689990109561","school":"Stanford New School","state":"CA"},"type":"Feature","geometry":null},{"properties":{"city":"Foster City","statustype":"Active","zip":"94404-1107","latitude":null,"county":"San Mateo","district":"San Mateo-Foster City","streetabr":"1170 Chess Dr.","longitude":null,"id":"a694q8m7l2qd","cdscode":"41690390123497","school":"San Mateo-Foster City Special Education Preschool","state":"CA"},"type":"Feature","geometry":null},{"properties":{"city":"Redwood City","statustype":"Active","zip":"94063-3105","latitude":null,"county":"San Mateo","district":"Sequoia Union High","streetabr":"890 Broadway","longitude":null,"id":"a694q8iygfvt","cdscode":"41690620112722","school":"Summit Preparatory Charter High","state":"CA"},"type":"Feature","geometry":null},{"properties":{"city":"East Palo Alto","statustype":"Active","zip":"94303-1311","latitude":null,"county":"San Mateo","district":"Sequoia Union High","streetabr":"1848C Bay Rd.","longitude":null,"id":"a694q8p9ftex","cdscode":"41690620118232","school":"Aspire East Palo Alto Phoenix Academy","state":"CA"},"type":"Feature","geometry":null},{"properties":{"city":"Redwood City","statustype":"Active","zip":"94065-1064","latitude":null,"county":"San Mateo","district":"San Mateo County ROP","streetabr":"101 Twin Dolphin Dr.","longitude":null,"id":"a694q8j8p0wt","cdscode":"41745590000000","school":null,"state":"CA"},"type":"Feature","geometry":null},{"properties":{"city":"Redwood City","statustype":"Active","zip":"94063","latitude":null,"county":"San Mateo","district":"SBE - Everest Public High","streetabr":"305 Main St.","longitude":null,"id":"a694q8pfiyfc","cdscode":"41765880000000","school":null,"state":"CA"},"type":"Feature","geometry":null},{"properties":{"city":"Redwood City","statustype":"Active","zip":"94063","latitude":null,"county":"San Mateo","district":"SBE - Everest Public High","streetabr":"305 Main St.","longitude":null,"id":"a694q8gnptnm","cdscode":"41765880119503","school":"Everest Public High","state":"CA"},"type":"Feature","geometry":null},{"properties":{"city":"San Jose","statustype":"Active","zip":"95117-3433","latitude":null,"county":"Santa Clara","district":"Santa Clara County Office of Education","streetabr":"4021 Teale Ave.","longitude":null,"id":"a694q8ousbut","cdscode":"43104390111880","school":"Discovery Charter","state":"CA"},"type":"Feature","geometry":null},{"properties":{"city":"San Jose","statustype":"Active","zip":"95125-2005","latitude":null,"county":"Santa Clara","district":"Santa Clara County Office of Education","streetabr":"2315 Canoas Garden Ave.","longitude":null,"id":"a694q8knawjo","cdscode":"43104390113431","school":"University Preparatory Academy Charter","state":"CA"},"type":"Feature","geometry":null},{"properties":{"city":"San Jose","statustype":"Active","zip":"95110-2954","latitude":null,"county":"Santa Clara","district":"Santa Clara County Office of Education","streetabr":"788 Locust St.","longitude":null,"id":"a694q8wkyj2l","cdscode":"43104390113704","school":"Rocketship Mateo Sheedy Elementary","state":"CA"},"type":"Feature","geometry":null},{"properties":{"city":"San Jose","statustype":"Active","zip":"95116-3423","latitude":null,"county":"Santa Clara","district":"Santa Clara County Office of Education","streetabr":"480 South McCreery Ave.","longitude":null,"id":"a694q8sak3o2","cdscode":"43104390116814","school":"ACE Charter","state":"CA"},"type":"Feature","geometry":null},{"properties":{"city":"San Jose","statustype":"Active","zip":"95116","latitude":null,"county":"Santa Clara","district":"Santa Clara County Office of Education","streetabr":"2249 Dobern Ave.","longitude":null,"id":"a694q8hilnic","cdscode":"43104390119024","school":"Rocketship Si Se Puede Academy","state":"CA"},"type":"Feature","geometry":null},{"properties":{"city":"Sunnyvale","statustype":"Active","zip":"94087-7916","latitude":null,"county":"Santa Clara","district":"Santa Clara County Office of Education","streetabr":"1095 Dunford Way","longitude":null,"id":"a694q8lu6ngs","cdscode":"43104390120261","school":"Magnolia Science Academy Santa Clara","state":"CA"},"type":"Feature","geometry":null},{"properties":{"city":"San Jose","statustype":"Active","zip":"95116","latitude":null,"county":"Santa Clara","district":"Santa Clara County Office of Education","streetabr":"331 South 34th St.","longitude":null,"id":"a694q8p5m7h3","cdscode":"43104390120642","school":"Rocketship Los Suenos Academy","state":"CA"},"type":"Feature","geometry":null},{"properties":{"city":"San Jose","statustype":"Active","zip":"95127","latitude":null,"county":"Santa Clara","district":"Alum Rock Union Elementary","streetabr":"2851 Gay Ave.","longitude":null,"id":"a694q8jik8q2","cdscode":"43693690114900","school":"Anthony P. Russo Academy","state":"CA"},"type":"Feature","geometry":null},{"properties":{"city":"San Jose","statustype":"Active","zip":"95127","latitude":null,"county":"Santa Clara","district":"Alum Rock Union Elementary","streetabr":"2851 Gay Ave.","longitude":null,"id":"a694q8qfdjsc","cdscode":"43693690114918","school":"James McEntee Academy","state":"CA"},"type":"Feature","geometry":null},{"properties":{"city":"San Jose","statustype":"Active","zip":"95128","latitude":null,"county":"Santa Clara","district":"Campbell Union","streetabr":"2945 Van Sansul Ave.","longitude":null,"id":"a694q8obfh8w","cdscode":"43693930112136","school":"Community Day","state":"CA"},"type":"Feature","geometry":null},{"properties":{"city":"San Jose","statustype":"Active","zip":"95133","latitude":null,"county":"Santa Clara","district":"East Side Union High","streetabr":"1790 Educational Park Dr.","longitude":null,"id":"a694q8lt9gxc","cdscode":"43694270116889","school":"KIPP San Jose Collegiate","state":"CA"},"type":"Feature","geometry":null},{"properties":{"city":"San Jose","statustype":"Active","zip":"95122","latitude":null,"county":"Santa Clara","district":"Franklin-McKinley Elementary","streetabr":"1215 Audubon Dr.","longitude":null,"id":"a694q8uggs1l","cdscode":"43694500111849","school":"Success Academy","state":"CA"},"type":"Feature","geometry":null},{"properties":{"city":"San Jose","statustype":"Active","zip":"95111-1584","latitude":null,"county":"Santa Clara","district":"Franklin-McKinley Elementary","streetabr":"4075 Sacramento Ave.","longitude":null,"id":"a694q8szuyob","cdscode":"43694500113662","school":"Voices College-Bound Language Academy","state":"CA"},"type":"Feature","geometry":null},{"properties":{"city":"San Jose","statustype":"Active","zip":"95122","latitude":null,"county":"Santa Clara","district":"Franklin-McKinley Elementary","streetabr":"1250 Taper Ln.\t Portable P-6","longitude":null,"id":"a694q8ibtpp9","cdscode":"43694500121483","school":"Cornerstone Academy Preparatory","state":"CA"},"type":"Feature","geometry":null},{"properties":{"city":"Gilroy","statustype":"Active","zip":"95020","latitude":null,"county":"Santa Clara","district":"Gilroy Unified","streetabr":"5055 Santa Teresa Blvd.\t PB17","longitude":null,"id":"a694q8j018t3","cdscode":"43694840114496","school":"Dr. T. J. Owens Gilroy Early College Academy","state":"CA"},"type":"Feature","geometry":null},{"properties":{"city":"Gilroy","statustype":"Active","zip":"95020","latitude":null,"county":"Santa Clara","district":"Gilroy Unified","streetabr":"850 Day Rd.","longitude":null,"id":"a694q8x15t1e","cdscode":"43694840118380","school":"Christopher High","state":"CA"},"type":"Feature","geometry":null},{"properties":{"city":"Los Altos","statustype":"Active","zip":"94024","latitude":null,"county":"Santa Clara","district":"Los Altos Elementary","streetabr":"201 Covington Rd.","longitude":null,"id":"a694q8t52wp7","cdscode":"43695180118703","school":"LASD Preschool","state":"CA"},"type":"Feature","geometry":null},{"properties":{"city":"Los Gatos","statustype":"Active","zip":"95030","latitude":null,"county":"Santa Clara","district":"Los Gatos-Saratoga Joint Union High","streetabr":"17421 Farley Rd. West","longitude":null,"id":"a694q8ww6uvn","cdscode":"43695344334272","school":"Los Gatos-Saratoga JUHSD Adult Education Program","state":"CA"},"type":"Feature","geometry":null},{"properties":{"city":"Mountain View","statustype":"Active","zip":"94043-1810","latitude":null,"county":"Santa Clara","district":"Mountain View Whisman","streetabr":"1701 Rock St.","longitude":null,"id":"a694q8w54afe","cdscode":"43695910121830","school":"Independent Study Program","state":"CA"},"type":"Feature","geometry":null},{"properties":{"city":"Mountain View","statustype":"Active","zip":"94043-3954","latitude":null,"county":"Santa Clara","district":"Mountain View Whisman","streetabr":"220 North Whisman Rd.","longitude":null,"id":"a694q8kz3cfq","cdscode":"43695910121889","school":"Slater Special Education Preschool","state":"CA"},"type":"Feature","geometry":null},{"properties":{"city":"Mountain View","statustype":"Active","zip":"94043-3133","latitude":null,"county":"Santa Clara","district":"Mountain View Whisman","streetabr":"750 San Pierre Way\t Ste. A","longitude":null,"id":"a694q8tqv7ey","cdscode":"43695910121913","school":"MVWSD Home &amp; Hospital","state":"CA"},"type":"Feature","geometry":null},{"properties":{"city":"Mountain View","statustype":"Active","zip":"94043-3133","latitude":null,"county":"Santa Clara","district":"Mountain View Whisman","streetabr":"750B San Pierre Way","longitude":null,"id":"a694q8m69tcx","cdscode":"43695916049464","school":"Stevenson Elementary","state":"CA"},"type":"Feature","geometry":null},{"properties":{"city":"San Jose","statustype":"Active","zip":"95116","latitude":null,"county":"Santa Clara","district":"San Jose Unified","streetabr":"1155 East Julian St.","longitude":null,"id":"a694q8qo6xhx","cdscode":"43696664330734","school":"San Jose Community High","state":"CA"},"type":"Feature","geometry":null},{"properties":{"city":"Santa Clara","statustype":"Active","zip":"95054","latitude":null,"county":"Santa Clara","district":"Santa Clara Unified","streetabr":"4176 Lick Mill Blvd.","longitude":null,"id":"a694q8l9rc93","cdscode":"43696740110700","school":"Don Callejon","state":"CA"},"type":"Feature","geometry":null},{"properties":{"city":"Alviso","statustype":"Active","zip":"95002","latitude":null,"county":"Santa Clara","district":"Santa Clara Unified","streetabr":"1621 Gold St.","longitude":null,"id":"a694q8n9o3n2","cdscode":"43696740116830","school":"Downtown College Prep Alviso","state":"CA"},"type":"Feature","geometry":null},{"properties":{"city":"San Jose","statustype":"Active","zip":"95118","latitude":null,"county":"Santa Clara","district":"Union Elementary","streetabr":"5200 Dent Ave.","longitude":null,"id":"a694q8gv7slz","cdscode":"43697080117341","school":"Athenour Elementary","state":"CA"},"type":"Feature","geometry":null},{"properties":{"city":"San Jose","statustype":"Active","zip":"95136","latitude":null,"county":"Santa Clara","district":"Metro Education","streetabr":"760 Hillsdale Ave.","longitude":null,"id":"a694q8tesxwt","cdscode":"43742940000000","school":null,"state":"CA"},"type":"Feature","geometry":null},{"properties":{"city":"Sunnyvale","statustype":"Active","zip":"94087","latitude":null,"county":"Santa Clara","district":"Santa Clara County ROP","streetabr":"575 West Fremont Ave.","longitude":null,"id":"a694q8wxdex3","cdscode":"43743020000000","school":null,"state":"CA"},"type":"Feature","geometry":null},{"properties":{"city":"Sunnyvale","statustype":"Active","zip":"94087-2556","latitude":null,"county":"Santa Clara","district":"North County Regional Occupational Center/Program (ROC/P)","streetabr":"589 West Fremont Ave.","longitude":null,"id":"a694q8hqt0mg","cdscode":"43766200000000","school":null,"state":"CA"},"type":"Feature","geometry":null},{"properties":{"city":"Sunnyvale","statustype":"Active","zip":"94087","latitude":null,"county":"Santa Clara","district":"North County Regional Occupational Center/Program (ROC/P)","streetabr":"589 West Fremont Ave.","longitude":null,"id":"a694q8o6044w","cdscode":"43766200119941","school":"North County Regional Occupational Program","state":"CA"},"type":"Feature","geometry":null},{"properties":{"city":"Fairfield","statustype":"Active","zip":"94533-1966","latitude":null,"county":"Solano","district":"Solano County Office of Education","streetabr":"2301 Pennsylvania Ave.","longitude":null,"id":"a694q8wmo3ew","cdscode":"48104880123331","school":"Division of Unaccompanied Children's Services (DUCS)","state":"CA"},"type":"Feature","geometry":null},{"properties":{"city":"Benicia","statustype":"Active","zip":"94510","latitude":null,"county":"Solano","district":"Benicia Unified","streetabr":"426 East K St.","longitude":null,"id":"a694q8gox1ha","cdscode":"48705240118968","school":"Community Day","state":"CA"},"type":"Feature","geometry":null},{"properties":{"city":"Fairfield","statustype":"Active","zip":"94533-3643","latitude":null,"county":"Solano","district":"Fairfield-Suisun Unified","streetabr":"1975 Pennsylvania Ave.","longitude":null,"id":"a694q8r22qe5","cdscode":"48705400112664","school":"David A. Weir Elementary","state":"CA"},"type":"Feature","geometry":null},{"properties":{"city":"Fairfield","statustype":"Active","zip":"94533","latitude":null,"county":"Solano","district":"Fairfield-Suisun Unified","streetabr":"1069 Meadowlark Dr.","longitude":null,"id":"a694q8tdzur9","cdscode":"48705400112912","school":"Fairfield-Suisun Elementary Community Day","state":"CA"},"type":"Feature","geometry":null},{"properties":{"city":"Fairfield","statustype":"Active","zip":"94534","latitude":null,"county":"Solano","district":"Fairfield-Suisun Unified","streetabr":"2025 Fieldcrest Ave.","longitude":null,"id":"a694q8lf0806","cdscode":"48705400113084","school":"Rolling Hills Elementary","state":"CA"},"type":"Feature","geometry":null},{"properties":{"city":"Fairfield","statustype":"Active","zip":"94534","latitude":null,"county":"Solano","district":"Fairfield-Suisun Unified","streetabr":"4770 Canyon Hills Dr.","longitude":null,"id":"a694q8t3eygo","cdscode":"48705400113092","school":"Cordelia Hills Elementary","state":"CA"},"type":"Feature","geometry":null},{"properties":{"city":"Fairfield","statustype":"Active","zip":"94533-2460","latitude":null,"county":"Solano","district":"Fairfield-Suisun Unified","streetabr":"1069 Meadowlark Dr.","longitude":null,"id":"a694q8n80wow","cdscode":"48705400122093","school":"H. Glenn Richardson","state":"CA"},"type":"Feature","geometry":null},{"properties":{"city":"Fairfield","statustype":"Active","zip":"94533-1539","latitude":null,"county":"Solano","district":"Fairfield-Suisun Unified","streetabr":"230 Atlantic Ave.","longitude":null,"id":"a694q8qpdfny","cdscode":"48705400123356","school":"Matt Garcia Learning Center","state":"CA"},"type":"Feature","geometry":null},{"properties":{"city":"Vacaville","statustype":"Active","zip":"95688-2616","latitude":null,"county":"Solano","district":"Vacaville Unified","streetabr":"400 Hemlock St.","longitude":null,"id":"a694q8thg02n","cdscode":"48705730122523","school":"Alternative Cooperative Education Charter","state":"CA"},"type":"Feature","geometry":null},{"properties":{"city":"Vallejo","statustype":"Active","zip":"94591-8226","latitude":null,"county":"Solano","district":"Vallejo City Unified","streetabr":"436 Del Sur St.","longitude":null,"id":"a694q8krt7z2","cdscode":"48705810115469","school":"Vallejo Charter","state":"CA"},"type":"Feature","geometry":null},{"properties":{"city":"Fairfield","statustype":"Active","zip":"94533","latitude":null,"county":"Solano","district":"Solano County ROP","streetabr":"2460 Clay Bank Rd.","longitude":null,"id":"a694q8p9etu0","cdscode":"48746740000000","school":null,"state":"CA"},"type":"Feature","geometry":null},{"properties":{"city":"Dixon","statustype":"Active","zip":"95620","latitude":null,"county":"Solano","district":"SBE - Dixon Montessori Charter","streetabr":"355 North Almond St.","longitude":null,"id":"a694q8v2eavg","cdscode":"48766610000000","school":null,"state":"CA"},"type":"Feature","geometry":null},{"properties":{"city":"Dixon","statustype":"Active","zip":"95620-2702","latitude":null,"county":"Solano","district":"SBE - Dixon Montessori Charter","streetabr":"355 North Almond St.","longitude":null,"id":"a694q8pcxn5q","cdscode":"48766610122267","school":"Dixon Montessori Charter","state":"CA"},"type":"Feature","geometry":null},{"properties":{"city":"Sebastopol","statustype":"Active","zip":"95472","latitude":null,"county":"Sonoma","district":"West Sonoma County Union High","streetabr":"490 Taft St.","longitude":null,"id":"a694q8ttzncq","cdscode":"49706070116293","school":"WSCUHSD Community Day","state":"CA"},"type":"Feature","geometry":null},{"properties":{"city":"Sebastopol","statustype":"Active","zip":"95472-3431","latitude":null,"county":"Sonoma","district":"West Sonoma County Union High","streetabr":"462 Johnson St.","longitude":null,"id":"a694q8qb99zq","cdscode":"49706070121038","school":"West Sonoma County Consortium","state":"CA"},"type":"Feature","geometry":null},{"properties":{"city":"Santa Rosa","statustype":"Active","zip":"95407","latitude":null,"county":"Sonoma","district":"Bellevue Union Elementary","streetabr":"1210 East Bellevue Ave.","longitude":null,"id":"a694q8mn27m1","cdscode":"49706150113506","school":"Taylor Mountain Elementary","state":"CA"},"type":"Feature","geometry":null},{"properties":{"city":"Petaluma","statustype":"Active","zip":"94952","latitude":null,"county":"Sonoma","district":"Dunham Elementary","streetabr":"4111 Roblar Rd.","longitude":null,"id":"a694q8nbu2ij","cdscode":"49706720122440","school":"Dunham Charter","state":"CA"},"type":"Feature","geometry":null},{"properties":{"city":"Forestville","statustype":"Active","zip":"95436","latitude":null,"county":"Sonoma","district":"Forestville Union Elementary","streetabr":"6321 Highway 116","longitude":null,"id":"a694q8wgcq8t","cdscode":"49706800112987","school":"Forestville Academy","state":"CA"},"type":"Feature","geometry":null},{"properties":{"city":"Petaluma","statustype":"Active","zip":"94952","latitude":null,"county":"Sonoma","district":"Liberty Elementary","streetabr":"170 Liberty School Rd.","longitude":null,"id":"a694q8n5i9kz","cdscode":"49707970123422","school":"Liberty Primary","state":"CA"},"type":"Feature","geometry":null},{"properties":{"city":"Santa Rosa","statustype":"Active","zip":"95407","latitude":null,"county":"Sonoma","district":"Oak Grove Union Elementary","streetabr":"950 South Wright Rd.","longitude":null,"id":"a694q8lkrgsa","cdscode":"49708390120584","school":"Pivot Online Charter - North Bay","state":"CA"},"type":"Feature","geometry":null},{"properties":{"city":"Petaluma","statustype":"Active","zip":"94952-2065","latitude":null,"county":"Sonoma","district":"Petaluma Joint Union High","streetabr":"1001 Cherry St.","longitude":null,"id":"a694q8slf0pc","cdscode":"49708626051932","school":"Mary Collins School at Cherry Valley","state":"CA"},"type":"Feature","geometry":null},{"properties":{"city":"Santa Rosa","statustype":"Active","zip":"95405-7020","latitude":null,"county":"Sonoma","district":"Rincon Valley Union Elementary","streetabr":"1000 Yulupa Ave.","longitude":null,"id":"a694q8shsvyl","cdscode":"49708960120980","school":"Redwood Consortium for Student Services","state":"CA"},"type":"Feature","geometry":null},{"properties":{"city":"Santa Rosa","statustype":"Active","zip":"95404","latitude":null,"county":"Sonoma","district":"Santa Rosa Elementary","streetabr":"756 Humboldt St.","longitude":null,"id":"a694q8rco85x","cdscode":"49709120113530","school":"Santa Rosa Charter School for the Arts","state":"CA"},"type":"Feature","geometry":null},{"properties":{"city":"Sebastopol","statustype":"Active","zip":"95472","latitude":null,"county":"Sonoma","district":"Sebastopol Union Elementary","streetabr":"7905 Valentine Ave.","longitude":null,"id":"a694q8pztto4","cdscode":"49709380120121","school":"REACH","state":"CA"},"type":"Feature","geometry":null},{"properties":{"city":"Santa Rosa","statustype":"Active","zip":"95403","latitude":null,"county":"Sonoma","district":"Sonoma County ROP","streetabr":"5340 Skylane Blvd.","longitude":null,"id":"a694q8s9hl77","cdscode":"49745910000000","school":null,"state":"CA"},"type":"Feature","geometry":null},{"properties":{"city":"Santa Rosa","statustype":"Active","zip":"95403-1412","latitude":null,"county":"Sonoma","district":"Windsor Unified","streetabr":"4614 Old Redwood Hwy.","longitude":null,"id":"a694q8jn8s9d","cdscode":"49753580114934","school":"Village Charter","state":"CA"},"type":"Feature","geometry":null},{"properties":{"city":"Windsor","statustype":"Active","zip":"95492","latitude":null,"county":"Sonoma","district":"Windsor Unified","streetabr":"8733 Lakewood Drive\t Ste. B","longitude":null,"id":"a694q8p7oh8h","cdscode":"49753580117986","school":"Insight School of California - North Bay","state":"CA"},"type":"Feature","geometry":null},{"properties":{"city":"Windsor","statustype":"Active","zip":"95492","latitude":null,"county":"Sonoma","district":"Windsor Unified","streetabr":"10725 Old Redwood Hwy.","longitude":null,"id":"a694q8ikeyec","cdscode":"49753580121236","school":"Bridges Community Based School\t North County Consortium","state":"CA"},"type":"Feature","geometry":null},{"properties":{"city":"Petaluma","statustype":"Active","zip":"94954","latitude":null,"county":"Sonoma","district":"SBE - River Montessori Elementary Charter","streetabr":"3880 Cypress Dr.","longitude":null,"id":"a694q8kdahnd","cdscode":"49766040119750","school":"River Montessori Elementary Charter","state":"CA"},"type":"Feature","geometry":null}],"is_temporal":false,"author":{"url":"http://www.cde.ca.gov/ds/si/ds/pubschls.asp","metadata":"","contact_name":"","contact_address":"","source":"California Department of Education","contact_phone":""},"source":"http://www.cde.ca.gov/ds/si/ds/pubschls.asp","pagination":{"sort":null,"start":0,"total":192,"limit":1000000},"state":"complete","tags":"","published":"2014-08-12T21:37:01-04:00","id":120470}