{"type":"FeatureCollection","data_type":"Dataset","url_type":null,"permissions":[{"permissions":{"download":true,"view":true},"group_id":"everyone"}],"classification":null,"title":"Bay Area Public Schools - togeocode","count":192,"stream_id":120471,"contributor":{"url":"http://geocommons.com/users/27482","name":"strainor"},"data_attributes":null,"calculation_params":null,"icon_link":null,"link":"http://geocommons.com/overlays/120471.json","extent":[-122.888,32.8077,-116.914,38.5647],"geometry_types":["point"],"unique_name":null,"name":"Bay Area Public Schools - togeocode","feature_count":192,"description":"","next_feature":null,"is_raster":false,"short_classification":"Y","stats":{},"features":[{"properties":{"city":"Oakland","zip":"94612-3355","statustype":"Active","district":"Alameda County Office of Education","county":"Alameda","geo_score":1.0,"streetabr":"1515 Webster St.","id":"a66jhrmsbp9i","geo_precision":"range","school":"Envision Academy for Arts &amp; Technology","cdscode":"1.10017E+12","state":"CA"},"type":"Feature","geometry":{"type":"Point","coordinates":[-122.268188,37.80441]}},{"properties":{"city":"Berkeley","zip":"94703-1414","statustype":"Active","district":"Alameda County Office of Education","county":"Alameda","geo_score":1.0,"streetabr":"2125 Jefferson Ave.","id":"a66jhrszsmoc","geo_precision":"range","school":"Aspire California College Preparatory Academy","cdscode":"1.10017E+12","state":"CA"},"type":"Feature","geometry":{"type":"Point","coordinates":[-122.278552,37.869804]}},{"properties":{"city":"Oakland","zip":"94603-2750","statustype":"Active","district":"Alameda County Office of Education","county":"Alameda","geo_score":1.0,"streetabr":"9860 Sunnyside St.","id":"a66jhrvz2heu","geo_precision":"range","school":"Cox Academy","cdscode":"1.10018E+12","state":"CA"},"type":"Feature","geometry":{"type":"Point","coordinates":[-122.161899,37.746499]}},{"properties":{"city":"Alameda","zip":"94501","statustype":"Active","district":"Alameda City Unified","county":"Alameda","geo_score":0.602,"streetabr":"351 Jack London Ave.","id":"a66jhrm8jz02","geo_precision":"street","school":"Ruby Bridges Elementary","cdscode":"1.61119E+12","state":"CA"},"type":"Feature","geometry":{"type":"Point","coordinates":[-122.280905,37.773391]}},{"properties":{"city":"Alameda","zip":"94501","statustype":"Active","district":"Alameda City Unified","county":"Alameda","geo_score":1.0,"streetabr":"500 Pacific Ave.","id":"a66jhrwyrs46","geo_precision":"range","school":"Nea Community Learning Center","cdscode":"1.61119E+12","state":"CA"},"type":"Feature","geometry":{"type":"Point","coordinates":[-122.282279,37.776361]}},{"properties":{"city":"Alameda","zip":"94501-1837","statustype":"Active","district":"Alameda City Unified","county":"Alameda","geo_score":1.0,"streetabr":"401 Pacific Ave.","id":"a66jhrvex52c","geo_precision":"range","school":"Academy of Alameda","cdscode":"1.61119E+12","state":"CA"},"type":"Feature","geometry":{"type":"Point","coordinates":[-122.285488,37.776299]}},{"properties":{"city":"Berkeley","zip":"94704-1180","statustype":"Active","district":"Berkeley Unified","county":"Alameda","geo_score":0.633,"streetabr":"2134 Martin Luther King Jr. Way","id":"a66jhrqxt4ps","geo_precision":"street","school":"Berkeley Special Education Preschool","cdscode":"1.61143E+12","state":"CA"},"type":"Feature","geometry":{"type":"Point","coordinates":[-122.273176,37.872457]}},{"properties":{"city":"Castro Valley","zip":"94546","statustype":"Active","district":"Castro Valley Unified","county":"Alameda","geo_score":1.0,"streetabr":"4400 Alma Ave.","id":"a66jhrwtggrv","geo_precision":"range","school":"Alma Preschool","cdscode":"1.6115E+12","state":"CA"},"type":"Feature","geometry":{"type":"Point","coordinates":[-122.07236,37.707734]}},{"properties":{"city":"Emeryville","zip":"94608","statustype":"Active","district":"Emery Unified","county":"Alameda","geo_score":1.0,"streetabr":"4727 San Pablo Ave.","id":"a66jhrsmf0i6","geo_precision":"range","school":"Emeryville Preschool Students","cdscode":"1.61168E+12","state":"CA"},"type":"Feature","geometry":{"type":"Point","coordinates":[-122.281515,37.835793]}},{"properties":{"city":"Hayward","zip":"94545-4600","statustype":"Active","district":"Hayward Unified","county":"Alameda","geo_score":1.0,"streetabr":"28000 Calaroga Ave.","id":"a66jhrjydbam","geo_precision":"range","school":"Leadership Public Schools - Hayward","cdscode":"1.61192E+12","state":"CA"},"type":"Feature","geometry":{"type":"Point","coordinates":[-122.087794,37.623825]}},{"properties":{"city":"Hayward","zip":"94542","statustype":"Active","district":"Hayward Unified","county":"Alameda","geo_score":0.793,"streetabr":"28761 Hayward Blvd.","id":"a66jhrjpefn3","geo_precision":"range","school":"Stonebrae Elementary","cdscode":"1.61192E+12","state":"CA"},"type":"Feature","geometry":{"type":"Point","coordinates":[-122.024236,37.655876]}},{"properties":{"city":"Hayward","zip":"94545-3451","statustype":"Active","district":"Hayward Unified","county":"Alameda","geo_score":1.0,"streetabr":"2560 Darwin St.","id":"a66jhrnoqmtr","geo_precision":"range","school":"Impact Academy of Arts &amp; Technology","cdscode":"1.61192E+12","state":"CA"},"type":"Feature","geometry":{"type":"Point","coordinates":[-122.102509,37.631394]}},{"properties":{"city":"Hayward","zip":"94542","statustype":"Active","district":"Hayward Unified","county":"Alameda","geo_score":0.915,"streetabr":"931 Palisade St.","id":"a66jhrmnl7v1","geo_precision":"range","school":"Golden Oak Montessori of Hayward","cdscode":"1.61192E+12","state":"CA"},"type":"Feature","geometry":{"type":"Point","coordinates":[-122.074973,37.662189]}},{"properties":{"city":"Castro Valley","zip":"94546","statustype":"Active","district":"Hayward Unified","county":"Alameda","geo_score":1.0,"streetabr":"2652 Vergil Ct.","id":"a66jhrx96uos","geo_precision":"range","school":"Special Education-Preschool-Laurel","cdscode":"1.61192E+12","state":"CA"},"type":"Feature","geometry":{"type":"Point","coordinates":[-122.069605,37.687906]}},{"properties":{"city":"Livermore","zip":"94551","statustype":"Active","district":"Livermore Valley Joint Unified","county":"Alameda","geo_score":0.967,"streetabr":"5650 Senic Ave.","id":"a66jhrrrm12j","geo_precision":"range","school":"Special Education Preschool","cdscode":"1.612E+12","state":"CA"},"type":"Feature","geometry":{"type":"Point","coordinates":[-121.727747,37.717031]}},{"properties":{"city":"Newark","zip":"94560","statustype":"Active","district":"Newark Unified","county":"Alameda","geo_score":1.0,"streetabr":"35725 Cedar Blvd.","id":"a66jhrypzd0t","geo_precision":"range","school":"Whiteford (June) Special Education Preschool","cdscode":"1.61234E+12","state":"CA"},"type":"Feature","geometry":{"type":"Point","coordinates":[-122.039019,37.550824]}},{"properties":{"city":"Union City","zip":"94587-4714","statustype":"Active","district":"New Haven Unified","county":"Alameda","geo_score":0.913,"streetabr":"34200 Alvarado-Niles Rd.","id":"a66jhrm9t9qf","geo_precision":"range","school":"New Haven Community Day","cdscode":"1.61242E+12","state":"CA"},"type":"Feature","geometry":{"type":"Point","coordinates":[-122.024912,37.588129]}},{"properties":{"city":"Oakland","zip":"94601-2455","statustype":"Active","district":"Oakland Unified","county":"Alameda","geo_score":0.916,"streetabr":"1700 28th Ave.","id":"a66jhrjhv6pk","geo_precision":"range","school":"Achieve Academy","cdscode":"1.61259E+12","state":"CA"},"type":"Feature","geometry":{"type":"Point","coordinates":[-122.227563,37.782312]}},{"properties":{"city":"Oakland","zip":"94621","statustype":"Active","district":"Oakland Unified","county":"Alameda","geo_score":0.565,"streetabr":"7801 Edgewater Dr.\t Ste. 2000","id":"a66jhrud7u4e","geo_precision":"street","school":"Oakland Aviation High","cdscode":"1.61259E+12","state":"CA"},"type":"Feature","geometry":{"type":"Point","coordinates":[-122.210751,37.750365]}},{"properties":{"city":"Oakland","zip":"94619","statustype":"Active","district":"Oakland Unified","county":"Alameda","geo_score":0.916,"streetabr":"3626 35th Ave.","id":"a66jhrvcypkd","geo_precision":"range","school":"American Indian Public High","cdscode":"1.61259E+12","state":"CA"},"type":"Feature","geometry":{"type":"Point","coordinates":[-122.200303,37.793922]}},{"properties":{"city":"Oakland","zip":"94601-3124","statustype":"Active","district":"Oakland Unified","county":"Alameda","geo_score":0.916,"streetabr":"2101 35th Ave.","id":"a66jhrw02tuv","geo_precision":"range","school":"United for Success Academy","cdscode":"1.61259E+12","state":"CA"},"type":"Feature","geometry":{"type":"Point","coordinates":[-122.216797,37.78423]}},{"properties":{"city":"Oakland","zip":"94603-2702","statustype":"Active","district":"Oakland Unified","county":"Alameda","geo_score":0.916,"streetabr":"1800 98th Ave.","id":"a66jhrpygjcm","geo_precision":"range","school":"Alliance Academy","cdscode":"1.61259E+12","state":"CA"},"type":"Feature","geometry":{"type":"Point","coordinates":[-122.166187,37.746437]}},{"properties":{"city":"Oakland","zip":"94603-2702","statustype":"Active","district":"Oakland Unified","county":"Alameda","geo_score":0.916,"streetabr":"1800 98th Ave.","id":"a66jhrtrfjhs","geo_precision":"range","school":"Elmhurst Community Prep","cdscode":"1.61259E+12","state":"CA"},"type":"Feature","geometry":{"type":"Point","coordinates":[-122.166187,37.746437]}},{"properties":{"city":"Oakland","zip":"94621-3506","statustype":"Active","district":"Oakland Unified","county":"Alameda","geo_score":0.916,"streetabr":"1390 66th Ave.","id":"a66jhro1ucii","geo_precision":"range","school":"Coliseum College Prep Academy","cdscode":"1.61259E+12","state":"CA"},"type":"Feature","geometry":{"type":"Point","coordinates":[-122.193583,37.762]}},{"properties":{"city":"Oakland","zip":"94621-3506","statustype":"Active","district":"Oakland Unified","county":"Alameda","geo_score":0.916,"streetabr":"1390 66th Ave.","id":"a66jhrlzr6ln","geo_precision":"range","school":"ROOTS International Academy","cdscode":"1.61259E+12","state":"CA"},"type":"Feature","geometry":{"type":"Point","coordinates":[-122.193583,37.762]}},{"properties":{"city":"Oakland","zip":"94603-3133","statustype":"Active","district":"Oakland Unified","county":"Alameda","geo_score":1.0,"streetabr":"10315 E St.","id":"a66jhrooxi3c","geo_precision":"range","school":"Fred T. Korematsu Discovery Academy","cdscode":"1.61259E+12","state":"CA"},"type":"Feature","geometry":{"type":"Point","coordinates":[-122.173546,37.737569]}},{"properties":{"city":"Oakland","zip":"94607-4900","statustype":"Active","district":"Oakland Unified","county":"Alameda","geo_score":0.902,"streetabr":"171 12th St.","id":"a66jhrterrv6","geo_precision":"range","school":"American Indian Public Charter School II","cdscode":"1.61259E+12","state":"CA"},"type":"Feature","geometry":{"type":"Point","coordinates":[-122.265366,37.800333]}},{"properties":{"city":"Oakland","zip":"94619-1630","statustype":"Active","district":"Oakland Unified","county":"Alameda","geo_score":1.0,"streetabr":"3800 Mountain Blvd.","id":"a66jhrr504lc","geo_precision":"range","school":"Conservatory of Vocal/Instrumental Arts","cdscode":"1.61259E+12","state":"CA"},"type":"Feature","geometry":{"type":"Point","coordinates":[-122.184706,37.798418]}},{"properties":{"city":"Oakland","zip":"94607","statustype":"Active","district":"Oakland Unified","county":"Alameda","geo_score":0.902,"streetabr":"345 12th St.","id":"a66jhrm61dgc","geo_precision":"range","school":"Oakland Charter High","cdscode":"1.61259E+12","state":"CA"},"type":"Feature","geometry":{"type":"Point","coordinates":[-122.269567,37.80196]}},{"properties":{"city":"Oakland","zip":"94607-3230","statustype":"Active","district":"Oakland Unified","county":"Alameda","geo_score":0.902,"streetabr":"991 14th St.","id":"a66jhrw5yggz","geo_precision":"range","school":"KIPP Bridge Charter","cdscode":"1.61259E+12","state":"CA"},"type":"Feature","geometry":{"type":"Point","coordinates":[-122.28279,37.808896]}},{"properties":{"city":"Oakland","zip":"94621","statustype":"Active","district":"Oakland Unified","county":"Alameda","geo_score":1.0,"streetabr":"6701 International Blvd.","id":"a66jhrq75awt","geo_precision":"range","school":"Community United Elementary","cdscode":"1.61259E+12","state":"CA"},"type":"Feature","geometry":{"type":"Point","coordinates":[-122.191831,37.761509]}},{"properties":{"city":"Oakland","zip":"94601-2940","statustype":"Active","district":"Oakland Unified","county":"Alameda","geo_score":0.577,"streetabr":"3301 East 12th St.\t Ste. 205","id":"a66jhrpfz7pv","geo_precision":"street","school":"ARISE High","cdscode":"1.61259E+12","state":"CA"},"type":"Feature","geometry":{"type":"Point","coordinates":[-122.215622,37.771755]}},{"properties":{"city":"Oakland","zip":"94607-2507","statustype":"Active","district":"Oakland Unified","county":"Alameda","geo_score":1.0,"streetabr":"101 Myrtle St.","id":"a66jhrti0t1n","geo_precision":"range","school":"Civicorps Corpsmember Academy","cdscode":"1.61259E+12","state":"CA"},"type":"Feature","geometry":{"type":"Point","coordinates":[-122.28565,37.798469]}},{"properties":{"city":"Oakland","zip":"94621-3501","statustype":"Active","district":"Oakland Unified","county":"Alameda","geo_score":1.0,"streetabr":"6701 International Blvd.","id":"a66jhrtif4w8","geo_precision":"range","school":"Futures Elementary","cdscode":"1.61259E+12","state":"CA"},"type":"Feature","geometry":{"type":"Point","coordinates":[-122.191831,37.761509]}},{"properties":{"city":"Oakland","zip":"94601-4203","statustype":"Active","district":"Oakland Unified","county":"Alameda","geo_score":0.916,"streetabr":"2035 40th Ave.","id":"a66jhrmtg3nv","geo_precision":"range","school":"Global Family","cdscode":"1.61259E+12","state":"CA"},"type":"Feature","geometry":{"type":"Point","coordinates":[-122.213195,37.779305]}},{"properties":{"city":"Oakland","zip":"94601-4203","statustype":"Active","district":"Oakland Unified","county":"Alameda","geo_score":0.916,"streetabr":"2035 40th Ave.","id":"a66jhrsl1xiv","geo_precision":"range","school":"Learning Without Limits","cdscode":"1.61259E+12","state":"CA"},"type":"Feature","geometry":{"type":"Point","coordinates":[-122.213195,37.779305]}},{"properties":{"city":"Oakland","zip":"94621-2123","statustype":"Active","district":"Oakland Unified","county":"Alameda","geo_score":1.0,"streetabr":"8000 Birch St.","id":"a66jhrq9yw0l","geo_precision":"range","school":"East Oakland Pride Elementary","cdscode":"1.61259E+12","state":"CA"},"type":"Feature","geometry":{"type":"Point","coordinates":[-122.174555,37.759053]}},{"properties":{"city":"Oakland","zip":"94621-3832","statustype":"Active","district":"Oakland Unified","county":"Alameda","geo_score":0.916,"streetabr":"6328 East 17th St.","id":"a66jhrkjkf1s","geo_precision":"range","school":"Greenleaf Elementary","cdscode":"1.61259E+12","state":"CA"},"type":"Feature","geometry":{"type":"Point","coordinates":[-122.195014,37.764308]}},{"properties":{"city":"Oakland","zip":"94607-3230","statustype":"Active","district":"Oakland Unified","county":"Alameda","geo_score":0.902,"streetabr":"991 14th St.","id":"a66jhrw4zs6y","geo_precision":"range","school":"West Oakland Middle","cdscode":"1.61259E+12","state":"CA"},"type":"Feature","geometry":{"type":"Point","coordinates":[-122.28279,37.808896]}},{"properties":{"city":"Oakland","zip":"94605","statustype":"Active","district":"Oakland Unified","county":"Alameda","geo_score":1.0,"streetabr":"9736 Lawlor St.","id":"a66jhrq4kfyz","geo_precision":"range","school":"Barack Obama Academy","cdscode":"1.61259E+12","state":"CA"},"type":"Feature","geometry":{"type":"Point","coordinates":[-122.15747,37.751561]}},{"properties":{"city":"Oakland","zip":"94609-2140","statustype":"Active","district":"Oakland Unified","county":"Alameda","geo_score":1.0,"streetabr":"4521 Webster St.","id":"a66jhrji6w91","geo_precision":"range","school":"Oakland International High","cdscode":"1.61259E+12","state":"CA"},"type":"Feature","geometry":{"type":"Point","coordinates":[-122.260112,37.833403]}},{"properties":{"city":"Oakland","zip":"94605","statustype":"Active","district":"Oakland Unified","county":"Alameda","geo_score":1.0,"streetabr":"2614 Seminary Ave.","id":"a66jhrye75h8","geo_precision":"range","school":"East Oakland Leadership Academy High","cdscode":"1.61259E+12","state":"CA"},"type":"Feature","geometry":{"type":"Point","coordinates":[-122.190217,37.771657]}},{"properties":{"city":"Oakland","zip":"94605-3430","statustype":"Active","district":"Oakland Unified","county":"Alameda","geo_score":1.0,"streetabr":"8030 Atherton St.","id":"a66jhrz6nm3d","geo_precision":"range","school":"Aspire Millsmont Secondary Academy","cdscode":"1.61259E+12","state":"CA"},"type":"Feature","geometry":{"type":"Point","coordinates":[-122.171072,37.761472]}},{"properties":{"city":"Oakland","zip":"94607-2223","statustype":"Active","district":"Oakland Unified","county":"Alameda","geo_score":0.902,"streetabr":"1240 18th St.","id":"a66jhrx1f8be","geo_precision":"range","school":"Ralph J. Bunche High","cdscode":"1.61259E+12","state":"CA"},"type":"Feature","geometry":{"type":"Point","coordinates":[-122.286805,37.81295]}},{"properties":{"city":"Oakland","zip":"94607","statustype":"Active","district":"Oakland Unified","county":"Alameda","geo_score":1.0,"streetabr":"900 Fallon St.","id":"a66jhroa2im4","geo_precision":"range","school":"Gateway to College at Laney College","cdscode":"1.61259E+12","state":"CA"},"type":"Feature","geometry":{"type":"Point","coordinates":[-122.263869,37.79717]}},{"properties":{"city":"Oakland","zip":"94601","statustype":"Active","district":"Oakland Unified","county":"Alameda","geo_score":1.0,"streetabr":"1936 Courtland Ave.","id":"a66jhrne47wd","geo_precision":"range","school":"Aspire ERES Academy","cdscode":"1.61259E+12","state":"CA"},"type":"Feature","geometry":{"type":"Point","coordinates":[-122.211738,37.775816]}},{"properties":{"city":"Oakland","zip":"94608","statustype":"Active","district":"Oakland Unified","county":"Alameda","geo_score":0.902,"streetabr":"1086 Alcatraz Ave.","id":"a66jhrtholwa","geo_precision":"range","school":"Civicorps Middle","cdscode":"1.61259E+12","state":"CA"},"type":"Feature","geometry":{"type":"Point","coordinates":[-122.283647,37.847084]}},{"properties":{"city":"Oakland","zip":"94606-2212","statustype":"Active","district":"Oakland Unified","county":"Alameda","geo_score":0.902,"streetabr":"1025 Second Ave.","id":"a66jhrrtlfr6","geo_precision":"range","school":"Infant and Preschool Program","cdscode":"1.61259E+12","state":"CA"},"type":"Feature","geometry":{"type":"Point","coordinates":[-122.258922,37.796122]}},{"properties":{"city":"Oakland","zip":"94608-4536","statustype":"Active","district":"Oakland Unified","county":"Alameda","geo_score":0.756,"streetabr":"2850 West St.","id":"a66jhrjkwrvi","geo_precision":"range","school":"Young Adult Program","cdscode":"1.61259E+12","state":"CA"},"type":"Feature","geometry":{"type":"Point","coordinates":[-122.273981,37.818705]}},{"properties":{"city":"Oakland","zip":"94608-4536","statustype":"Active","district":"Oakland Unified","county":"Alameda","geo_score":0.756,"streetabr":"2850 West St.","id":"a66jhrlva9s6","geo_precision":"range","school":"Home and Hospital Program","cdscode":"1.61259E+12","state":"CA"},"type":"Feature","geometry":{"type":"Point","coordinates":[-122.273981,37.818705]}},{"properties":{"city":"Oakland","zip":"94605-1802","statustype":"Active","district":"Oakland Unified","county":"Alameda","geo_score":0.916,"streetabr":"3550 64th Ave.","id":"a66jhrz4ff3g","geo_precision":"range","school":"Burbank Preschool Center","cdscode":"1.61259E+12","state":"CA"},"type":"Feature","geometry":{"type":"Point","coordinates":[-122.17762,37.775683]}},{"properties":{"city":"San Lorenzo","zip":"94580-1315","statustype":"Active","district":"San Lorenzo Unified","county":"Alameda","geo_score":1.0,"streetabr":"2005 Via Barrett","id":"a66jhrwbsod4","geo_precision":"range","school":"KIPP Summit Academy","cdscode":"1.61309E+12","state":"CA"},"type":"Feature","geometry":{"type":"Point","coordinates":[-122.149672,37.674285]}},{"properties":{"city":"Hayward","zip":"94541","statustype":"Active","district":"San Lorenzo Unified","county":"Alameda","geo_score":0.941,"streetabr":"20450 Royal Ave.","id":"a66jhrpmde6u","geo_precision":"range","school":"East Bay Arts High","cdscode":"1.61309E+12","state":"CA"},"type":"Feature","geometry":{"type":"Point","coordinates":[-122.115121,37.668865]}},{"properties":{"city":"San Lorenzo","zip":"94580-1315","statustype":"Active","district":"San Lorenzo Unified","county":"Alameda","geo_score":1.0,"streetabr":"2005 Via Barrett","id":"a66jhrizz6y5","geo_precision":"range","school":"KIPP King Collegiate High","cdscode":"1.61309E+12","state":"CA"},"type":"Feature","geometry":{"type":"Point","coordinates":[-122.149672,37.674285]}},{"properties":{"city":"Livermore","zip":"94550","statustype":"Active","district":"Tri-Valley ROP","county":"Alameda","geo_score":0.924,"streetabr":"543 Sonoma Ave.","id":"a66jhru48gw6","geo_precision":"range","school":null,"cdscode":"1.74005E+12","state":"CA"},"type":"Feature","geometry":{"type":"Point","coordinates":[-121.794388,37.67283]}},{"properties":{"city":"Hayward","zip":"94545","statustype":"Active","district":"Eden Area ROP","county":"Alameda","geo_score":1.0,"streetabr":"26316 Hesperian Blvd.","id":"a66jhrq79r8r","geo_precision":"range","school":null,"cdscode":"1.74013E+12","state":"CA"},"type":"Feature","geometry":{"type":"Point","coordinates":[-122.100554,37.637023]}},{"properties":{"city":"Fremont","zip":"94538","statustype":"Active","district":"Mission Valley ROC/P","county":"Alameda","geo_score":1.0,"streetabr":"5019 Stevenson Blvd","id":"a66jhrnc5rxh","geo_precision":"range","school":null,"cdscode":"1.74021E+12","state":"CA"},"type":"Feature","geometry":{"type":"Point","coordinates":[-121.98324,37.528189]}},{"properties":{"city":"Oakland","zip":"94606","statustype":"Active","district":"East Bay Regional Occupational Agency (ROP)","county":"Alameda","geo_score":0.902,"streetabr":"1025 Second Ave.","id":"a66jhrnjgdjh","geo_precision":"range","school":null,"cdscode":"1.74039E+12","state":"CA"},"type":"Feature","geometry":{"type":"Point","coordinates":[-122.258922,37.796122]}},{"properties":{"city":"Dublin","zip":"94568","statustype":"Active","district":"Dublin Unified","county":"Alameda","geo_score":0.512,"streetabr":"3300 Antone Way","id":"a66jhrvs62pt","geo_precision":"street","school":"John Green Elementary","cdscode":"1.75093E+12","state":"CA"},"type":"Feature","geometry":{"type":"Point","coordinates":[-121.97412,37.516773]}},{"properties":{"city":"Pleasanton","zip":"94566-5399","statustype":"Active","district":"Pleasanton Unified","county":"Alameda","geo_score":1.0,"streetabr":"4900 Valley Ave.","id":"a66jhrtdxpxi","geo_precision":"range","school":"Harvest Park Preschool Center","cdscode":"1.75101E+12","state":"CA"},"type":"Feature","geometry":{"type":"Point","coordinates":[-121.88247,37.676735]}},{"properties":{"city":"Livermore","zip":"94551","statustype":"Active","district":"SBE - Livermore Valley Charter","county":"Alameda","geo_score":1.0,"streetabr":"2451 Portola Ave.","id":"a66jhrv2lu7b","geo_precision":"range","school":null,"cdscode":"1.76372E+12","state":"CA"},"type":"Feature","geometry":{"type":"Point","coordinates":[-121.770203,37.690999]}},{"properties":{"city":"Livermore","zip":"94551-1756","statustype":"Active","district":"SBE - Livermore Valley Charter Preparatory High","county":"Alameda","geo_score":1.0,"streetabr":"2451 Portola Ave.","id":"a66jhrj91eom","geo_precision":"range","school":null,"cdscode":"1.76653E+12","state":"CA"},"type":"Feature","geometry":{"type":"Point","coordinates":[-121.770203,37.690999]}},{"properties":{"city":"Livermore","zip":"94551-1756","statustype":"Active","district":"SBE - Livermore Valley Charter Preparatory High","county":"Alameda","geo_score":1.0,"streetabr":"2451 Portola Ave.","id":"a66jhrqfxnxs","geo_precision":"range","school":"Livermore Valley Charter Preparatory High","cdscode":"1.76653E+12","state":"CA"},"type":"Feature","geometry":{"type":"Point","coordinates":[-121.770203,37.690999]}},{"properties":{"city":"Richmond","zip":"94806-1942","statustype":"Active","district":"Contra Costa County Office of Education","county":"Contra Costa","geo_score":0.913,"streetabr":"4123 Lakeside Dr.","id":"a66jhrm38qct","geo_precision":"range","school":"Making Waves Academy","cdscode":"7.10074E+12","state":"CA"},"type":"Feature","geometry":{"type":"Point","coordinates":[-122.3315,37.988797]}},{"properties":{"city":"Brentwood","zip":"94513","statustype":"Active","district":"Contra Costa County Office of Education","county":"Contra Costa","geo_score":0.61,"streetabr":"101 American Ave.","id":"a66jhrqgut9t","geo_precision":"street","school":"Heritage CCCOE Special Education Programs","cdscode":"7.10074E+12","state":"CA"},"type":"Feature","geometry":{"type":"Point","coordinates":[-122.119949,37.646436]}},{"properties":{"city":"Martinez","zip":"94553","statustype":"Active","district":"Contra Costa County Office of Education","county":"Contra Costa","geo_score":0.902,"streetabr":"202 Glacier Dr.","id":"a66jhrpow9ak","geo_precision":"range","school":"Mt. McKinley","cdscode":"7.10074E+12","state":"CA"},"type":"Feature","geometry":{"type":"Point","coordinates":[-122.087361,37.988266]}},{"properties":{"city":"Oakley","zip":"94561-4127","statustype":"Active","district":"Antioch Unified","county":"Contra Costa","geo_score":1.0,"streetabr":"5150 Live Oak Ave.","id":"a66jhry9ctsn","geo_precision":"range","school":"Orchard Park","cdscode":"7.61648E+12","state":"CA"},"type":"Feature","geometry":{"type":"Point","coordinates":[-121.741557,38.000028]}},{"properties":{"city":"Antioch","zip":"94509-1406","statustype":"Active","district":"Antioch Unified","county":"Contra Costa","geo_score":0.829,"streetabr":"1201 West Tenth St.","id":"a66jhrlp7ya0","geo_precision":"range","school":"Antioch Charter Academy II","cdscode":"7.61648E+12","state":"CA"},"type":"Feature","geometry":{"type":"Point","coordinates":[-121.82086,38.01123]}},{"properties":{"city":"Antioch","zip":"94531","statustype":"Active","district":"Antioch Unified","county":"Contra Costa","geo_score":0.807,"streetabr":"4900 Sand Creek Rd.","id":"a66jhrvtgw3q","geo_precision":"street","school":"Dozier-Libbey Medical High","cdscode":"7.61648E+12","state":"CA"},"type":"Feature","geometry":{"type":"Point","coordinates":[-121.750996,37.962823]}},{"properties":{"city":"Antioch","zip":"94509","statustype":"Active","district":"Antioch Unified","county":"Contra Costa","geo_score":0.912,"streetabr":"1413 F St.","id":"a66jhrxtxbk4","geo_precision":"range","school":"R.A.A.M.P. Charter Academy","cdscode":"7.61648E+12","state":"CA"},"type":"Feature","geometry":{"type":"Point","coordinates":[-121.812527,38.00802]}},{"properties":{"city":"Brentwood","zip":"94513-4611","statustype":"Active","district":"Brentwood Union Elementary","county":"Contra Costa","geo_score":0.61,"streetabr":"401 American Ave.","id":"a66jhrr3q7dv","geo_precision":"street","school":"Adams (J. Douglas) Middle","cdscode":"7.61655E+12","state":"CA"},"type":"Feature","geometry":{"type":"Point","coordinates":[-122.119949,37.646436]}},{"properties":{"city":"Martinez","zip":"94553","statustype":"Active","district":"Martinez Unified","county":"Contra Costa","geo_score":0.902,"streetabr":"921 Susana St.","id":"a66jhrwtzaw5","geo_precision":"range","school":"Martinez Early Intervention Preschool Program (MEIPP)","cdscode":"7.61739E+12","state":"CA"},"type":"Feature","geometry":{"type":"Point","coordinates":[-122.132642,38.014473]}},{"properties":{"city":"Walnut Creek","zip":"94598","statustype":"Active","district":"Mt. Diablo Unified","county":"Contra Costa","geo_score":1.0,"streetabr":"800 Hutchinson Rd.","id":"a66jhrpt8n57","geo_precision":"range","school":"Eagle Peak Montessori","cdscode":"7.61755E+12","state":"CA"},"type":"Feature","geometry":{"type":"Point","coordinates":[-122.01217,37.912712]}},{"properties":{"city":"Oakley","zip":"94561","statustype":"Active","district":"Oakley Union Elementary","county":"Contra Costa","geo_score":0.464,"streetabr":"4801 Frank Hengel Way","id":"a66jhrtez9dp","geo_precision":"street","school":"Iron House Elementary","cdscode":"7.61762E+12","state":"CA"},"type":"Feature","geometry":{"type":"Point","coordinates":[-122.149645,37.895309]}},{"properties":{"city":"Pittsburg","zip":"94565","statustype":"Active","district":"Pittsburg Unified","county":"Contra Costa","geo_score":0.679,"streetabr":"50 East Eighth St.","id":"a66jhrrn4fhr","geo_precision":"street","school":"Marina Vista Elementary","cdscode":"7.61788E+12","state":"CA"},"type":"Feature","geometry":{"type":"Point","coordinates":[-121.883793,38.029077]}},{"properties":{"city":"Richmond","zip":"94804","statustype":"Active","district":"West Contra Costa Unified","county":"Contra Costa","geo_score":0.916,"streetabr":"214 South 11th St.","id":"a66jhrn3gg87","geo_precision":"range","school":"Richmond College Prep K-5 Charter","cdscode":"7.61796E+12","state":"CA"},"type":"Feature","geometry":{"type":"Point","coordinates":[-122.359068,37.929294]}},{"properties":{"city":"Richmond","zip":"94805-1534","statustype":"Active","district":"West Contra Costa Unified","county":"Contra Costa","geo_score":1.0,"streetabr":"777 Sonoma St.","id":"a66jhrlmnd2d","geo_precision":"range","school":"West County Community High","cdscode":"7.61796E+12","state":"CA"},"type":"Feature","geometry":{"type":"Point","coordinates":[-122.318842,37.943012]}},{"properties":{"city":"El Cerritos","zip":"94530-3108","statustype":"Active","district":"West Contra Costa Unified","county":"Contra Costa","geo_score":0.99,"streetabr":"7140 Gladys Ave.","id":"a66jhrv1lkrt","geo_precision":"range","school":"Cameron","cdscode":"7.61796E+12","state":"CA"},"type":"Feature","geometry":{"type":"Point","coordinates":[-122.307304,37.921807]}},{"properties":{"city":"Richmond","zip":"94801-3519","statustype":"Active","district":"West Contra Costa Unified","county":"Contra Costa","geo_score":0.845,"streetabr":"157 Ninth St.","id":"a66jhrizi02x","geo_precision":"range","school":"WCCUSD Community Day School Program","cdscode":"7.61796E+12","state":"CA"},"type":"Feature","geometry":{"type":"Point","coordinates":[-122.360907,37.93338]}},{"properties":{"city":"San Ramon","zip":"94582","statustype":"Active","district":"San Ramon Valley Unified","county":"Contra Costa","geo_score":0.48,"streetabr":"10550 Albion Rd.","id":"a66jhrquty6a","geo_precision":"street","school":"Dougherty Valley High","cdscode":"7.61804E+12","state":"CA"},"type":"Feature","geometry":{"type":"Point","coordinates":[-117.220987,33.182147]}},{"properties":{"city":"San Ramon","zip":"94582","statustype":"Active","district":"San Ramon Valley Unified","county":"Contra Costa","geo_score":0.542,"streetabr":"5151 Sherwood Way","id":"a66jhro7blpq","geo_precision":"street","school":"Live Oak Elementary","cdscode":"7.61804E+12","state":"CA"},"type":"Feature","geometry":{"type":"Point","coordinates":[-116.953738,32.807687]}},{"properties":{"city":"Danville","zip":"93526-4331","statustype":"Active","district":"San Ramon Valley Unified","county":"Contra Costa","geo_score":0.488,"streetabr":"699 Old Orchard Dr.","id":"a66jhrupe6vs","geo_precision":"street","school":"INFANT- Pre","cdscode":"7.61804E+12","state":"CA"},"type":"Feature","geometry":{"type":"Point","coordinates":[-117.653312,35.618885]}},{"properties":{"city":"San Ramon","zip":"94582","statustype":"Active","district":"San Ramon Valley Unified","county":"Contra Costa","geo_score":0.463,"streetabr":"6400 Main Branch Rd.","id":"a66jhrkvau03","geo_precision":"street","school":"Gale Ranch Middle","cdscode":"7.61804E+12","state":"CA"},"type":"Feature","geometry":{"type":"Point","coordinates":[-116.913563,33.009242]}},{"properties":{"city":"Danville","zip":"94506","statustype":"Active","district":"San Ramon Valley Unified","county":"Contra Costa","geo_score":0.493,"streetabr":"6011 Massara St.","id":"a66jhrnr03md","geo_precision":"street","school":"Creekside Elementary","cdscode":"7.61804E+12","state":"CA"},"type":"Feature","geometry":{"type":"Point","coordinates":[-122.049822,38.248156]}},{"properties":{"city":"Pleasant Hill","zip":"94523","statustype":"Active","district":"Contra Costa County ROP","county":"Contra Costa","geo_score":0.919,"streetabr":"75 Santa Barbara Rd.","id":"a66jhrj7fgk5","geo_precision":"range","school":null,"cdscode":"7.74344E+12","state":"CA"},"type":"Feature","geometry":{"type":"Point","coordinates":[-122.071699,37.935909]}},{"properties":{"city":"San Rafael","zip":"94903","statustype":"Active","district":"Marin County Office of Education","county":"Marin","geo_score":0.922,"streetabr":"16 Jeannette Prandi Way","id":"a66jhruk6s2d","geo_precision":"range","school":"Marin County Juvenile Court","cdscode":"2.11022E+13","state":"CA"},"type":"Feature","geometry":{"type":"Point","coordinates":[-122.56884,38.026769]}},{"properties":{"city":"Novato","zip":"94949-5061","statustype":"Active","district":"Novato Unified","county":"Marin","geo_score":0.917,"streetabr":"931 C St.","id":"a66jhrvw18tt","geo_precision":"range","school":"Novato Early Intervention","cdscode":"2.16542E+13","state":"CA"},"type":"Feature","geometry":{"type":"Point","coordinates":[-122.526046,38.056991]}},{"properties":{"city":"Novato","zip":"94945-1117","statustype":"Active","district":"Novato Unified","county":"Marin","geo_score":0.912,"streetabr":"15 San Marin Dr.","id":"a66jhrjpecc6","geo_precision":"range","school":"San Marin High School-Plus","cdscode":"2.16542E+13","state":"CA"},"type":"Feature","geometry":{"type":"Point","coordinates":[-122.609124,38.119006]}},{"properties":{"city":"San Rafael","zip":"94901-4960","statustype":"Active","district":"San Rafael City Elementary","county":"Marin","geo_score":1.0,"streetabr":"35 Marin St.","id":"a66jhroj2jlt","geo_precision":"range","school":"Short Elementary","cdscode":"2.16546E+13","state":"CA"},"type":"Feature","geometry":{"type":"Point","coordinates":[-122.535246,37.967075]}},{"properties":{"city":"Larkspur","zip":"94939-1536","statustype":"Active","district":"Tamalpais Union High","county":"Marin","geo_score":0.932,"streetabr":"395 Doherty Dr.","id":"a66jhrnx2byk","geo_precision":"range","school":"Tamalpais Adult/Community Education","cdscode":"2.16548E+13","state":"CA"},"type":"Feature","geometry":{"type":"Point","coordinates":[-122.529914,37.938128]}},{"properties":{"city":"San Rafael","zip":"94903","statustype":"Active","district":"Marin County ROP","county":"Marin","geo_score":0.922,"streetabr":"1111 Las Gallinas Ave.","id":"a66jhrludaa0","geo_precision":"range","school":null,"cdscode":"2.17466E+13","state":"CA"},"type":"Feature","geometry":{"type":"Point","coordinates":[-122.549414,38.013244]}},{"properties":{"city":"Napa","zip":"94559-3625","statustype":"Active","district":"Napa County Office of Education","county":"Napa","geo_score":0.927,"streetabr":"74 Wintun Ct.","id":"a66jhroxdjl4","geo_precision":"range","school":"Napa Preschool Program","cdscode":"2.81028E+13","state":"CA"},"type":"Feature","geometry":{"type":"Point","coordinates":[-122.256488,38.27946]}},{"properties":{"city":"American Canyon","zip":"94503-1279","statustype":"Active","district":"Napa Valley Unified","county":"Napa","geo_score":0.546,"streetabr":"300 Newell Dr.","id":"a66jhrt1b6bj","geo_precision":"street","school":"American Canyon High","cdscode":"2.86627E+13","state":"CA"},"type":"Feature","geometry":{"type":"Point","coordinates":[-122.329294,38.340888]}},{"properties":{"city":"Napa","zip":"94558","statustype":"Active","district":"Napa County ROP","county":"Napa","geo_score":0.92,"streetabr":"4032 Maher St.","id":"a66jhrohwl4o","geo_precision":"range","school":null,"cdscode":"2.87448E+13","state":"CA"},"type":"Feature","geometry":{"type":"Point","coordinates":[-122.321417,38.32951]}},{"properties":{"city":"San Francisco","zip":"94116","statustype":"Active","district":"San Francisco Unified","county":"San Francisco","geo_score":0.916,"streetabr":"2550 25th Ave.","id":"a66jhrkgc35v","geo_precision":"range","school":"Dianne Feinstein Elementary","cdscode":"3.86848E+13","state":"CA"},"type":"Feature","geometry":{"type":"Point","coordinates":[-122.481937,37.739952]}},{"properties":{"city":"San Francisco","zip":"94108","statustype":"Active","district":"San Francisco Unified","county":"San Francisco","geo_score":0.911,"streetabr":"949 Washington St.","id":"a66jhrkfms9c","geo_precision":"range","school":"Commodore Stockton Children Center","cdscode":"3.86848E+13","state":"CA"},"type":"Feature","geometry":{"type":"Point","coordinates":[-122.40901,37.794823]}},{"properties":{"city":"San Francisco","zip":"94122","statustype":"Active","district":"San Francisco Unified","county":"San Francisco","geo_score":0.916,"streetabr":"1775 44th Ave.","id":"a66jhrxulayp","geo_precision":"range","school":"Noriega Children Center","cdscode":"3.86848E+13","state":"CA"},"type":"Feature","geometry":{"type":"Point","coordinates":[-122.503315,37.753516]}},{"properties":{"city":"San Francisco","zip":"94112","statustype":"Active","district":"San Francisco Unified","county":"San Francisco","geo_score":1.0,"streetabr":"300 Seneca Ave.","id":"a66jhryv1ity","geo_precision":"range","school":"San Miguel Children Center","cdscode":"3.86848E+13","state":"CA"},"type":"Feature","geometry":{"type":"Point","coordinates":[-122.444697,37.721193]}},{"properties":{"city":"San Francisco","zip":"94129","statustype":"Active","district":"San Francisco Unified","county":"San Francisco","geo_score":0.585,"streetabr":"Bldg 387\t Presidio","id":"a66jhrvyz5w1","geo_precision":"street","school":"Presidio Children Center","cdscode":"3.86848E+13","state":"CA"},"type":"Feature","geometry":{"type":"Point","coordinates":[-122.456381,37.798376]}},{"properties":{"city":"San Francisco","zip":"94133","statustype":"Active","district":"San Francisco Unified","county":"San Francisco","geo_score":0.927,"streetabr":"940 Filbert St.","id":"a66jhrx4ypig","geo_precision":"range","school":"Sarah B. Cooper Children Center","cdscode":"3.86848E+13","state":"CA"},"type":"Feature","geometry":{"type":"Point","coordinates":[-122.41468,37.800696]}},{"properties":{"city":"San Francisco","zip":"94115","statustype":"Active","district":"San Francisco Unified","county":"San Francisco","geo_score":0.405,"streetabr":"1501 O'Farrell St.","id":"a66jhrx0q9ff","geo_precision":"street","school":"Raphael Weill Children Center","cdscode":"3.86848E+13","state":"CA"},"type":"Feature","geometry":{"type":"Point","coordinates":[-122.47611,37.720051]}},{"properties":{"city":"San Francisco","zip":"94123","statustype":"Active","district":"San Francisco Unified","county":"San Francisco","geo_score":1.0,"streetabr":"2110 Greenwich St.","id":"a66jhrwsdr8s","geo_precision":"range","school":"Tule Elk Park Children Center","cdscode":"3.86848E+13","state":"CA"},"type":"Feature","geometry":{"type":"Point","coordinates":[-122.434356,37.79914]}},{"properties":{"city":"San Francisco","zip":"94134","statustype":"Active","district":"San Francisco Unified","county":"San Francisco","geo_score":1.0,"streetabr":"2055 Sunnydale Ave.","id":"a66jhrxnrjda","geo_precision":"range","school":"John McLaren Children Centers","cdscode":"3.86848E+13","state":"CA"},"type":"Feature","geometry":{"type":"Point","coordinates":[-122.421858,37.713558]}},{"properties":{"city":"San Francisco","zip":"94124","statustype":"Active","district":"San Francisco Unified","county":"San Francisco","geo_score":1.0,"streetabr":"1520 Oakdale Ave.","id":"a66jhrpsy780","geo_precision":"range","school":"Burnett Children Center","cdscode":"3.86848E+13","state":"CA"},"type":"Feature","geometry":{"type":"Point","coordinates":[-122.388783,37.733751]}},{"properties":{"city":"San Francisco","zip":"94114","statustype":"Active","district":"San Francisco Unified","county":"San Francisco","geo_score":1.0,"streetabr":"990 Church St.","id":"a66jhrjx2u2k","geo_precision":"range","school":"Theresa S. Mahler Children Center","cdscode":"3.86848E+13","state":"CA"},"type":"Feature","geometry":{"type":"Point","coordinates":[-122.427762,37.755029]}},{"properties":{"city":"San Francico","zip":"94110","statustype":"Active","district":"San Francisco Unified","county":"San Francisco","geo_score":0.992,"streetabr":"801 Treat Ave.","id":"a66jhrpko6h4","geo_precision":"range","school":"Las Americas Children Center","cdscode":"3.86848E+13","state":"CA"},"type":"Feature","geometry":{"type":"Point","coordinates":[-122.413446,37.757363]}},{"properties":{"city":"San Francisco","zip":"94107-1019","statustype":"Active","district":"San Francisco Unified","county":"San Francisco","geo_score":0.941,"streetabr":"70 Oak Grove","id":"a66jhrm6pb97","geo_precision":"range","school":"Five Keys Adult School (SF Sheriff's)","cdscode":"3.86848E+13","state":"CA"},"type":"Feature","geometry":{"type":"Point","coordinates":[-122.401801,37.777154]}},{"properties":{"city":"San Francisco","zip":"94107-1019","statustype":"Active","district":"San Francisco Unified","county":"San Francisco","geo_score":0.941,"streetabr":"70 Oak Grove","id":"a66jhrpavz39","geo_precision":"range","school":"Five Keys Independence HS (SF Sheriff's)","cdscode":"3.86848E+13","state":"CA"},"type":"Feature","geometry":{"type":"Point","coordinates":[-122.401801,37.777154]}},{"properties":{"city":"San Francisco","zip":"94114","statustype":"Active","district":"San Francisco Unified","county":"San Francisco","geo_score":0.625,"streetabr":"3750 18th St.\t 4th Fl.","id":"a66jhrjwknvf","geo_precision":"street","school":"SF International High","cdscode":"3.86848E+13","state":"CA"},"type":"Feature","geometry":{"type":"Point","coordinates":[-122.446953,37.760169]}},{"properties":{"city":"San Francisco","zip":"94131","statustype":"Active","district":"San Francisco Unified","county":"San Francisco","geo_score":1.0,"streetabr":"555 Portola Dr.","id":"a66jhrq3lnf2","geo_precision":"range","school":"Academy of Arts and Sciences","cdscode":"3.86848E+13","state":"CA"},"type":"Feature","geometry":{"type":"Point","coordinates":[-122.450866,37.745766]}},{"properties":{"city":"San Francisco","zip":"94117","statustype":"Active","district":"San Francisco Unified","county":"San Francisco","geo_score":1.0,"streetabr":"1250 Waller St.","id":"a66jhrrrowt0","geo_precision":"range","school":"Chinese Immersion School at DeAvila","cdscode":"3.86848E+13","state":"CA"},"type":"Feature","geometry":{"type":"Point","coordinates":[-122.444124,37.769388]}},{"properties":{"city":"San Francisco","zip":"94115-1323","statustype":"Active","district":"San Francisco Unified","county":"San Francisco","geo_score":1.0,"streetabr":"2340 Jackson St.","id":"a66jhroqvlqh","geo_precision":"range","school":"San Francisco Public Montessori","cdscode":"3.86848E+13","state":"CA"},"type":"Feature","geometry":{"type":"Point","coordinates":[-122.433447,37.792595]}},{"properties":{"city":"San Francisco","zip":"94131","statustype":"Active","district":"San Francisco County ROP","county":"San Francisco","geo_score":1.0,"streetabr":"555 Portola Dr. - Bungalow A","id":"a66jhrz1x7vo","geo_precision":"street","school":null,"cdscode":"3.87453E+13","state":"CA"},"type":"Feature","geometry":{"type":"Point","coordinates":[-122.443347,37.750083]}},{"properties":{"city":"San Francisco","zip":"94102-1228","statustype":"Active","district":"SBE - San Francisco Flex Academy","county":"San Francisco","geo_score":1.0,"streetabr":"555 Post St.","id":"a66jhrtujpj8","geo_precision":"range","school":null,"cdscode":"3.8767E+13","state":"CA"},"type":"Feature","geometry":{"type":"Point","coordinates":[-122.410772,37.787966]}},{"properties":{"city":"San Francisco","zip":"94102-1228","statustype":"Active","district":"SBE - San Francisco Flex Academy","county":"San Francisco","geo_score":1.0,"streetabr":"555 Post St.","id":"a66jhrlfhiwh","geo_precision":"range","school":"San Francisco Flex Academy","cdscode":"3.8767E+13","state":"CA"},"type":"Feature","geometry":{"type":"Point","coordinates":[-122.410772,37.787966]}},{"properties":{"city":"San Mateo","zip":"94402","statustype":"Active","district":"San Mateo County Office of Education","county":"San Mateo","geo_score":0.38,"streetabr":"400 Paul Scannell Dr.","id":"a66jhrn8hyo5","geo_precision":"street","school":"Margaret Kemp Girls Camp","cdscode":"4.11041E+13","state":"CA"},"type":"Feature","geometry":{"type":"Point","coordinates":[-122.319282,37.547008]}},{"properties":{"city":"La Honda","zip":"94020","statustype":"Active","district":"San Mateo County Office of Education","county":"San Mateo","geo_score":0.923,"streetabr":"400 Log Cabin Ranch Rd.","id":"a66jhryhf2vv","geo_precision":"range","school":"Camp Glenwood","cdscode":"4.11041E+13","state":"CA"},"type":"Feature","geometry":{"type":"Point","coordinates":[-122.269763,37.306805]}},{"properties":{"city":"South San Francisco","zip":"94080-4445","statustype":"Active","district":"San Mateo County Office of Education","county":"San Mateo","geo_score":0.522,"streetabr":"201 W. Orange Ave.","id":"a66jhrynocxn","geo_precision":"street","school":"North Community","cdscode":"4.11041E+13","state":"CA"},"type":"Feature","geometry":{"type":"Point","coordinates":[-122.425783,37.653301]}},{"properties":{"city":"Redwood City","zip":"94063","statustype":"Active","district":"San Mateo County Office of Education","county":"San Mateo","geo_score":1.0,"streetabr":"1109 Hilton St.","id":"a66jhrkx15h9","geo_precision":"range","school":"Central Community","cdscode":"4.11041E+13","state":"CA"},"type":"Feature","geometry":{"type":"Point","coordinates":[-122.217306,37.482539]}},{"properties":{"city":"East Palo Alto","zip":"94303","statustype":"Active","district":"San Mateo County Office of Education","county":"San Mateo","geo_score":0.967,"streetabr":"2031 Pulgas Ave.","id":"a66jhrv1pag6","geo_precision":"range","school":"South Community","cdscode":"4.11041E+13","state":"CA"},"type":"Feature","geometry":{"type":"Point","coordinates":[-122.130108,37.462098]}},{"properties":{"city":"San Mateo","zip":"94402","statustype":"Active","district":"San Mateo County Office of Education","county":"San Mateo","geo_score":1.0,"streetabr":"35 Tower Rd.","id":"a66jhrrmjxbr","geo_precision":"range","school":"Gateway Center","cdscode":"4.11041E+13","state":"CA"},"type":"Feature","geometry":{"type":"Point","coordinates":[-122.334637,37.512699]}},{"properties":{"city":"Redwood City","zip":"94062","statustype":"Active","district":"San Mateo County Office of Education","county":"San Mateo","geo_score":0.823,"streetabr":"400 Edmonds Rd.","id":"a66jhro4s5o2","geo_precision":"street","school":"Canyon Oaks Youth Center","cdscode":"4.11041E+13","state":"CA"},"type":"Feature","geometry":{"type":"Point","coordinates":[-122.284096,37.474339]}},{"properties":{"city":"El Segundo","zip":"90245","statustype":"Active","district":"Bayshore Elementary","county":"San Mateo","geo_score":0.462,"streetabr":"840 Apollo St.\t Ste. 222","id":"a66jhrrft62z","geo_precision":"street","school":"Kaplan Academy of California-San Francisco Bay","cdscode":"4.16886E+13","state":"CA"},"type":"Feature","geometry":{"type":"Point","coordinates":[-118.386637,33.905234]}},{"properties":{"city":"Redwood City","zip":"94065","statustype":"Active","district":"Belmont-Redwood Shores Elementary","county":"San Mateo","geo_score":0.683,"streetabr":"225 Shearwater Pkwy.","id":"a66jhrjyk795","geo_precision":"zip","school":"Redwood Shores Elementary","cdscode":"4.16887E+13","state":"CA"},"type":"Feature","geometry":{"type":"Point","coordinates":[-122.247806,37.53256]}},{"properties":{"city":"Burlingame","zip":"94010-4509","statustype":"Active","district":"Burlingame Elementary","county":"San Mateo","geo_score":0.911,"streetabr":"1825 Trousdale Dr.","id":"a66jhrpf1xd8","geo_precision":"range","school":"BSD Preschool","cdscode":"4.16888E+13","state":"CA"},"type":"Feature","geometry":{"type":"Point","coordinates":[-122.385829,37.592106]}},{"properties":{"city":"Simi Valley","zip":"93065","statustype":"Active","district":"Jefferson Elementary","county":"San Mateo","geo_score":0.817,"streetabr":"2360 Shasta Way\t Unit A","id":"a66jhrnkjms3","geo_precision":"range","school":"California Virtual Academy @ San Mateo","cdscode":"4.16892E+13","state":"CA"},"type":"Feature","geometry":{"type":"Point","coordinates":[-118.788657,34.276465]}},{"properties":{"city":"Menlo Park","zip":"94025-2826","statustype":"Active","district":"Ravenswood City Elementary","county":"San Mateo","geo_score":0.97,"streetabr":"475 Pope St.","id":"a66jhrw65joj","geo_precision":"range","school":"Stanford New School","cdscode":"4.169E+13","state":"CA"},"type":"Feature","geometry":{"type":"Point","coordinates":[-122.156325,37.460404]}},{"properties":{"city":"Foster City","zip":"94404-1107","statustype":"Active","district":"San Mateo-Foster City","county":"San Mateo","geo_score":1.0,"streetabr":"1170 Chess Dr.","id":"a66jhrmvs3vg","geo_precision":"range","school":"San Mateo-Foster City Special Education Preschool","cdscode":"4.16904E+13","state":"CA"},"type":"Feature","geometry":{"type":"Point","coordinates":[-122.273069,37.565825]}},{"properties":{"city":"Redwood City","zip":"94063-3105","statustype":"Active","district":"Sequoia Union High","county":"San Mateo","geo_score":0.941,"streetabr":"890 Broadway","id":"a66jhrkv1yl9","geo_precision":"range","school":"Summit Preparatory Charter High","cdscode":"4.16906E+13","state":"CA"},"type":"Feature","geometry":{"type":"Point","coordinates":[-122.210934,37.486541]}},{"properties":{"city":"East Palo Alto","zip":"94303-1311","statustype":"Active","district":"Sequoia Union High","county":"San Mateo","geo_score":0.967,"streetabr":"1848C Bay Rd.","id":"a66jhru3j3ef","geo_precision":"range","school":"Aspire East Palo Alto Phoenix Academy","cdscode":"4.16906E+13","state":"CA"},"type":"Feature","geometry":{"type":"Point","coordinates":[-122.133182,37.472465]}},{"properties":{"city":"Redwood City","zip":"94065-1064","statustype":"Active","district":"San Mateo County ROP","county":"San Mateo","geo_score":1.0,"streetabr":"101 Twin Dolphin Dr.","id":"a66jhrysc3kt","geo_precision":"range","school":null,"cdscode":"4.17456E+13","state":"CA"},"type":"Feature","geometry":{"type":"Point","coordinates":[-122.263646,37.526295]}},{"properties":{"city":"Redwood City","zip":"94063","statustype":"Active","district":"SBE - Everest Public High","county":"San Mateo","geo_score":1.0,"streetabr":"305 Main St.","id":"a66jhrmctt6m","geo_precision":"range","school":null,"cdscode":"4.17659E+13","state":"CA"},"type":"Feature","geometry":{"type":"Point","coordinates":[-122.22811,37.491856]}},{"properties":{"city":"Redwood City","zip":"94063","statustype":"Active","district":"SBE - Everest Public High","county":"San Mateo","geo_score":1.0,"streetabr":"305 Main St.","id":"a66jhrlb67me","geo_precision":"range","school":"Everest Public High","cdscode":"4.17659E+13","state":"CA"},"type":"Feature","geometry":{"type":"Point","coordinates":[-122.22811,37.491856]}},{"properties":{"city":"San Jose","zip":"95117-3433","statustype":"Active","district":"Santa Clara County Office of Education","county":"Santa Clara","geo_score":1.0,"streetabr":"4021 Teale Ave.","id":"a66jhrrr3jap","geo_precision":"range","school":"Discovery Charter","cdscode":"4.31044E+13","state":"CA"},"type":"Feature","geometry":{"type":"Point","coordinates":[-121.973557,37.302685]}},{"properties":{"city":"San Jose","zip":"95125-2005","statustype":"Active","district":"Santa Clara County Office of Education","county":"Santa Clara","geo_score":1.0,"streetabr":"2315 Canoas Garden Ave.","id":"a66jhrtpv3j1","geo_precision":"range","school":"University Preparatory Academy Charter","cdscode":"4.31044E+13","state":"CA"},"type":"Feature","geometry":{"type":"Point","coordinates":[-121.874472,37.292831]}},{"properties":{"city":"San Jose","zip":"95110-2954","statustype":"Active","district":"Santa Clara County Office of Education","county":"Santa Clara","geo_score":1.0,"streetabr":"788 Locust St.","id":"a66jhryw35i7","geo_precision":"range","school":"Rocketship Mateo Sheedy Elementary","cdscode":"4.31044E+13","state":"CA"},"type":"Feature","geometry":{"type":"Point","coordinates":[-121.886767,37.321281]}},{"properties":{"city":"San Jose","zip":"95116-3423","statustype":"Active","district":"Santa Clara County Office of Education","county":"Santa Clara","geo_score":0.976,"streetabr":"480 South McCreery Ave.","id":"a66jhrsbydp6","geo_precision":"range","school":"ACE Charter","cdscode":"4.31044E+13","state":"CA"},"type":"Feature","geometry":{"type":"Point","coordinates":[-121.845227,37.346809]}},{"properties":{"city":"San Jose","zip":"95116","statustype":"Active","district":"Santa Clara County Office of Education","county":"Santa Clara","geo_score":1.0,"streetabr":"2249 Dobern Ave.","id":"a66jhrz9k82c","geo_precision":"range","school":"Rocketship Si Se Puede Academy","cdscode":"4.31044E+13","state":"CA"},"type":"Feature","geometry":{"type":"Point","coordinates":[-121.839893,37.352282]}},{"properties":{"city":"Sunnyvale","zip":"94087-7916","statustype":"Active","district":"Santa Clara County Office of Education","county":"Santa Clara","geo_score":1.0,"streetabr":"1095 Dunford Way","id":"a66jhrrto0ou","geo_precision":"range","school":"Magnolia Science Academy Santa Clara","cdscode":"4.31044E+13","state":"CA"},"type":"Feature","geometry":{"type":"Point","coordinates":[-122.003636,37.345335]}},{"properties":{"city":"San Jose","zip":"95116","statustype":"Active","district":"Santa Clara County Office of Education","county":"Santa Clara","geo_score":0.916,"streetabr":"331 South 34th St.","id":"a66jhrwn3vt5","geo_precision":"range","school":"Rocketship Los Suenos Academy","cdscode":"4.31044E+13","state":"CA"},"type":"Feature","geometry":{"type":"Point","coordinates":[-121.851453,37.344781]}},{"properties":{"city":"San Jose","zip":"95127","statustype":"Active","district":"Alum Rock Union Elementary","county":"Santa Clara","geo_score":0.917,"streetabr":"2851 Gay Ave.","id":"a66jhrkzzcjb","geo_precision":"range","school":"Anthony P. Russo Academy","cdscode":"4.36937E+13","state":"CA"},"type":"Feature","geometry":{"type":"Point","coordinates":[-121.836064,37.368534]}},{"properties":{"city":"San Jose","zip":"95127","statustype":"Active","district":"Alum Rock Union Elementary","county":"Santa Clara","geo_score":0.917,"streetabr":"2851 Gay Ave.","id":"a66jhrtgkkzk","geo_precision":"range","school":"James McEntee Academy","cdscode":"4.36937E+13","state":"CA"},"type":"Feature","geometry":{"type":"Point","coordinates":[-121.836064,37.368534]}},{"properties":{"city":"San Jose","zip":"95128","statustype":"Active","district":"Campbell Union","county":"Santa Clara","geo_score":0.927,"streetabr":"2945 Van Sansul Ave.","id":"a66jhrxledgv","geo_precision":"range","school":"Community Day","cdscode":"4.36939E+13","state":"CA"},"type":"Feature","geometry":{"type":"Point","coordinates":[-121.947087,37.30841]}},{"properties":{"city":"San Jose","zip":"95133","statustype":"Active","district":"East Side Union High","county":"Santa Clara","geo_score":1.0,"streetabr":"1790 Educational Park Dr.","id":"a66jhro5koqt","geo_precision":"range","school":"KIPP San Jose Collegiate","cdscode":"4.36943E+13","state":"CA"},"type":"Feature","geometry":{"type":"Point","coordinates":[-121.855839,37.36317]}},{"properties":{"city":"San Jose","zip":"95122","statustype":"Active","district":"Franklin-McKinley Elementary","county":"Santa Clara","geo_score":1.0,"streetabr":"1215 Audubon Dr.","id":"a66jhrjcezfk","geo_precision":"range","school":"Success Academy","cdscode":"4.36945E+13","state":"CA"},"type":"Feature","geometry":{"type":"Point","coordinates":[-121.847774,37.327257]}},{"properties":{"city":"San Jose","zip":"95111-1584","statustype":"Active","district":"Franklin-McKinley Elementary","county":"Santa Clara","geo_score":1.0,"streetabr":"4075 Sacramento Ave.","id":"a66jhrk3umeb","geo_precision":"range","school":"Voices College-Bound Language Academy","cdscode":"4.36945E+13","state":"CA"},"type":"Feature","geometry":{"type":"Point","coordinates":[-121.819432,37.28483]}},{"properties":{"city":"San Jose","zip":"95122","statustype":"Active","district":"Franklin-McKinley Elementary","county":"Santa Clara","geo_score":1.0,"streetabr":"1250 Taper Ln.\t Portable P-6","id":"a66jhrpjq27y","geo_precision":"street","school":"Cornerstone Academy Preparatory","cdscode":"4.36945E+13","state":"CA"},"type":"Feature","geometry":{"type":"Point","coordinates":[-121.842231,37.321031]}},{"properties":{"city":"Gilroy","zip":"95020","statustype":"Active","district":"Gilroy Unified","county":"Santa Clara","geo_score":0.457,"streetabr":"5055 Santa Teresa Blvd.\t PB17","id":"a66jhrjemdx8","geo_precision":"street","school":"Dr. T. J. Owens Gilroy Early College Academy","cdscode":"4.36948E+13","state":"CA"},"type":"Feature","geometry":{"type":"Point","coordinates":[-121.56186,36.96668]}},{"properties":{"city":"Gilroy","zip":"95020","statustype":"Active","district":"Gilroy Unified","county":"Santa Clara","geo_score":0.902,"streetabr":"850 Day Rd.","id":"a66jhrn21dgg","geo_precision":"range","school":"Christopher High","cdscode":"4.36948E+13","state":"CA"},"type":"Feature","geometry":{"type":"Point","coordinates":[-121.598917,37.038106]}},{"properties":{"city":"Los Altos","zip":"94024","statustype":"Active","district":"Los Altos Elementary","county":"Santa Clara","geo_score":1.0,"streetabr":"201 Covington Rd.","id":"a66jhrkm4cpz","geo_precision":"range","school":"LASD Preschool","cdscode":"4.36952E+13","state":"CA"},"type":"Feature","geometry":{"type":"Point","coordinates":[-122.107202,37.370141]}},{"properties":{"city":"Los Gatos","zip":"95030","statustype":"Active","district":"Los Gatos-Saratoga Joint Union High","county":"Santa Clara","geo_score":0.494,"streetabr":"17421 Farley Rd. West","id":"a66jhrodm271","geo_precision":"street","school":"Los Gatos-Saratoga JUHSD Adult Education Program","cdscode":"4.36953E+13","state":"CA"},"type":"Feature","geometry":{"type":"Point","coordinates":[-121.97431,37.23932]}},{"properties":{"city":"Mountain View","zip":"94043-1810","statustype":"Active","district":"Mountain View Whisman","county":"Santa Clara","geo_score":1.0,"streetabr":"1701 Rock St.","id":"a66jhrqkeuqm","geo_precision":"range","school":"Independent Study Program","cdscode":"4.36959E+13","state":"CA"},"type":"Feature","geometry":{"type":"Point","coordinates":[-122.085087,37.41218]}},{"properties":{"city":"Mountain View","zip":"94043-3954","statustype":"Active","district":"Mountain View Whisman","county":"Santa Clara","geo_score":1.0,"streetabr":"220 North Whisman Rd.","id":"a66jhrod85ag","geo_precision":"range","school":"Slater Special Education Preschool","cdscode":"4.36959E+13","state":"CA"},"type":"Feature","geometry":{"type":"Point","coordinates":[-122.06065,37.39431]}},{"properties":{"city":"Mountain View","zip":"94043-3133","statustype":"Active","district":"Mountain View Whisman","county":"Santa Clara","geo_score":0.633,"streetabr":"750 San Pierre Way\t Ste. A","id":"a66jhrp31ci4","geo_precision":"street","school":"MVWSD Home &amp; Hospital","cdscode":"4.36959E+13","state":"CA"},"type":"Feature","geometry":{"type":"Point","coordinates":[-122.07359,37.41534]}},{"properties":{"city":"Mountain View","zip":"94043-3133","statustype":"Active","district":"Mountain View Whisman","county":"Santa Clara","geo_score":1.0,"streetabr":"750B San Pierre Way","id":"a66jhrz5w92e","geo_precision":"range","school":"Stevenson Elementary","cdscode":"4.36959E+13","state":"CA"},"type":"Feature","geometry":{"type":"Point","coordinates":[-122.082707,37.404648]}},{"properties":{"city":"San Jose","zip":"95116","statustype":"Active","district":"San Jose Unified","county":"Santa Clara","geo_score":1.0,"streetabr":"1155 East Julian St.","id":"a66jhrwzey6q","geo_precision":"range","school":"San Jose Community High","cdscode":"4.36967E+13","state":"CA"},"type":"Feature","geometry":{"type":"Point","coordinates":[-121.871136,37.351109]}},{"properties":{"city":"Santa Clara","zip":"95054","statustype":"Active","district":"Santa Clara Unified","county":"Santa Clara","geo_score":0.72,"streetabr":"4176 Lick Mill Blvd.","id":"a66jhrqcnbkn","geo_precision":"street","school":"Don Callejon","cdscode":"4.36967E+13","state":"CA"},"type":"Feature","geometry":{"type":"Point","coordinates":[-121.943701,37.39663]}},{"properties":{"city":"Alviso","zip":"95002","statustype":"Active","district":"Santa Clara Unified","county":"Santa Clara","geo_score":1.0,"streetabr":"1621 Gold St.","id":"a66jhrm7zb1p","geo_precision":"range","school":"Downtown College Prep Alviso","cdscode":"4.36967E+13","state":"CA"},"type":"Feature","geometry":{"type":"Point","coordinates":[-121.976077,37.423918]}},{"properties":{"city":"San Jose","zip":"95118","statustype":"Active","district":"Union Elementary","county":"Santa Clara","geo_score":0.919,"streetabr":"5200 Dent Ave.","id":"a66jhrzfryq7","geo_precision":"range","school":"Athenour Elementary","cdscode":"4.36971E+13","state":"CA"},"type":"Feature","geometry":{"type":"Point","coordinates":[-121.896967,37.247696]}},{"properties":{"city":"San Jose","zip":"95136","statustype":"Active","district":"Metro Education","county":"Santa Clara","geo_score":1.0,"streetabr":"760 Hillsdale Ave.","id":"a66jhrtf4rc2","geo_precision":"range","school":null,"cdscode":"4.37429E+13","state":"CA"},"type":"Feature","geometry":{"type":"Point","coordinates":[-121.864699,37.279808]}},{"properties":{"city":"Sunnyvale","zip":"94087","statustype":"Active","district":"Santa Clara County ROP","county":"Santa Clara","geo_score":1.0,"streetabr":"575 West Fremont Ave.","id":"a66jhrkcxa5z","geo_precision":"range","school":null,"cdscode":"4.3743E+13","state":"CA"},"type":"Feature","geometry":{"type":"Point","coordinates":[-122.036599,37.35208]}},{"properties":{"city":"Sunnyvale","zip":"94087-2556","statustype":"Active","district":"North County Regional Occupational Center/Program (ROC/P)","county":"Santa Clara","geo_score":0.878,"streetabr":"589 West Fremont Ave.","id":"a66jhrlv3f3d","geo_precision":"street","school":null,"cdscode":"4.37662E+13","state":"CA"},"type":"Feature","geometry":{"type":"Point","coordinates":[-122.03816,37.352088]}},{"properties":{"city":"Sunnyvale","zip":"94087","statustype":"Active","district":"North County Regional Occupational Center/Program (ROC/P)","county":"Santa Clara","geo_score":0.878,"streetabr":"589 West Fremont Ave.","id":"a66jhrw5jsod","geo_precision":"street","school":"North County Regional Occupational Program","cdscode":"4.37662E+13","state":"CA"},"type":"Feature","geometry":{"type":"Point","coordinates":[-122.03816,37.352088]}},{"properties":{"city":"Fairfield","zip":"94533-1966","statustype":"Active","district":"Solano County Office of Education","county":"Solano","geo_score":0.902,"streetabr":"2301 Pennsylvania Ave.","id":"a66jhrrg7a5v","geo_precision":"range","school":"Division of Unaccompanied Children's Services (DUCS)","cdscode":"4.81049E+13","state":"CA"},"type":"Feature","geometry":{"type":"Point","coordinates":[-122.049941,38.271103]}},{"properties":{"city":"Benicia","zip":"94510","statustype":"Active","district":"Benicia Unified","county":"Solano","geo_score":1.0,"streetabr":"426 East K St.","id":"a66jhrvplcp2","geo_precision":"range","school":"Community Day","cdscode":"4.87052E+13","state":"CA"},"type":"Feature","geometry":{"type":"Point","coordinates":[-122.150063,38.049985]}},{"properties":{"city":"Fairfield","zip":"94533-3643","statustype":"Active","district":"Fairfield-Suisun Unified","county":"Solano","geo_score":0.902,"streetabr":"1975 Pennsylvania Ave.","id":"a66jhrr7dc3q","geo_precision":"range","school":"David A. Weir Elementary","cdscode":"4.87054E+13","state":"CA"},"type":"Feature","geometry":{"type":"Point","coordinates":[-122.049909,38.263302]}},{"properties":{"city":"Fairfield","zip":"94533","statustype":"Active","district":"Fairfield-Suisun Unified","county":"Solano","geo_score":0.902,"streetabr":"1069 Meadowlark Dr.","id":"a66jhrwximwu","geo_precision":"range","school":"Fairfield-Suisun Elementary Community Day","cdscode":"4.87054E+13","state":"CA"},"type":"Feature","geometry":{"type":"Point","coordinates":[-122.013925,38.268207]}},{"properties":{"city":"Fairfield","zip":"94534","statustype":"Active","district":"Fairfield-Suisun Unified","county":"Solano","geo_score":0.924,"streetabr":"2025 Fieldcrest Ave.","id":"a66jhrkpwv2x","geo_precision":"range","school":"Rolling Hills Elementary","cdscode":"4.87054E+13","state":"CA"},"type":"Feature","geometry":{"type":"Point","coordinates":[-122.040402,38.290831]}},{"properties":{"city":"Fairfield","zip":"94534","statustype":"Active","district":"Fairfield-Suisun Unified","county":"Solano","geo_score":0.924,"streetabr":"4770 Canyon Hills Dr.","id":"a66jhrxihoam","geo_precision":"range","school":"Cordelia Hills Elementary","cdscode":"4.87054E+13","state":"CA"},"type":"Feature","geometry":{"type":"Point","coordinates":[-122.133535,38.169782]}},{"properties":{"city":"Fairfield","zip":"94533-2460","statustype":"Active","district":"Fairfield-Suisun Unified","county":"Solano","geo_score":0.902,"streetabr":"1069 Meadowlark Dr.","id":"a66jhrm2uafl","geo_precision":"range","school":"H. Glenn Richardson","cdscode":"4.87054E+13","state":"CA"},"type":"Feature","geometry":{"type":"Point","coordinates":[-122.013925,38.268207]}},{"properties":{"city":"Fairfield","zip":"94533-1539","statustype":"Active","district":"Fairfield-Suisun Unified","county":"Solano","geo_score":0.902,"streetabr":"230 Atlantic Ave.","id":"a66jhrsrmnr2","geo_precision":"range","school":"Matt Garcia Learning Center","cdscode":"4.87054E+13","state":"CA"},"type":"Feature","geometry":{"type":"Point","coordinates":[-122.037926,38.276376]}},{"properties":{"city":"Vacaville","zip":"95688-2616","statustype":"Active","district":"Vacaville Unified","county":"Solano","geo_score":0.924,"streetabr":"400 Hemlock St.","id":"a66jhruto548","geo_precision":"range","school":"Alternative Cooperative Education Charter","cdscode":"4.87057E+13","state":"CA"},"type":"Feature","geometry":{"type":"Point","coordinates":[-122.003434,38.364506]}},{"properties":{"city":"Vallejo","zip":"94591-8226","statustype":"Active","district":"Vallejo City Unified","county":"Solano","geo_score":0.927,"streetabr":"436 Del Sur St.","id":"a66jhrl6gjgg","geo_precision":"range","school":"Vallejo Charter","cdscode":"4.87058E+13","state":"CA"},"type":"Feature","geometry":{"type":"Point","coordinates":[-122.227448,38.082451]}},{"properties":{"city":"Fairfield","zip":"94533","statustype":"Active","district":"Solano County ROP","county":"Solano","geo_score":0.902,"streetabr":"2460 Clay Bank Rd.","id":"a66jhrkzpd5g","geo_precision":"range","school":null,"cdscode":"4.87467E+13","state":"CA"},"type":"Feature","geometry":{"type":"Point","coordinates":[-122.006541,38.273568]}},{"properties":{"city":"Dixon","zip":"95620","statustype":"Active","district":"SBE - Dixon Montessori Charter","county":"Solano","geo_score":0.797,"streetabr":"355 North Almond St.","id":"a66jhrv9sdeh","geo_precision":"range","school":null,"cdscode":"4.87666E+13","state":"CA"},"type":"Feature","geometry":{"type":"Point","coordinates":[-121.831807,38.448352]}},{"properties":{"city":"Dixon","zip":"95620-2702","statustype":"Active","district":"SBE - Dixon Montessori Charter","county":"Solano","geo_score":0.797,"streetabr":"355 North Almond St.","id":"a66jhrnqyfx9","geo_precision":"range","school":"Dixon Montessori Charter","cdscode":"4.87666E+13","state":"CA"},"type":"Feature","geometry":{"type":"Point","coordinates":[-121.831807,38.448352]}},{"properties":{"city":"Sebastopol","zip":"95472","statustype":"Active","district":"West Sonoma County Union High","county":"Sonoma","geo_score":0.902,"streetabr":"490 Taft St.","id":"a66jhrv6w5z0","geo_precision":"range","school":"WSCUHSD Community Day","cdscode":"4.97061E+13","state":"CA"},"type":"Feature","geometry":{"type":"Point","coordinates":[-122.824286,38.406542]}},{"properties":{"city":"Sebastopol","zip":"95472-3431","statustype":"Active","district":"West Sonoma County Union High","county":"Sonoma","geo_score":0.902,"streetabr":"462 Johnson St.","id":"a66jhrnx1b24","geo_precision":"range","school":"West Sonoma County Consortium","cdscode":"4.97061E+13","state":"CA"},"type":"Feature","geometry":{"type":"Point","coordinates":[-122.822339,38.406492]}},{"properties":{"city":"Santa Rosa","zip":"95407","statustype":"Active","district":"Bellevue Union Elementary","county":"Sonoma","geo_score":0.694,"streetabr":"1210 East Bellevue Ave.","id":"a66jhrwh9qvh","geo_precision":"street","school":"Taylor Mountain Elementary","cdscode":"4.97062E+13","state":"CA"},"type":"Feature","geometry":{"type":"Point","coordinates":[-122.741447,38.401823]}},{"properties":{"city":"Petaluma","zip":"94952","statustype":"Active","district":"Dunham Elementary","county":"Sonoma","geo_score":0.913,"streetabr":"4111 Roblar Rd.","id":"a66jhrsf0vtq","geo_precision":"range","school":"Dunham Charter","cdscode":"4.97067E+13","state":"CA"},"type":"Feature","geometry":{"type":"Point","coordinates":[-122.760233,38.321222]}},{"properties":{"city":"Forestville","zip":"95436","statustype":"Active","district":"Forestville Union Elementary","county":"Sonoma","geo_score":0.909,"streetabr":"6321 Highway 116","id":"a66jhrnk964q","geo_precision":"range","school":"Forestville Academy","cdscode":"4.97068E+13","state":"CA"},"type":"Feature","geometry":{"type":"Point","coordinates":[-122.887694,38.472208]}},{"properties":{"city":"Petaluma","zip":"94952","statustype":"Active","district":"Liberty Elementary","county":"Sonoma","geo_score":0.722,"streetabr":"170 Liberty School Rd.","id":"a66jhrrm3n3h","geo_precision":"street","school":"Liberty Primary","cdscode":"4.9708E+13","state":"CA"},"type":"Feature","geometry":{"type":"Point","coordinates":[-122.707917,38.282188]}},{"properties":{"city":"Santa Rosa","zip":"95407","statustype":"Active","district":"Oak Grove Union Elementary","county":"Sonoma","geo_score":0.913,"streetabr":"950 South Wright Rd.","id":"a66jhrsr9z3v","geo_precision":"range","school":"Pivot Online Charter - North Bay","cdscode":"4.97084E+13","state":"CA"},"type":"Feature","geometry":{"type":"Point","coordinates":[-122.76891,38.423223]}},{"properties":{"city":"Petaluma","zip":"94952-2065","statustype":"Active","district":"Petaluma Joint Union High","county":"Sonoma","geo_score":0.72,"streetabr":"1001 Cherry St.","id":"a66jhrqlzp59","geo_precision":"street","school":"Mary Collins School at Cherry Valley","cdscode":"4.97086E+13","state":"CA"},"type":"Feature","geometry":{"type":"Point","coordinates":[-122.654675,38.244355]}},{"properties":{"city":"Santa Rosa","zip":"95405-7020","statustype":"Active","district":"Rincon Valley Union Elementary","county":"Sonoma","geo_score":1.0,"streetabr":"1000 Yulupa Ave.","id":"a66jhrqi9stf","geo_precision":"range","school":"Redwood Consortium for Student Services","cdscode":"4.9709E+13","state":"CA"},"type":"Feature","geometry":{"type":"Point","coordinates":[-122.67531,38.444354]}},{"properties":{"city":"Santa Rosa","zip":"95404","statustype":"Active","district":"Santa Rosa Elementary","county":"Sonoma","geo_score":1.0,"streetabr":"756 Humboldt St.","id":"a66jhrtottuk","geo_precision":"range","school":"Santa Rosa Charter School for the Arts","cdscode":"4.97091E+13","state":"CA"},"type":"Feature","geometry":{"type":"Point","coordinates":[-122.714703,38.446834]}},{"properties":{"city":"Sebastopol","zip":"95472","statustype":"Active","district":"Sebastopol Union Elementary","county":"Sonoma","geo_score":0.902,"streetabr":"7905 Valentine Ave.","id":"a66jhrsrxrjy","geo_precision":"range","school":"REACH","cdscode":"4.97094E+13","state":"CA"},"type":"Feature","geometry":{"type":"Point","coordinates":[-122.836924,38.402254]}},{"properties":{"city":"Santa Rosa","zip":"95403","statustype":"Active","district":"Sonoma County ROP","county":"Sonoma","geo_score":0.913,"streetabr":"5340 Skylane Blvd.","id":"a66jhrz2jexi","geo_precision":"range","school":null,"cdscode":"4.97459E+13","state":"CA"},"type":"Feature","geometry":{"type":"Point","coordinates":[-122.800146,38.511721]}},{"properties":{"city":"Santa Rosa","zip":"95403-1412","statustype":"Active","district":"Windsor Unified","county":"Sonoma","geo_score":0.913,"streetabr":"4614 Old Redwood Hwy.","id":"a66jhrr5v1mn","geo_precision":"range","school":"Village Charter","cdscode":"4.97536E+13","state":"CA"},"type":"Feature","geometry":{"type":"Point","coordinates":[-122.748087,38.497194]}},{"properties":{"city":"Windsor","zip":"95492","statustype":"Active","district":"Windsor Unified","county":"Sonoma","geo_score":0.714,"streetabr":"8733 Lakewood Drive\t Ste. B","id":"a66jhro5ifc7","geo_precision":"street","school":"Insight School of California - North Bay","cdscode":"4.97536E+13","state":"CA"},"type":"Feature","geometry":{"type":"Point","coordinates":[-122.755256,38.508583]}},{"properties":{"city":"Windsor","zip":"95492","statustype":"Active","district":"Windsor Unified","county":"Sonoma","geo_score":1.0,"streetabr":"10725 Old Redwood Hwy.","id":"a66jhrrafz9b","geo_precision":"range","school":"Bridges Community Based School\t North County Consortium","cdscode":"4.97536E+13","state":"CA"},"type":"Feature","geometry":{"type":"Point","coordinates":[-122.828656,38.564748]}},{"properties":{"city":"Petaluma","zip":"94954","statustype":"Active","district":"SBE - River Montessori Elementary Charter","county":"Sonoma","geo_score":1.0,"streetabr":"3880 Cypress Dr.","id":"a66jhrtt0hi2","geo_precision":"range","school":"River Montessori Elementary Charter","cdscode":"4.9766E+13","state":"CA"},"type":"Feature","geometry":{"type":"Point","coordinates":[-122.587425,38.227027]}}],"is_temporal":false,"author":{"url":"http://www.cde.ca.gov/ds/si/ds/pubschls.asp","metadata":"","contact_name":"","contact_address":"","source":"California Department of Education","contact_phone":""},"source":"http://www.cde.ca.gov/ds/si/ds/pubschls.asp","pagination":{"sort":null,"start":0,"total":192,"limit":1000000},"state":"complete","tags":"schools","published":"2014-08-12T21:37:15-04:00","id":120471}