{"type":"FeatureCollection","data_type":"Dataset","url_type":null,"permissions":[{"permissions":{"download":true,"view":true},"group_id":"everyone"}],"classification":null,"title":"AFSS Discontinued Locations","count":42,"stream_id":12215,"contributor":{"url":"http://geocommons.com/users/6294","name":"AlexanderGoodman"},"data_attributes":null,"calculation_params":null,"icon_link":null,"link":"http://geocommons.com/overlays/12215.json","extent":[-123.189,18.466,-66.118,47.909],"geometry_types":["point"],"unique_name":null,"name":"AFSS Discontinued Locations","feature_count":42,"description":"","next_feature":null,"is_raster":false,"short_classification":"Y","stats":{"lat":{"max":47.909,"mean":38.2877857142857,"variance":32.1624158310104,"stdev":5.67119174697968,"min":18.466,"median":38.926},"long":{"max":-66.118,"mean":-93.6884761904762,"variance":251.806269914053,"stdev":15.8684047690388,"min":-123.189,"median":-90.198}},"features":[{"properties":{"discontinued facility":"Albuquerque","id":"a62ymsn6mxsm","lat":35.08,"state":"NM","long":-106.627},"type":"Feature","geometry":{"type":"Point","coordinates":[-106.627,35.08]}},{"properties":{"discontinued facility":"Altoona","id":"a62ymsqji5tg","lat":40.508,"state":"PA","long":-78.4},"type":"Feature","geometry":{"type":"Point","coordinates":[-78.4,40.508]}},{"properties":{"discontinued facility":"Anderson","id":"a62ymsooqv8j","lat":34.521,"state":"SC","long":-82.645},"type":"Feature","geometry":{"type":"Point","coordinates":[-82.645,34.521]}},{"properties":{"discontinued facility":"Anniston","id":"a62ymsz12axq","lat":33.657,"state":"AL","long":-85.816},"type":"Feature","geometry":{"type":"Point","coordinates":[-85.816,33.657]}},{"properties":{"discontinued facility":"Bangor","id":"a62ymt0jl6f6","lat":44.836,"state":"ME","long":-68.792},"type":"Feature","geometry":{"type":"Point","coordinates":[-68.792,44.836]}},{"properties":{"discontinued facility":"Boise","id":"a62ymsxjqtzi","lat":43.597,"state":"ID","long":-116.3},"type":"Feature","geometry":{"type":"Point","coordinates":[-116.3,43.597]}},{"properties":{"discontinued facility":"Bridgeport","id":"a62ymsn3ijak","lat":41.192,"state":"CT","long":-73.197},"type":"Feature","geometry":{"type":"Point","coordinates":[-73.197,41.192]}},{"properties":{"discontinued facility":"Buffalo","id":"a62ymsrjx017","lat":42.887,"state":"NY","long":-78.878},"type":"Feature","geometry":{"type":"Point","coordinates":[-78.878,42.887]}},{"properties":{"discontinued facility":"Burlington","id":"a62ymsw3p1ao","lat":44.476,"state":"VT","long":-73.211},"type":"Feature","geometry":{"type":"Point","coordinates":[-73.211,44.476]}},{"properties":{"discontinued facility":"Casper","id":"a62ymsqj8jkb","lat":42.838,"state":"WY","long":-106.328},"type":"Feature","geometry":{"type":"Point","coordinates":[-106.328,42.838]}},{"properties":{"discontinued facility":"Cedar City","id":"a62ymszw5xp0","lat":37.682,"state":"UT","long":-113.088},"type":"Feature","geometry":{"type":"Point","coordinates":[-113.088,37.682]}},{"properties":{"discontinued facility":"Cleveland","id":"a62ymsmjonnb","lat":41.5,"state":"OH","long":-81.693},"type":"Feature","geometry":{"type":"Point","coordinates":[-81.693,41.5]}},{"properties":{"discontinued facility":"Columbus","id":"a62ymt21ixiz","lat":41.431,"state":"NE","long":-97.356},"type":"Feature","geometry":{"type":"Point","coordinates":[-97.356,41.431]}},{"properties":{"discontinued facility":"Conroe","id":"a62ymsoib7c2","lat":30.317,"state":"TX","long":-95.463},"type":"Feature","geometry":{"type":"Point","coordinates":[-95.463,30.317]}},{"properties":{"discontinued facility":"Dayton","id":"a62ymsvq9jvg","lat":39.762,"state":"OH","long":-84.205},"type":"Feature","geometry":{"type":"Point","coordinates":[-84.205,39.762]}},{"properties":{"discontinued facility":"DeRidder","id":"a62ymspu8kap","lat":30.847,"state":"LA","long":-93.291},"type":"Feature","geometry":{"type":"Point","coordinates":[-93.291,30.847]}},{"properties":{"discontinued facility":"Elkins","id":"a62ymsug96yz","lat":38.926,"state":"WV","long":-79.858},"type":"Feature","geometry":{"type":"Point","coordinates":[-79.858,38.926]}},{"properties":{"discontinued facility":"Fort Dodge","id":"a62ymsoajf7e","lat":42.508,"state":"IA","long":-94.178},"type":"Feature","geometry":{"type":"Point","coordinates":[-94.178,42.508]}},{"properties":{"discontinued facility":"Gainsville","id":"a62ymsq4d19q","lat":29.652,"state":"FL","long":-82.339},"type":"Feature","geometry":{"type":"Point","coordinates":[-82.339,29.652]}},{"properties":{"discontinued facility":"Grand Forks","id":"a62ymswjoi2x","lat":47.909,"state":"ND","long":-97.056},"type":"Feature","geometry":{"type":"Point","coordinates":[-97.056,47.909]}},{"properties":{"discontinued facility":"Great Falls","id":"a62ymssyl0n8","lat":47.506,"state":"MT","long":-111.306},"type":"Feature","geometry":{"type":"Point","coordinates":[-111.306,47.506]}},{"properties":{"discontinued facility":"Green Bay","id":"a62ymspb7lnp","lat":44.516,"state":"WI","long":-88.008},"type":"Feature","geometry":{"type":"Point","coordinates":[-88.008,44.516]}},{"properties":{"discontinued facility":"Greenwood","id":"a62ymsxon6yi","lat":33.522,"state":"MS","long":-90.193},"type":"Feature","geometry":{"type":"Point","coordinates":[-90.193,33.522]}},{"properties":{"discontinued facility":"Hawthorne","id":"a62ymszqwcud","lat":33.916,"state":"CA","long":-118.353},"type":"Feature","geometry":{"type":"Point","coordinates":[-118.353,33.916]}},{"properties":{"discontinued facility":"Huron","id":"a62ymsot29k5","lat":44.363,"state":"SD","long":-98.214},"type":"Feature","geometry":{"type":"Point","coordinates":[-98.214,44.363]}},{"properties":{"discontinued facility":"Islip","id":"a62ymsu0mnwi","lat":40.731,"state":"NY","long":-73.211},"type":"Feature","geometry":{"type":"Point","coordinates":[-73.211,40.731]}},{"properties":{"discontinued facility":"Jackson","id":"a62ymsvda6zq","lat":35.64,"state":"TN","long":-88.828},"type":"Feature","geometry":{"type":"Point","coordinates":[-88.828,35.64]}},{"properties":{"discontinued facility":"Jonesboro","id":"a62ymsv431ef","lat":35.821,"state":"AR","long":-90.682},"type":"Feature","geometry":{"type":"Point","coordinates":[-90.682,35.821]}},{"properties":{"discontinued facility":"Louisville","id":"a62ymsv6fav9","lat":38.256,"state":"KY","long":-85.752},"type":"Feature","geometry":{"type":"Point","coordinates":[-85.752,38.256]}},{"properties":{"discontinued facility":"Macon","id":"a62ymsvxehds","lat":32.841,"state":"GA","long":-83.649},"type":"Feature","geometry":{"type":"Point","coordinates":[-83.649,32.841]}},{"properties":{"discontinued facility":"McAlester","id":"a62ymsr5mhqv","lat":34.93,"state":"OK","long":-95.758},"type":"Feature","geometry":{"type":"Point","coordinates":[-95.758,34.93]}},{"properties":{"discontinued facility":"McMinnville","id":"a62ymsvp1rj6","lat":45.21,"state":"OR","long":-123.189},"type":"Feature","geometry":{"type":"Point","coordinates":[-123.189,45.21]}},{"properties":{"discontinued facility":"Oakland","id":"a62ymt1dae82","lat":37.772,"state":"CA","long":-122.215},"type":"Feature","geometry":{"type":"Point","coordinates":[-122.215,37.772]}},{"properties":{"discontinued facility":"Rancho Murieta","id":"a62ymspchzal","lat":38.51,"state":"CA","long":-121.08},"type":"Feature","geometry":{"type":"Point","coordinates":[-121.08,38.51]}},{"properties":{"discontinued facility":"Reno","id":"a62ymsxw9uea","lat":39.53,"state":"NV","long":-119.814},"type":"Feature","geometry":{"type":"Point","coordinates":[-119.814,39.53]}},{"properties":{"discontinued facility":"Riverside","id":"a62ymt1haayb","lat":33.947,"state":"CA","long":-117.4},"type":"Feature","geometry":{"type":"Point","coordinates":[-117.4,33.947]}},{"properties":{"discontinued facility":"San Angelo","id":"a62ymsny6bv2","lat":31.465,"state":"TX","long":-100.445},"type":"Feature","geometry":{"type":"Point","coordinates":[-100.445,31.465]}},{"properties":{"discontinued facility":"San Juan","id":"a62ymsmnr1ip","lat":18.466,"state":"PR","long":-66.118},"type":"Feature","geometry":{"type":"Point","coordinates":[-66.118,18.466]}},{"properties":{"discontinued facility":"St. Louis","id":"a62ymszbjvgs","lat":38.628,"state":"MO","long":-90.198},"type":"Feature","geometry":{"type":"Point","coordinates":[-90.198,38.628]}},{"properties":{"discontinued facility":"Terre Haute","id":"a62ymsyywazv","lat":39.466,"state":"IN","long":-87.414},"type":"Feature","geometry":{"type":"Point","coordinates":[-87.414,39.466]}},{"properties":{"discontinued facility":"Wichita","id":"a62ymsvtf3oi","lat":37.686,"state":"KN","long":-97.336},"type":"Feature","geometry":{"type":"Point","coordinates":[-97.336,37.686]}},{"properties":{"discontinued facility":"Williamsport","id":"a62ymsn87pbd","lat":41.239,"state":"PA","long":-77.032},"type":"Feature","geometry":{"type":"Point","coordinates":[-77.032,41.239]}}],"is_temporal":false,"author":{"url":"","metadata":"","contact_name":"","contact_address":"","source":"","contact_phone":""},"source":"","pagination":{"sort":null,"start":0,"total":42,"limit":1000000},"state":"complete","tags":"flight,service,stations","published":"2009-04-28T12:00:00Z","id":12215}