{"type":"FeatureCollection","data_type":"Dataset","url_type":null,"permissions":[{"permissions":{"download":true,"view":true},"group_id":"everyone"}],"classification":null,"title":"Thisfish Lobster Dec10 Jun07 Cities Countries","count":538,"stream_id":122477,"contributor":{"url":"http://geocommons.com/users/12571","name":"ericennotamm"},"data_attributes":null,"calculation_params":null,"icon_link":null,"link":"http://geocommons.com/overlays/122477.json","extent":[-159.322,-45.8742,170.504,70.0506],"geometry_types":["point"],"unique_name":null,"name":"Thisfish Lobster Dec10 Jun07 Cities Countries","feature_count":538,"description":"","next_feature":null,"is_raster":false,"short_classification":"Y","stats":{"tags traced":{"max":528,"mean":5.54646840148699,"variance":756.903795698256,"stdev":27.5118846264347,"min":1,"median":1}},"features":[{"properties":{"city":"Aalst","geo_score":1.0,"country":"Belgium","id":"a6axyki0zdm1","geo_precision":"zip","tags traced":1},"type":"Feature","geometry":{"type":"Point","coordinates":[4.0333333,50.9333333]}},{"properties":{"city":"Aalter","geo_score":1.0,"country":"Belgium","id":"a6axykkttskw","geo_precision":"zip","tags traced":1},"type":"Feature","geometry":{"type":"Point","coordinates":[3.45,51.0833333]}},{"properties":{"city":"Abington","geo_score":1.0,"country":"United States","id":"a6axykflyi7k","geo_precision":"zip","tags traced":1},"type":"Feature","geometry":{"type":"Point","coordinates":[-70.9453218,42.1048228]}},{"properties":{"city":"Ajax","geo_score":1.0,"country":"Canada","id":"a6axykrobjvm","geo_precision":"zip","tags traced":1},"type":"Feature","geometry":{"type":"Point","coordinates":[-79.032881857,43.850120192]}},{"properties":{"city":"Albany","geo_score":1.0,"country":"United States","id":"a6axyku45tb6","geo_precision":"zip","tags traced":2},"type":"Feature","geometry":{"type":"Point","coordinates":[-73.7562317,42.6525793]}},{"properties":{"city":"Alkmaar","geo_score":1.0,"country":"Netherlands","id":"a6axykkcc8gt","geo_precision":"zip","tags traced":1},"type":"Feature","geometry":{"type":"Point","coordinates":[4.748611,52.631667]}},{"properties":{"city":"Allentown","geo_score":1.0,"country":"United States","id":"a6axykro5d1u","geo_precision":"zip","tags traced":3},"type":"Feature","geometry":{"type":"Point","coordinates":[-75.4901833,40.6084305]}},{"properties":{"city":"Almere","geo_score":0.0,"country":"Netherlands","id":"a6axyknm2mub","geo_precision":"unmatched","tags traced":1},"type":"Feature","geometry":null},{"properties":{"city":"Amherst","geo_score":0.948,"country":"Canada","id":"a6axykgjuqf8","geo_precision":"zip","tags traced":7},"type":"Feature","geometry":{"type":"Point","coordinates":[-83.049846126,42.116785378]}},{"properties":{"city":"Amstelveen","geo_score":1.0,"country":"Netherlands","id":"a6axykpqxnat","geo_precision":"zip","tags traced":1},"type":"Feature","geometry":{"type":"Point","coordinates":[4.863889,52.300833]}},{"properties":{"city":"Amsterdam","geo_score":1.0,"country":"Netherlands","id":"a6axyksiydn0","geo_precision":"zip","tags traced":19},"type":"Feature","geometry":{"type":"Point","coordinates":[4.89990234375,52.3730839945403]}},{"properties":{"city":"Angelholm","geo_score":1.0,"country":"Sweden","id":"a6axykp6iunc","geo_precision":"zip","tags traced":2},"type":"Feature","geometry":{"type":"Point","coordinates":[12.8621900081635,56.242801447706]}},{"properties":{"city":"Antigonish","geo_score":1.0,"country":"Canada","id":"a6axykoc8dnw","geo_precision":"zip","tags traced":12},"type":"Feature","geometry":{"type":"Point","coordinates":[-61.998581588,45.616846689]}},{"properties":{"city":"Antwerp","geo_score":1.0,"country":"Belgium","id":"a6axykdwesy3","geo_precision":"zip","tags traced":7},"type":"Feature","geometry":{"type":"Point","coordinates":[4.4166667,51.2166667]}},{"properties":{"city":"Arlington","geo_score":1.0,"country":"United States","id":"a6axykhxrudj","geo_precision":"zip","tags traced":3},"type":"Feature","geometry":{"type":"Point","coordinates":[-97.1080656,32.735687]}},{"properties":{"city":"Asbury Park","geo_score":1.0,"country":"United States","id":"a6axykkwc2yl","geo_precision":"zip","tags traced":1},"type":"Feature","geometry":{"type":"Point","coordinates":[-74.0120817,40.2203907]}},{"properties":{"city":"Athens","geo_score":1.0,"country":"Greece","id":"a6axykequb12","geo_precision":"zip","tags traced":2},"type":"Feature","geometry":{"type":"Point","coordinates":[23.7333333,37.9833333]}},{"properties":{"city":"Atlanta","geo_score":1.0,"country":"United States","id":"a6axykrvju5s","geo_precision":"zip","tags traced":6},"type":"Feature","geometry":{"type":"Point","coordinates":[-84.3879824,33.7489954]}},{"properties":{"city":"Augusta","geo_score":1.0,"country":"United States","id":"a6axykds82zj","geo_precision":"zip","tags traced":1},"type":"Feature","geometry":{"type":"Point","coordinates":[-81.9748379,33.4709702]}},{"properties":{"city":"Austerlitz","geo_score":0.918,"country":"Netherlands","id":"a6axykjwvl2q","geo_precision":"zip","tags traced":1},"type":"Feature","geometry":{"type":"Point","coordinates":[4.7833333,52.4166667]}},{"properties":{"city":"Avon","geo_score":1.0,"country":"United States","id":"a6axyks88tql","geo_precision":"zip","tags traced":1},"type":"Feature","geometry":{"type":"Point","coordinates":[-82.0195883,41.4597645]}},{"properties":{"city":"Baasrode","geo_score":0.905,"country":"Belgium","id":"a6axykgqqg85","geo_precision":"zip","tags traced":1},"type":"Feature","geometry":{"type":"Point","coordinates":[4.2166667,50.5333333]}},{"properties":{"city":"Ballston Lake","geo_score":0.952,"country":"United States","id":"a6axykkjibdl","geo_precision":"zip","tags traced":2},"type":"Feature","geometry":{"type":"Point","coordinates":[-73.8490111,43.0009087]}},{"properties":{"city":"Baltimore","geo_score":0.943,"country":"United States","id":"a6axyku4m9c4","geo_precision":"zip","tags traced":2},"type":"Feature","geometry":{"type":"Point","coordinates":[-76.6496931,39.4667728]}},{"properties":{"city":"Bangor","geo_score":1.0,"country":"United States","id":"a6axykh4fthj","geo_precision":"zip","tags traced":1},"type":"Feature","geometry":{"type":"Point","coordinates":[-68.7778138,44.8011821]}},{"properties":{"city":"Barcelona","geo_score":1.0,"country":"Spain","id":"a6axykq5s1qg","geo_precision":"zip","tags traced":22},"type":"Feature","geometry":{"type":"Point","coordinates":[2.12803760957452,41.3994235991885]}},{"properties":{"city":"Barrie","geo_score":1.0,"country":"Canada","id":"a6axykoiqjm6","geo_precision":"zip","tags traced":1},"type":"Feature","geometry":{"type":"Point","coordinates":[-79.666337962,44.400107467]}},{"properties":{"city":"Barrington","geo_score":0.914,"country":"Canada","id":"a6axykirs369","geo_precision":"zip","tags traced":52},"type":"Feature","geometry":{"type":"Point","coordinates":[-111.818594246,54.783499882]}},{"properties":{"city":"Bass Harbor","geo_score":0.886,"country":"United States","id":"a6axykmp0bhr","geo_precision":"zip","tags traced":1},"type":"Feature","geometry":{"type":"Point","coordinates":[-116.2034505,43.6135002]}},{"properties":{"city":"Batavia","geo_score":1.0,"country":"United States","id":"a6axykkxw2ix","geo_precision":"zip","tags traced":1},"type":"Feature","geometry":{"type":"Point","coordinates":[-88.3125738,41.8500284]}},{"properties":{"city":"Bathurst","geo_score":1.0,"country":"Canada","id":"a6axyksw8ixe","geo_precision":"zip","tags traced":6},"type":"Feature","geometry":{"type":"Point","coordinates":[-76.399397738,44.90011432]}},{"properties":{"city":"Baton Rouge","geo_score":1.0,"country":"United States","id":"a6axykl78nmz","geo_precision":"zip","tags traced":1},"type":"Feature","geometry":{"type":"Point","coordinates":[-91.154551,30.4507462]}},{"properties":{"city":"Beachwood","geo_score":1.0,"country":"United States","id":"a6axyko355wj","geo_precision":"zip","tags traced":1},"type":"Feature","geometry":{"type":"Point","coordinates":[-81.5087322,41.4644979]}},{"properties":{"city":"Beaconsfield","geo_score":1.0,"country":"Canada","id":"a6axykf9wd8f","geo_precision":"zip","tags traced":1},"type":"Feature","geometry":{"type":"Point","coordinates":[-65.332119547,44.850151267]}},{"properties":{"city":"Beauport","geo_score":0.917,"country":"Canada","id":"a6axykgcyqle","geo_precision":"zip","tags traced":1},"type":"Feature","geometry":{"type":"Point","coordinates":[-68.432335726,50.100068069]}},{"properties":{"city":"Beaverton","geo_score":0.929,"country":"Canada","id":"a6axykstltc8","geo_precision":"zip","tags traced":1},"type":"Feature","geometry":{"type":"Point","coordinates":[-73.658538322,47.588201048]}},{"properties":{"city":"Bedford","geo_score":1.0,"country":"United States","id":"a6axykhlrqys","geo_precision":"zip","tags traced":5},"type":"Feature","geometry":{"type":"Point","coordinates":[-97.1430671,32.844017]}},{"properties":{"city":"Beekbergen","geo_score":1.0,"country":"Netherlands","id":"a6axykmvjk6g","geo_precision":"zip","tags traced":1},"type":"Feature","geometry":{"type":"Point","coordinates":[5.963889,52.16]}},{"properties":{"city":"Beijing","geo_score":0.0,"country":"Canada","id":"a6axykg13trh","geo_precision":"unmatched","tags traced":1},"type":"Feature","geometry":null},{"properties":{"city":"Bellmore","geo_score":0.929,"country":"Canada","id":"a6axykhs176p","geo_precision":"zip","tags traced":1},"type":"Feature","geometry":{"type":"Point","coordinates":[-93.683728262,51.066757638]}},{"properties":{"city":"Belvidere","geo_score":0.984,"country":"Canada","id":"a6axykskx0mu","geo_precision":"zip","tags traced":1},"type":"Feature","geometry":{"type":"Point","coordinates":[-113.435345387,53.600137803]}},{"properties":{"city":"Bennington","geo_score":1.0,"country":"Canada","id":"a6axykm9ebjk","geo_precision":"zip","tags traced":1},"type":"Feature","geometry":{"type":"Point","coordinates":[-80.949722624,43.200090869]}},{"properties":{"city":"Bergen","geo_score":1.0,"country":"Norway","id":"a6axykljh0xx","geo_precision":"zip","tags traced":5},"type":"Feature","geometry":{"type":"Point","coordinates":[5.40643754670042,60.4069568500627]}},{"properties":{"city":"Biloxi","geo_score":0.0,"country":"Canada","id":"a6axyko49os6","geo_precision":"unmatched","tags traced":2},"type":"Feature","geometry":null},{"properties":{"city":"Birmingham","geo_score":0.901,"country":"Canada","id":"a6axyko8auyo","geo_precision":"zip","tags traced":1},"type":"Feature","geometry":{"type":"Point","coordinates":[-114.018636849,49.11663512]}},{"properties":{"city":"Bladensburg","geo_score":1.0,"country":"United States","id":"a6axyksdmlkk","geo_precision":"zip","tags traced":2},"type":"Feature","geometry":{"type":"Point","coordinates":[-76.9338631,38.9392779]}},{"properties":{"city":"Bloemendaal","geo_score":1.0,"country":"Netherlands","id":"a6axykk5e6bj","geo_precision":"zip","tags traced":1},"type":"Feature","geometry":{"type":"Point","coordinates":[4.622222,52.4025]}},{"properties":{"city":"Bloomfield","geo_score":0.933,"country":"Canada","id":"a6axykdx4v8t","geo_precision":"zip","tags traced":1},"type":"Feature","geometry":{"type":"Point","coordinates":[-78.316235942,44.716819683]}},{"properties":{"city":"Boca Raton","geo_score":0.905,"country":"Canada","id":"a6axykiiwy49","geo_precision":"zip","tags traced":4},"type":"Feature","geometry":{"type":"Point","coordinates":[-73.715874466,46.050073531]}},{"properties":{"city":"Boechout","geo_score":1.0,"country":"Belgium","id":"a6axykhwmhr4","geo_precision":"zip","tags traced":2},"type":"Feature","geometry":{"type":"Point","coordinates":[4.5,51.1666667]}},{"properties":{"city":"Boisbriand","geo_score":1.0,"country":"Canada","id":"a6axykmax1r3","geo_precision":"zip","tags traced":2},"type":"Feature","geometry":{"type":"Point","coordinates":[-73.832489524,45.616779144]}},{"properties":{"city":"Bombay","geo_score":0.786,"country":"Indian","id":"a6axyktc2fv0","geo_precision":"zip","tags traced":1},"type":"Feature","geometry":{"type":"Point","coordinates":[18.55,4.3]}},{"properties":{"city":"Bonita Springs","geo_score":0.868,"country":"United States","id":"a6axykf68edp","geo_precision":"zip","tags traced":1},"type":"Feature","geometry":{"type":"Point","coordinates":[-115.2450006,36.1080258]}},{"properties":{"city":"Borgerhout","geo_score":0.986,"country":"Belgium","id":"a6axykl3006l","geo_precision":"zip","tags traced":7},"type":"Feature","geometry":{"type":"Point","coordinates":[4.3,51.1333333]}},{"properties":{"city":"Boston","geo_score":1.0,"country":"United States","id":"a6axyklen6nc","geo_precision":"zip","tags traced":16},"type":"Feature","geometry":{"type":"Point","coordinates":[-71.0597732,42.3584308]}},{"properties":{"city":"Braintree","geo_score":1.0,"country":"United States","id":"a6axyks1u5bq","geo_precision":"zip","tags traced":1},"type":"Feature","geometry":{"type":"Point","coordinates":[-70.999492,42.2223218]}},{"properties":{"city":"Brakel","geo_score":0.929,"country":"United States","id":"a6axyklpmf02","geo_precision":"zip","tags traced":1},"type":"Feature","geometry":{"type":"Point","coordinates":[-122.272747,37.8715926]}},{"properties":{"city":"Brick","geo_score":0.971,"country":"United States","id":"a6axyku31uwp","geo_precision":"zip","tags traced":3},"type":"Feature","geometry":{"type":"Point","coordinates":[-95.9594476,40.4800008]}},{"properties":{"city":"Bridgeport","geo_score":1.0,"country":"United States","id":"a6axykm9xsui","geo_precision":"zip","tags traced":3},"type":"Feature","geometry":{"type":"Point","coordinates":[-73.2048348,41.1670412]}},{"properties":{"city":"Bridgewater","geo_score":1.0,"country":"Canada","id":"a6axykf7piic","geo_precision":"zip","tags traced":9},"type":"Feature","geometry":{"type":"Point","coordinates":[-64.515463197,44.383454239]}},{"properties":{"city":"Brielle","geo_score":0.918,"country":"United States","id":"a6axyknoobpg","geo_precision":"zip","tags traced":1},"type":"Feature","geometry":{"type":"Point","coordinates":[-115.530267,32.9786566]}},{"properties":{"city":"Brighton","geo_score":1.0,"country":"United States","id":"a6axykiyo3w8","geo_precision":"zip","tags traced":2},"type":"Feature","geometry":{"type":"Point","coordinates":[-77.5505543,43.1475626]}},{"properties":{"city":"Brisbane","geo_score":1.0,"country":"United States","id":"a6axyknllqh2","geo_precision":"zip","tags traced":1},"type":"Feature","geometry":{"type":"Point","coordinates":[-122.3999715,37.6807661]}},{"properties":{"city":"Bristol","geo_score":0.934,"country":"United States","id":"a6axyktq2a1q","geo_precision":"zip","tags traced":1},"type":"Feature","geometry":{"type":"Point","coordinates":[-71.1661579,41.8334345]}},{"properties":{"city":"Brockton","geo_score":0.929,"country":"Canada","id":"a6axykr6fufi","geo_precision":"zip","tags traced":4},"type":"Feature","geometry":{"type":"Point","coordinates":[-123.274820751,48.778845192]}},{"properties":{"city":"Brookline Village","geo_score":0.92,"country":"United States","id":"a6axyklz43ai","geo_precision":"zip","tags traced":1},"type":"Feature","geometry":{"type":"Point","coordinates":[-73.9495823,40.6501038]}},{"properties":{"city":"Broward County","geo_score":1.0,"country":"United States","id":"a6axykstab2d","geo_precision":"zip","tags traced":1},"type":"Feature","geometry":{"type":"Point","coordinates":[-80.48311,26.1503636]}},{"properties":{"city":"Brownwood","geo_score":1.0,"country":"United States","id":"a6axykic4dku","geo_precision":"zip","tags traced":3},"type":"Feature","geometry":{"type":"Point","coordinates":[-98.9911611,31.7093197]}},{"properties":{"city":"Brugge","geo_score":1.0,"country":"Belgium","id":"a6axykek8x1w","geo_precision":"zip","tags traced":10},"type":"Feature","geometry":{"type":"Point","coordinates":[3.22500228881836,51.2097870885244]}},{"properties":{"city":"Brunswick","geo_score":0.943,"country":"United States","id":"a6axykiuyhhv","geo_precision":"zip","tags traced":1},"type":"Feature","geometry":{"type":"Point","coordinates":[-78.2663883,34.0668378]}},{"properties":{"city":"Brussels","geo_score":1.0,"country":"Belgium","id":"a6axykjidb52","geo_precision":"zip","tags traced":9},"type":"Feature","geometry":{"type":"Point","coordinates":[4.35277462005615,50.8465974826927]}},{"properties":{"city":"Buffalo","geo_score":1.0,"country":"United States","id":"a6axykdyb5tz","geo_precision":"zip","tags traced":1},"type":"Feature","geometry":{"type":"Point","coordinates":[-78.8783689,42.8864468]}},{"properties":{"city":"Burlington","geo_score":0.946,"country":"United States","id":"a6axykpui76u","geo_precision":"zip","tags traced":2},"type":"Feature","geometry":{"type":"Point","coordinates":[-74.6412678,39.8834489]}},{"properties":{"city":"Burnaby","geo_score":0.939,"country":"Canada","id":"a6axyknp83r9","geo_precision":"zip","tags traced":12},"type":"Feature","geometry":{"type":"Point","coordinates":[-79.582935156,45.166799906]}},{"properties":{"city":"Caldwell","geo_score":0.939,"country":"United States","id":"a6axyknpp0k2","geo_precision":"zip","tags traced":2},"type":"Feature","geometry":{"type":"Point","coordinates":[-81.5498193,35.9501306]}},{"properties":{"city":"Calgary","geo_score":1.0,"country":"Canada","id":"a6axyknvjcfz","geo_precision":"zip","tags traced":4},"type":"Feature","geometry":{"type":"Point","coordinates":[-114.085285152,51.050112282]}},{"properties":{"city":"Cambridge","geo_score":0.857,"country":"United Stats","id":"a6axyktgld41","geo_precision":"zip","tags traced":8},"type":"Feature","geometry":{"type":"Point","coordinates":[0.1166667,52.2]}},{"properties":{"city":"Campbellford","geo_score":0.945,"country":"Canada","id":"a6axykl4g2ef","geo_precision":"zip","tags traced":2},"type":"Feature","geometry":{"type":"Point","coordinates":[-125.244587583,50.016339312]}},{"properties":{"city":"Cape May","geo_score":0.918,"country":"United States","id":"a6axykf9tfs2","geo_precision":"zip","tags traced":2},"type":"Feature","geometry":{"type":"Point","coordinates":[-159.3219444,22.0783333]}},{"properties":{"city":"Cape Town","geo_score":1.0,"country":"South Africa","id":"a6axykq73yr4","geo_precision":"zip","tags traced":1},"type":"Feature","geometry":{"type":"Point","coordinates":[18.4166667,-33.9166667]}},{"properties":{"city":"Carmel","geo_score":1.0,"country":"United States","id":"a6axykfacr46","geo_precision":"zip","tags traced":2},"type":"Feature","geometry":{"type":"Point","coordinates":[-86.1180435,39.9783711]}},{"properties":{"city":"Carson","geo_score":1.0,"country":"United States","id":"a6axykp4tetr","geo_precision":"zip","tags traced":1},"type":"Feature","geometry":{"type":"Point","coordinates":[-118.2820165,33.8314058]}},{"properties":{"city":"Chambly","geo_score":1.0,"country":"Canada","id":"a6axykl6nk94","geo_precision":"zip","tags traced":3},"type":"Feature","geometry":{"type":"Point","coordinates":[-73.282456268,45.450078548]}},{"properties":{"city":"Charlesbourg","geo_score":0.952,"country":"United States","id":"a6axyko8rro3","geo_precision":"zip","tags traced":1},"type":"Feature","geometry":{"type":"Point","coordinates":[-77.8741635,40.2978576]}},{"properties":{"city":"Charleston","geo_score":0.946,"country":"United States","id":"a6axykqba25s","geo_precision":"zip","tags traced":1},"type":"Feature","geometry":{"type":"Point","coordinates":[-79.966479,32.7668437]}},{"properties":{"city":"Charlotte","geo_score":1.0,"country":"United States","id":"a6axyksk6xi2","geo_precision":"zip","tags traced":5},"type":"Feature","geometry":{"type":"Point","coordinates":[-80.8431268,35.2270869]}},{"properties":{"city":"Charlottetown","geo_score":1.0,"country":"Canada","id":"a6axykh598s7","geo_precision":"zip","tags traced":24},"type":"Feature","geometry":{"type":"Point","coordinates":[-63.1267118453979,46.2352496418139]}},{"properties":{"city":"Chatham","geo_score":1.0,"country":"Canada","id":"a6axykeeeeyr","geo_precision":"zip","tags traced":2},"type":"Feature","geometry":{"type":"Point","coordinates":[-82.184944152832,42.4122410726889]}},{"properties":{"city":"Cherry Hill","geo_score":0.871,"country":"United States","id":"a6axykll0wmm","geo_precision":"zip","tags traced":1},"type":"Feature","geometry":{"type":"Point","coordinates":[-80.2781057,25.8575963]}},{"properties":{"city":"Chester","geo_score":1.0,"country":"Canada","id":"a6axyktpzuk8","geo_precision":"zip","tags traced":1},"type":"Feature","geometry":{"type":"Point","coordinates":[-64.248742538,44.55015292]}},{"properties":{"city":"Chiba","geo_score":1.0,"country":"Japan","id":"a6axykn9pdzw","geo_precision":"zip","tags traced":1},"type":"Feature","geometry":{"type":"Point","coordinates":[140.1166667,35.6]}},{"properties":{"city":"Chicago","geo_score":1.0,"country":"United States","id":"a6axykfbndw4","geo_precision":"zip","tags traced":1},"type":"Feature","geometry":{"type":"Point","coordinates":[-87.6500523,41.850033]}},{"properties":{"city":"Chu-Nan","geo_score":0.911,"country":"Japan","id":"a6axykew6bzj","geo_precision":"zip","tags traced":9},"type":"Feature","geometry":{"type":"Point","coordinates":[138.15,36.5833333]}},{"properties":{"city":"Clinton","geo_score":1.0,"country":"United States","id":"a6axyktde1n5","geo_precision":"zip","tags traced":2},"type":"Feature","geometry":{"type":"Point","coordinates":[-82.9199212,42.5869787]}},{"properties":{"city":"Colts Neck","geo_score":0.889,"country":"United States","id":"a6axykr35lh6","geo_precision":"zip","tags traced":1},"type":"Feature","geometry":{"type":"Point","coordinates":[-80.3822765,25.5626072]}},{"properties":{"city":"Concord","geo_score":1.0,"country":"United States","id":"a6axyke1dlwf","geo_precision":"zip","tags traced":6},"type":"Feature","geometry":{"type":"Point","coordinates":[-122.0310733,37.9779777]}},{"properties":{"city":"Coos Bay","geo_score":1.0,"country":"United States","id":"a6axykdq98lf","geo_precision":"zip","tags traced":1},"type":"Feature","geometry":{"type":"Point","coordinates":[-124.2178903,43.3665007]}},{"properties":{"city":"Copiague","geo_score":0.857,"country":null,"id":"a6axyklbw6xo","geo_precision":"zip","tags traced":2},"type":"Feature","geometry":{"type":"Point","coordinates":[-73.3998445,40.6814892]}},{"properties":{"city":"Corner Brook","geo_score":1.0,"country":"Canada","id":"a6axyksb9wo5","geo_precision":"zip","tags traced":40},"type":"Feature","geometry":{"type":"Point","coordinates":[-57.948401883,48.966706851]}},{"properties":{"city":"Courtenay","geo_score":1.0,"country":"Canada","id":"a6axyktvrdrj","geo_precision":"zip","tags traced":1},"type":"Feature","geometry":{"type":"Point","coordinates":[-124.986133243,49.682941089]}},{"properties":{"city":"Covington","geo_score":1.0,"country":"United States","id":"a6axykq4ikvh","geo_precision":"zip","tags traced":1},"type":"Feature","geometry":{"type":"Point","coordinates":[-84.5085537,39.0836712]}},{"properties":{"city":"Cran-Gevrier","geo_score":1.0,"country":"France","id":"a6axykkdjtdz","geo_precision":"zip","tags traced":1},"type":"Feature","geometry":{"type":"Point","coordinates":[6.1,45.9]}},{"properties":{"city":"Cumberland","geo_score":0.804,"country":null,"id":"a6axykmoyc8g","geo_precision":"zip","tags traced":2},"type":"Feature","geometry":{"type":"Point","coordinates":[-78.8664137,35.0501642]}},{"properties":{"city":"Dahlonega","geo_score":0.762,"country":null,"id":"a6axykig6iys","geo_precision":"zip","tags traced":1},"type":"Feature","geometry":{"type":"Point","coordinates":[123.8413889,42.2930556]}},{"properties":{"city":"Danvers","geo_score":0.857,"country":null,"id":"a6axykis8q2b","geo_precision":"zip","tags traced":1},"type":"Feature","geometry":{"type":"Point","coordinates":[-70.9300507,42.5750946]}},{"properties":{"city":"Dartmouth","geo_score":1.0,"country":"Canada","id":"a6axykedfstq","geo_precision":"zip","tags traced":65},"type":"Feature","geometry":{"type":"Point","coordinates":[-63.5771942138672,44.6713386329532]}},{"properties":{"city":"Dawsonville","geo_score":0.743,"country":null,"id":"a6axykt4r9zw","geo_precision":"zip","tags traced":1},"type":"Feature","geometry":{"type":"Point","coordinates":[10.199786,44.520557]}},{"properties":{"city":"Daytona Beach","geo_score":0.929,"country":"United States","id":"a6axykptbq6y","geo_precision":"zip","tags traced":1},"type":"Feature","geometry":{"type":"Point","coordinates":[-84.1916069,39.7589478]}},{"properties":{"city":"Deer Park","geo_score":0.732,"country":null,"id":"a6axykhg6wj0","geo_precision":"zip","tags traced":1},"type":"Feature","geometry":{"type":"Point","coordinates":[2.6166667,9.35]}},{"properties":{"city":"Deinze","geo_score":1.0,"country":"Belgium","id":"a6axyknvt18q","geo_precision":"zip","tags traced":4},"type":"Feature","geometry":{"type":"Point","coordinates":[3.5333333,50.9833333]}},{"properties":{"city":"Delhi","geo_score":0.857,"country":"Indian","id":"a6axyksfnqp0","geo_precision":"zip","tags traced":1},"type":"Feature","geometry":{"type":"Point","coordinates":[77.2166667,28.6666667]}},{"properties":{"city":"Den Helder","geo_score":1.0,"country":"Netherlands","id":"a6axykmmlbzl","geo_precision":"zip","tags traced":2},"type":"Feature","geometry":{"type":"Point","coordinates":[4.759722,52.953333]}},{"properties":{"city":"Dendermonde","geo_score":0.857,"country":null,"id":"a6axykri6z6h","geo_precision":"zip","tags traced":1},"type":"Feature","geometry":{"type":"Point","coordinates":[4.1166667,51.0333333]}},{"properties":{"city":"Denton","geo_score":0.776,"country":null,"id":"a6axyku2rcab","geo_precision":"zip","tags traced":1},"type":"Feature","geometry":{"type":"Point","coordinates":[170.503612160683,-45.8741594858349]}},{"properties":{"city":"Denver","geo_score":0.857,"country":null,"id":"a6axykin9cc2","geo_precision":"zip","tags traced":1},"type":"Feature","geometry":{"type":"Point","coordinates":[-104.9847034,39.7391536]}},{"properties":{"city":"Derry","geo_score":0.743,"country":null,"id":"a6axyks1fl21","geo_precision":"zip","tags traced":1},"type":"Feature","geometry":{"type":"Point","coordinates":[35.1938889,33.2733333]}},{"properties":{"city":"Deurne","geo_score":0.905,"country":"Netherlands","id":"a6axykhqk20w","geo_precision":"zip","tags traced":1},"type":"Feature","geometry":{"type":"Point","coordinates":[6.1,52.0525]}},{"properties":{"city":"Digby","geo_score":1.0,"country":"Canada","id":"a6axykta1qgs","geo_precision":"zip","tags traced":20},"type":"Feature","geometry":{"type":"Point","coordinates":[-65.7655496,44.616849669]}},{"properties":{"city":"Diksmuide","geo_score":0.857,"country":null,"id":"a6axykiqgmlj","geo_precision":"zip","tags traced":1},"type":"Feature","geometry":{"type":"Point","coordinates":[2.8666667,51.0333333]}},{"properties":{"city":"Don Mills","geo_score":0.875,"country":"Canada","id":"a6axykpnv4bp","geo_precision":"zip","tags traced":1},"type":"Feature","geometry":{"type":"Point","coordinates":[-79.23293294,45.416803543]}},{"properties":{"city":"Dordrecht","geo_score":0.857,"country":null,"id":"a6axykn377cf","geo_precision":"zip","tags traced":2},"type":"Feature","geometry":{"type":"Point","coordinates":[4.673611,51.81]}},{"properties":{"city":"Dorval","geo_score":0.922,"country":"Canada","id":"a6axykf52aqg","geo_precision":"zip","tags traced":1},"type":"Feature","geometry":{"type":"Point","coordinates":[-73.212751229,45.06338194]}},{"properties":{"city":"Douglas","geo_score":1.0,"country":"United States","id":"a6axykgckpc4","geo_precision":"zip","tags traced":2},"type":"Feature","geometry":{"type":"Point","coordinates":[-109.5453447,31.3445471]}},{"properties":{"city":"Douglasville","geo_score":0.857,"country":null,"id":"a6axykmm1al2","geo_precision":"zip","tags traced":1},"type":"Feature","geometry":{"type":"Point","coordinates":[-84.7477136,33.7514966]}},{"properties":{"city":"Dover","geo_score":0.8,"country":null,"id":"a6axyknkoym7","geo_precision":"zip","tags traced":5},"type":"Feature","geometry":{"type":"Point","coordinates":[35.8930556,56.8619444]}},{"properties":{"city":"Duncan","geo_score":1.0,"country":"Canada","id":"a6axykp6px23","geo_precision":"zip","tags traced":3},"type":"Feature","geometry":{"type":"Point","coordinates":[-123.702660212,48.782931187]}},{"properties":{"city":"Dunn Loring","geo_score":0.729,"country":null,"id":"a6axyksnhwsh","geo_precision":"zip","tags traced":1},"type":"Feature","geometry":{"type":"Point","coordinates":[117.12,36.1852778]}},{"properties":{"city":"Duvernay","geo_score":0.804,"country":null,"id":"a6axyknzc1hk","geo_precision":"zip","tags traced":1},"type":"Feature","geometry":{"type":"Point","coordinates":[2.2166667,49.0333333]}},{"properties":{"city":"East Hampton","geo_score":0.736,"country":null,"id":"a6axykhl6m7x","geo_precision":"zip","tags traced":1},"type":"Feature","geometry":{"type":"Point","coordinates":[-72.5828665,42.1667596]}},{"properties":{"city":"East Haven","geo_score":0.762,"country":null,"id":"a6axykkv2zjm","geo_precision":"zip","tags traced":1},"type":"Feature","geometry":{"type":"Point","coordinates":[-82.3641667,23.1319444]}},{"properties":{"city":"East Orange","geo_score":0.8,"country":null,"id":"a6axykf67kzc","geo_precision":"zip","tags traced":2},"type":"Feature","geometry":{"type":"Point","coordinates":[-117.8531119,33.7877945]}},{"properties":{"city":"East Syracuse","geo_score":0.952,"country":"United States","id":"a6axykisztvh","geo_precision":"zip","tags traced":2},"type":"Feature","geometry":{"type":"Point","coordinates":[-76.1474244,43.0481221]}},{"properties":{"city":"Edgewater","geo_score":0.857,"country":null,"id":"a6axykrsrj7c","geo_precision":"zip","tags traced":1},"type":"Feature","geometry":{"type":"Point","coordinates":[-80.9022758,28.9888754]}},{"properties":{"city":"Edmonton","geo_score":0.857,"country":null,"id":"a6axyke7pyz8","geo_precision":"zip","tags traced":3},"type":"Feature","geometry":{"type":"Point","coordinates":[-113.468712219,53.550135939]}},{"properties":{"city":"Egg Harbor City","geo_score":0.736,"country":null,"id":"a6axykm05nrz","geo_precision":"zip","tags traced":1},"type":"Feature","geometry":{"type":"Point","coordinates":[135.515670776367,34.7614289625356]}},{"properties":{"city":"Egg Harbor Township","geo_score":0.748,"country":null,"id":"a6axykmg0qqx","geo_precision":"zip","tags traced":3},"type":"Feature","geometry":{"type":"Point","coordinates":[-1.56014442443848,53.6605093081097]}},{"properties":{"city":"Elk Grove","geo_score":0.786,"country":null,"id":"a6axykrzvshm","geo_precision":"zip","tags traced":1},"type":"Feature","geometry":{"type":"Point","coordinates":[49.6583333,58.5969444]}},{"properties":{"city":"Ellsworth","geo_score":0.8,"country":null,"id":"a6axyknjj7ac","geo_precision":"zip","tags traced":1},"type":"Feature","geometry":{"type":"Point","coordinates":[-98.2003342,38.700009]}},{"properties":{"city":"Elmhurst","geo_score":0.857,"country":null,"id":"a6axykm2do23","geo_precision":"zip","tags traced":1},"type":"Feature","geometry":{"type":"Point","coordinates":[-87.9403418,41.8994745]}},{"properties":{"city":"Enkhuizen","geo_score":0.857,"country":null,"id":"a6axykkib37p","geo_precision":"zip","tags traced":1},"type":"Feature","geometry":{"type":"Point","coordinates":[5.291667,52.703333]}},{"properties":{"city":"Enschede","geo_score":0.857,"country":null,"id":"a6axykkgflk2","geo_precision":"zip","tags traced":1},"type":"Feature","geometry":{"type":"Point","coordinates":[6.895833,52.218333]}},{"properties":{"city":"Exeter","geo_score":0.857,"country":null,"id":"a6axykfom9zz","geo_precision":"zip","tags traced":1},"type":"Feature","geometry":{"type":"Point","coordinates":[-3.52750718593597,50.7235979104432]}},{"properties":{"city":"Fair Haven","geo_score":0.762,"country":null,"id":"a6axykhz0s05","geo_precision":"zip","tags traced":1},"type":"Feature","geometry":{"type":"Point","coordinates":[-82.3641667,23.1319444]}},{"properties":{"city":"Fairfax","geo_score":0.857,"country":null,"id":"a6axykqiw8h9","geo_precision":"zip","tags traced":2},"type":"Feature","geometry":{"type":"Point","coordinates":[-77.3063733,38.8462236]}},{"properties":{"city":"Fairless Hills","geo_score":1.0,"country":"United States","id":"a6axykmnlf9d","geo_precision":"zip","tags traced":1},"type":"Feature","geometry":{"type":"Point","coordinates":[-74.8551644,40.1795537]}},{"properties":{"city":"Farmington","geo_score":0.81,"country":null,"id":"a6axykfdzcwg","geo_precision":"zip","tags traced":8},"type":"Feature","geometry":{"type":"Point","coordinates":[-83.3771553,42.4853125]}},{"properties":{"city":"Fayetteville","geo_score":0.857,"country":null,"id":"a6axykg65js9","geo_precision":"zip","tags traced":1},"type":"Feature","geometry":{"type":"Point","coordinates":[-78.8783585,35.0526641]}},{"properties":{"city":"Feeding Hills","geo_score":0.774,"country":null,"id":"a6axykpecz4q","geo_precision":"zip","tags traced":1},"type":"Feature","geometry":{"type":"Point","coordinates":[120.2163889,27.3347222]}},{"properties":{"city":"Fitchburg","geo_score":0.857,"country":null,"id":"a6axyksrogsb","geo_precision":"zip","tags traced":2},"type":"Feature","geometry":{"type":"Point","coordinates":[-71.8022956,42.5834228]}},{"properties":{"city":"Flanders","geo_score":0.762,"country":null,"id":"a6axykqjhbdu","geo_precision":"zip","tags traced":1},"type":"Feature","geometry":{"type":"Point","coordinates":[26.1333333,44.4666667]}},{"properties":{"city":"Flint","geo_score":0.857,"country":null,"id":"a6axykpw1rr8","geo_precision":"zip","tags traced":1},"type":"Feature","geometry":{"type":"Point","coordinates":[-83.6874562,43.0125274]}},{"properties":{"city":"Flushing","geo_score":0.857,"country":null,"id":"a6axyku0lmds","geo_precision":"zip","tags traced":1},"type":"Feature","geometry":{"type":"Point","coordinates":[-83.8510732,43.0630834]}},{"properties":{"city":"Forked River","geo_score":0.753,"country":null,"id":"a6axykljdzph","geo_precision":"zip","tags traced":1},"type":"Feature","geometry":{"type":"Point","coordinates":[64.0,67.5]}},{"properties":{"city":"Francois","geo_score":0.756,"country":null,"id":"a6axykqz90a6","geo_precision":"zip","tags traced":7},"type":"Feature","geometry":{"type":"Point","coordinates":[8.8586111,49.7461111]}},{"properties":{"city":"Frankfurt am Main","geo_score":0.743,"country":null,"id":"a6axykfcdqfy","geo_precision":"zip","tags traced":1},"type":"Feature","geometry":{"type":"Point","coordinates":[-69.2497714,45.5003249]}},{"properties":{"city":"Franklin","geo_score":0.796,"country":null,"id":"a6axyktqvmhr","geo_precision":"zip","tags traced":1},"type":"Feature","geometry":{"type":"Point","coordinates":[-83.0165727,39.966731]}},{"properties":{"city":"Fredericton","geo_score":0.81,"country":null,"id":"a6axykis7s1r","geo_precision":"zip","tags traced":11},"type":"Feature","geometry":{"type":"Point","coordinates":[-77.3997072,39.4667683]}},{"properties":{"city":"Ft Lauderdale","geo_score":0.786,"country":null,"id":"a6axyklrds0s","geo_precision":"zip","tags traced":2},"type":"Feature","geometry":{"type":"Point","coordinates":[-87.63336,34.9000855]}},{"properties":{"city":"Ft Lee","geo_score":0.914,"country":"United States","id":"a6axykhy28zz","geo_precision":"zip","tags traced":4},"type":"Feature","geometry":{"type":"Point","coordinates":[-96.5388789,33.0151201]}},{"properties":{"city":"Ft Mcmurray","geo_score":0.714,"country":null,"id":"a6axykqnu0zs","geo_precision":"zip","tags traced":2},"type":"Feature","geometry":{"type":"Point","coordinates":[74.55,17.2833333]}},{"properties":{"city":"Ft Myers","geo_score":0.735,"country":null,"id":"a6axykgo4os1","geo_precision":"zip","tags traced":1},"type":"Feature","geometry":{"type":"Point","coordinates":[74.55,17.2833333]}},{"properties":{"city":"Fulton","geo_score":0.776,"country":null,"id":"a6axykotm1va","geo_precision":"zip","tags traced":1},"type":"Feature","geometry":{"type":"Point","coordinates":[74.4333333,17.9833333]}},{"properties":{"city":"Gander","geo_score":0.755,"country":null,"id":"a6axyksz4vpv","geo_precision":"zip","tags traced":7},"type":"Feature","geometry":{"type":"Point","coordinates":[-6.3333333,34.5833333]}},{"properties":{"city":"Garfield","geo_score":0.75,"country":null,"id":"a6axykdppp7j","geo_precision":"zip","tags traced":3},"type":"Feature","geometry":{"type":"Point","coordinates":[6.54956666666667,51.3515666666667]}},{"properties":{"city":"Gaspe","geo_score":1.0,"country":"Canada","id":"a6axykf4imba","geo_precision":"zip","tags traced":6},"type":"Feature","geometry":{"type":"Point","coordinates":[-64.481944809,48.833413735]}},{"properties":{"city":"Gatineau","geo_score":0.768,"country":null,"id":"a6axykkmg3e3","geo_precision":"zip","tags traced":2},"type":"Feature","geometry":{"type":"Point","coordinates":[7.4402778,10.5230556]}},{"properties":{"city":"Gent","geo_score":1.0,"country":"Belgium","id":"a6axykdtq64i","geo_precision":"zip","tags traced":36},"type":"Feature","geometry":{"type":"Point","coordinates":[3.7166667,51.05]}},{"properties":{"city":"Georgetown","geo_score":0.857,"country":null,"id":"a6axykea5au1","geo_precision":"zip","tags traced":1},"type":"Feature","geometry":{"type":"Point","coordinates":[-58.1666667,6.8]}},{"properties":{"city":"Gerona","geo_score":0.81,"country":null,"id":"a6axykiw5t18","geo_precision":"zip","tags traced":4},"type":"Feature","geometry":{"type":"Point","coordinates":[-73.1730556,7.0708333]}},{"properties":{"city":"Gistel","geo_score":0.857,"country":null,"id":"a6axyks1lvr8","geo_precision":"zip","tags traced":1},"type":"Feature","geometry":{"type":"Point","coordinates":[2.95,51.1666667]}},{"properties":{"city":"Glens Falls","geo_score":0.743,"country":null,"id":"a6axykqj2l90","geo_precision":"zip","tags traced":2},"type":"Feature","geometry":{"type":"Point","coordinates":[22.9458333,39.3666667]}},{"properties":{"city":"Goes","geo_score":1.0,"country":"Netherlands","id":"a6axykohkmqp","geo_precision":"zip","tags traced":6},"type":"Feature","geometry":{"type":"Point","coordinates":[3.888889,51.504167]}},{"properties":{"city":"Grand Falls","geo_score":0.786,"country":null,"id":"a6axykij3jmh","geo_precision":"zip","tags traced":1},"type":"Feature","geometry":{"type":"Point","coordinates":[-3.60666990280151,37.1881683871318]}},{"properties":{"city":"Granville","geo_score":1.0,"country":"France","id":"a6axykng1xdc","geo_precision":"zip","tags traced":1},"type":"Feature","geometry":{"type":"Point","coordinates":[-1.59713745117188,48.8379159955123]}},{"properties":{"city":"Greensboro","geo_score":1.0,"country":"United States","id":"a6axykf4ivpk","geo_precision":"zip","tags traced":1},"type":"Feature","geometry":{"type":"Point","coordinates":[-79.7919754,36.0726355]}},{"properties":{"city":"Groningen","geo_score":1.0,"country":"Netherlands","id":"a6axykpwws39","geo_precision":"zip","tags traced":3},"type":"Feature","geometry":{"type":"Point","coordinates":[6.566667,53.219167]}},{"properties":{"city":"Groton","geo_score":0.755,"country":null,"id":"a6axykky2sm5","geo_precision":"zip","tags traced":1},"type":"Feature","geometry":{"type":"Point","coordinates":[-118.3089624,33.8883487]}},{"properties":{"city":"Gulfport","geo_score":0.857,"country":null,"id":"a6axykiouva5","geo_precision":"zip","tags traced":1},"type":"Feature","geometry":{"type":"Point","coordinates":[-89.0928155,30.3674198]}},{"properties":{"city":"Gummersbach","geo_score":0.955,"country":"Germany","id":"a6axykhsytqs","geo_precision":"zip","tags traced":2},"type":"Feature","geometry":{"type":"Point","coordinates":[7.5724,51.0143]}},{"properties":{"city":"Haarlem","geo_score":1.0,"country":"Netherlands","id":"a6axykeq2h9l","geo_precision":"zip","tags traced":2},"type":"Feature","geometry":{"type":"Point","coordinates":[4.63683128356934,52.3808386793563]}},{"properties":{"city":"Haddonfield","geo_score":0.857,"country":null,"id":"a6axykrp75sb","geo_precision":"zip","tags traced":1},"type":"Feature","geometry":{"type":"Point","coordinates":[-75.0376707,39.8915022]}},{"properties":{"city":"Hage","geo_score":0.964,"country":"Belgium","id":"a6axykfbvu4o","geo_precision":"zip","tags traced":3},"type":"Feature","geometry":{"type":"Point","coordinates":[3.0833333,51.0833333]}},{"properties":{"city":"Halifax","geo_score":1.0,"country":"Canada","id":"a6axykhdgxjh","geo_precision":"zip","tags traced":528},"type":"Feature","geometry":{"type":"Point","coordinates":[-63.5723876953125,44.6453303558448]}},{"properties":{"city":"Hamar","geo_score":0.8,"country":null,"id":"a6axykquxf0v","geo_precision":"zip","tags traced":1},"type":"Feature","geometry":{"type":"Point","coordinates":[7.7666667,51.3833333]}},{"properties":{"city":"Hamilton","geo_score":1.0,"country":"Canada","id":"a6axykpjlkbl","geo_precision":"zip","tags traced":2},"type":"Feature","geometry":{"type":"Point","coordinates":[-79.949639869,43.233408354]}},{"properties":{"city":"Hamme","geo_score":1.0,"country":"Belgium","id":"a6axykp9359x","geo_precision":"zip","tags traced":2},"type":"Feature","geometry":{"type":"Point","coordinates":[4.1333333,51.1]}},{"properties":{"city":"Hammond","geo_score":0.857,"country":null,"id":"a6axykfj7coq","geo_precision":"zip","tags traced":1},"type":"Feature","geometry":{"type":"Point","coordinates":[-87.5000412,41.5833688]}},{"properties":{"city":"Hanover","geo_score":0.982,"country":"Germany","id":"a6axykjxlv4v","geo_precision":"zip","tags traced":3},"type":"Feature","geometry":{"type":"Point","coordinates":[9.73322153091431,52.3705162650448]}},{"properties":{"city":"Hartford","geo_score":0.796,"country":null,"id":"a6axykj3lqgh","geo_precision":"zip","tags traced":5},"type":"Feature","geometry":{"type":"Point","coordinates":[-72.7662075,41.7667668]}},{"properties":{"city":"Hasselt","geo_score":1.0,"country":"Belgium","id":"a6axykohyknq","geo_precision":"zip","tags traced":2},"type":"Feature","geometry":{"type":"Point","coordinates":[5.3333333,50.9333333]}},{"properties":{"city":"Haverhill","geo_score":0.857,"country":null,"id":"a6axykqg9e3k","geo_precision":"zip","tags traced":1},"type":"Feature","geometry":{"type":"Point","coordinates":[-71.0772796,42.7762015]}},{"properties":{"city":"Heemstede","geo_score":1.0,"country":"Netherlands","id":"a6axykhvugty","geo_precision":"zip","tags traced":1},"type":"Feature","geometry":{"type":"Point","coordinates":[4.620833,52.345833]}},{"properties":{"city":"Heerlen","geo_score":0.857,"country":null,"id":"a6axykpbp0f8","geo_precision":"zip","tags traced":1},"type":"Feature","geometry":{"type":"Point","coordinates":[5.98154067993164,50.883651041327]}},{"properties":{"city":"Heule","geo_score":0.8,"country":null,"id":"a6axyki6radq","geo_precision":"zip","tags traced":2},"type":"Feature","geometry":{"type":"Point","coordinates":[12.0,51.5]}},{"properties":{"city":"Hialeah","geo_score":0.776,"country":null,"id":"a6axykfi5393","geo_precision":"zip","tags traced":1},"type":"Feature","geometry":{"type":"Point","coordinates":[12.0,51.5]}},{"properties":{"city":"Hicksville","geo_score":0.857,"country":null,"id":"a6axyklyysjb","geo_precision":"zip","tags traced":1},"type":"Feature","geometry":{"type":"Point","coordinates":[-73.5251253,40.7684331]}},{"properties":{"city":"Hilton Head Island","geo_score":0.741,"country":null,"id":"a6axyklx46c5","geo_precision":"zip","tags traced":1},"type":"Feature","geometry":{"type":"Point","coordinates":[120.2516667,33.7680556]}},{"properties":{"city":"Hinckley","geo_score":0.857,"country":null,"id":"a6axykkqazrr","geo_precision":"zip","tags traced":1},"type":"Feature","geometry":{"type":"Point","coordinates":[-1.3666667,52.5333333]}},{"properties":{"city":"Hoboken","geo_score":0.857,"country":null,"id":"a6axykpjsmdo","geo_precision":"zip","tags traced":1},"type":"Feature","geometry":{"type":"Point","coordinates":[-74.0323626,40.7439906]}},{"properties":{"city":"Houston","geo_score":0.857,"country":null,"id":"a6axykhfizud","geo_precision":"zip","tags traced":4},"type":"Feature","geometry":{"type":"Point","coordinates":[-95.3632715,29.7632836]}},{"properties":{"city":"Houten","geo_score":0.738,"country":null,"id":"a6axykh3yjbz","geo_precision":"zip","tags traced":1},"type":"Feature","geometry":{"type":"Point","coordinates":[139.2236111,35.3711111]}},{"properties":{"city":"Hove","geo_score":1.0,"country":"Belgium","id":"a6axykodpk2s","geo_precision":"zip","tags traced":1},"type":"Feature","geometry":{"type":"Point","coordinates":[4.4666667,51.15]}},{"properties":{"city":"Hovik","geo_score":0.976,"country":"Norway","id":"a6axykrd0d5e","geo_precision":"zip","tags traced":1},"type":"Feature","geometry":{"type":"Point","coordinates":[23.2308333,70.0505556]}},{"properties":{"city":"Howell","geo_score":0.857,"country":null,"id":"a6axykj2cdqk","geo_precision":"zip","tags traced":1},"type":"Feature","geometry":{"type":"Point","coordinates":[-83.9293952,42.6072552]}},{"properties":{"city":"Hull","geo_score":0.929,"country":"Canada","id":"a6axykqi6ow3","geo_precision":"zip","tags traced":2},"type":"Feature","geometry":{"type":"Point","coordinates":[-83.966559847,49.350206751]}},{"properties":{"city":"Ijmuiden","geo_score":1.0,"country":"Netherlands","id":"a6axykelkyi5","geo_precision":"zip","tags traced":4},"type":"Feature","geometry":{"type":"Point","coordinates":[4.616667,52.46]}},{"properties":{"city":"Independence","geo_score":0.763,"country":null,"id":"a6axykraurn0","geo_precision":"zip","tags traced":1},"type":"Feature","geometry":{"type":"Point","coordinates":[147.0,-6.0]}},{"properties":{"city":"Indian Orchard","geo_score":0.791,"country":null,"id":"a6axykfkzk03","geo_precision":"zip","tags traced":2},"type":"Feature","geometry":{"type":"Point","coordinates":[-86.2502707,40.0003166]}},{"properties":{"city":"Irvington","geo_score":0.952,"country":"United States","id":"a6axyksprczq","geo_precision":"zip","tags traced":3},"type":"Feature","geometry":{"type":"Point","coordinates":[-96.9488945,32.8140177]}},{"properties":{"city":"Iselin","geo_score":0.81,"country":null,"id":"a6axykffksdf","geo_precision":"zip","tags traced":2},"type":"Feature","geometry":{"type":"Point","coordinates":[124.4333333,6.6333333]}},{"properties":{"city":"Izegem","geo_score":0.857,"country":null,"id":"a6axykt99p0s","geo_precision":"zip","tags traced":1},"type":"Feature","geometry":{"type":"Point","coordinates":[3.2,50.9166667]}},{"properties":{"city":"Jackson","geo_score":0.798,"country":null,"id":"a6axykpwazom","geo_precision":"zip","tags traced":1},"type":"Feature","geometry":{"type":"Point","coordinates":[-81.655651,30.3321838]}},{"properties":{"city":"Jenkintown","geo_score":0.762,"country":null,"id":"a6axykpc16ia","geo_precision":"zip","tags traced":1},"type":"Feature","geometry":{"type":"Point","coordinates":[-90.1334622,43.9166351]}},{"properties":{"city":"Jersey City","geo_score":0.757,"country":null,"id":"a6axyklp5ymv","geo_precision":"zip","tags traced":2},"type":"Feature","geometry":{"type":"Point","coordinates":[135.515670776367,34.7614289625356]}},{"properties":{"city":"Jessup","geo_score":0.833,"country":null,"id":"a6axykfagu4v","geo_precision":"zip","tags traced":1},"type":"Feature","geometry":{"type":"Point","coordinates":[-81.8853924,31.6074365]}},{"properties":{"city":"Johnson City","geo_score":0.753,"country":null,"id":"a6axykkmd5f9","geo_precision":"zip","tags traced":1},"type":"Feature","geometry":{"type":"Point","coordinates":[135.515670776367,34.7614289625356]}},{"properties":{"city":"Joliette","geo_score":0.821,"country":null,"id":"a6axyknf11m3","geo_precision":"zip","tags traced":1},"type":"Feature","geometry":{"type":"Point","coordinates":[-88.0817252,41.525031]}},{"properties":{"city":"Jonkoping","geo_score":1.0,"country":"Sweden","id":"a6axyktq1gjx","geo_precision":"zip","tags traced":1},"type":"Feature","geometry":{"type":"Point","coordinates":[14.1561841964722,57.7814509394211]}},{"properties":{"city":"Jupiter","geo_score":0.0,"country":"Netherlands","id":"a6axykscfw0p","geo_precision":"unmatched","tags traced":1},"type":"Feature","geometry":null},{"properties":{"city":"Kalispell","geo_score":0.857,"country":null,"id":"a6axyke08x2w","geo_precision":"zip","tags traced":1},"type":"Feature","geometry":{"type":"Point","coordinates":[-114.3129081,48.1957925]}},{"properties":{"city":"Kennebunk","geo_score":1.0,"country":"United States","id":"a6axyksrhal8","geo_precision":"zip","tags traced":3},"type":"Feature","geometry":{"type":"Point","coordinates":[-70.5447751,43.383974]}},{"properties":{"city":"Kentville","geo_score":0.857,"country":null,"id":"a6axyko19vbx","geo_precision":"zip","tags traced":4},"type":"Feature","geometry":{"type":"Point","coordinates":[-64.498763464,45.083449583]}},{"properties":{"city":"Kingston","geo_score":1.0,"country":"Canada","id":"a6axykgnnxjd","geo_precision":"zip","tags traced":1},"type":"Feature","geometry":{"type":"Point","coordinates":[-76.4809799194336,44.2297640782947]}},{"properties":{"city":"Kitchener","geo_score":1.0,"country":"Canada","id":"a6axyku3b921","geo_precision":"zip","tags traced":3},"type":"Feature","geometry":{"type":"Point","coordinates":[-80.482987294,43.450095614]}},{"properties":{"city":"Knokke-Heist","geo_score":0.857,"country":null,"id":"a6axykhx16r6","geo_precision":"zip","tags traced":1},"type":"Feature","geometry":{"type":"Point","coordinates":[3.2666667,51.35]}},{"properties":{"city":"Koksijde","geo_score":1.0,"country":"Belgium","id":"a6axykmoi22s","geo_precision":"zip","tags traced":5},"type":"Feature","geometry":{"type":"Point","coordinates":[2.65,51.1]}},{"properties":{"city":"Kortrijk","geo_score":0.857,"country":null,"id":"a6axyktjmfi6","geo_precision":"zip","tags traced":5},"type":"Feature","geometry":{"type":"Point","coordinates":[3.26487064361572,50.8280325513329]}},{"properties":{"city":"Kraainem","geo_score":1.0,"country":"Belgium","id":"a6axykq8xc2z","geo_precision":"zip","tags traced":8},"type":"Feature","geometry":{"type":"Point","coordinates":[4.4666667,50.8666667]}},{"properties":{"city":"Kraljevo","geo_score":0.857,"country":"Serbia","id":"a6axykogt92d","geo_precision":"zip","tags traced":1},"type":"Feature","geometry":{"type":"Point","coordinates":[20.6894444,43.7258333]}},{"properties":{"city":"Kruiningen","geo_score":0.814,"country":null,"id":"a6axyknay9t9","geo_precision":"zip","tags traced":3},"type":"Feature","geometry":{"type":"Point","coordinates":[6.566667,53.219167]}},{"properties":{"city":"Kruiningen","geo_score":0.957,"country":"Netherlands","id":"a6axyketrxlk","geo_precision":"zip","tags traced":7},"type":"Feature","geometry":{"type":"Point","coordinates":[6.566667,53.219167]}},{"properties":{"city":"La Rochelle","geo_score":1.0,"country":"France","id":"a6axykg8jha3","geo_precision":"zip","tags traced":1},"type":"Feature","geometry":{"type":"Point","coordinates":[-1.15,46.1666667]}},{"properties":{"city":"Laconia","geo_score":0.796,"country":null,"id":"a6axykfu4lgt","geo_precision":"zip","tags traced":1},"type":"Feature","geometry":{"type":"Point","coordinates":[-121.4238414,38.4210209]}},{"properties":{"city":"Laren","geo_score":0.81,"country":null,"id":"a6axykszn4qm","geo_precision":"zip","tags traced":1},"type":"Feature","geometry":{"type":"Point","coordinates":[-45.12472222,-22.73083333]}},{"properties":{"city":"Las Arenas","geo_score":0.746,"country":null,"id":"a6axyke988ww","geo_precision":"zip","tags traced":1},"type":"Feature","geometry":{"type":"Point","coordinates":[18.172023,40.357027]}},{"properties":{"city":"Lawrence","geo_score":0.857,"country":null,"id":"a6axykkazwh2","geo_precision":"zip","tags traced":4},"type":"Feature","geometry":{"type":"Point","coordinates":[-95.2352501,38.9716689]}},{"properties":{"city":"Lawrencetown","geo_score":0.759,"country":null,"id":"a6axykibv5kh","geo_precision":"zip","tags traced":6},"type":"Feature","geometry":{"type":"Point","coordinates":[9.32722,49.1311]}},{"properties":{"city":"Lebanon","geo_score":0.857,"country":null,"id":"a6axykr8o1gf","geo_precision":"zip","tags traced":1},"type":"Feature","geometry":{"type":"Point","coordinates":[-76.4113497,40.3409251]}},{"properties":{"city":"Lee","geo_score":0.762,"country":null,"id":"a6axykh84g7w","geo_precision":"zip","tags traced":2},"type":"Feature","geometry":{"type":"Point","coordinates":[-6.5,53.8333333]}},{"properties":{"city":"Leiden","geo_score":1.0,"country":"Netherlands","id":"a6axykjadjpj","geo_precision":"zip","tags traced":5},"type":"Feature","geometry":{"type":"Point","coordinates":[4.493056,52.158333]}},{"properties":{"city":"Leiderdorp","geo_score":1.0,"country":"Netherlands","id":"a6axyki4atou","geo_precision":"zip","tags traced":2},"type":"Feature","geometry":{"type":"Point","coordinates":[4.529167,52.158333]}},{"properties":{"city":"Leidschendam","geo_score":0.786,"country":null,"id":"a6axykfv42vd","geo_precision":"zip","tags traced":1},"type":"Feature","geometry":{"type":"Point","coordinates":[14.3600749969482,52.643792553716]}},{"properties":{"city":"Lelystad","geo_score":1.0,"country":"Netherlands","id":"a6axykowv2g1","geo_precision":"zip","tags traced":1},"type":"Feature","geometry":{"type":"Point","coordinates":[5.475,52.508333]}},{"properties":{"city":"Leominster","geo_score":0.857,"country":null,"id":"a6axykp22mt5","geo_precision":"zip","tags traced":2},"type":"Feature","geometry":{"type":"Point","coordinates":[-71.759794,42.5250906]}},{"properties":{"city":"Leuven","geo_score":1.0,"country":"Belgium","id":"a6axykgspkpa","geo_precision":"zip","tags traced":2},"type":"Feature","geometry":{"type":"Point","coordinates":[4.70092535018921,50.8795895885995]}},{"properties":{"city":"Levittown","geo_score":0.857,"country":null,"id":"a6axykednuk3","geo_precision":"zip","tags traced":1},"type":"Feature","geometry":{"type":"Point","coordinates":[-74.8287747,40.1551097]}},{"properties":{"city":"Liege","geo_score":1.0,"country":"Belgium","id":"a6axykf4z5gr","geo_precision":"zip","tags traced":8},"type":"Feature","geometry":{"type":"Point","coordinates":[5.57178497314453,50.6411875982987]}},{"properties":{"city":"Lier","geo_score":0.914,"country":"Belgium","id":"a6axykjz1mwz","geo_precision":"zip","tags traced":1},"type":"Feature","geometry":{"type":"Point","coordinates":[4.2666667,50.3]}},{"properties":{"city":"Lincoln","geo_score":0.857,"country":null,"id":"a6axyklbyb21","geo_precision":"zip","tags traced":3},"type":"Feature","geometry":{"type":"Point","coordinates":[-96.6669599,40.8000011]}},{"properties":{"city":"Lindenhurst","geo_score":0.857,"country":null,"id":"a6axyktumtcz","geo_precision":"zip","tags traced":1},"type":"Feature","geometry":{"type":"Point","coordinates":[-73.3734547,40.6867667]}},{"properties":{"city":"Little Neck","geo_score":0.714,"country":null,"id":"a6axykr30cpj","geo_precision":"zip","tags traced":1},"type":"Feature","geometry":{"type":"Point","coordinates":[138.85,37.45]}},{"properties":{"city":"Lodi","geo_score":0.829,"country":null,"id":"a6axykkw46ce","geo_precision":"zip","tags traced":1},"type":"Feature","geometry":{"type":"Point","coordinates":[111.9944444,27.7344444]}},{"properties":{"city":"Loenen","geo_score":0.81,"country":null,"id":"a6axykp69avs","geo_precision":"zip","tags traced":1},"type":"Feature","geometry":{"type":"Point","coordinates":[7.5166667,51.6166667]}},{"properties":{"city":"Logrono","geo_score":0.857,"country":null,"id":"a6axykt04q8g","geo_precision":"zip","tags traced":2},"type":"Feature","geometry":{"type":"Point","coordinates":[-2.44541336124527,42.4671213247137]}},{"properties":{"city":"Lokeren","geo_score":0.776,"country":null,"id":"a6axykjmulbx","geo_precision":"zip","tags traced":2},"type":"Feature","geometry":{"type":"Point","coordinates":[-2.44541336124527,42.4671213247137]}},{"properties":{"city":"London","geo_score":1.0,"country":"Canada","id":"a6axykq6d025","geo_precision":"zip","tags traced":2},"type":"Feature","geometry":{"type":"Point","coordinates":[-81.233042387,42.983389283]}},{"properties":{"city":"Londonderry","geo_score":0.765,"country":null,"id":"a6axykttr0z9","geo_precision":"zip","tags traced":1},"type":"Feature","geometry":{"type":"Point","coordinates":[10.0,52.0]}},{"properties":{"city":"Long Valley","geo_score":0.743,"country":null,"id":"a6axykqdort7","geo_precision":"zip","tags traced":1},"type":"Feature","geometry":{"type":"Point","coordinates":[16.2,51.2]}},{"properties":{"city":"Longueuil","geo_score":0.794,"country":null,"id":"a6axyksm789r","geo_precision":"zip","tags traced":6},"type":"Feature","geometry":{"type":"Point","coordinates":[92.7333333,22.8833333]}},{"properties":{"city":"Los Angeles","geo_score":0.804,"country":null,"id":"a6axyke7q70m","geo_precision":"zip","tags traced":6},"type":"Feature","geometry":{"type":"Point","coordinates":[-118.2009079,34.3666648]}},{"properties":{"city":"Ludlow","geo_score":0.857,"country":null,"id":"a6axykmoovxt","geo_precision":"zip","tags traced":1},"type":"Feature","geometry":{"type":"Point","coordinates":[-72.475919,42.1600936]}},{"properties":{"city":"Lynn","geo_score":0.786,"country":null,"id":"a6axykdwyd89","geo_precision":"zip","tags traced":7},"type":"Feature","geometry":{"type":"Point","coordinates":[-101.6666667,21.1166667]}},{"properties":{"city":"Lyons","geo_score":0.857,"country":null,"id":"a6axykh9f2oa","geo_precision":"zip","tags traced":1},"type":"Feature","geometry":{"type":"Point","coordinates":[-87.8181128,41.8133651]}},{"properties":{"city":"Maastricht","geo_score":0.857,"country":null,"id":"a6axykgwf2c2","geo_precision":"zip","tags traced":1},"type":"Feature","geometry":{"type":"Point","coordinates":[5.688889,50.848333]}},{"properties":{"city":"Madrid","geo_score":1.0,"country":"Spain","id":"a6axyksc0ikn","geo_precision":"zip","tags traced":2},"type":"Feature","geometry":{"type":"Point","coordinates":[-3.68274615575072,40.4893538421231]}},{"properties":{"city":"Malaga","geo_score":0.857,"country":null,"id":"a6axykg74zwk","geo_precision":"zip","tags traced":2},"type":"Feature","geometry":{"type":"Point","coordinates":[-4.39717226872326,36.7585406465564]}},{"properties":{"city":"Malden","geo_score":1.0,"country":"United States","id":"a6axyko47x91","geo_precision":"zip","tags traced":1},"type":"Feature","geometry":{"type":"Point","coordinates":[-71.066163,42.4250964]}},{"properties":{"city":"Malmo","geo_score":0.976,"country":"Sweden","id":"a6axyklcbsej","geo_precision":"zip","tags traced":2},"type":"Feature","geometry":{"type":"Point","coordinates":[13.0007314682007,55.6058691373243]}},{"properties":{"city":"Manchester","geo_score":1.0,"country":"United Kingdom","id":"a6axykf3papn","geo_precision":"zip","tags traced":1},"type":"Feature","geometry":{"type":"Point","coordinates":[-2.23743438720703,53.4809464283615]}},{"properties":{"city":"Mansfield Center","geo_score":0.752,"country":null,"id":"a6axykjbjev8","geo_precision":"zip","tags traced":1},"type":"Feature","geometry":{"type":"Point","coordinates":[8.9833333,13.8]}},{"properties":{"city":"Maplewood","geo_score":0.857,"country":null,"id":"a6axykgb8o1e","geo_precision":"zip","tags traced":2},"type":"Feature","geometry":{"type":"Point","coordinates":[-92.9952153,44.9530215]}},{"properties":{"city":"Marknesse","geo_score":0.757,"country":null,"id":"a6axykdox1pf","geo_precision":"zip","tags traced":1},"type":"Feature","geometry":{"type":"Point","coordinates":[-91.20677,29.6993748]}},{"properties":{"city":"Maryville","geo_score":1.0,"country":"United States","id":"a6axyktsa3d9","geo_precision":"zip","tags traced":1},"type":"Feature","geometry":{"type":"Point","coordinates":[-83.9704593,35.7564719]}},{"properties":{"city":"Mascouche","geo_score":0.794,"country":null,"id":"a6axykp5rhu2","geo_precision":"zip","tags traced":4},"type":"Feature","geometry":{"type":"Point","coordinates":[132.711238861084,33.787565195932]}},{"properties":{"city":"Massapequa","geo_score":0.857,"country":null,"id":"a6axyktdjqu0","geo_precision":"zip","tags traced":1},"type":"Feature","geometry":{"type":"Point","coordinates":[-73.4742914,40.6806564]}},{"properties":{"city":"Massena","geo_score":0.816,"country":null,"id":"a6axykmdi3s3","geo_precision":"zip","tags traced":1},"type":"Feature","geometry":{"type":"Point","coordinates":[15.3913889,-4.3836111]}},{"properties":{"city":"Matane","geo_score":0.786,"country":null,"id":"a6axykkb45g1","geo_precision":"zip","tags traced":3},"type":"Feature","geometry":{"type":"Point","coordinates":[98.6666667,3.5833333]}},{"properties":{"city":"Meadow Lake","geo_score":0.743,"country":null,"id":"a6axykqlgqh0","geo_precision":"zip","tags traced":1},"type":"Feature","geometry":{"type":"Point","coordinates":[140.4666667,36.3666667]}},{"properties":{"city":"Mechelen","geo_score":1.0,"country":"Belgium","id":"a6axyki2nr8z","geo_precision":"zip","tags traced":1},"type":"Feature","geometry":{"type":"Point","coordinates":[4.4666667,51.0333333]}},{"properties":{"city":"Medford","geo_score":1.0,"country":"United States","id":"a6axykp3ag3q","geo_precision":"zip","tags traced":3},"type":"Feature","geometry":{"type":"Point","coordinates":[-122.8755949,42.3265153]}},{"properties":{"city":"Melbourne","geo_score":0.857,"country":null,"id":"a6axykr24djs","geo_precision":"zip","tags traced":1},"type":"Feature","geometry":{"type":"Point","coordinates":[144.963322877884,-37.8139965641595]}},{"properties":{"city":"Melrose","geo_score":0.857,"country":null,"id":"a6axykqpn8ea","geo_precision":"zip","tags traced":1},"type":"Feature","geometry":{"type":"Point","coordinates":[-71.0661633,42.4584292]}},{"properties":{"city":"Menlo Park","geo_score":0.762,"country":null,"id":"a6axykhpgby4","geo_precision":"zip","tags traced":1},"type":"Feature","geometry":{"type":"Point","coordinates":[120.9822222,14.6041667]}},{"properties":{"city":"Mercedes","geo_score":0.857,"country":null,"id":"a6axykn2p264","geo_precision":"zip","tags traced":1},"type":"Feature","geometry":{"type":"Point","coordinates":[-59.4344444,-34.6544444]}},{"properties":{"city":"Merelbeke","geo_score":1.0,"country":"Belgium","id":"a6axykscjn9n","geo_precision":"zip","tags traced":3},"type":"Feature","geometry":{"type":"Point","coordinates":[3.75,51.0]}},{"properties":{"city":"Meriden","geo_score":1.0,"country":"United States","id":"a6axykebyiw7","geo_precision":"zip","tags traced":2},"type":"Feature","geometry":{"type":"Point","coordinates":[-72.8070435,41.5381535]}},{"properties":{"city":"Merksem","geo_score":0.804,"country":null,"id":"a6axyklaz5up","geo_precision":"zip","tags traced":1},"type":"Feature","geometry":{"type":"Point","coordinates":[66.9,36.64]}},{"properties":{"city":"Merrimack","geo_score":0.8,"country":null,"id":"a6axykirofs9","geo_precision":"zip","tags traced":1},"type":"Feature","geometry":{"type":"Point","coordinates":[-71.6828542,43.3000782]}},{"properties":{"city":"Mestre","geo_score":0.857,"country":null,"id":"a6axykqijzic","geo_precision":"zip","tags traced":1},"type":"Feature","geometry":{"type":"Point","coordinates":[12.2425,45.4902778]}},{"properties":{"city":"Miami","geo_score":1.0,"country":"United States","id":"a6axykgakpie","geo_precision":"zip","tags traced":10},"type":"Feature","geometry":{"type":"Point","coordinates":[-80.1936589,25.7742658]}},{"properties":{"city":"Middelburg","geo_score":1.0,"country":"Netherlands","id":"a6axykefi024","geo_precision":"zip","tags traced":5},"type":"Feature","geometry":{"type":"Point","coordinates":[3.613889,51.5]}},{"properties":{"city":"Milan","geo_score":0.976,"country":"Italy","id":"a6axykgyisbt","geo_precision":"zip","tags traced":2},"type":"Feature","geometry":{"type":"Point","coordinates":[9.1895055770874,45.4642693810258]}},{"properties":{"city":"Milford","geo_score":0.857,"country":null,"id":"a6axykebx8zr","geo_precision":"zip","tags traced":1},"type":"Feature","geometry":{"type":"Point","coordinates":[-73.0564953,41.2223194]}},{"properties":{"city":"Milton","geo_score":0.81,"country":null,"id":"a6axykt0sm0y","geo_precision":"zip","tags traced":1},"type":"Feature","geometry":{"type":"Point","coordinates":[71.4752778,30.1955556]}},{"properties":{"city":"Miramichi","geo_score":1.0,"country":"Canada","id":"a6axykfs35u0","geo_precision":"zip","tags traced":6},"type":"Feature","geometry":{"type":"Point","coordinates":[-61.315227432,46.033441422]}},{"properties":{"city":"Mississauga","geo_score":0.74,"country":null,"id":"a6axykrqf1h8","geo_precision":"zip","tags traced":2},"type":"Feature","geometry":{"type":"Point","coordinates":[19.35,50.5833333]}},{"properties":{"city":"Mol","geo_score":0.771,"country":null,"id":"a6axykrcm81g","geo_precision":"zip","tags traced":1},"type":"Feature","geometry":{"type":"Point","coordinates":[110.7833333,21.45]}},{"properties":{"city":"Moncton","geo_score":1.0,"country":"Canada","id":"a6axyktzvxyk","geo_precision":"zip","tags traced":134},"type":"Feature","geometry":{"type":"Point","coordinates":[-64.801862188,46.115943434]}},{"properties":{"city":"Mont-Laurier","geo_score":0.805,"country":null,"id":"a6axyke9f55i","geo_precision":"zip","tags traced":1},"type":"Feature","geometry":{"type":"Point","coordinates":[5.0333333,44.9333333]}},{"properties":{"city":"Mont-Tremblant","geo_score":0.771,"country":null,"id":"a6axykn7iwl0","geo_precision":"zip","tags traced":3},"type":"Feature","geometry":{"type":"Point","coordinates":[6.20667457580566,46.1603045385202]}},{"properties":{"city":"Montgomery","geo_score":0.804,"country":null,"id":"a6axykije4od","geo_precision":"zip","tags traced":1},"type":"Feature","geometry":{"type":"Point","coordinates":[-77.1997039,39.1501072]}},{"properties":{"city":"Montgomeryville","geo_score":0.804,"country":null,"id":"a6axykg0ifig","geo_precision":"zip","tags traced":1},"type":"Feature","geometry":{"type":"Point","coordinates":[-77.1997039,39.1501072]}},{"properties":{"city":"Montreal","geo_score":1.0,"country":"Canada","id":"a6axykpc9sqd","geo_precision":"zip","tags traced":96},"type":"Feature","geometry":{"type":"Point","coordinates":[-73.587809,45.5088375]}},{"properties":{"city":"Moosup","geo_score":0.776,"country":null,"id":"a6axykk8a75u","geo_precision":"zip","tags traced":1},"type":"Feature","geometry":{"type":"Point","coordinates":[-40.36654709375,-3.50911578125]}},{"properties":{"city":"Morrisville","geo_score":0.818,"country":null,"id":"a6axyksxt7ok","geo_precision":"zip","tags traced":1},"type":"Feature","geometry":{"type":"Point","coordinates":[-122.1770818,48.0517637]}},{"properties":{"city":"Munich","geo_score":0.776,"country":null,"id":"a6axykshbpdv","geo_precision":"zip","tags traced":1},"type":"Feature","geometry":{"type":"Point","coordinates":[-88.4464973,44.2022084]}},{"properties":{"city":"Murfreesboro","geo_score":0.857,"country":null,"id":"a6axykm2ass0","geo_precision":"zip","tags traced":1},"type":"Feature","geometry":{"type":"Point","coordinates":[-86.39027,35.8456213]}},{"properties":{"city":"Nanaimo","geo_score":1.0,"country":"Canada","id":"a6axyklo7ekw","geo_precision":"zip","tags traced":10},"type":"Feature","geometry":{"type":"Point","coordinates":[-123.936012692,49.166337382]}},{"properties":{"city":"Nancy","geo_score":1.0,"country":"France","id":"a6axykhp4ge2","geo_precision":"zip","tags traced":1},"type":"Feature","geometry":{"type":"Point","coordinates":[6.2,48.6833333]}},{"properties":{"city":"Nantucket","geo_score":0.857,"country":null,"id":"a6axykrdbvte","geo_precision":"zip","tags traced":2},"type":"Feature","geometry":{"type":"Point","coordinates":[-70.0994605,41.2834563]}},{"properties":{"city":"Naples","geo_score":0.0,"country":"Italy","id":"a6axyke54xi5","geo_precision":"unmatched","tags traced":7},"type":"Feature","geometry":null},{"properties":{"city":"Narragansett","geo_score":0.821,"country":null,"id":"a6axykoy4bi3","geo_precision":"zip","tags traced":7},"type":"Feature","geometry":{"type":"Point","coordinates":[-71.4564448,41.4323244]}},{"properties":{"city":"Navesink","geo_score":0.755,"country":null,"id":"a6axykg9fmzd","geo_precision":"zip","tags traced":2},"type":"Feature","geometry":{"type":"Point","coordinates":[-91.7,14.6]}},{"properties":{"city":"Nei-Hu","geo_score":0.771,"country":null,"id":"a6axyklclrz8","geo_precision":"zip","tags traced":2},"type":"Feature","geometry":{"type":"Point","coordinates":[127.6733333,26.2072222]}},{"properties":{"city":"Neptune","geo_score":0.768,"country":null,"id":"a6axykhq5rnq","geo_precision":"zip","tags traced":1},"type":"Feature","geometry":{"type":"Point","coordinates":[65.0275,35.1155556]}},{"properties":{"city":"Neufchatel","geo_score":0.804,"country":null,"id":"a6axykex0wwc","geo_precision":"zip","tags traced":1},"type":"Feature","geometry":{"type":"Point","coordinates":[1.45,49.7333333]}},{"properties":{"city":"New Bedford","geo_score":0.857,"country":null,"id":"a6axyklqv9g3","geo_precision":"zip","tags traced":1},"type":"Feature","geometry":{"type":"Point","coordinates":[-70.934205,41.6362152]}},{"properties":{"city":"New Glasgow","geo_score":1.0,"country":"Canada","id":"a6axykskcscp","geo_precision":"zip","tags traced":23},"type":"Feature","geometry":{"type":"Point","coordinates":[-62.648634074,45.583444684]}},{"properties":{"city":"New Haven","geo_score":0.768,"country":null,"id":"a6axykfajx3o","geo_precision":"zip","tags traced":2},"type":"Feature","geometry":{"type":"Point","coordinates":[-82.3641667,23.1319444]}},{"properties":{"city":"New London","geo_score":0.81,"country":null,"id":"a6axykgn79w1","geo_precision":"zip","tags traced":1},"type":"Feature","geometry":{"type":"Point","coordinates":[-0.125532746315002,51.5084152563931]}},{"properties":{"city":"New Paltz","geo_score":0.875,"country":"United States","id":"a6axykhyp5o3","geo_precision":"zip","tags traced":3},"type":"Feature","geometry":{"type":"Point","coordinates":[-90.7867798,35.224533]}},{"properties":{"city":"New Providence","geo_score":0.777,"country":null,"id":"a6axykfn0qti","geo_precision":"zip","tags traced":2},"type":"Feature","geometry":{"type":"Point","coordinates":[-71.5995085,41.8334327]}},{"properties":{"city":"New Smyrna Beach","geo_score":0.918,"country":"United States","id":"a6axyksn2g8n","geo_precision":"zip","tags traced":1},"type":"Feature","geometry":{"type":"Point","coordinates":[-84.5143761,33.8839926]}},{"properties":{"city":"New Westminster","geo_score":1.0,"country":"Canada","id":"a6axykg8z06d","geo_precision":"zip","tags traced":4},"type":"Feature","geometry":{"type":"Point","coordinates":[-122.910919189453,49.2067756493358]}},{"properties":{"city":"New York","geo_score":1.0,"country":"United States","id":"a6axyknz3w23","geo_precision":"zip","tags traced":63},"type":"Feature","geometry":{"type":"Point","coordinates":[-75.4998978,43.0003472]}},{"properties":{"city":"Newark","geo_score":0.857,"country":null,"id":"a6axykk4pv5r","geo_precision":"zip","tags traced":1},"type":"Feature","geometry":{"type":"Point","coordinates":[-74.1723667,40.735657]}},{"properties":{"city":"Newburyport","geo_score":1.0,"country":"United States","id":"a6axykraej92","geo_precision":"zip","tags traced":1},"type":"Feature","geometry":{"type":"Point","coordinates":[-70.8772751,42.8125913]}},{"properties":{"city":"Newfields","geo_score":0.74,"country":null,"id":"a6axykpjg31p","geo_precision":"zip","tags traced":1},"type":"Feature","geometry":{"type":"Point","coordinates":[83.9366667,53.3916667]}},{"properties":{"city":"Nieuwkuijk","geo_score":0.743,"country":null,"id":"a6axyki9s29f","geo_precision":"zip","tags traced":2},"type":"Feature","geometry":{"type":"Point","coordinates":[-93.0166667,18.1333333]}},{"properties":{"city":"Nieuwpoort","geo_score":0.814,"country":null,"id":"a6axykqh6rcx","geo_precision":"zip","tags traced":2},"type":"Feature","geometry":{"type":"Point","coordinates":[-2.99835026264191,51.5877363767512]}},{"properties":{"city":"Nijmegen","geo_score":1.0,"country":"Netherlands","id":"a6axykif5x33","geo_precision":"zip","tags traced":2},"type":"Feature","geometry":{"type":"Point","coordinates":[5.852778,51.8425]}},{"properties":{"city":"Norcross","geo_score":0.857,"country":null,"id":"a6axykg6hv7a","geo_precision":"zip","tags traced":1},"type":"Feature","geometry":{"type":"Point","coordinates":[-84.2135309,33.9412127]}},{"properties":{"city":"Norristown","geo_score":0.857,"country":null,"id":"a6axykkisf3q","geo_precision":"zip","tags traced":1},"type":"Feature","geometry":{"type":"Point","coordinates":[-75.3399048,40.121497]}},{"properties":{"city":"North Charleston","geo_score":0.902,"country":"United States","id":"a6axykjngztv","geo_precision":"zip","tags traced":1},"type":"Feature","geometry":{"type":"Point","coordinates":[-79.966479,32.7668437]}},{"properties":{"city":"North Palm Beach","geo_score":0.895,"country":"United States","id":"a6axykfzy3m5","geo_precision":"zip","tags traced":1},"type":"Feature","geometry":{"type":"Point","coordinates":[-80.4497744,26.6503442]}},{"properties":{"city":"North Sydney","geo_score":0.792,"country":null,"id":"a6axykkjuoo9","geo_precision":"zip","tags traced":1},"type":"Feature","geometry":{"type":"Point","coordinates":[151.207323074341,-33.8678499639382]}},{"properties":{"city":"Norwich","geo_score":0.857,"country":null,"id":"a6axykqxcrgc","geo_precision":"zip","tags traced":1},"type":"Feature","geometry":{"type":"Point","coordinates":[1.29833936691284,52.6278273182018]}},{"properties":{"city":"Nutley","geo_score":0.762,"country":null,"id":"a6axyknj0vpx","geo_precision":"zip","tags traced":1},"type":"Feature","geometry":{"type":"Point","coordinates":[-35.20944444,-5.795]}},{"properties":{"city":"Oakdale","geo_score":0.776,"country":null,"id":"a6axykm3x2eg","geo_precision":"zip","tags traced":1},"type":"Feature","geometry":{"type":"Point","coordinates":[-86.4833333,13.6333333]}},{"properties":{"city":"Oakville","geo_score":0.857,"country":null,"id":"a6axykkh1mjp","geo_precision":"zip","tags traced":1},"type":"Feature","geometry":{"type":"Point","coordinates":[-90.3045605,38.4700533]}},{"properties":{"city":"Ocean Grove","geo_score":0.757,"country":null,"id":"a6axykkqm0uw","geo_precision":"zip","tags traced":2},"type":"Feature","geometry":{"type":"Point","coordinates":[49.6583333,58.5969444]}},{"properties":{"city":"Oceanside","geo_score":0.762,"country":null,"id":"a6axyklowv7b","geo_precision":"zip","tags traced":1},"type":"Feature","geometry":{"type":"Point","coordinates":[4.5,7.5]}},{"properties":{"city":"Odessa","geo_score":0.833,"country":null,"id":"a6axykn57gfr","geo_precision":"zip","tags traced":1},"type":"Feature","geometry":{"type":"Point","coordinates":[30.7326221466064,46.4774726081453]}},{"properties":{"city":"Onondaga County","geo_score":0.745,"country":null,"id":"a6axykrqpgqg","geo_precision":"zip","tags traced":1},"type":"Feature","geometry":{"type":"Point","coordinates":[-96.0,60.0]}},{"properties":{"city":"Oostende","geo_score":1.0,"country":"Belgium","id":"a6axykphl50c","geo_precision":"zip","tags traced":2},"type":"Feature","geometry":{"type":"Point","coordinates":[2.9166667,51.2166667]}},{"properties":{"city":"Orlando","geo_score":1.0,"country":"United States","id":"a6axykkkbvqm","geo_precision":"zip","tags traced":4},"type":"Feature","geometry":{"type":"Point","coordinates":[-81.3792365,28.5383355]}},{"properties":{"city":"Oshawa","geo_score":0.857,"country":null,"id":"a6axyke4og3o","geo_precision":"zip","tags traced":4},"type":"Feature","geometry":{"type":"Point","coordinates":[-78.849568878,43.900120387]}},{"properties":{"city":"Oslo","geo_score":1.0,"country":"Norway","id":"a6axykr3veo5","geo_precision":"zip","tags traced":14},"type":"Feature","geometry":{"type":"Point","coordinates":[10.7389211654663,59.9132457671591]}},{"properties":{"city":"Otisville","geo_score":0.857,"country":null,"id":"a6axykrjw13h","geo_precision":"zip","tags traced":2},"type":"Feature","geometry":{"type":"Point","coordinates":[-74.5384933,41.4734268]}},{"properties":{"city":"Ottawa","geo_score":1.0,"country":"Canada","id":"a6axykpq3otz","geo_precision":"zip","tags traced":150},"type":"Feature","geometry":{"type":"Point","coordinates":[-75.6902861595154,45.4209405046496]}},{"properties":{"city":"Outremont","geo_score":0.918,"country":"Canada","id":"a6axykoubvs1","geo_precision":"zip","tags traced":12},"type":"Feature","geometry":{"type":"Point","coordinates":[-116.385495194,51.349974644]}},{"properties":{"city":"Padova","geo_score":0.857,"country":null,"id":"a6axykrn9m0n","geo_precision":"zip","tags traced":2},"type":"Feature","geometry":{"type":"Point","coordinates":[11.881808,45.415194]}},{"properties":{"city":"Palermo","geo_score":1.0,"country":"Italy","id":"a6axykj9fxp6","geo_precision":"zip","tags traced":1},"type":"Feature","geometry":{"type":"Point","coordinates":[13.3597612380981,38.115819808927]}},{"properties":{"city":"Palm Beach","geo_score":0.943,"country":"United States","id":"a6axykmfl2qx","geo_precision":"zip","tags traced":2},"type":"Feature","geometry":{"type":"Point","coordinates":[-80.4497744,26.6503442]}},{"properties":{"city":"Palm Coast","geo_score":1.0,"country":"United States","id":"a6axykfteh3x","geo_precision":"zip","tags traced":1},"type":"Feature","geometry":{"type":"Point","coordinates":[-81.2078411,29.5849736]}},{"properties":{"city":"Panama City Beach","geo_score":0.771,"country":null,"id":"a6axykm7ds7i","geo_precision":"zip","tags traced":1},"type":"Feature","geometry":{"type":"Point","coordinates":[-79.5333333,8.9666667]}},{"properties":{"city":"Paquetville","geo_score":0.753,"country":null,"id":"a6axykgnht2r","geo_precision":"zip","tags traced":5},"type":"Feature","geometry":{"type":"Point","coordinates":[-43.0452778,-3.7191667]}},{"properties":{"city":"Paradise Valley","geo_score":0.939,"country":"United States","id":"a6axyktnslis","geo_precision":"zip","tags traced":6},"type":"Feature","geometry":{"type":"Point","coordinates":[-115.1466648,36.0971945]}},{"properties":{"city":"Paris","geo_score":1.0,"country":"France","id":"a6axykhh5za7","geo_precision":"zip","tags traced":2},"type":"Feature","geometry":{"type":"Point","coordinates":[2.3488,48.85341]}},{"properties":{"city":"Paterson","geo_score":0.857,"country":null,"id":"a6axykgdej5c","geo_precision":"zip","tags traced":1},"type":"Feature","geometry":{"type":"Point","coordinates":[-74.171811,40.9167654]}},{"properties":{"city":"Paulsboro","geo_score":0.857,"country":null,"id":"a6axyktq6xam","geo_precision":"zip","tags traced":1},"type":"Feature","geometry":{"type":"Point","coordinates":[-75.2404608,39.830391]}},{"properties":{"city":"Peabody","geo_score":0.857,"country":null,"id":"a6axyklywe7t","geo_precision":"zip","tags traced":1},"type":"Feature","geometry":{"type":"Point","coordinates":[-70.9286609,42.5278731]}},{"properties":{"city":"Pearl River","geo_score":0.771,"country":null,"id":"a6axykku3j7c","geo_precision":"zip","tags traced":1},"type":"Feature","geometry":{"type":"Point","coordinates":[-3.7720945335543,40.2337784618279]}},{"properties":{"city":"Pembroke Pines","geo_score":0.747,"country":null,"id":"a6axyksklq14","geo_precision":"zip","tags traced":3},"type":"Feature","geometry":{"type":"Point","coordinates":[45.0,53.1958333]}},{"properties":{"city":"Peoria","geo_score":0.786,"country":null,"id":"a6axykff19sa","geo_precision":"zip","tags traced":1},"type":"Feature","geometry":{"type":"Point","coordinates":[-80.6333333,-5.2]}},{"properties":{"city":"Perugia","geo_score":0.857,"country":null,"id":"a6axykq0hfz1","geo_precision":"zip","tags traced":1},"type":"Feature","geometry":{"type":"Point","coordinates":[12.382858,43.096743]}},{"properties":{"city":"Peterborough","geo_score":0.776,"country":null,"id":"a6axykth6mvw","geo_precision":"zip","tags traced":1},"type":"Feature","geometry":{"type":"Point","coordinates":[8.75535714285714,51.7136428571429]}},{"properties":{"city":"Philadelphia","geo_score":0.952,"country":"United States","id":"a6axykrahrjf","geo_precision":"zip","tags traced":17},"type":"Feature","geometry":{"type":"Point","coordinates":[-74.9998916,40.1253879]}},{"properties":{"city":"Phoenix","geo_score":0.857,"country":null,"id":"a6axykiq4okv","geo_precision":"zip","tags traced":1},"type":"Feature","geometry":{"type":"Point","coordinates":[-112.0740373,33.4483771]}},{"properties":{"city":"Pijnacker","geo_score":1.0,"country":"Netherlands","id":"a6axykp1xoqu","geo_precision":"zip","tags traced":1},"type":"Feature","geometry":{"type":"Point","coordinates":[4.42946434020996,52.0195432022308]}},{"properties":{"city":"Pine Bush","geo_score":0.768,"country":null,"id":"a6axykk5gm84","geo_precision":"zip","tags traced":1},"type":"Feature","geometry":{"type":"Point","coordinates":[73.8553547859192,18.5195742288075]}},{"properties":{"city":"Pittsboro","geo_score":0.814,"country":null,"id":"a6axyksssybc","geo_precision":"zip","tags traced":1},"type":"Feature","geometry":{"type":"Point","coordinates":[-79.9958864,40.4406248]}},{"properties":{"city":"Pittsfield","geo_score":0.857,"country":null,"id":"a6axykhvlkgb","geo_precision":"zip","tags traced":1},"type":"Feature","geometry":{"type":"Point","coordinates":[-73.2453824,42.4500846]}},{"properties":{"city":"Plainview","geo_score":0.857,"country":null,"id":"a6axykltv3i2","geo_precision":"zip","tags traced":1},"type":"Feature","geometry":{"type":"Point","coordinates":[-73.4673455,40.7764882]}},{"properties":{"city":"Plymouth","geo_score":0.857,"country":null,"id":"a6axykia02ay","geo_precision":"zip","tags traced":1},"type":"Feature","geometry":{"type":"Point","coordinates":[-4.14304733276367,50.3715254228346]}},{"properties":{"city":"Pointe-Claire","geo_score":0.78,"country":null,"id":"a6axykm2950p","geo_precision":"zip","tags traced":4},"type":"Feature","geometry":{"type":"Point","coordinates":[-8.50578279193779,42.3767130421021]}},{"properties":{"city":"Pompano Beach","geo_score":1.0,"country":"United States","id":"a6axyksqn1y8","geo_precision":"zip","tags traced":1},"type":"Feature","geometry":{"type":"Point","coordinates":[-80.1247667,26.2378597]}},{"properties":{"city":"Port Alberni","geo_score":1.0,"country":"Canada","id":"a6axykffzlre","geo_precision":"zip","tags traced":1},"type":"Feature","geometry":{"type":"Point","coordinates":[-124.80280018,49.241325105]}},{"properties":{"city":"Port Hawkesbury","geo_score":0.755,"country":null,"id":"a6axykj9i1he","geo_precision":"zip","tags traced":14},"type":"Feature","geometry":{"type":"Point","coordinates":[-8.6166667,41.15]}},{"properties":{"city":"Portland","geo_score":0.857,"country":null,"id":"a6axykkmriav","geo_precision":"zip","tags traced":4},"type":"Feature","geometry":{"type":"Point","coordinates":[-122.6762071,45.5234515]}},{"properties":{"city":"Portsmouth","geo_score":0.857,"country":null,"id":"a6axykk4ft4c","geo_precision":"zip","tags traced":1},"type":"Feature","geometry":{"type":"Point","coordinates":[-1.07142448425293,50.8090805768295]}},{"properties":{"city":"Prescott","geo_score":1.0,"country":"Canada","id":"a6axyknmwjeb","geo_precision":"zip","tags traced":1},"type":"Feature","geometry":{"type":"Point","coordinates":[-75.516038916,44.716813041]}},{"properties":{"city":"Prince Rupert","geo_score":1.0,"country":"Canada","id":"a6axyktj23su","geo_precision":"zip","tags traced":3},"type":"Feature","geometry":{"type":"Point","coordinates":[-130.320120831,54.316139543]}},{"properties":{"city":"Providence","geo_score":0.804,"country":null,"id":"a6axyke9dkrx","geo_precision":"zip","tags traced":1},"type":"Feature","geometry":{"type":"Point","coordinates":[-71.5995085,41.8334327]}},{"properties":{"city":"pusan","geo_score":1.0,"country":"South Korea","id":"a6axykrep6s9","geo_precision":"zip","tags traced":1},"type":"Feature","geometry":{"type":"Point","coordinates":[129.0402778,35.1027778]}},{"properties":{"city":"Quebec","geo_score":0.857,"country":null,"id":"a6axykfnllpc","geo_precision":"zip","tags traced":13},"type":"Feature","geometry":{"type":"Point","coordinates":[-71.999072249,52.000168346]}},{"properties":{"city":"Quebec","geo_score":1.0,"country":"Canada","id":"a6axykpi15z3","geo_precision":"zip","tags traced":2},"type":"Feature","geometry":{"type":"Point","coordinates":[-71.999072249,52.000168346]}},{"properties":{"city":"Queensbury","geo_score":0.943,"country":"United States","id":"a6axykkeqftj","geo_precision":"zip","tags traced":1},"type":"Feature","geometry":{"type":"Point","coordinates":[-74.1298643,40.4417743]}},{"properties":{"city":"Raymond","geo_score":0.857,"country":null,"id":"a6axykdvl9pv","geo_precision":"zip","tags traced":1},"type":"Feature","geometry":{"type":"Point","coordinates":[-71.1833951,43.0361961]}},{"properties":{"city":"Raynham","geo_score":0.786,"country":null,"id":"a6axykme4wj8","geo_precision":"zip","tags traced":1},"type":"Feature","geometry":{"type":"Point","coordinates":[8.8361111,49.8269444]}},{"properties":{"city":"Recife","geo_score":0.857,"country":null,"id":"a6axykl68ezt","geo_precision":"zip","tags traced":1},"type":"Feature","geometry":{"type":"Point","coordinates":[-34.88111111,-8.053888889]}},{"properties":{"city":"Reno","geo_score":1.0,"country":"United States","id":"a6axykfj41qv","geo_precision":"zip","tags traced":3},"type":"Feature","geometry":{"type":"Point","coordinates":[-119.8138027,39.5296329]}},{"properties":{"city":"Repentigny","geo_score":0.757,"country":null,"id":"a6axykq7zqwd","geo_precision":"zip","tags traced":1},"type":"Feature","geometry":{"type":"Point","coordinates":[-1.95,53.6666667]}},{"properties":{"city":"Revere","geo_score":0.81,"country":null,"id":"a6axykfh3v5a","geo_precision":"zip","tags traced":3},"type":"Feature","geometry":{"type":"Point","coordinates":[-55.5166667,-30.9]}},{"properties":{"city":"Rialto","geo_score":0.857,"country":null,"id":"a6axykgk1c51","geo_precision":"zip","tags traced":1},"type":"Feature","geometry":{"type":"Point","coordinates":[-117.3703235,34.1064001]}},{"properties":{"city":"Richmond","geo_score":0.796,"country":null,"id":"a6axykpzlqoq","geo_precision":"zip","tags traced":4},"type":"Feature","geometry":{"type":"Point","coordinates":[-74.1495875,40.5834379]}},{"properties":{"city":"Rochelle Park","geo_score":0.726,"country":null,"id":"a6axykeykz69","geo_precision":"zip","tags traced":1},"type":"Feature","geometry":{"type":"Point","coordinates":[2.6166667,9.35]}},{"properties":{"city":"Rochester","geo_score":1.0,"country":"United States","id":"a6axykfd5jcm","geo_precision":"zip","tags traced":3},"type":"Feature","geometry":{"type":"Point","coordinates":[-77.6155568,43.1547845]}},{"properties":{"city":"Rockcliffe","geo_score":0.891,"country":"United States","id":"a6axyklxf64z","geo_precision":"zip","tags traced":1},"type":"Feature","geometry":{"type":"Point","coordinates":[-87.6147509,34.5100944]}},{"properties":{"city":"Rockland","geo_score":0.796,"country":null,"id":"a6axykilnkya","geo_precision":"zip","tags traced":1},"type":"Feature","geometry":{"type":"Point","coordinates":[-74.0495861,41.1667617]}},{"properties":{"city":"Roeselare","geo_score":0.857,"country":null,"id":"a6axyknz0i68","geo_precision":"zip","tags traced":2},"type":"Feature","geometry":{"type":"Point","coordinates":[3.1226921081543,50.9465312558688]}},{"properties":{"city":"Rome","geo_score":0.821,"country":null,"id":"a6axykmys5sh","geo_precision":"zip","tags traced":1},"type":"Feature","geometry":{"type":"Point","coordinates":[12.4833333,41.9]}},{"properties":{"city":"Roosendaal","geo_score":0.857,"country":null,"id":"a6axykrzk657","geo_precision":"zip","tags traced":1},"type":"Feature","geometry":{"type":"Point","coordinates":[4.465278,51.530833]}},{"properties":{"city":"Rosemere","geo_score":0.786,"country":null,"id":"a6axykfcl5z7","geo_precision":"zip","tags traced":2},"type":"Feature","geometry":{"type":"Point","coordinates":[-118.0850642,33.7855722]}},{"properties":{"city":"Roswell","geo_score":1.0,"country":"United States","id":"a6axykfhaub2","geo_precision":"zip","tags traced":1},"type":"Feature","geometry":{"type":"Point","coordinates":[-84.3615928,34.0231553]}},{"properties":{"city":"Rotterdam","geo_score":1.0,"country":"Netherlands","id":"a6axykpc7fmz","geo_precision":"zip","tags traced":2},"type":"Feature","geometry":{"type":"Point","coordinates":[4.479167,51.9225]}},{"properties":{"city":"Ruddervoorde","geo_score":1.0,"country":"Belgium","id":"a6axykfe81hu","geo_precision":"zip","tags traced":2},"type":"Feature","geometry":{"type":"Point","coordinates":[3.2,51.1]}},{"properties":{"city":"Sackville","geo_score":0.767,"country":null,"id":"a6axyko3i0y0","geo_precision":"zip","tags traced":8},"type":"Feature","geometry":{"type":"Point","coordinates":[-0.5166667,49.2333333]}},{"properties":{"city":"Saco","geo_score":0.771,"country":null,"id":"a6axykhe9ona","geo_precision":"zip","tags traced":2},"type":"Feature","geometry":{"type":"Point","coordinates":[135.4666667,34.5833333]}},{"properties":{"city":"Salaberry-de-Valleyfield","geo_score":0.857,"country":null,"id":"a6axykrni23m","geo_precision":"zip","tags traced":3},"type":"Feature","geometry":{"type":"Point","coordinates":[-74.132534352,45.250083433]}},{"properties":{"city":"Salem","geo_score":1.0,"country":"United States","id":"a6axykgmqg54","geo_precision":"zip","tags traced":3},"type":"Feature","geometry":{"type":"Point","coordinates":[-123.0350963,44.9428975]}},{"properties":{"city":"Salt Lake City","geo_score":0.969,"country":"United States","id":"a6axykdwnlyq","geo_precision":"zip","tags traced":2},"type":"Feature","geometry":{"type":"Point","coordinates":[-111.8763236,40.6255033]}},{"properties":{"city":"San Antonio","geo_score":0.743,"country":null,"id":"a6axykfmrigs","geo_precision":"zip","tags traced":5},"type":"Feature","geometry":{"type":"Point","coordinates":[108.9286111,34.2583333]}},{"properties":{"city":"San Francisco","geo_score":1.0,"country":"United States","id":"a6axykrghyo7","geo_precision":"zip","tags traced":7},"type":"Feature","geometry":{"type":"Point","coordinates":[-122.4194155,37.7749295]}},{"properties":{"city":"Sandefjord","geo_score":0.857,"country":null,"id":"a6axykgtfq3p","geo_precision":"zip","tags traced":1},"type":"Feature","geometry":{"type":"Point","coordinates":[10.2333333,59.1333333]}},{"properties":{"city":"Santo Domingo","geo_score":0.75,"country":null,"id":"a6axykng0zj4","geo_precision":"zip","tags traced":1},"type":"Feature","geometry":{"type":"Point","coordinates":[69.0,25.5]}},{"properties":{"city":"Saratoga Springs","geo_score":0.781,"country":null,"id":"a6axykeahhw6","geo_precision":"zip","tags traced":4},"type":"Feature","geometry":{"type":"Point","coordinates":[28.4,-26.25]}},{"properties":{"city":"Saskatoon","geo_score":0.857,"country":null,"id":"a6axyktrg1nl","geo_precision":"zip","tags traced":1},"type":"Feature","geometry":{"type":"Point","coordinates":[-106.634521548,52.116786331]}},{"properties":{"city":"Sault Sainte Marie","geo_score":0.741,"country":null,"id":"a6axykkpipni","geo_precision":"zip","tags traced":2},"type":"Feature","geometry":{"type":"Point","coordinates":[69.0,25.5]}},{"properties":{"city":"Schenectady","geo_score":0.807,"country":null,"id":"a6axykic6l97","geo_precision":"zip","tags traced":1},"type":"Feature","geometry":{"type":"Point","coordinates":[-74.0829049,42.8334089]}},{"properties":{"city":"Schiedam","geo_score":0.857,"country":null,"id":"a6axyke4nev6","geo_precision":"zip","tags traced":1},"type":"Feature","geometry":{"type":"Point","coordinates":[4.388889,51.919167]}},{"properties":{"city":"Seaside Heights","geo_score":0.745,"country":null,"id":"a6axykpk649l","geo_precision":"zip","tags traced":1},"type":"Feature","geometry":{"type":"Point","coordinates":[5.233333,52.09]}},{"properties":{"city":"Seattle","geo_score":0.857,"country":null,"id":"a6axykh6e65w","geo_precision":"zip","tags traced":6},"type":"Feature","geometry":{"type":"Point","coordinates":[-122.3320708,47.6062095]}},{"properties":{"city":"Seoul","geo_score":1.0,"country":"South Korea","id":"a6axykhwy1zd","geo_precision":"zip","tags traced":5},"type":"Feature","geometry":{"type":"Point","coordinates":[126.9997222,37.5663889]}},{"properties":{"city":"Sevilla","geo_score":0.857,"country":null,"id":"a6axykksnasa","geo_precision":"zip","tags traced":1},"type":"Feature","geometry":{"type":"Point","coordinates":[-5.95917769065896,37.3914105564361]}},{"properties":{"city":"Sharon","geo_score":0.816,"country":null,"id":"a6axykdtekdy","geo_precision":"zip","tags traced":1},"type":"Feature","geometry":{"type":"Point","coordinates":[139.0166667,37.7666667]}},{"properties":{"city":"Sherbrooke","geo_score":0.857,"country":null,"id":"a6axykh1qq8c","geo_precision":"zip","tags traced":1},"type":"Feature","geometry":{"type":"Point","coordinates":[-71.899077839,45.400083013]}},{"properties":{"city":"Shibuya","geo_score":1.0,"country":"Japan","id":"a6axykewifos","geo_precision":"zip","tags traced":1},"type":"Feature","geometry":{"type":"Point","coordinates":[139.7,35.65]}},{"properties":{"city":"Shirley","geo_score":1.0,"country":"United States","id":"a6axyks3wx5j","geo_precision":"zip","tags traced":1},"type":"Feature","geometry":{"type":"Point","coordinates":[-72.8676033,40.8014876]}},{"properties":{"city":"Silver Spring","geo_score":0.869,"country":"United States","id":"a6axykhm2063","geo_precision":"zip","tags traced":3},"type":"Feature","geometry":{"type":"Point","coordinates":[-115.2450006,36.1080258]}},{"properties":{"city":"Sint Jansteen","geo_score":0.938,"country":"Netherlands","id":"a6axykiauyxj","geo_precision":"zip","tags traced":1},"type":"Feature","geometry":{"type":"Point","coordinates":[6.005556,52.6775]}},{"properties":{"city":"Sint-Josse-Ten-Noode","geo_score":0.924,"country":"Belgium","id":"a6axykt7dq2w","geo_precision":"zip","tags traced":1},"type":"Feature","geometry":{"type":"Point","coordinates":[4.9,51.1833333]}},{"properties":{"city":"Sint-Niklaas","geo_score":0.766,"country":null,"id":"a6axykhbuiy7","geo_precision":"zip","tags traced":2},"type":"Feature","geometry":{"type":"Point","coordinates":[123.0,8.15]}},{"properties":{"city":"Skedsmokorset","geo_score":0.934,"country":"Norway","id":"a6axykfbwhbg","geo_precision":"zip","tags traced":1},"type":"Feature","geometry":{"type":"Point","coordinates":[11.031791119491,59.9779376945234]}},{"properties":{"city":"Sluis","geo_score":1.0,"country":"Netherlands","id":"a6axykkyjve1","geo_precision":"zip","tags traced":4},"type":"Feature","geometry":{"type":"Point","coordinates":[4.977778,51.955833]}},{"properties":{"city":"Smithville","geo_score":0.957,"country":"United States","id":"a6axykf6xv0b","geo_precision":"zip","tags traced":1},"type":"Feature","geometry":{"type":"Point","coordinates":[-71.549507,41.9220433]}},{"properties":{"city":"Smyrna","geo_score":0.857,"country":null,"id":"a6axykoeo6vd","geo_precision":"zip","tags traced":2},"type":"Feature","geometry":{"type":"Point","coordinates":[-84.5143761,33.8839926]}},{"properties":{"city":"Solna","geo_score":0.905,"country":"Sweden","id":"a6axykkr3d1x","geo_precision":"zip","tags traced":3},"type":"Feature","geometry":{"type":"Point","coordinates":[13.2666667,61.15]}},{"properties":{"city":"Somerset","geo_score":0.796,"country":null,"id":"a6axykj3koee","geo_precision":"zip","tags traced":1},"type":"Feature","geometry":{"type":"Point","coordinates":[-74.5496003,40.5667697]}},{"properties":{"city":"South Portland","geo_score":0.802,"country":null,"id":"a6axyklevgr0","geo_precision":"zip","tags traced":1},"type":"Feature","geometry":{"type":"Point","coordinates":[-122.6762071,45.5234515]}},{"properties":{"city":"Springfield","geo_score":0.792,"country":null,"id":"a6axyks3m53r","geo_precision":"zip","tags traced":2},"type":"Feature","geometry":{"type":"Point","coordinates":[28.4,-26.25]}},{"properties":{"city":"St Albert","geo_score":0.804,"country":null,"id":"a6axykmk2hs3","geo_precision":"zip","tags traced":1},"type":"Feature","geometry":{"type":"Point","coordinates":[-117.469001862,52.283328931]}},{"properties":{"city":"St John","geo_score":0.762,"country":"Canaa","id":"a6axykr76kz5","geo_precision":"zip","tags traced":17},"type":"Feature","geometry":{"type":"Point","coordinates":[115.0,27.1333333]}},{"properties":{"city":"St John's","geo_score":1.0,"country":"Canada","id":"a6axyks7jwbk","geo_precision":"zip","tags traced":74},"type":"Feature","geometry":{"type":"Point","coordinates":[-52.7093124389648,47.5649440729204]}},{"properties":{"city":"St-Basile-le-Grand","geo_score":0.733,"country":null,"id":"a6axyks1ei0g","geo_precision":"zip","tags traced":1},"type":"Feature","geometry":{"type":"Point","coordinates":[26.0666667,45.65]}},{"properties":{"city":"St-Eustache","geo_score":0.857,"country":null,"id":"a6axyklc2lks","geo_precision":"zip","tags traced":2},"type":"Feature","geometry":{"type":"Point","coordinates":[-97.780700174,49.975313971]}},{"properties":{"city":"St-Georges","geo_score":0.762,"country":null,"id":"a6axykfkqyzr","geo_precision":"zip","tags traced":1},"type":"Feature","geometry":{"type":"Point","coordinates":[8.33333,48.1333]}},{"properties":{"city":"St-Hubert","geo_score":0.765,"country":null,"id":"a6axykswpg4l","geo_precision":"zip","tags traced":1},"type":"Feature","geometry":{"type":"Point","coordinates":[-82.5817641,27.4630959]}},{"properties":{"city":"St-Jean-sur-Richelieu","geo_score":0.0,"country":"France","id":"a6axyktzhvw9","geo_precision":"unmatched","tags traced":2},"type":"Feature","geometry":null},{"properties":{"city":"St-Jerome","geo_score":0.778,"country":null,"id":"a6axykgpivj4","geo_precision":"zip","tags traced":1},"type":"Feature","geometry":{"type":"Point","coordinates":[-85.249865931,48.050098819]}},{"properties":{"city":"St-Lambert","geo_score":0.831,"country":null,"id":"a6axyksch2i0","geo_precision":"zip","tags traced":2},"type":"Feature","geometry":{"type":"Point","coordinates":[6.77139,51.2281]}},{"properties":{"city":"St-Remi","geo_score":0.776,"country":null,"id":"a6axykt4d1a7","geo_precision":"zip","tags traced":1},"type":"Feature","geometry":{"type":"Point","coordinates":[9.2333333,53.1166667]}},{"properties":{"city":"Stamford","geo_score":0.857,"country":null,"id":"a6axykq31022","geo_precision":"zip","tags traced":5},"type":"Feature","geometry":{"type":"Point","coordinates":[-73.5387341,41.0534302]}},{"properties":{"city":"Stavanger","geo_score":0.857,"country":null,"id":"a6axykggxhlh","geo_precision":"zip","tags traced":1},"type":"Feature","geometry":{"type":"Point","coordinates":[5.75,58.9666667]}},{"properties":{"city":"Ste-Anne-de-Bellevue","geo_score":0.782,"country":null,"id":"a6axykit3pdz","geo_precision":"zip","tags traced":1},"type":"Feature","geometry":{"type":"Point","coordinates":[20.0277778,42.5230556]}},{"properties":{"city":"Ste-Julie","geo_score":0.736,"country":null,"id":"a6axykm2qt1y","geo_precision":"zip","tags traced":1},"type":"Feature","geometry":{"type":"Point","coordinates":[116.0833333,31.95]}},{"properties":{"city":"Stellarton","geo_score":0.752,"country":null,"id":"a6axykiqsrg7","geo_precision":"zip","tags traced":5},"type":"Feature","geometry":{"type":"Point","coordinates":[6.748611,53.103333]}},{"properties":{"city":"Stockholm","geo_score":0.857,"country":null,"id":"a6axykgqlpnz","geo_precision":"zip","tags traced":4},"type":"Feature","geometry":{"type":"Point","coordinates":[18.0649030208588,59.3325765361753]}},{"properties":{"city":"Stratford","geo_score":0.857,"country":null,"id":"a6axykl88p9h","geo_precision":"zip","tags traced":1},"type":"Feature","geometry":{"type":"Point","coordinates":[-73.1331651,41.1845415]}},{"properties":{"city":"Summerside","geo_score":1.0,"country":"Canada","id":"a6axyklqn1ij","geo_precision":"zip","tags traced":29},"type":"Feature","geometry":{"type":"Point","coordinates":[-63.787622873,46.395933452]}},{"properties":{"city":"Sussex","geo_score":0.857,"country":null,"id":"a6axyke2c7jm","geo_precision":"zip","tags traced":1},"type":"Feature","geometry":{"type":"Point","coordinates":[-88.2220372,43.1338972]}},{"properties":{"city":"Swans Island","geo_score":0.792,"country":null,"id":"a6axykgr2nym","geo_precision":"zip","tags traced":2},"type":"Feature","geometry":{"type":"Point","coordinates":[-3.94323348999023,51.6207876683235]}},{"properties":{"city":"Sydney","geo_score":0.881,"country":"Canada","id":"a6axykogml4j","geo_precision":"zip","tags traced":61},"type":"Feature","geometry":{"type":"Point","coordinates":[-82.533113491,48.916923362]}},{"properties":{"city":"Syracuse","geo_score":1.0,"country":"United States","id":"a6axykpo1qcs","geo_precision":"zip","tags traced":4},"type":"Feature","geometry":{"type":"Point","coordinates":[-76.1474244,43.0481221]}},{"properties":{"city":"Tervuren","geo_score":1.0,"country":"Belgium","id":"a6axykqqem49","geo_precision":"zip","tags traced":2},"type":"Feature","geometry":{"type":"Point","coordinates":[4.5166667,50.8166667]}},{"properties":{"city":"Tewksbury","geo_score":0.857,"country":null,"id":"a6axykduy499","geo_precision":"zip","tags traced":1},"type":"Feature","geometry":{"type":"Point","coordinates":[-71.2342248,42.6106479]}},{"properties":{"city":"The Hague","geo_score":0.75,"country":null,"id":"a6axyklnpbyn","geo_precision":"zip","tags traced":4},"type":"Feature","geometry":{"type":"Point","coordinates":[110.3416667,20.0458333]}},{"properties":{"city":"Tielt","geo_score":0.762,"country":null,"id":"a6axykk6zta0","geo_precision":"zip","tags traced":1},"type":"Feature","geometry":{"type":"Point","coordinates":[-83.555212,41.6639383]}},{"properties":{"city":"Tokyo","geo_score":1.0,"country":"Japan","id":"a6axykecjp9w","geo_precision":"zip","tags traced":1},"type":"Feature","geometry":{"type":"Point","coordinates":[139.691677093506,35.6895265930799]}},{"properties":{"city":"Torhout","geo_score":0.786,"country":null,"id":"a6axykfpmpdm","geo_precision":"zip","tags traced":1},"type":"Feature","geometry":{"type":"Point","coordinates":[-87.4139092,39.4667034]}},{"properties":{"city":"Toronto","geo_score":1.0,"country":"Canada","id":"a6axykmequ3n","geo_precision":"zip","tags traced":47},"type":"Feature","geometry":{"type":"Point","coordinates":[-79.416304194,43.700113788]}},{"properties":{"city":"Torshavn","geo_score":0.857,"country":null,"id":"a6axykmfvygb","geo_precision":"zip","tags traced":1},"type":"Feature","geometry":{"type":"Point","coordinates":[-7.1166667,62.05]}},{"properties":{"city":"Tottenham","geo_score":0.8,"country":null,"id":"a6axyklz4rss","geo_precision":"zip","tags traced":1},"type":"Feature","geometry":{"type":"Point","coordinates":[8.4241667,49.1716667]}},{"properties":{"city":"Trieste","geo_score":0.857,"country":null,"id":"a6axyktse9dr","geo_precision":"zip","tags traced":1},"type":"Feature","geometry":{"type":"Point","coordinates":[13.78,45.6486111]}},{"properties":{"city":"Trois-Rivieres","geo_score":0.857,"country":null,"id":"a6axyku55w1a","geo_precision":"zip","tags traced":2},"type":"Feature","geometry":{"type":"Point","coordinates":[-72.549118788,46.350060887]}},{"properties":{"city":"Tromso","geo_score":0.762,"country":null,"id":"a6axykp7wwgm","geo_precision":"zip","tags traced":2},"type":"Feature","geometry":{"type":"Point","coordinates":[67.2783333,37.2241667]}},{"properties":{"city":"Troy","geo_score":0.75,"country":null,"id":"a6axykgy43m4","geo_precision":"zip","tags traced":2},"type":"Feature","geometry":{"type":"Point","coordinates":[35.1938889,33.2733333]}},{"properties":{"city":"Truro","geo_score":0.771,"country":null,"id":"a6axykq9nznc","geo_precision":"zip","tags traced":1},"type":"Feature","geometry":{"type":"Point","coordinates":[6.639275,49.75375]}},{"properties":{"city":"Tucker","geo_score":0.857,"country":null,"id":"a6axyklxvdpn","geo_precision":"zip","tags traced":1},"type":"Feature","geometry":{"type":"Point","coordinates":[-84.2171424,33.8545479]}},{"properties":{"city":"Uccle","geo_score":1.0,"country":"Belgium","id":"a6axykpb2doy","geo_precision":"zip","tags traced":1},"type":"Feature","geometry":{"type":"Point","coordinates":[4.3166667,50.8]}},{"properties":{"city":"Unionville","geo_score":0.857,"country":null,"id":"a6axykss9s25","geo_precision":"zip","tags traced":1},"type":"Feature","geometry":{"type":"Point","coordinates":[-80.5089552,35.0873694]}},{"properties":{"city":"Valencia","geo_score":0.857,"country":null,"id":"a6axyku4koci","geo_precision":"zip","tags traced":4},"type":"Feature","geometry":{"type":"Point","coordinates":[-68.0038889,10.1805556]}},{"properties":{"city":"Valladolid","geo_score":0.857,"country":null,"id":"a6axykdrneb6","geo_precision":"zip","tags traced":1},"type":"Feature","geometry":{"type":"Point","coordinates":[-4.7166667,41.65]}},{"properties":{"city":"Valleyfield","geo_score":0.758,"country":null,"id":"a6axykkvzj8y","geo_precision":"zip","tags traced":2},"type":"Feature","geometry":{"type":"Point","coordinates":[7.540129,44.543734]}},{"properties":{"city":"Vancouver","geo_score":1.0,"country":"Canada","id":"a6axykt97q8b","geo_precision":"zip","tags traced":114},"type":"Feature","geometry":{"type":"Point","coordinates":[-123.119340403,49.249657393]}},{"properties":{"city":"Vanier","geo_score":1.0,"country":"Canada","id":"a6axykmj4ris","geo_precision":"zip","tags traced":2},"type":"Feature","geometry":{"type":"Point","coordinates":[-78.749592624,49.083481555]}},{"properties":{"city":"Vankleek Hill","geo_score":0.75,"country":null,"id":"a6axykl3riyx","geo_precision":"zip","tags traced":2},"type":"Feature","geometry":{"type":"Point","coordinates":[12.0,51.5]}},{"properties":{"city":"Vaudreuil","geo_score":0.746,"country":null,"id":"a6axykpzkbhz","geo_precision":"zip","tags traced":3},"type":"Feature","geometry":{"type":"Point","coordinates":[12.078363,42.309823]}},{"properties":{"city":"Veghel","geo_score":0.857,"country":null,"id":"a6axykkl2po5","geo_precision":"zip","tags traced":1},"type":"Feature","geometry":{"type":"Point","coordinates":[5.548611,51.616667]}},{"properties":{"city":"Vernon Hills","geo_score":0.792,"country":null,"id":"a6axyksvruwa","geo_precision":"zip","tags traced":2},"type":"Feature","geometry":{"type":"Point","coordinates":[-119.269054389,50.258088573]}},{"properties":{"city":"Verona","geo_score":0.81,"country":null,"id":"a6axykqjhiui","geo_precision":"zip","tags traced":1},"type":"Feature","geometry":{"type":"Point","coordinates":[27.9166667,43.2166667]}},{"properties":{"city":"Viana Do Castelo","geo_score":0.755,"country":null,"id":"a6axykrr5gx6","geo_precision":"zip","tags traced":1},"type":"Feature","geometry":{"type":"Point","coordinates":[16.3720750808716,48.2084877601653]}},{"properties":{"city":"Victoria","geo_score":0.857,"country":null,"id":"a6axykjksedh","geo_precision":"zip","tags traced":1},"type":"Feature","geometry":{"type":"Point","coordinates":[-123.369299678,48.432935738]}},{"properties":{"city":"Victoriaville","geo_score":0.835,"country":null,"id":"a6axykjvg5uj","geo_precision":"zip","tags traced":1},"type":"Feature","geometry":{"type":"Point","coordinates":[-117.2911565,34.5361067]}},{"properties":{"city":"Vigo","geo_score":0.857,"country":null,"id":"a6axykti7atr","geo_precision":"zip","tags traced":1},"type":"Feature","geometry":{"type":"Point","coordinates":[-8.81205840046395,42.2154941475053]}},{"properties":{"city":"Vlissingen","geo_score":1.0,"country":"Netherlands","id":"a6axyknm4q2h","geo_precision":"zip","tags traced":3},"type":"Feature","geometry":{"type":"Point","coordinates":[3.573611,51.4425]}},{"properties":{"city":"Voorburg","geo_score":1.0,"country":"Netherlands","id":"a6axykgu1x4e","geo_precision":"zip","tags traced":1},"type":"Feature","geometry":{"type":"Point","coordinates":[4.359722,52.074167]}},{"properties":{"city":"Waregem","geo_score":0.857,"country":null,"id":"a6axykmodcfj","geo_precision":"zip","tags traced":1},"type":"Feature","geometry":{"type":"Point","coordinates":[3.4166667,50.8833333]}},{"properties":{"city":"Warrenton","geo_score":0.857,"country":null,"id":"a6axykidbvvj","geo_precision":"zip","tags traced":1},"type":"Feature","geometry":{"type":"Point","coordinates":[24.85,-28.1166667]}},{"properties":{"city":"Washington","geo_score":1.0,"country":"United States","id":"a6axykon08pc","geo_precision":"zip","tags traced":11},"type":"Feature","geometry":{"type":"Point","coordinates":[-120.5014693,47.5001238]}},{"properties":{"city":"Waterbury","geo_score":0.857,"country":null,"id":"a6axykqffs6n","geo_precision":"zip","tags traced":1},"type":"Feature","geometry":{"type":"Point","coordinates":[-73.0514966,41.5581525]}},{"properties":{"city":"Waterloo","geo_score":0.857,"country":null,"id":"a6axykiec1jk","geo_precision":"zip","tags traced":2},"type":"Feature","geometry":{"type":"Point","coordinates":[-80.516389802,43.466795567]}},{"properties":{"city":"Watertown","geo_score":0.857,"country":null,"id":"a6axykmuwwao","geo_precision":"zip","tags traced":1},"type":"Feature","geometry":{"type":"Point","coordinates":[-71.1828321,42.3709299]}},{"properties":{"city":"Weare","geo_score":0.771,"country":null,"id":"a6axyko77d4q","geo_precision":"zip","tags traced":1},"type":"Feature","geometry":{"type":"Point","coordinates":[5.75,5.5166667]}},{"properties":{"city":"Wellesley","geo_score":0.762,"country":null,"id":"a6axykgmo6yb","geo_precision":"zip","tags traced":1},"type":"Feature","geometry":{"type":"Point","coordinates":[-2.0,52.6]}},{"properties":{"city":"West Haven","geo_score":0.762,"country":null,"id":"a6axyknwmj5y","geo_precision":"zip","tags traced":1},"type":"Feature","geometry":{"type":"Point","coordinates":[-82.3641667,23.1319444]}},{"properties":{"city":"West Orange","geo_score":0.78,"country":null,"id":"a6axyknfhijw","geo_precision":"zip","tags traced":2},"type":"Feature","geometry":{"type":"Point","coordinates":[-12.65625,24.492147541216]}},{"properties":{"city":"West Palm Beach","geo_score":0.762,"country":null,"id":"a6axykppcybg","geo_precision":"zip","tags traced":2},"type":"Feature","geometry":{"type":"Point","coordinates":[-80.4497744,26.6503442]}},{"properties":{"city":"West Warwick","geo_score":0.805,"country":null,"id":"a6axykhmtamy","geo_precision":"zip","tags traced":1},"type":"Feature","geometry":{"type":"Point","coordinates":[-71.4161671,41.700101]}},{"properties":{"city":"Westford","geo_score":0.774,"country":null,"id":"a6axykfqhnhi","geo_precision":"zip","tags traced":2},"type":"Feature","geometry":{"type":"Point","coordinates":[-80.5000866,38.5003838]}},{"properties":{"city":"Weymouth","geo_score":0.857,"country":null,"id":"a6axykmdnr6w","geo_precision":"zip","tags traced":3},"type":"Feature","geometry":{"type":"Point","coordinates":[-70.9397684,42.2209333]}},{"properties":{"city":"Whistler","geo_score":0.857,"country":null,"id":"a6axykquqxsn","geo_precision":"zip","tags traced":1},"type":"Feature","geometry":{"type":"Point","coordinates":[-122.969456209,50.116395542]}},{"properties":{"city":"White River Junction","geo_score":0.73,"country":null,"id":"a6axykt2sjvm","geo_precision":"zip","tags traced":1},"type":"Feature","geometry":{"type":"Point","coordinates":[106.7116667,39.4994444]}},{"properties":{"city":"Whitinsville","geo_score":0.857,"country":null,"id":"a6axykqh92c3","geo_precision":"zip","tags traced":1},"type":"Feature","geometry":{"type":"Point","coordinates":[-71.6661783,42.1112075]}},{"properties":{"city":"Wielsbeke","geo_score":0.857,"country":null,"id":"a6axykkbhfnk","geo_precision":"zip","tags traced":3},"type":"Feature","geometry":{"type":"Point","coordinates":[3.3666667,50.9]}},{"properties":{"city":"Wijchen","geo_score":0.857,"country":null,"id":"a6axyksu7wqh","geo_precision":"zip","tags traced":1},"type":"Feature","geometry":{"type":"Point","coordinates":[5.725,51.809167]}},{"properties":{"city":"Wilmington","geo_score":0.857,"country":null,"id":"a6axykh8xm6a","geo_precision":"zip","tags traced":2},"type":"Feature","geometry":{"type":"Point","coordinates":[-77.9447102,34.2257256]}},{"properties":{"city":"Winchester","geo_score":0.857,"country":null,"id":"a6axykqx2h4a","geo_precision":"zip","tags traced":1},"type":"Feature","geometry":{"type":"Point","coordinates":[-1.31870269775391,51.0651332044118]}},{"properties":{"city":"Windham","geo_score":0.791,"country":null,"id":"a6axyku6ucyr","geo_precision":"zip","tags traced":1},"type":"Feature","geometry":{"type":"Point","coordinates":[-72.0000745,41.8334313]}},{"properties":{"city":"Windsor","geo_score":0.857,"country":null,"id":"a6axykk1rmp0","geo_precision":"zip","tags traced":2},"type":"Feature","geometry":{"type":"Point","coordinates":[-83.016543483,42.300083644]}},{"properties":{"city":"Winnipeg","geo_score":1.0,"country":"Canada","id":"a6axykqvxsrv","geo_precision":"zip","tags traced":2},"type":"Feature","geometry":{"type":"Point","coordinates":[-97.147044715,49.884398624]}},{"properties":{"city":"Woburn","geo_score":0.857,"country":null,"id":"a6axykicvld4","geo_precision":"zip","tags traced":3},"type":"Feature","geometry":{"type":"Point","coordinates":[-71.1522766,42.4792618]}},{"properties":{"city":"Wolfville","geo_score":1.0,"country":"Canada","id":"a6axyksd4xtf","geo_precision":"zip","tags traced":6},"type":"Feature","geometry":{"type":"Point","coordinates":[-64.365455132,45.083449463]}},{"properties":{"city":"Woodbury","geo_score":0.857,"country":null,"id":"a6axykfzwjvg","geo_precision":"zip","tags traced":1},"type":"Feature","geometry":{"type":"Point","coordinates":[-92.9593797,44.9238552]}},{"properties":{"city":"Woodstock","geo_score":0.743,"country":null,"id":"a6axykfsoekd","geo_precision":"zip","tags traced":4},"type":"Feature","geometry":{"type":"Point","coordinates":[-89.9167821,41.7505854]}},{"properties":{"city":"Worcester","geo_score":0.8,"country":null,"id":"a6axykpoaycb","geo_precision":"zip","tags traced":2},"type":"Feature","geometry":{"type":"Point","coordinates":[-71.8328499,42.3334256]}},{"properties":{"city":"Wynnewood","geo_score":0.905,"country":"United States","id":"a6axykdxt3bj","geo_precision":"zip","tags traced":2},"type":"Feature","geometry":{"type":"Point","coordinates":[-105.1708193,40.103874]}},{"properties":{"city":"Yarmouth","geo_score":1.0,"country":"Canada","id":"a6axykes1hnu","geo_precision":"zip","tags traced":218},"type":"Feature","geometry":{"type":"Point","coordinates":[-66.11556919,43.833452402]}},{"properties":{"city":"Yellowknife","geo_score":1.0,"country":"Canada","id":"a6axykndnlqb","geo_precision":"zip","tags traced":1},"type":"Feature","geometry":{"type":"Point","coordinates":[-114.352546021,62.455995109]}},{"properties":{"city":"York","geo_score":1.0,"country":"Canada","id":"a6axykk3kgoa","geo_precision":"zip","tags traced":1},"type":"Feature","geometry":{"type":"Point","coordinates":[-63.098684087,46.316816852]}},{"properties":{"city":"Yorktown Heights","geo_score":1.0,"country":"United States","id":"a6axykqpisyg","geo_precision":"zip","tags traced":1},"type":"Feature","geometry":{"type":"Point","coordinates":[-73.7776336,41.2709274]}},{"properties":{"city":"Youngstown","geo_score":1.0,"country":"United States","id":"a6axyktma024","geo_precision":"zip","tags traced":1},"type":"Feature","geometry":{"type":"Point","coordinates":[-80.6495194,41.0997803]}},{"properties":{"city":"Zanesville","geo_score":1.0,"country":"United States","id":"a6axykhl1hpe","geo_precision":"zip","tags traced":1},"type":"Feature","geometry":{"type":"Point","coordinates":[-82.0131924,39.9403453]}},{"properties":{"city":"Zeebrugge","geo_score":0.905,"country":"Belgium","id":"a6axyko04h79","geo_precision":"zip","tags traced":2},"type":"Feature","geometry":{"type":"Point","coordinates":[4.25,50.8]}},{"properties":{"city":"Zevenbergen","geo_score":0.935,"country":"Netherlands","id":"a6axykmvmg7p","geo_precision":"zip","tags traced":2},"type":"Feature","geometry":{"type":"Point","coordinates":[5.85,52.8666667]}},{"properties":{"city":"Zoetermeer","geo_score":1.0,"country":"Netherlands","id":"a6axykgpe1ud","geo_precision":"zip","tags traced":4},"type":"Feature","geometry":{"type":"Point","coordinates":[4.493056,52.0575]}},{"properties":{"city":"Zurich","geo_score":1.0,"country":"Switzerland","id":"a6axykq8ognj","geo_precision":"zip","tags traced":1},"type":"Feature","geometry":{"type":"Point","coordinates":[8.55,47.3666667]}},{"properties":{"city":"Zwolle","geo_score":1.0,"country":"Netherlands","id":"a6axykhf0v97","geo_precision":"zip","tags traced":1},"type":"Feature","geometry":{"type":"Point","coordinates":[6.094444,52.5125]}}],"is_temporal":false,"author":{"url":"","metadata":"","contact_name":"","contact_address":"","source":"","contact_phone":""},"source":"","pagination":{"sort":null,"start":0,"total":538,"limit":1000000},"state":"complete","tags":"","published":"2014-08-13T00:53:58-04:00","id":122477}