{"type":"FeatureCollection","data_type":"Dataset","url_type":null,"permissions":[{"permissions":{"download":true,"view":true},"group_id":"everyone"}],"classification":null,"title":"California School Closings due to Swine Flu, April 2009","count":6,"stream_id":12257,"contributor":{"url":"http://geocommons.com/users/2943","name":"Margot"},"data_attributes":null,"calculation_params":null,"icon_link":null,"link":"http://geocommons.com/overlays/12257.json","extent":[-119.184,33.7149,-116.216,34.1621],"geometry_types":["point"],"unique_name":null,"name":"California School Closings due to Swine Flu, April 2009","feature_count":6,"description":"This is a geocoded list of schools that have been closed due to reported cases of swine flu. ","next_feature":null,"is_raster":false,"short_classification":"Y","stats":{"lat":{"max":34.162069,"mean":34.0033475,"variance":0.0334532509066994,"stdev":0.182902298801025,"min":33.71491,"median":34.123788},"long":{"max":-116.216179,"mean":-117.808946833333,"variance":1.35819291295577,"stdev":1.16541533924853,"min":-119.18373,"median":-117.502569}},"features":[{"properties":{"city":"Corona","st":"CA","county":"Riverside County","moreinfo":"For more information, contact Corona-Norco Unified School District Asst. Superintendent Thomas Pike (951) 736-5003.","closeddate":"Closed Thursday April 30","reopendate":"Will reopen Thursday May 7","street":"185 Magnolia Avenue","id":"a625cdurs599","school":"Pollard High School","lat":33.852783,"long":-117.567709},"type":"Feature","geometry":{"type":"Point","coordinates":[-117.567709,33.852783]}},{"properties":{"city":"Riverside","st":"CA","county":"Riverside County","moreinfo":"For more information, contact the Jurupa Unified School District (951) 361-3500.","closeddate":"Closed Thursday April 30","reopendate":"Will reopen Thursday May 7","street":"4020 Conning Street","id":"a625cdyxw3e9","school":"Mission Bell Elementary School","lat":34.016456,"long":-117.502569},"type":"Feature","geometry":{"type":"Point","coordinates":[-117.502569,34.016456]}},{"properties":{"city":"Indio","st":"CA","county":"Riverside County","moreinfo":"For more information, contact the Desert Sands Unified School District at (760) 777-4200.","closeddate":"Closed Thursday, April 30","reopendate":"Will reopen Thursday, May 7","street":"81-750 Avenue 46","id":"a625ce941zyd","school":"Indio High School","lat":33.71491,"long":-116.216179},"type":"Feature","geometry":{"type":"Point","coordinates":[-116.216179,33.71491]}},{"properties":{"city":"Highland","st":"CA","county":"San Bernardino County","moreinfo":"The school will be closed to students only, faculty will still report to school.","closeddate":"Closed Thursday April 30","reopendate":"Will reopen Monday May 4","street":"1331 Cole Avenue","id":"a625ce9592z9","school":"Cole Elementary School","lat":34.123788,"long":-117.212234},"type":"Feature","geometry":{"type":"Point","coordinates":[-117.212234,34.123788]}},{"properties":{"city":"Oxnard","st":"CA","county":"Ventura County","moreinfo":"No info","closeddate":"Closed Thursday April 30","reopendate":"Will reopen Thursday May 7","street":"701 E. Bard Rd.","id":"a625cdvj9otz","school":"Charles Blackstock Junior High School","lat":34.162069,"long":-119.17126},"type":"Feature","geometry":{"type":"Point","coordinates":[-119.17126,34.162069]}},{"properties":{"city":"Oxnard","st":"CA","county":"Ventura County","moreinfo":"No info","closeddate":"Closed Thursday, April 30","reopendate":"Will reopen Thursday, May 7","street":"5400 Perkins Rd.","id":"a625ce6rdbvm","school":"Art Haycox Elementary School","lat":34.150079,"long":-119.18373},"type":"Feature","geometry":{"type":"Point","coordinates":[-119.18373,34.150079]}}],"is_temporal":false,"author":{"url":"http://abclocal.go.com/kabc/story?section=news/local/los_angeles&id=6788286","metadata":"http://abclocal.go.com/kabc/story?section=news/local/los_angeles&id=6788286","contact_name":"","contact_address":"","source":"ABC Local.com","contact_phone":""},"source":"http://abclocal.go.com/kabc/story?section=news/local/los_angeles&id=6788286","pagination":{"sort":null,"start":0,"total":6,"limit":1000000},"state":"complete","tags":"california,education,health,medicine,schools,swineflu","published":"2009-01-01T12:00:00Z","id":12257}