{"type":"FeatureCollection","data_type":"Dataset","url_type":null,"permissions":[{"permissions":{"download":true,"view":true},"group_id":"everyone"}],"classification":null,"title":"PODbyRegion","count":26,"stream_id":123579,"contributor":{"url":"http://geocommons.com/users/27803","name":"ianmyles"},"data_attributes":null,"calculation_params":null,"icon_link":null,"link":"http://geocommons.com/overlays/123579.json","extent":[0.0,0.0,0.0,0.0],"geometry_types":null,"unique_name":null,"name":"PODbyRegion","feature_count":26,"description":"","next_feature":null,"is_raster":false,"short_classification":"Y","stats":{"deregistered":{"max":313358,"mean":40236.5769230769,"variance":3600851405.05385,"stdev":60007.0946226681,"min":8280,"median":27936}},"features":[{"properties":{"registered":null,"county code":"IE-CW","county":"County Carlow","county abbreviation":"CW","deregistered":12600,"id":"a6a87qbwlftv"},"type":"Feature","geometry":null},{"properties":{"registered":null,"county code":"IE-CN","county":"County Cavan","county abbreviation":"CN","deregistered":18698,"id":"a6a87qg983oa"},"type":"Feature","geometry":null},{"properties":{"registered":null,"county code":"IE-CE","county":"County Clare","county abbreviation":"CE","deregistered":24205,"id":"a6a87qk1k76m"},"type":"Feature","geometry":null},{"properties":{"registered":null,"county code":"IE-C","county":"County Cork","county abbreviation":"CK","deregistered":122174,"id":"a6a87q82as2p"},"type":"Feature","geometry":null},{"properties":{"registered":null,"county code":"IE-DL","county":"County Donegal","county abbreviation":"DL","deregistered":32743,"id":"a6a87qas2y50"},"type":"Feature","geometry":null},{"properties":{"registered":null,"county code":"IE-D","county":"County Dublin","county abbreviation":"DB","deregistered":313358,"id":"a6a87qeyns5l"},"type":"Feature","geometry":null},{"properties":{"registered":null,"county code":"IE-G","county":"County Galway","county abbreviation":"GW","deregistered":49885,"id":"a6a87q5vwj0u"},"type":"Feature","geometry":null},{"properties":{"registered":null,"county code":"IE-KY","county":"County Kerry","county abbreviation":"KY","deregistered":30278,"id":"a6a87q97mckn"},"type":"Feature","geometry":null},{"properties":{"registered":null,"county code":"IE-KE","county":"County Kildare","county abbreviation":"KE","deregistered":45772,"id":"a6a87qhwlrkd"},"type":"Feature","geometry":null},{"properties":{"registered":null,"county code":"IE-KK","county":"County Kilkenny","county abbreviation":"KK","deregistered":17578,"id":"a6a87q7g4d00"},"type":"Feature","geometry":null},{"properties":{"registered":null,"county code":"IE-LS","county":"County Laois","county abbreviation":"LS","deregistered":16065,"id":"a6a87qchl63k"},"type":"Feature","geometry":null},{"properties":{"registered":null,"county code":"IE-LM","county":"County Leitrim","county abbreviation":"LM","deregistered":8280,"id":"a6a87qbinz2l"},"type":"Feature","geometry":null},{"properties":{"registered":null,"county code":"IE-LK","county":"County Limerick","county abbreviation":"LK","deregistered":47381,"id":"a6a87q7jl05i"},"type":"Feature","geometry":null},{"properties":{"registered":null,"county code":"IE-LD","county":"County Longford","county abbreviation":"LD","deregistered":9194,"id":"a6a87qi08sbp"},"type":"Feature","geometry":null},{"properties":{"registered":null,"county code":"IE-LH","county":"County Louth","county abbreviation":"LH","deregistered":33102,"id":"a6a87q82sr9m"},"type":"Feature","geometry":null},{"properties":{"registered":null,"county code":"IE-MO","county":"County Mayo","county abbreviation":"MO","deregistered":26470,"id":"a6a87q83ong7"},"type":"Feature","geometry":null},{"properties":{"registered":null,"county code":"IE-MH","county":"County Meath","county abbreviation":"MH","deregistered":40045,"id":"a6a87qgrlvo9"},"type":"Feature","geometry":null},{"properties":{"registered":null,"county code":"IE-MN","county":"County Monaghan","county abbreviation":"MN","deregistered":13498,"id":"a6a87q6vkdli"},"type":"Feature","geometry":null},{"properties":{"registered":null,"county code":"IE-OY","county":"County Offaly","county abbreviation":"OY","deregistered":14676,"id":"a6a87qjg09vq"},"type":"Feature","geometry":null},{"properties":{"registered":null,"county code":"IE-RN","county":"County Roscommon","county abbreviation":"RN","deregistered":12696,"id":"a6a87qae9u5w"},"type":"Feature","geometry":null},{"properties":{"registered":null,"county code":"IE-SO","county":"County Sligo","county abbreviation":"SO","deregistered":14923,"id":"a6a87qdddhsr"},"type":"Feature","geometry":null},{"properties":{"registered":null,"county code":"IE-TA","county":"County Tipperary","county abbreviation":"TP","deregistered":33092,"id":"a6a87q8pir0r"},"type":"Feature","geometry":null},{"properties":{"registered":null,"county code":"IE-WD","county":"County Waterford","county abbreviation":"WD","deregistered":27936,"id":"a6a87qc9yua3"},"type":"Feature","geometry":null},{"properties":{"registered":null,"county code":"IE-WH","county":"County Westmeath","county abbreviation":"WH","deregistered":19340,"id":"a6a87q6apz2k"},"type":"Feature","geometry":null},{"properties":{"registered":null,"county code":"IE-WX","county":"County Wexford","county abbreviation":"WX","deregistered":30758,"id":"a6a87qk2itne"},"type":"Feature","geometry":null},{"properties":{"registered":null,"county code":"IE-WW","county":"County Wicklow","county abbreviation":"WW","deregistered":31404,"id":"a6a87q684iy7"},"type":"Feature","geometry":null}],"is_temporal":false,"author":{"url":"","metadata":"","contact_name":"","contact_address":"","source":"","contact_phone":""},"source":"","pagination":{"sort":null,"start":0,"total":26,"limit":1000000},"state":"complete","tags":"","published":"2014-08-13T02:46:16-04:00","id":123579}