{"type":"FeatureCollection","data_type":"Dataset","url_type":null,"permissions":[{"permissions":{"download":true,"view":true},"group_id":"everyone"}],"classification":null,"title":"Thisfish Lobster Dec10 Jun07 GeoCommons","count":535,"stream_id":123852,"contributor":{"url":"http://geocommons.com/users/12571","name":"ericennotamm"},"data_attributes":null,"calculation_params":null,"icon_link":null,"link":"http://geocommons.com/overlays/123852.json","extent":[-159.322,-37.814,144.963,70.0506],"geometry_types":["point"],"unique_name":null,"name":"Thisfish Lobster Dec10 Jun07 GeoCommons","feature_count":535,"description":"","next_feature":null,"is_raster":false,"short_classification":"Y","stats":{"lobsters traced":{"max":528,"mean":5.57383177570093,"variance":761.192572368654,"stdev":27.5897185989392,"min":1,"median":1}},"features":[{"properties":{"city":"Aalst","geo_score":1.0,"country":"Belgium","lobsters traced":1,"id":"a64nly0xxo1z","geo_precision":"zip"},"type":"Feature","geometry":{"type":"Point","coordinates":[4.0333333,50.9333333]}},{"properties":{"city":"Aalter","geo_score":1.0,"country":"Belgium","lobsters traced":1,"id":"a64nly9f6qod","geo_precision":"zip"},"type":"Feature","geometry":{"type":"Point","coordinates":[3.45,51.0833333]}},{"properties":{"city":"Abington","geo_score":1.0,"country":"United States","lobsters traced":1,"id":"a64nly8xp066","geo_precision":"zip"},"type":"Feature","geometry":{"type":"Point","coordinates":[-70.9453218,42.1048228]}},{"properties":{"city":"Ajax","geo_score":1.0,"country":"Canada","lobsters traced":1,"id":"a64nlyf95iik","geo_precision":"zip"},"type":"Feature","geometry":{"type":"Point","coordinates":[-79.032881857,43.850120192]}},{"properties":{"city":"Albany","geo_score":1.0,"country":"United States","lobsters traced":2,"id":"a64nly5114t7","geo_precision":"zip"},"type":"Feature","geometry":{"type":"Point","coordinates":[-73.7562317,42.6525793]}},{"properties":{"city":"Alkmaar","geo_score":1.0,"country":"Netherlands","lobsters traced":1,"id":"a64nlyf3cy7d","geo_precision":"zip"},"type":"Feature","geometry":{"type":"Point","coordinates":[4.748611,52.631667]}},{"properties":{"city":"Allentown","geo_score":1.0,"country":"United States","lobsters traced":3,"id":"a64nly0jgqdj","geo_precision":"zip"},"type":"Feature","geometry":{"type":"Point","coordinates":[-75.4901833,40.6084305]}},{"properties":{"city":"Almere","geo_score":0.0,"country":"Netherlands","lobsters traced":1,"id":"a64nly0fmopt","geo_precision":"unmatched"},"type":"Feature","geometry":null},{"properties":{"city":"Amherst","geo_score":0.948,"country":"Canada","lobsters traced":7,"id":"a64nly3bs6lf","geo_precision":"zip"},"type":"Feature","geometry":{"type":"Point","coordinates":[-83.049846126,42.116785378]}},{"properties":{"city":"Amstelveen","geo_score":1.0,"country":"Netherlands","lobsters traced":1,"id":"a64nly2hkymg","geo_precision":"zip"},"type":"Feature","geometry":{"type":"Point","coordinates":[4.863889,52.300833]}},{"properties":{"city":"Amsterdam","geo_score":1.0,"country":"Netherlands","lobsters traced":19,"id":"a64nly3b8a83","geo_precision":"zip"},"type":"Feature","geometry":{"type":"Point","coordinates":[4.89990234375,52.3730839945403]}},{"properties":{"city":"Angelholm","geo_score":1.0,"country":"Sweden","lobsters traced":2,"id":"a64nly9ehsa6","geo_precision":"zip"},"type":"Feature","geometry":{"type":"Point","coordinates":[12.8621900081635,56.242801447706]}},{"properties":{"city":"Antigonish","geo_score":1.0,"country":"Canada","lobsters traced":12,"id":"a64nlycyu34j","geo_precision":"zip"},"type":"Feature","geometry":{"type":"Point","coordinates":[-61.998581588,45.616846689]}},{"properties":{"city":"Antwerp","geo_score":1.0,"country":"Belgium","lobsters traced":7,"id":"a64nly5sjgen","geo_precision":"zip"},"type":"Feature","geometry":{"type":"Point","coordinates":[4.4166667,51.2166667]}},{"properties":{"city":"Arlington","geo_score":1.0,"country":"United States","lobsters traced":3,"id":"a64nlyaue7es","geo_precision":"zip"},"type":"Feature","geometry":{"type":"Point","coordinates":[-97.1080656,32.735687]}},{"properties":{"city":"Asbury Park","geo_score":1.0,"country":"United States","lobsters traced":1,"id":"a64nly32n9ax","geo_precision":"zip"},"type":"Feature","geometry":{"type":"Point","coordinates":[-74.0120817,40.2203907]}},{"properties":{"city":"Atlanta","geo_score":1.0,"country":"United States","lobsters traced":6,"id":"a64nly2bzly9","geo_precision":"zip"},"type":"Feature","geometry":{"type":"Point","coordinates":[-84.3879824,33.7489954]}},{"properties":{"city":"Augusta","geo_score":1.0,"country":"United States","lobsters traced":1,"id":"a64nly4rp4li","geo_precision":"zip"},"type":"Feature","geometry":{"type":"Point","coordinates":[-81.9748379,33.4709702]}},{"properties":{"city":"Austerlitz","geo_score":0.918,"country":"Netherlands","lobsters traced":1,"id":"a64nly6w8sae","geo_precision":"zip"},"type":"Feature","geometry":{"type":"Point","coordinates":[4.7833333,52.4166667]}},{"properties":{"city":"Avon","geo_score":1.0,"country":"United States","lobsters traced":1,"id":"a64nly1i44cb","geo_precision":"zip"},"type":"Feature","geometry":{"type":"Point","coordinates":[-82.0195883,41.4597645]}},{"properties":{"city":"Baasrode","geo_score":0.905,"country":"Belgium","lobsters traced":1,"id":"a64nlyabxd7r","geo_precision":"zip"},"type":"Feature","geometry":{"type":"Point","coordinates":[4.2166667,50.5333333]}},{"properties":{"city":"Ballston Lake","geo_score":0.952,"country":"United States","lobsters traced":2,"id":"a64nly3fzgla","geo_precision":"zip"},"type":"Feature","geometry":{"type":"Point","coordinates":[-73.8490111,43.0009087]}},{"properties":{"city":"Baltimore","geo_score":0.943,"country":"United States","lobsters traced":2,"id":"a64nly000t97","geo_precision":"zip"},"type":"Feature","geometry":{"type":"Point","coordinates":[-76.6496931,39.4667728]}},{"properties":{"city":"Bangor","geo_score":1.0,"country":"United States","lobsters traced":1,"id":"a64nly08t0vb","geo_precision":"zip"},"type":"Feature","geometry":{"type":"Point","coordinates":[-68.7778138,44.8011821]}},{"properties":{"city":"Barcelona","geo_score":1.0,"country":"Spain","lobsters traced":22,"id":"a64nly2yhvwd","geo_precision":"zip"},"type":"Feature","geometry":{"type":"Point","coordinates":[2.12803760957452,41.3994235991885]}},{"properties":{"city":"Barrie","geo_score":1.0,"country":"Canada","lobsters traced":1,"id":"a64nly0cjd1g","geo_precision":"zip"},"type":"Feature","geometry":{"type":"Point","coordinates":[-79.666337962,44.400107467]}},{"properties":{"city":"Barrington","geo_score":0.914,"country":"Canada","lobsters traced":52,"id":"a64nlyeqbtfe","geo_precision":"zip"},"type":"Feature","geometry":{"type":"Point","coordinates":[-111.818594246,54.783499882]}},{"properties":{"city":"Bass Harbor","geo_score":0.886,"country":"United States","lobsters traced":1,"id":"a64nly7xbq1f","geo_precision":"zip"},"type":"Feature","geometry":{"type":"Point","coordinates":[-116.2034505,43.6135002]}},{"properties":{"city":"Batavia","geo_score":1.0,"country":"United States","lobsters traced":1,"id":"a64nlycoi0s8","geo_precision":"zip"},"type":"Feature","geometry":{"type":"Point","coordinates":[-88.3125738,41.8500284]}},{"properties":{"city":"Bathurst","geo_score":1.0,"country":"Canada","lobsters traced":6,"id":"a64nlyajc4wg","geo_precision":"zip"},"type":"Feature","geometry":{"type":"Point","coordinates":[-76.399397738,44.90011432]}},{"properties":{"city":"Baton Rouge","geo_score":1.0,"country":"United States","lobsters traced":1,"id":"a64nly9n2dqq","geo_precision":"zip"},"type":"Feature","geometry":{"type":"Point","coordinates":[-91.154551,30.4507462]}},{"properties":{"city":"Beachwood","geo_score":1.0,"country":"United States","lobsters traced":1,"id":"a64nly8sr2ie","geo_precision":"zip"},"type":"Feature","geometry":{"type":"Point","coordinates":[-81.5087322,41.4644979]}},{"properties":{"city":"Beaconsfield","geo_score":1.0,"country":"Canada","lobsters traced":1,"id":"a64nly5q21el","geo_precision":"zip"},"type":"Feature","geometry":{"type":"Point","coordinates":[-65.332119547,44.850151267]}},{"properties":{"city":"Beauport","geo_score":0.917,"country":"Canada","lobsters traced":1,"id":"a64nly7yzbho","geo_precision":"zip"},"type":"Feature","geometry":{"type":"Point","coordinates":[-68.432335726,50.100068069]}},{"properties":{"city":"Beaverton","geo_score":0.929,"country":"Canada","lobsters traced":1,"id":"a64nlye2gs6u","geo_precision":"zip"},"type":"Feature","geometry":{"type":"Point","coordinates":[-73.658538322,47.588201048]}},{"properties":{"city":"Bedford","geo_score":1.0,"country":"United States","lobsters traced":5,"id":"a64nly2eko15","geo_precision":"zip"},"type":"Feature","geometry":{"type":"Point","coordinates":[-97.1430671,32.844017]}},{"properties":{"city":"Beekbergen","geo_score":1.0,"country":"Netherlands","lobsters traced":1,"id":"a64nlxzz3ix0","geo_precision":"zip"},"type":"Feature","geometry":{"type":"Point","coordinates":[5.963889,52.16]}},{"properties":{"city":"Beijing","geo_score":0.0,"country":"Canada","lobsters traced":1,"id":"a64nly6wmjoi","geo_precision":"unmatched"},"type":"Feature","geometry":null},{"properties":{"city":"Bellmore","geo_score":0.929,"country":"Canada","lobsters traced":1,"id":"a64nly0wofzy","geo_precision":"zip"},"type":"Feature","geometry":{"type":"Point","coordinates":[-93.683728262,51.066757638]}},{"properties":{"city":"Belvidere","geo_score":0.984,"country":"Canada","lobsters traced":1,"id":"a64nlybjea1u","geo_precision":"zip"},"type":"Feature","geometry":{"type":"Point","coordinates":[-113.435345387,53.600137803]}},{"properties":{"city":"Bennington","geo_score":1.0,"country":"Canada","lobsters traced":1,"id":"a64nlxze9t8e","geo_precision":"zip"},"type":"Feature","geometry":{"type":"Point","coordinates":[-80.949722624,43.200090869]}},{"properties":{"city":"Bergen","geo_score":1.0,"country":"Norway","lobsters traced":5,"id":"a64nly8r2j2u","geo_precision":"zip"},"type":"Feature","geometry":{"type":"Point","coordinates":[5.40643754670042,60.4069568500627]}},{"properties":{"city":"Biloxi","geo_score":0.0,"country":"Canada","lobsters traced":2,"id":"a64nly8z5niy","geo_precision":"unmatched"},"type":"Feature","geometry":null},{"properties":{"city":"Birmingham","geo_score":0.901,"country":"Canada","lobsters traced":1,"id":"a64nlyai9e4f","geo_precision":"zip"},"type":"Feature","geometry":{"type":"Point","coordinates":[-114.018636849,49.11663512]}},{"properties":{"city":"Bladensburg","geo_score":1.0,"country":"United States","lobsters traced":2,"id":"a64nly1g3n9r","geo_precision":"zip"},"type":"Feature","geometry":{"type":"Point","coordinates":[-76.9338631,38.9392779]}},{"properties":{"city":"Bloemendaal","geo_score":1.0,"country":"Netherlands","lobsters traced":1,"id":"a64nly2zbgfy","geo_precision":"zip"},"type":"Feature","geometry":{"type":"Point","coordinates":[4.622222,52.4025]}},{"properties":{"city":"Bloomfield","geo_score":0.933,"country":"Canada","lobsters traced":1,"id":"a64nlydpmjc8","geo_precision":"zip"},"type":"Feature","geometry":{"type":"Point","coordinates":[-78.316235942,44.716819683]}},{"properties":{"city":"Boca Raton","geo_score":0.905,"country":"Canada","lobsters traced":4,"id":"a64nlyeqzz2v","geo_precision":"zip"},"type":"Feature","geometry":{"type":"Point","coordinates":[-73.715874466,46.050073531]}},{"properties":{"city":"Boechout","geo_score":1.0,"country":"Belgium","lobsters traced":2,"id":"a64nly43li2k","geo_precision":"zip"},"type":"Feature","geometry":{"type":"Point","coordinates":[4.5,51.1666667]}},{"properties":{"city":"Boisbriand","geo_score":1.0,"country":"Canada","lobsters traced":2,"id":"a64nly7wsja8","geo_precision":"zip"},"type":"Feature","geometry":{"type":"Point","coordinates":[-73.832489524,45.616779144]}},{"properties":{"city":"Bombay","geo_score":0.786,"country":"Indian","lobsters traced":1,"id":"a64nlye31dvb","geo_precision":"zip"},"type":"Feature","geometry":{"type":"Point","coordinates":[18.55,4.3]}},{"properties":{"city":"Bonita Springs","geo_score":0.868,"country":"United States","lobsters traced":1,"id":"a64nlxz3cl5j","geo_precision":"zip"},"type":"Feature","geometry":{"type":"Point","coordinates":[-115.2450006,36.1080258]}},{"properties":{"city":"Borgerhout","geo_score":0.986,"country":"Belgium","lobsters traced":7,"id":"a64nlydmssek","geo_precision":"zip"},"type":"Feature","geometry":{"type":"Point","coordinates":[4.3,51.1333333]}},{"properties":{"city":"Boston","geo_score":1.0,"country":"United States","lobsters traced":16,"id":"a64nly9q1hph","geo_precision":"zip"},"type":"Feature","geometry":{"type":"Point","coordinates":[-71.0597732,42.3584308]}},{"properties":{"city":"Braintree","geo_score":1.0,"country":"United States","lobsters traced":1,"id":"a64nlyeydr41","geo_precision":"zip"},"type":"Feature","geometry":{"type":"Point","coordinates":[-70.999492,42.2223218]}},{"properties":{"city":"Brakel","geo_score":0.929,"country":"United States","lobsters traced":1,"id":"a64nly3dc7ny","geo_precision":"zip"},"type":"Feature","geometry":{"type":"Point","coordinates":[-122.272747,37.8715926]}},{"properties":{"city":"Brick","geo_score":0.971,"country":"United States","lobsters traced":3,"id":"a64nly5zax69","geo_precision":"zip"},"type":"Feature","geometry":{"type":"Point","coordinates":[-95.9594476,40.4800008]}},{"properties":{"city":"Bridgeport","geo_score":1.0,"country":"United States","lobsters traced":3,"id":"a64nly1c4ue4","geo_precision":"zip"},"type":"Feature","geometry":{"type":"Point","coordinates":[-73.2048348,41.1670412]}},{"properties":{"city":"Bridgewater","geo_score":1.0,"country":"Canada","lobsters traced":9,"id":"a64nlybyg3fb","geo_precision":"zip"},"type":"Feature","geometry":{"type":"Point","coordinates":[-64.515463197,44.383454239]}},{"properties":{"city":"Brielle","geo_score":0.918,"country":"United States","lobsters traced":1,"id":"a64nly2xa672","geo_precision":"zip"},"type":"Feature","geometry":{"type":"Point","coordinates":[-115.530267,32.9786566]}},{"properties":{"city":"Brighton","geo_score":1.0,"country":"United States","lobsters traced":2,"id":"a64nly13uyxl","geo_precision":"zip"},"type":"Feature","geometry":{"type":"Point","coordinates":[-77.5505543,43.1475626]}},{"properties":{"city":"Brisbane","geo_score":1.0,"country":"United States","lobsters traced":1,"id":"a64nly0gj0ns","geo_precision":"zip"},"type":"Feature","geometry":{"type":"Point","coordinates":[-122.3999715,37.6807661]}},{"properties":{"city":"Bristol","geo_score":0.934,"country":"United States","lobsters traced":1,"id":"a64nly2a4smn","geo_precision":"zip"},"type":"Feature","geometry":{"type":"Point","coordinates":[-71.1661579,41.8334345]}},{"properties":{"city":"Brockton","geo_score":0.929,"country":"Canada","lobsters traced":4,"id":"a64nlycwrtnn","geo_precision":"zip"},"type":"Feature","geometry":{"type":"Point","coordinates":[-123.274820751,48.778845192]}},{"properties":{"city":"Brookline Village","geo_score":0.92,"country":"United States","lobsters traced":1,"id":"a64nly8ujkw3","geo_precision":"zip"},"type":"Feature","geometry":{"type":"Point","coordinates":[-73.9495823,40.6501038]}},{"properties":{"city":"Broward County","geo_score":1.0,"country":"United States","lobsters traced":1,"id":"a64nlxzy1iy8","geo_precision":"zip"},"type":"Feature","geometry":{"type":"Point","coordinates":[-80.48311,26.1503636]}},{"properties":{"city":"Brownwood","geo_score":1.0,"country":"United States","lobsters traced":3,"id":"a64nlxzukrh1","geo_precision":"zip"},"type":"Feature","geometry":{"type":"Point","coordinates":[-98.9911611,31.7093197]}},{"properties":{"city":"Brugge","geo_score":1.0,"country":"Belgium","lobsters traced":10,"id":"a64nly7d8ipn","geo_precision":"zip"},"type":"Feature","geometry":{"type":"Point","coordinates":[3.22500228881836,51.2097870885244]}},{"properties":{"city":"Brunswick","geo_score":0.943,"country":"United States","lobsters traced":1,"id":"a64nly0ta2ia","geo_precision":"zip"},"type":"Feature","geometry":{"type":"Point","coordinates":[-78.2663883,34.0668378]}},{"properties":{"city":"Brussels","geo_score":1.0,"country":"Belgium","lobsters traced":9,"id":"a64nly7l1kiv","geo_precision":"zip"},"type":"Feature","geometry":{"type":"Point","coordinates":[4.35277462005615,50.8465974826927]}},{"properties":{"city":"Buffalo","geo_score":1.0,"country":"United States","lobsters traced":1,"id":"a64nly3zbjse","geo_precision":"zip"},"type":"Feature","geometry":{"type":"Point","coordinates":[-78.8783689,42.8864468]}},{"properties":{"city":"Burlington","geo_score":0.946,"country":"United States","lobsters traced":2,"id":"a64nlybvozl0","geo_precision":"zip"},"type":"Feature","geometry":{"type":"Point","coordinates":[-74.6412678,39.8834489]}},{"properties":{"city":"Burnaby","geo_score":0.939,"country":"Canada","lobsters traced":12,"id":"a64nly0l9rh5","geo_precision":"zip"},"type":"Feature","geometry":{"type":"Point","coordinates":[-79.582935156,45.166799906]}},{"properties":{"city":"Caldwell","geo_score":0.939,"country":"United States","lobsters traced":2,"id":"a64nly2ob6is","geo_precision":"zip"},"type":"Feature","geometry":{"type":"Point","coordinates":[-81.5498193,35.9501306]}},{"properties":{"city":"Calgary","geo_score":1.0,"country":"Canada","lobsters traced":4,"id":"a64nlya1b354","geo_precision":"zip"},"type":"Feature","geometry":{"type":"Point","coordinates":[-114.085285152,51.050112282]}},{"properties":{"city":"Cambridge","geo_score":0.857,"country":"United Stats","lobsters traced":8,"id":"a64nlya5qhak","geo_precision":"zip"},"type":"Feature","geometry":{"type":"Point","coordinates":[0.1166667,52.2]}},{"properties":{"city":"Campbellford","geo_score":0.945,"country":"Canada","lobsters traced":2,"id":"a64nlye3t8n7","geo_precision":"zip"},"type":"Feature","geometry":{"type":"Point","coordinates":[-125.244587583,50.016339312]}},{"properties":{"city":"Cape May","geo_score":0.918,"country":"United States","lobsters traced":2,"id":"a64nlyb7gvr7","geo_precision":"zip"},"type":"Feature","geometry":{"type":"Point","coordinates":[-159.3219444,22.0783333]}},{"properties":{"city":"Cape Town","geo_score":1.0,"country":"South Africa","lobsters traced":1,"id":"a64nlyax05fo","geo_precision":"zip"},"type":"Feature","geometry":{"type":"Point","coordinates":[18.4166667,-33.9166667]}},{"properties":{"city":"Carmel","geo_score":1.0,"country":"United States","lobsters traced":2,"id":"a64nlxzw5ypw","geo_precision":"zip"},"type":"Feature","geometry":{"type":"Point","coordinates":[-86.1180435,39.9783711]}},{"properties":{"city":"Carson","geo_score":1.0,"country":"United States","lobsters traced":1,"id":"a64nly7gliws","geo_precision":"zip"},"type":"Feature","geometry":{"type":"Point","coordinates":[-118.2820165,33.8314058]}},{"properties":{"city":"Chambly","geo_score":1.0,"country":"Canada","lobsters traced":3,"id":"a64nlycek9lv","geo_precision":"zip"},"type":"Feature","geometry":{"type":"Point","coordinates":[-73.282456268,45.450078548]}},{"properties":{"city":"Charlesbourg","geo_score":0.952,"country":"United States","lobsters traced":1,"id":"a64nly1ip46l","geo_precision":"zip"},"type":"Feature","geometry":{"type":"Point","coordinates":[-77.8741635,40.2978576]}},{"properties":{"city":"Charleston","geo_score":0.946,"country":"United States","lobsters traced":1,"id":"a64nly6w07ca","geo_precision":"zip"},"type":"Feature","geometry":{"type":"Point","coordinates":[-79.966479,32.7668437]}},{"properties":{"city":"Charlotte","geo_score":1.0,"country":"United States","lobsters traced":5,"id":"a64nlxysl6ki","geo_precision":"zip"},"type":"Feature","geometry":{"type":"Point","coordinates":[-80.8431268,35.2270869]}},{"properties":{"city":"Charlottetown","geo_score":1.0,"country":"Canada","lobsters traced":24,"id":"a64nlyeyn3mp","geo_precision":"zip"},"type":"Feature","geometry":{"type":"Point","coordinates":[-63.1267118453979,46.2352496418139]}},{"properties":{"city":"Chatham","geo_score":1.0,"country":"Canada","lobsters traced":2,"id":"a64nly3ghaew","geo_precision":"zip"},"type":"Feature","geometry":{"type":"Point","coordinates":[-82.184944152832,42.4122410726889]}},{"properties":{"city":"Cherry Hill","geo_score":0.871,"country":"United States","lobsters traced":1,"id":"a64nlydjvipx","geo_precision":"zip"},"type":"Feature","geometry":{"type":"Point","coordinates":[-80.2781057,25.8575963]}},{"properties":{"city":"Chester","geo_score":1.0,"country":"Canada","lobsters traced":1,"id":"a64nly1z65wb","geo_precision":"zip"},"type":"Feature","geometry":{"type":"Point","coordinates":[-64.248742538,44.55015292]}},{"properties":{"city":"Chiba","geo_score":1.0,"country":"Japan","lobsters traced":1,"id":"a64nlyb1f23v","geo_precision":"zip"},"type":"Feature","geometry":{"type":"Point","coordinates":[140.1166667,35.6]}},{"properties":{"city":"Chicago","geo_score":1.0,"country":"United States","lobsters traced":1,"id":"a64nlydeiwcq","geo_precision":"zip"},"type":"Feature","geometry":{"type":"Point","coordinates":[-87.6500523,41.850033]}},{"properties":{"city":"Chu-Nan","geo_score":0.911,"country":"Japan","lobsters traced":9,"id":"a64nly8uhuw4","geo_precision":"zip"},"type":"Feature","geometry":{"type":"Point","coordinates":[138.15,36.5833333]}},{"properties":{"city":"Clinton","geo_score":1.0,"country":"United States","lobsters traced":2,"id":"a64nlyddeppu","geo_precision":"zip"},"type":"Feature","geometry":{"type":"Point","coordinates":[-82.9199212,42.5869787]}},{"properties":{"city":"Colts Neck","geo_score":0.889,"country":"United States","lobsters traced":1,"id":"a64nly9cfncb","geo_precision":"zip"},"type":"Feature","geometry":{"type":"Point","coordinates":[-80.3822765,25.5626072]}},{"properties":{"city":"Concord","geo_score":1.0,"country":"United States","lobsters traced":6,"id":"a64nlyebai4p","geo_precision":"zip"},"type":"Feature","geometry":{"type":"Point","coordinates":[-122.0310733,37.9779777]}},{"properties":{"city":"Coos Bay","geo_score":1.0,"country":"United States","lobsters traced":1,"id":"a64nlydui9r8","geo_precision":"zip"},"type":"Feature","geometry":{"type":"Point","coordinates":[-124.2178903,43.3665007]}},{"properties":{"city":"Copiague","geo_score":1.0,"country":"United States","lobsters traced":2,"id":"a64nly7g0z25","geo_precision":"zip"},"type":"Feature","geometry":{"type":"Point","coordinates":[-73.3998445,40.6814892]}},{"properties":{"city":"Corner Brook","geo_score":1.0,"country":"Canada","lobsters traced":40,"id":"a64nlya2cwg8","geo_precision":"zip"},"type":"Feature","geometry":{"type":"Point","coordinates":[-57.948401883,48.966706851]}},{"properties":{"city":"Courtenay","geo_score":1.0,"country":"Canada","lobsters traced":1,"id":"a64nly22p35n","geo_precision":"zip"},"type":"Feature","geometry":{"type":"Point","coordinates":[-124.986133243,49.682941089]}},{"properties":{"city":"Covington","geo_score":1.0,"country":"United States","lobsters traced":1,"id":"a64nlxz3b8ku","geo_precision":"zip"},"type":"Feature","geometry":{"type":"Point","coordinates":[-84.5085537,39.0836712]}},{"properties":{"city":"Cran-Gevrier","geo_score":1.0,"country":"France","lobsters traced":1,"id":"a64nlyb50a4j","geo_precision":"zip"},"type":"Feature","geometry":{"type":"Point","coordinates":[6.1,45.9]}},{"properties":{"city":"Cumberland","geo_score":0.946,"country":"United States","lobsters traced":2,"id":"a64nly4uvu24","geo_precision":"zip"},"type":"Feature","geometry":{"type":"Point","coordinates":[-78.8664137,35.0501642]}},{"properties":{"city":"Dahlonega","geo_score":1.0,"country":"United States","lobsters traced":1,"id":"a64nlya5k3h7","geo_precision":"zip"},"type":"Feature","geometry":{"type":"Point","coordinates":[-83.98491,34.5325938]}},{"properties":{"city":"Danvers","geo_score":1.0,"country":"United States","lobsters traced":1,"id":"a64nly1u46wg","geo_precision":"zip"},"type":"Feature","geometry":{"type":"Point","coordinates":[-70.9300507,42.5750946]}},{"properties":{"city":"Dartmouth","geo_score":1.0,"country":"Canada","lobsters traced":65,"id":"a64nlyeia1ou","geo_precision":"zip"},"type":"Feature","geometry":{"type":"Point","coordinates":[-63.5771942138672,44.6713386329532]}},{"properties":{"city":"Dawsonville","geo_score":1.0,"country":"United States","lobsters traced":1,"id":"a64nly8uc3tl","geo_precision":"zip"},"type":"Feature","geometry":{"type":"Point","coordinates":[-84.1190804,34.4212053]}},{"properties":{"city":"Daytona Beach","geo_score":0.929,"country":"United States","lobsters traced":1,"id":"a64nlyeuxenw","geo_precision":"zip"},"type":"Feature","geometry":{"type":"Point","coordinates":[-84.1916069,39.7589478]}},{"properties":{"city":"Deer Park","geo_score":0.875,"country":"United States","lobsters traced":1,"id":"a64nlxzz3ge9","geo_precision":"zip"},"type":"Feature","geometry":{"type":"Point","coordinates":[-83.1499304,42.6055893]}},{"properties":{"city":"Deinze","geo_score":1.0,"country":"Belgium","lobsters traced":4,"id":"a64nly9i3id5","geo_precision":"zip"},"type":"Feature","geometry":{"type":"Point","coordinates":[3.5333333,50.9833333]}},{"properties":{"city":"Delhi","geo_score":0.857,"country":"Indian","lobsters traced":1,"id":"a64nly4uwomm","geo_precision":"zip"},"type":"Feature","geometry":{"type":"Point","coordinates":[77.2166667,28.6666667]}},{"properties":{"city":"Den Helder","geo_score":1.0,"country":"Netherlands","lobsters traced":2,"id":"a64nly7upyow","geo_precision":"zip"},"type":"Feature","geometry":{"type":"Point","coordinates":[4.759722,52.953333]}},{"properties":{"city":"Dendermonde","geo_score":0.0,"country":"Netherlands","lobsters traced":1,"id":"a64nlxywa7xx","geo_precision":"unmatched"},"type":"Feature","geometry":null},{"properties":{"city":"Denton","geo_score":1.0,"country":"United States","lobsters traced":1,"id":"a64nly9b9dxf","geo_precision":"zip"},"type":"Feature","geometry":{"type":"Point","coordinates":[-97.1330683,33.2148412]}},{"properties":{"city":"Denver","geo_score":1.0,"country":"United States","lobsters traced":1,"id":"a64nly22oham","geo_precision":"zip"},"type":"Feature","geometry":{"type":"Point","coordinates":[-104.9847034,39.7391536]}},{"properties":{"city":"Derry","geo_score":0.914,"country":"United States","lobsters traced":1,"id":"a64nly0wf8ke","geo_precision":"zip"},"type":"Feature","geometry":{"type":"Point","coordinates":[-83.1499304,42.6055893]}},{"properties":{"city":"Deurne","geo_score":0.905,"country":"Netherlands","lobsters traced":1,"id":"a64nly9c2trf","geo_precision":"zip"},"type":"Feature","geometry":{"type":"Point","coordinates":[6.1,52.0525]}},{"properties":{"city":"Digby","geo_score":1.0,"country":"Canada","lobsters traced":20,"id":"a64nlyas7o10","geo_precision":"zip"},"type":"Feature","geometry":{"type":"Point","coordinates":[-65.7655496,44.616849669]}},{"properties":{"city":"Diksmuide","geo_score":0.0,"country":"Netherlands","lobsters traced":1,"id":"a64nlyckqupt","geo_precision":"unmatched"},"type":"Feature","geometry":null},{"properties":{"city":"Don Mills","geo_score":0.875,"country":"Canada","lobsters traced":1,"id":"a64nlyeblltk","geo_precision":"zip"},"type":"Feature","geometry":{"type":"Point","coordinates":[-79.23293294,45.416803543]}},{"properties":{"city":"Dordrecht","geo_score":1.0,"country":"Netherlands","lobsters traced":2,"id":"a64nly3jjcur","geo_precision":"zip"},"type":"Feature","geometry":{"type":"Point","coordinates":[4.673611,51.81]}},{"properties":{"city":"Dorval","geo_score":0.922,"country":"Canada","lobsters traced":1,"id":"a64nly7fi7sx","geo_precision":"zip"},"type":"Feature","geometry":{"type":"Point","coordinates":[-73.212751229,45.06338194]}},{"properties":{"city":"Douglas","geo_score":1.0,"country":"United States","lobsters traced":2,"id":"a64nly1ovzev","geo_precision":"zip"},"type":"Feature","geometry":{"type":"Point","coordinates":[-109.5453447,31.3445471]}},{"properties":{"city":"Douglasville","geo_score":1.0,"country":"United States","lobsters traced":1,"id":"a64nlya4a6ks","geo_precision":"zip"},"type":"Feature","geometry":{"type":"Point","coordinates":[-84.7477136,33.7514966]}},{"properties":{"city":"Dover","geo_score":1.0,"country":"United States","lobsters traced":5,"id":"a64nly4wl7l7","geo_precision":"zip"},"type":"Feature","geometry":{"type":"Point","coordinates":[-75.5243682,39.158168]}},{"properties":{"city":"Duncan","geo_score":1.0,"country":"Canada","lobsters traced":3,"id":"a64nly4n4gk3","geo_precision":"zip"},"type":"Feature","geometry":{"type":"Point","coordinates":[-123.702660212,48.782931187]}},{"properties":{"city":"Dunn Loring","geo_score":0.886,"country":"United States","lobsters traced":1,"id":"a64nlyd4hcet","geo_precision":"zip"},"type":"Feature","geometry":{"type":"Point","coordinates":[-118.1325688,33.9400143]}},{"properties":{"city":"Duvernay","geo_score":0.911,"country":"Canada","lobsters traced":1,"id":"a64nly5pqg8q","geo_precision":"zip"},"type":"Feature","geometry":{"type":"Point","coordinates":[-62.881952112,45.683444865]}},{"properties":{"city":"East Hampton","geo_score":0.879,"country":"United States","lobsters traced":1,"id":"a64nly3zflof","geo_precision":"zip"},"type":"Feature","geometry":{"type":"Point","coordinates":[-72.5828665,42.1667596]}},{"properties":{"city":"East Haven","geo_score":1.0,"country":"United States","lobsters traced":1,"id":"a64nly89unrh","geo_precision":"zip"},"type":"Feature","geometry":{"type":"Point","coordinates":[-72.8684337,41.2762081]}},{"properties":{"city":"East Orange","geo_score":0.943,"country":"United States","lobsters traced":2,"id":"a64nly7wcqky","geo_precision":"zip"},"type":"Feature","geometry":{"type":"Point","coordinates":[-117.8531119,33.7877945]}},{"properties":{"city":"East Syracuse","geo_score":0.952,"country":"United States","lobsters traced":2,"id":"a64nly94e5u0","geo_precision":"zip"},"type":"Feature","geometry":{"type":"Point","coordinates":[-76.1474244,43.0481221]}},{"properties":{"city":"Edgewater","geo_score":1.0,"country":"United States","lobsters traced":1,"id":"a64nlyaqdpdk","geo_precision":"zip"},"type":"Feature","geometry":{"type":"Point","coordinates":[-80.9022758,28.9888754]}},{"properties":{"city":"Edmonton","geo_score":1.0,"country":"Canada","lobsters traced":3,"id":"a64nlydkcze4","geo_precision":"zip"},"type":"Feature","geometry":{"type":"Point","coordinates":[-113.468712219,53.550135939]}},{"properties":{"city":"Egg Harbor City","geo_score":0.868,"country":"United States","lobsters traced":1,"id":"a64nly5krc40","geo_precision":"zip"},"type":"Feature","geometry":{"type":"Point","coordinates":[-81.4403898,41.1595005]}},{"properties":{"city":"Egg Harbor Township","geo_score":0.933,"country":"United States","lobsters traced":3,"id":"a64nly5lq2et","geo_precision":"zip"},"type":"Feature","geometry":{"type":"Point","coordinates":[-74.6479364,39.5287282]}},{"properties":{"city":"Elk Grove","geo_score":1.0,"country":"United States","lobsters traced":1,"id":"a64nly0b27ig","geo_precision":"zip"},"type":"Feature","geometry":{"type":"Point","coordinates":[-121.3716178,38.4087993]}},{"properties":{"city":"Ellsworth","geo_score":0.943,"country":"United States","lobsters traced":1,"id":"a64nly7lhg0h","geo_precision":"zip"},"type":"Feature","geometry":{"type":"Point","coordinates":[-98.2003342,38.700009]}},{"properties":{"city":"Elmhurst","geo_score":1.0,"country":"United States","lobsters traced":1,"id":"a64nlyag9tqp","geo_precision":"zip"},"type":"Feature","geometry":{"type":"Point","coordinates":[-87.9403418,41.8994745]}},{"properties":{"city":"Enkhuizen","geo_score":1.0,"country":"Netherlands","lobsters traced":1,"id":"a64nlybomvav","geo_precision":"zip"},"type":"Feature","geometry":{"type":"Point","coordinates":[5.291667,52.703333]}},{"properties":{"city":"Enschede","geo_score":1.0,"country":"Netherlands","lobsters traced":1,"id":"a64nly5wz6hs","geo_precision":"zip"},"type":"Feature","geometry":{"type":"Point","coordinates":[6.895833,52.218333]}},{"properties":{"city":"Exeter","geo_score":0.857,"country":"Unied Kingdom","lobsters traced":1,"id":"a64nlyc7mtmp","geo_precision":"zip"},"type":"Feature","geometry":{"type":"Point","coordinates":[-3.52750718593597,50.7235979104432]}},{"properties":{"city":"Fair Haven","geo_score":0.762,"country":"Unied Kingdom","lobsters traced":1,"id":"a64nlydmre2f","geo_precision":"zip"},"type":"Feature","geometry":{"type":"Point","coordinates":[-82.3641667,23.1319444]}},{"properties":{"city":"Fairfax","geo_score":1.0,"country":"United States","lobsters traced":2,"id":"a64nlyeq55s9","geo_precision":"zip"},"type":"Feature","geometry":{"type":"Point","coordinates":[-77.3063733,38.8462236]}},{"properties":{"city":"Fairless Hills","geo_score":1.0,"country":"United States","lobsters traced":1,"id":"a64nly1opzg4","geo_precision":"zip"},"type":"Feature","geometry":{"type":"Point","coordinates":[-74.8551644,40.1795537]}},{"properties":{"city":"Farmington","geo_score":0.952,"country":"United States","lobsters traced":8,"id":"a64nlyef75pb","geo_precision":"zip"},"type":"Feature","geometry":{"type":"Point","coordinates":[-83.3771553,42.4853125]}},{"properties":{"city":"Fayetteville","geo_score":1.0,"country":"United States","lobsters traced":1,"id":"a64nlydby60l","geo_precision":"zip"},"type":"Feature","geometry":{"type":"Point","coordinates":[-78.8783585,35.0526641]}},{"properties":{"city":"Feeding Hills","geo_score":0.893,"country":"United States","lobsters traced":1,"id":"a64nly2aprel","geo_precision":"zip"},"type":"Feature","geometry":{"type":"Point","coordinates":[-71.5917359,42.7431438]}},{"properties":{"city":"Fitchburg","geo_score":1.0,"country":"United States","lobsters traced":2,"id":"a64nly0i6tle","geo_precision":"zip"},"type":"Feature","geometry":{"type":"Point","coordinates":[-71.8022956,42.5834228]}},{"properties":{"city":"Flanders","geo_score":0.917,"country":"Belgium","lobsters traced":1,"id":"a64nlycu048z","geo_precision":"zip"},"type":"Feature","geometry":{"type":"Point","coordinates":[3.3333333,51.2833333]}},{"properties":{"city":"Flint","geo_score":1.0,"country":"United States","lobsters traced":1,"id":"a64nlybvkw0p","geo_precision":"zip"},"type":"Feature","geometry":{"type":"Point","coordinates":[-83.6874562,43.0125274]}},{"properties":{"city":"Flushing","geo_score":0.0,"country":"Netherlands","lobsters traced":1,"id":"a64nly68tigp","geo_precision":"unmatched"},"type":"Feature","geometry":null},{"properties":{"city":"Forked River","geo_score":0.896,"country":"United States","lobsters traced":1,"id":"a64nlxzg29ok","geo_precision":"zip"},"type":"Feature","geometry":{"type":"Point","coordinates":[-84.1535261,35.8845238]}},{"properties":{"city":"Francois","geo_score":0.889,"country":"France","lobsters traced":7,"id":"a64nlyf9l39u","geo_precision":"zip"},"type":"Feature","geometry":{"type":"Point","coordinates":[5.1666667,43.6833333]}},{"properties":{"city":"Frankfurt am Main","geo_score":1.0,"country":"Germany","lobsters traced":1,"id":"a64nlyb8dvjt","geo_precision":"zip"},"type":"Feature","geometry":{"type":"Point","coordinates":[8.6833333,50.1166667]}},{"properties":{"city":"Franklin","geo_score":0.939,"country":"United States","lobsters traced":1,"id":"a64nly60ghl7","geo_precision":"zip"},"type":"Feature","geometry":{"type":"Point","coordinates":[-83.0165727,39.966731]}},{"properties":{"city":"Fredericton","geo_score":1.0,"country":"Canada","lobsters traced":11,"id":"a64nly3yjsio","geo_precision":"zip"},"type":"Feature","geometry":{"type":"Point","coordinates":[-66.665581601,45.945414773]}},{"properties":{"city":"Fort Lauderdale","geo_score":1.0,"country":"United States","lobsters traced":2,"id":"a64nly01so0i","geo_precision":"zip"},"type":"Feature","geometry":{"type":"Point","coordinates":[-80.1433786,26.1223084]}},{"properties":{"city":"Fort Lee","geo_score":1.0,"country":"United States","lobsters traced":4,"id":"a64nly6bw3g6","geo_precision":"zip"},"type":"Feature","geometry":{"type":"Point","coordinates":[-73.9701382,40.8509333]}},{"properties":{"city":"Fort Mcmurray","geo_score":0.917,"country":"Canada","lobsters traced":2,"id":"a64nly88mr12","geo_precision":"zip"},"type":"Feature","geometry":{"type":"Point","coordinates":[-113.418574702,49.716707411]}},{"properties":{"city":"Fort Myers","geo_score":1.0,"country":"United States","lobsters traced":1,"id":"a64nly9w133u","geo_precision":"zip"},"type":"Feature","geometry":{"type":"Point","coordinates":[-81.8405914306641,26.6216798851156]}},{"properties":{"city":"Fulton","geo_score":1.0,"country":"United States","lobsters traced":1,"id":"a64nly419muf","geo_precision":"zip"},"type":"Feature","geometry":{"type":"Point","coordinates":[-91.9479586,38.8467082]}},{"properties":{"city":"Gander","geo_score":0.929,"country":"Canada","lobsters traced":7,"id":"a64nlyana47n","geo_precision":"zip"},"type":"Feature","geometry":{"type":"Point","coordinates":[-66.06557213,46.150133298]}},{"properties":{"city":"Garfield","geo_score":0.939,"country":"United States","lobsters traced":3,"id":"a64nlybkyp3u","geo_precision":"zip"},"type":"Feature","geometry":{"type":"Point","coordinates":[-98.0628401,36.1875361]}},{"properties":{"city":"Gaspe","geo_score":1.0,"country":"Canada","lobsters traced":6,"id":"a64nly43go9d","geo_precision":"zip"},"type":"Feature","geometry":{"type":"Point","coordinates":[-64.481944809,48.833413735]}},{"properties":{"city":"Gatineau","geo_score":0.883,"country":"Canada","lobsters traced":2,"id":"a64nlyd36zxl","geo_precision":"zip"},"type":"Feature","geometry":{"type":"Point","coordinates":[-107.00127635,51.183368976]}},{"properties":{"city":"Gent","geo_score":1.0,"country":"Belgium","lobsters traced":36,"id":"a64nlybhkic2","geo_precision":"zip"},"type":"Feature","geometry":{"type":"Point","coordinates":[3.7166667,51.05]}},{"properties":{"city":"Georgetown","geo_score":0.946,"country":"United States","lobsters traced":1,"id":"a64nlyb02wc4","geo_precision":"zip"},"type":"Feature","geometry":{"type":"Point","coordinates":[-79.3497765,33.4501677]}},{"properties":{"city":"Gerona","geo_score":0.976,"country":"Spain","lobsters traced":4,"id":"a64nly8elul8","geo_precision":"zip"},"type":"Feature","geometry":{"type":"Point","coordinates":[2.82493472099304,41.9831130180372]}},{"properties":{"city":"Gistel","geo_score":1.0,"country":"Belgium","lobsters traced":1,"id":"a64nly7jd5nt","geo_precision":"zip"},"type":"Feature","geometry":{"type":"Point","coordinates":[2.95,51.1666667]}},{"properties":{"city":"Glens Falls","geo_score":0.917,"country":"United States","lobsters traced":2,"id":"a64nlyeoouva","geo_precision":"zip"},"type":"Feature","geometry":{"type":"Point","coordinates":[-89.9845476,38.6703267]}},{"properties":{"city":"Goes","geo_score":1.0,"country":"Netherlands","lobsters traced":6,"id":"a64nly90t1j9","geo_precision":"zip"},"type":"Feature","geometry":{"type":"Point","coordinates":[3.888889,51.504167]}},{"properties":{"city":"Grand Falls","geo_score":0.941,"country":"Canada","lobsters traced":1,"id":"a64nly09v138","geo_precision":"zip"},"type":"Feature","geometry":{"type":"Point","coordinates":[-55.66491931,48.93324076]}},{"properties":{"city":"Granville","geo_score":1.0,"country":"France","lobsters traced":1,"id":"a64nlxyv912q","geo_precision":"zip"},"type":"Feature","geometry":{"type":"Point","coordinates":[-1.59713745117188,48.8379159955123]}},{"properties":{"city":"Greensboro","geo_score":1.0,"country":"United States","lobsters traced":1,"id":"a64nly9dvcll","geo_precision":"zip"},"type":"Feature","geometry":{"type":"Point","coordinates":[-79.7919754,36.0726355]}},{"properties":{"city":"Groningen","geo_score":1.0,"country":"Netherlands","lobsters traced":3,"id":"a64nlydmaric","geo_precision":"zip"},"type":"Feature","geometry":{"type":"Point","coordinates":[6.566667,53.219167]}},{"properties":{"city":"Groton","geo_score":0.898,"country":"United States","lobsters traced":1,"id":"a64nly3ky299","geo_precision":"zip"},"type":"Feature","geometry":{"type":"Point","coordinates":[-118.3089624,33.8883487]}},{"properties":{"city":"Gulfport","geo_score":1.0,"country":"United States","lobsters traced":1,"id":"a64nlyas3r8d","geo_precision":"zip"},"type":"Feature","geometry":{"type":"Point","coordinates":[-89.0928155,30.3674198]}},{"properties":{"city":"Gummersbach","geo_score":0.955,"country":"Germany","lobsters traced":2,"id":"a64nlyc0k67u","geo_precision":"zip"},"type":"Feature","geometry":{"type":"Point","coordinates":[7.5724,51.0143]}},{"properties":{"city":"Haarlem","geo_score":1.0,"country":"Netherlands","lobsters traced":2,"id":"a64nly9fchs0","geo_precision":"zip"},"type":"Feature","geometry":{"type":"Point","coordinates":[4.63683128356934,52.3808386793563]}},{"properties":{"city":"Haddonfield","geo_score":1.0,"country":"United States","lobsters traced":1,"id":"a64nly2cmv3v","geo_precision":"zip"},"type":"Feature","geometry":{"type":"Point","coordinates":[-75.0376707,39.8915022]}},{"properties":{"city":"Hage","geo_score":0.964,"country":"Belgium","lobsters traced":3,"id":"a64nlybeluir","geo_precision":"zip"},"type":"Feature","geometry":{"type":"Point","coordinates":[3.0833333,51.0833333]}},{"properties":{"city":"Halifax","geo_score":1.0,"country":"Canada","lobsters traced":528,"id":"a64nly8s81af","geo_precision":"zip"},"type":"Feature","geometry":{"type":"Point","coordinates":[-63.5723876953125,44.6453303558448]}},{"properties":{"city":"Hamar","geo_score":1.0,"country":"Norway","lobsters traced":1,"id":"a64nly4f6svg","geo_precision":"zip"},"type":"Feature","geometry":{"type":"Point","coordinates":[11.1,60.8]}},{"properties":{"city":"Hamilton","geo_score":1.0,"country":"Canada","lobsters traced":2,"id":"a64nlydz9vep","geo_precision":"zip"},"type":"Feature","geometry":{"type":"Point","coordinates":[-79.949639869,43.233408354]}},{"properties":{"city":"Hamme","geo_score":1.0,"country":"Belgium","lobsters traced":2,"id":"a64nly0gsru5","geo_precision":"zip"},"type":"Feature","geometry":{"type":"Point","coordinates":[4.1333333,51.1]}},{"properties":{"city":"Hammond","geo_score":1.0,"country":"United States","lobsters traced":1,"id":"a64nly0ditlq","geo_precision":"zip"},"type":"Feature","geometry":{"type":"Point","coordinates":[-87.5000412,41.5833688]}},{"properties":{"city":"Hanover","geo_score":0.982,"country":"Germany","lobsters traced":3,"id":"a64nlyc8vj85","geo_precision":"zip"},"type":"Feature","geometry":{"type":"Point","coordinates":[9.73322153091431,52.3705162650448]}},{"properties":{"city":"Hartford","geo_score":0.939,"country":"United States","lobsters traced":5,"id":"a64nly05kqso","geo_precision":"zip"},"type":"Feature","geometry":{"type":"Point","coordinates":[-72.7662075,41.7667668]}},{"properties":{"city":"Hasselt","geo_score":1.0,"country":"Belgium","lobsters traced":2,"id":"a64nly1bx396","geo_precision":"zip"},"type":"Feature","geometry":{"type":"Point","coordinates":[5.3333333,50.9333333]}},{"properties":{"city":"Haverhill","geo_score":1.0,"country":"United States","lobsters traced":1,"id":"a64nly2ltju2","geo_precision":"zip"},"type":"Feature","geometry":{"type":"Point","coordinates":[-71.0772796,42.7762015]}},{"properties":{"city":"Heemstede","geo_score":1.0,"country":"Netherlands","lobsters traced":1,"id":"a64nly0wo1l5","geo_precision":"zip"},"type":"Feature","geometry":{"type":"Point","coordinates":[4.620833,52.345833]}},{"properties":{"city":"Heerlen","geo_score":1.0,"country":"Netherlands","lobsters traced":1,"id":"a64nly7v9kvq","geo_precision":"zip"},"type":"Feature","geometry":{"type":"Point","coordinates":[5.98154067993164,50.883651041327]}},{"properties":{"city":"Heule","geo_score":0.943,"country":"Belgium","lobsters traced":2,"id":"a64nlybap7uf","geo_precision":"zip"},"type":"Feature","geometry":{"type":"Point","coordinates":[4.23248291015625,50.741017899342]}},{"properties":{"city":"Hialeah","geo_score":1.0,"country":"United States","lobsters traced":1,"id":"a64nlybpui91","geo_precision":"zip"},"type":"Feature","geometry":{"type":"Point","coordinates":[-80.2781057,25.8575963]}},{"properties":{"city":"Hicksville","geo_score":1.0,"country":"United States","lobsters traced":1,"id":"a64nly6t9jcp","geo_precision":"zip"},"type":"Feature","geometry":{"type":"Point","coordinates":[-73.5251253,40.7684331]}},{"properties":{"city":"Hilton Head Island","geo_score":0.884,"country":"United States","lobsters traced":1,"id":"a64nlyalaq3p","geo_precision":"zip"},"type":"Feature","geometry":{"type":"Point","coordinates":[-122.5846041,48.1331513]}},{"properties":{"city":"Hinckley","geo_score":1.0,"country":"United States","lobsters traced":1,"id":"a64nly0uqrm4","geo_precision":"zip"},"type":"Feature","geometry":{"type":"Point","coordinates":[-88.640913,41.7689183]}},{"properties":{"city":"Hoboken","geo_score":1.0,"country":"United States","lobsters traced":1,"id":"a64nly1yljc0","geo_precision":"zip"},"type":"Feature","geometry":{"type":"Point","coordinates":[-74.0323626,40.7439906]}},{"properties":{"city":"Houston","geo_score":1.0,"country":"United States","lobsters traced":4,"id":"a64nly307edb","geo_precision":"zip"},"type":"Feature","geometry":{"type":"Point","coordinates":[-95.3632715,29.7632836]}},{"properties":{"city":"Houten","geo_score":0.952,"country":"Netherlands","lobsters traced":1,"id":"a64nly2p9kg8","geo_precision":"zip"},"type":"Feature","geometry":{"type":"Point","coordinates":[5.82653045654297,51.39853628684]}},{"properties":{"city":"Hove","geo_score":1.0,"country":"Belgium","lobsters traced":1,"id":"a64nly2cdemr","geo_precision":"zip"},"type":"Feature","geometry":{"type":"Point","coordinates":[4.4666667,51.15]}},{"properties":{"city":"Hovik","geo_score":0.976,"country":"Norway","lobsters traced":1,"id":"a64nly5d6rrz","geo_precision":"zip"},"type":"Feature","geometry":{"type":"Point","coordinates":[23.2308333,70.0505556]}},{"properties":{"city":"Howell","geo_score":1.0,"country":"United States","lobsters traced":1,"id":"a64nly48bn4e","geo_precision":"zip"},"type":"Feature","geometry":{"type":"Point","coordinates":[-83.9293952,42.6072552]}},{"properties":{"city":"Hull","geo_score":0.929,"country":"Canada","lobsters traced":2,"id":"a64nly0obyj2","geo_precision":"zip"},"type":"Feature","geometry":{"type":"Point","coordinates":[-83.966559847,49.350206751]}},{"properties":{"city":"Ijmuiden","geo_score":1.0,"country":"Netherlands","lobsters traced":4,"id":"a64nlydyjw5m","geo_precision":"zip"},"type":"Feature","geometry":{"type":"Point","coordinates":[4.616667,52.46]}},{"properties":{"city":"Independence","geo_score":1.0,"country":"United States","lobsters traced":1,"id":"a64nlya9rtb5","geo_precision":"zip"},"type":"Feature","geometry":{"type":"Point","coordinates":[-94.4155068,39.0911161]}},{"properties":{"city":"Indian Orchard","geo_score":0.934,"country":"United States","lobsters traced":2,"id":"a64nly84ju3j","geo_precision":"zip"},"type":"Feature","geometry":{"type":"Point","coordinates":[-86.2502707,40.0003166]}},{"properties":{"city":"Irvington","geo_score":0.952,"country":"United States","lobsters traced":3,"id":"a64nly1u655s","geo_precision":"zip"},"type":"Feature","geometry":{"type":"Point","coordinates":[-96.9488945,32.8140177]}},{"properties":{"city":"Iselin","geo_score":1.0,"country":"United States","lobsters traced":2,"id":"a64nly0xahlb","geo_precision":"zip"},"type":"Feature","geometry":{"type":"Point","coordinates":[-74.3223703,40.5753817]}},{"properties":{"city":"Izegem","geo_score":1.0,"country":"Belgium","lobsters traced":1,"id":"a64nly6tf4vs","geo_precision":"zip"},"type":"Feature","geometry":{"type":"Point","coordinates":[3.2,50.9166667]}},{"properties":{"city":"Jackson","geo_score":0.94,"country":"United States","lobsters traced":1,"id":"a64nly1y2zgu","geo_precision":"zip"},"type":"Feature","geometry":{"type":"Point","coordinates":[-81.655651,30.3321838]}},{"properties":{"city":"Jenkintown","geo_score":0.905,"country":"United States","lobsters traced":1,"id":"a64nly4ghybb","geo_precision":"zip"},"type":"Feature","geometry":{"type":"Point","coordinates":[-90.1334622,43.9166351]}},{"properties":{"city":"Jersey City","geo_score":1.0,"country":"United States","lobsters traced":2,"id":"a64nly04toke","geo_precision":"zip"},"type":"Feature","geometry":{"type":"Point","coordinates":[-74.0776417,40.7281575]}},{"properties":{"city":"Jessup","geo_score":0.976,"country":"United States","lobsters traced":1,"id":"a64nly2jfxpv","geo_precision":"zip"},"type":"Feature","geometry":{"type":"Point","coordinates":[-81.8853924,31.6074365]}},{"properties":{"city":"Johnson City","geo_score":1.0,"country":"United States","lobsters traced":1,"id":"a64nly0itui8","geo_precision":"zip"},"type":"Feature","geometry":{"type":"Point","coordinates":[-82.3534727,36.3134397]}},{"properties":{"city":"Joliette","geo_score":1.0,"country":"Canada","lobsters traced":1,"id":"a64nlyeggrpb","geo_precision":"zip"},"type":"Feature","geometry":{"type":"Point","coordinates":[-73.449154902,46.016771883]}},{"properties":{"city":"Jonkoping","geo_score":1.0,"country":"Sweden","lobsters traced":1,"id":"a64nly08mu8e","geo_precision":"zip"},"type":"Feature","geometry":{"type":"Point","coordinates":[14.1561841964722,57.7814509394211]}},{"properties":{"city":"Jupiter","geo_score":0.0,"country":"Netherlands","lobsters traced":1,"id":"a64nly7sieww","geo_precision":"unmatched"},"type":"Feature","geometry":null},{"properties":{"city":"Kalispell","geo_score":1.0,"country":"United States","lobsters traced":1,"id":"a64nlyb56ann","geo_precision":"zip"},"type":"Feature","geometry":{"type":"Point","coordinates":[-114.3129081,48.1957925]}},{"properties":{"city":"Kennebunk","geo_score":1.0,"country":"United States","lobsters traced":3,"id":"a64nlxzd1jt6","geo_precision":"zip"},"type":"Feature","geometry":{"type":"Point","coordinates":[-70.5447751,43.383974]}},{"properties":{"city":"Kentville","geo_score":1.0,"country":"Canada","lobsters traced":4,"id":"a64nly78py78","geo_precision":"zip"},"type":"Feature","geometry":{"type":"Point","coordinates":[-64.498763464,45.083449583]}},{"properties":{"city":"Kingston","geo_score":1.0,"country":"Canada","lobsters traced":1,"id":"a64nlydio0d8","geo_precision":"zip"},"type":"Feature","geometry":{"type":"Point","coordinates":[-76.4809799194336,44.2297640782947]}},{"properties":{"city":"Kitchener","geo_score":1.0,"country":"Canada","lobsters traced":3,"id":"a64nlyf3iwyq","geo_precision":"zip"},"type":"Feature","geometry":{"type":"Point","coordinates":[-80.482987294,43.450095614]}},{"properties":{"city":"Knokke-Heist","geo_score":1.0,"country":"Belgium","lobsters traced":1,"id":"a64nly45z0if","geo_precision":"zip"},"type":"Feature","geometry":{"type":"Point","coordinates":[3.2666667,51.35]}},{"properties":{"city":"Koksijde","geo_score":1.0,"country":"Belgium","lobsters traced":5,"id":"a64nly7im89h","geo_precision":"zip"},"type":"Feature","geometry":{"type":"Point","coordinates":[2.65,51.1]}},{"properties":{"city":"Kortrijk","geo_score":1.0,"country":"Netherlands","lobsters traced":5,"id":"a64nly61n6wb","geo_precision":"zip"},"type":"Feature","geometry":{"type":"Point","coordinates":[4.984722,52.156667]}},{"properties":{"city":"Kraainem","geo_score":1.0,"country":"Belgium","lobsters traced":8,"id":"a64nly3iu69o","geo_precision":"zip"},"type":"Feature","geometry":{"type":"Point","coordinates":[4.4666667,50.8666667]}},{"properties":{"city":"Kraljevo","geo_score":0.857,"country":"Serbia","lobsters traced":1,"id":"a64nlybro08o","geo_precision":"zip"},"type":"Feature","geometry":{"type":"Point","coordinates":[20.6894444,43.7258333]}},{"properties":{"city":"Kruiningen","geo_score":0.957,"country":"Netherlands","lobsters traced":10,"id":"a64nly8tnd0z","geo_precision":"zip"},"type":"Feature","geometry":{"type":"Point","coordinates":[6.566667,53.219167]}},{"properties":{"city":"La Rochelle","geo_score":1.0,"country":"France","lobsters traced":1,"id":"a64nly5kpnbs","geo_precision":"zip"},"type":"Feature","geometry":{"type":"Point","coordinates":[-1.15,46.1666667]}},{"properties":{"city":"Laconia","geo_score":0.939,"country":"United States","lobsters traced":1,"id":"a64nly45zs9j","geo_precision":"zip"},"type":"Feature","geometry":{"type":"Point","coordinates":[-121.4238414,38.4210209]}},{"properties":{"city":"Laren","geo_score":1.0,"country":"Netherlands","lobsters traced":1,"id":"a64nly8owq2m","geo_precision":"zip"},"type":"Feature","geometry":{"type":"Point","coordinates":[5.227778,52.256667]}},{"properties":{"city":"Las Arenas","geo_score":0.889,"country":"Spain","lobsters traced":1,"id":"a64nly958urm","geo_precision":"zip"},"type":"Feature","geometry":{"type":"Point","coordinates":[-1.88576954804187,43.3263415090448]}},{"properties":{"city":"Lawrence","geo_score":1.0,"country":"United States","lobsters traced":4,"id":"a64nly1ge6um","geo_precision":"zip"},"type":"Feature","geometry":{"type":"Point","coordinates":[-95.2352501,38.9716689]}},{"properties":{"city":"Lawrencetown","geo_score":0.889,"country":"United States","lobsters traced":6,"id":"a64nlybr62l9","geo_precision":"zip"},"type":"Feature","geometry":{"type":"Point","coordinates":[-92.3301524,34.5670381]}},{"properties":{"city":"Lebanon","geo_score":1.0,"country":"United States","lobsters traced":1,"id":"a64nly2r8gjj","geo_precision":"zip"},"type":"Feature","geometry":{"type":"Point","coordinates":[-76.4113497,40.3409251]}},{"properties":{"city":"Lee","geo_score":0.914,"country":"United States","lobsters traced":2,"id":"a64nly5d2te4","geo_precision":"zip"},"type":"Feature","geometry":{"type":"Point","coordinates":[-96.5388789,33.0151201]}},{"properties":{"city":"Leiden","geo_score":1.0,"country":"Netherlands","lobsters traced":5,"id":"a64nlyb414z1","geo_precision":"zip"},"type":"Feature","geometry":{"type":"Point","coordinates":[4.493056,52.158333]}},{"properties":{"city":"Leiderdorp","geo_score":1.0,"country":"Netherlands","lobsters traced":2,"id":"a64nlyf5ym2o","geo_precision":"zip"},"type":"Feature","geometry":{"type":"Point","coordinates":[4.529167,52.158333]}},{"properties":{"city":"Leidschendam","geo_score":1.0,"country":"Netherlands","lobsters traced":1,"id":"a64nly2i2uzh","geo_precision":"zip"},"type":"Feature","geometry":{"type":"Point","coordinates":[4.394444,52.088333]}},{"properties":{"city":"Lelystad","geo_score":1.0,"country":"Netherlands","lobsters traced":1,"id":"a64nlxzita90","geo_precision":"zip"},"type":"Feature","geometry":{"type":"Point","coordinates":[5.475,52.508333]}},{"properties":{"city":"Leominster","geo_score":1.0,"country":"United States","lobsters traced":2,"id":"a64nly93bqpu","geo_precision":"zip"},"type":"Feature","geometry":{"type":"Point","coordinates":[-71.759794,42.5250906]}},{"properties":{"city":"Leuven","geo_score":1.0,"country":"Belgium","lobsters traced":2,"id":"a64nly7cer0g","geo_precision":"zip"},"type":"Feature","geometry":{"type":"Point","coordinates":[4.70092535018921,50.8795895885995]}},{"properties":{"city":"Levittown","geo_score":1.0,"country":"United States","lobsters traced":1,"id":"a64nlydbsrkl","geo_precision":"zip"},"type":"Feature","geometry":{"type":"Point","coordinates":[-74.8287747,40.1551097]}},{"properties":{"city":"Liege","geo_score":1.0,"country":"Belgium","lobsters traced":8,"id":"a64nly1jaj9v","geo_precision":"zip"},"type":"Feature","geometry":{"type":"Point","coordinates":[5.57178497314453,50.6411875982987]}},{"properties":{"city":"Lier","geo_score":0.914,"country":"Belgium","lobsters traced":1,"id":"a64nlycmrm40","geo_precision":"zip"},"type":"Feature","geometry":{"type":"Point","coordinates":[4.2666667,50.3]}},{"properties":{"city":"Lincoln","geo_score":1.0,"country":"United States","lobsters traced":3,"id":"a64nlyccgd21","geo_precision":"zip"},"type":"Feature","geometry":{"type":"Point","coordinates":[-96.6669599,40.8000011]}},{"properties":{"city":"Lindenhurst","geo_score":1.0,"country":"United States","lobsters traced":1,"id":"a64nlyarb1t4","geo_precision":"zip"},"type":"Feature","geometry":{"type":"Point","coordinates":[-73.3734547,40.6867667]}},{"properties":{"city":"Little Neck","geo_score":0.886,"country":"United States","lobsters traced":1,"id":"a64nlyaqlmqr","geo_precision":"zip"},"type":"Feature","geometry":{"type":"Point","coordinates":[-72.475919,42.1600936]}},{"properties":{"city":"Lodi","geo_score":0.886,"country":"Canada","lobsters traced":1,"id":"a64nly5hq3sf","geo_precision":"zip"},"type":"Feature","geometry":{"type":"Point","coordinates":[-77.332764188,44.300123351]}},{"properties":{"city":"Loenen","geo_score":1.0,"country":"Netherlands","lobsters traced":1,"id":"a64nly59tyfp","geo_precision":"zip"},"type":"Feature","geometry":{"type":"Point","coordinates":[6.019444,52.1175]}},{"properties":{"city":"Logrono","geo_score":1.0,"country":"Spain","lobsters traced":2,"id":"a64nly5nc4ri","geo_precision":"zip"},"type":"Feature","geometry":{"type":"Point","coordinates":[-2.44541336124527,42.4671213247137]}},{"properties":{"city":"Lokeren","geo_score":1.0,"country":"Belgium","lobsters traced":2,"id":"a64nlycoxvk6","geo_precision":"zip"},"type":"Feature","geometry":{"type":"Point","coordinates":[3.9833333,51.1]}},{"properties":{"city":"London","geo_score":1.0,"country":"Canada","lobsters traced":2,"id":"a64nlydew5g8","geo_precision":"zip"},"type":"Feature","geometry":{"type":"Point","coordinates":[-81.233042387,42.983389283]}},{"properties":{"city":"Londonderry","geo_score":1.0,"country":"United States","lobsters traced":1,"id":"a64nly7gwlnu","geo_precision":"zip"},"type":"Feature","geometry":{"type":"Point","coordinates":[-71.3739532,42.8650869]}},{"properties":{"city":"Long Valley","geo_score":0.914,"country":"United States","lobsters traced":1,"id":"a64nlyeow4a3","geo_precision":"zip"},"type":"Feature","geometry":{"type":"Point","coordinates":[-87.6835974,30.4065868]}},{"properties":{"city":"Longueuil","geo_score":0.921,"country":"Canada","lobsters traced":6,"id":"a64nly0wz8t9","geo_precision":"zip"},"type":"Feature","geometry":{"type":"Point","coordinates":[-122.652600771,49.099668354]}},{"properties":{"city":"Los Angeles","geo_score":0.946,"country":"United States","lobsters traced":6,"id":"a64nly0n32zk","geo_precision":"zip"},"type":"Feature","geometry":{"type":"Point","coordinates":[-118.2009079,34.3666648]}},{"properties":{"city":"Ludlow","geo_score":1.0,"country":"United States","lobsters traced":1,"id":"a64nly516dxd","geo_precision":"zip"},"type":"Feature","geometry":{"type":"Point","coordinates":[-72.475919,42.1600936]}},{"properties":{"city":"Lynn","geo_score":1.0,"country":"United States","lobsters traced":7,"id":"a64nly65lxcs","geo_precision":"zip"},"type":"Feature","geometry":{"type":"Point","coordinates":[-70.9494939,42.466763]}},{"properties":{"city":"Lyons","geo_score":1.0,"country":"United States","lobsters traced":1,"id":"a64nly85kcct","geo_precision":"zip"},"type":"Feature","geometry":{"type":"Point","coordinates":[-87.8181128,41.8133651]}},{"properties":{"city":"Maastricht","geo_score":1.0,"country":"Netherlands","lobsters traced":1,"id":"a64nlye9adme","geo_precision":"zip"},"type":"Feature","geometry":{"type":"Point","coordinates":[5.688889,50.848333]}},{"properties":{"city":"Madrid","geo_score":1.0,"country":"Spain","lobsters traced":2,"id":"a64nlyeekeyd","geo_precision":"zip"},"type":"Feature","geometry":{"type":"Point","coordinates":[-3.68274615575072,40.4893538421231]}},{"properties":{"city":"Malaga","geo_score":1.0,"country":"Spain","lobsters traced":2,"id":"a64nly4zne7n","geo_precision":"zip"},"type":"Feature","geometry":{"type":"Point","coordinates":[-4.39717226872326,36.7585406465564]}},{"properties":{"city":"Malden","geo_score":1.0,"country":"United States","lobsters traced":1,"id":"a64nly4krp57","geo_precision":"zip"},"type":"Feature","geometry":{"type":"Point","coordinates":[-71.066163,42.4250964]}},{"properties":{"city":"Malmo","geo_score":0.976,"country":"Sweden","lobsters traced":2,"id":"a64nlyaq0ec3","geo_precision":"zip"},"type":"Feature","geometry":{"type":"Point","coordinates":[13.0007314682007,55.6058691373243]}},{"properties":{"city":"Manchester","geo_score":1.0,"country":"United Kingdom","lobsters traced":1,"id":"a64nly47ywpw","geo_precision":"zip"},"type":"Feature","geometry":{"type":"Point","coordinates":[-2.23743438720703,53.4809464283615]}},{"properties":{"city":"Mansfield Center","geo_score":0.943,"country":"United States","lobsters traced":1,"id":"a64nlybomsbo","geo_precision":"zip"},"type":"Feature","geometry":{"type":"Point","coordinates":[-82.5154471,40.75839]}},{"properties":{"city":"Maplewood","geo_score":1.0,"country":"United States","lobsters traced":2,"id":"a64nly0tvvdp","geo_precision":"zip"},"type":"Feature","geometry":{"type":"Point","coordinates":[-92.9952153,44.9530215]}},{"properties":{"city":"Marknesse","geo_score":0.943,"country":"Netherlands","lobsters traced":1,"id":"a64nly68u2sj","geo_precision":"zip"},"type":"Feature","geometry":{"type":"Point","coordinates":[5.85,52.7666667]}},{"properties":{"city":"Maryville","geo_score":1.0,"country":"United States","lobsters traced":1,"id":"a64nly7vpb3x","geo_precision":"zip"},"type":"Feature","geometry":{"type":"Point","coordinates":[-83.9704593,35.7564719]}},{"properties":{"city":"Mascouche","geo_score":1.0,"country":"Canada","lobsters traced":4,"id":"a64nly5hwz1d","geo_precision":"zip"},"type":"Feature","geometry":{"type":"Point","coordinates":[-73.5995578765869,45.7496479996068]}},{"properties":{"city":"Massapequa","geo_score":1.0,"country":"United States","lobsters traced":1,"id":"a64nlycyx4mo","geo_precision":"zip"},"type":"Feature","geometry":{"type":"Point","coordinates":[-73.4742914,40.6806564]}},{"properties":{"city":"Massena","geo_score":0.939,"country":"United States","lobsters traced":1,"id":"a64nly9zinyn","geo_precision":"zip"},"type":"Feature","geometry":{"type":"Point","coordinates":[-84.309939,39.3600586]}},{"properties":{"city":"Matane","geo_score":1.0,"country":"Canada","lobsters traced":3,"id":"a64nlybw194m","geo_precision":"zip"},"type":"Feature","geometry":{"type":"Point","coordinates":[-67.52197265625,48.8285655279932]}},{"properties":{"city":"Meadow Lake","geo_score":1.0,"country":"Canada","lobsters traced":1,"id":"a64nlycdli8r","geo_precision":"zip"},"type":"Feature","geometry":{"type":"Point","coordinates":[-108.434706024,54.133479392]}},{"properties":{"city":"Mechelen","geo_score":1.0,"country":"Belgium","lobsters traced":1,"id":"a64nly8h2wyw","geo_precision":"zip"},"type":"Feature","geometry":{"type":"Point","coordinates":[4.4666667,51.0333333]}},{"properties":{"city":"Medford","geo_score":1.0,"country":"United States","lobsters traced":3,"id":"a64nlxyrp11e","geo_precision":"zip"},"type":"Feature","geometry":{"type":"Point","coordinates":[-122.8755949,42.3265153]}},{"properties":{"city":"Melbourne","geo_score":1.0,"country":"Australia","lobsters traced":1,"id":"a64nly6hl61u","geo_precision":"zip"},"type":"Feature","geometry":{"type":"Point","coordinates":[144.963322877884,-37.8139965641595]}},{"properties":{"city":"Melrose","geo_score":1.0,"country":"United States","lobsters traced":1,"id":"a64nly1xuwlz","geo_precision":"zip"},"type":"Feature","geometry":{"type":"Point","coordinates":[-71.0661633,42.4584292]}},{"properties":{"city":"Menlo Park","geo_score":1.0,"country":"United States","lobsters traced":1,"id":"a64nly205zts","geo_precision":"zip"},"type":"Feature","geometry":{"type":"Point","coordinates":[-122.1821871,37.4538274]}},{"properties":{"city":"Mercedes","geo_score":0.857,"country":null,"lobsters traced":1,"id":"a64nly4ggxmv","geo_precision":"zip"},"type":"Feature","geometry":{"type":"Point","coordinates":[-59.4344444,-34.6544444]}},{"properties":{"city":"Merelbeke","geo_score":1.0,"country":"Belgium","lobsters traced":3,"id":"a64nly92fown","geo_precision":"zip"},"type":"Feature","geometry":{"type":"Point","coordinates":[3.75,51.0]}},{"properties":{"city":"Meriden","geo_score":1.0,"country":"United States","lobsters traced":2,"id":"a64nlyby0hnp","geo_precision":"zip"},"type":"Feature","geometry":{"type":"Point","coordinates":[-72.8070435,41.5381535]}},{"properties":{"city":"Merksem","geo_score":0.934,"country":"Belgium","lobsters traced":1,"id":"a64nlyeq8frh","geo_precision":"zip"},"type":"Feature","geometry":{"type":"Point","coordinates":[4.4333333,51.25]}},{"properties":{"city":"Merrimack","geo_score":0.943,"country":"United States","lobsters traced":1,"id":"a64nly53gp8c","geo_precision":"zip"},"type":"Feature","geometry":{"type":"Point","coordinates":[-71.6828542,43.3000782]}},{"properties":{"city":"Mestre","geo_score":1.0,"country":"Italy","lobsters traced":1,"id":"a64nly0avb4f","geo_precision":"zip"},"type":"Feature","geometry":{"type":"Point","coordinates":[12.2425,45.4902778]}},{"properties":{"city":"Miami","geo_score":1.0,"country":"United States","lobsters traced":10,"id":"a64nly21da1m","geo_precision":"zip"},"type":"Feature","geometry":{"type":"Point","coordinates":[-80.1936589,25.7742658]}},{"properties":{"city":"Middelburg","geo_score":1.0,"country":"Netherlands","lobsters traced":5,"id":"a64nly76ygal","geo_precision":"zip"},"type":"Feature","geometry":{"type":"Point","coordinates":[3.613889,51.5]}},{"properties":{"city":"Milan","geo_score":0.976,"country":"Italy","lobsters traced":2,"id":"a64nlyck1h08","geo_precision":"zip"},"type":"Feature","geometry":{"type":"Point","coordinates":[9.1895055770874,45.4642693810258]}},{"properties":{"city":"Milford","geo_score":0.959,"country":"Canada","lobsters traced":1,"id":"a64nly3xh1iw","geo_precision":"zip"},"type":"Feature","geometry":{"type":"Point","coordinates":[-104.617681275,52.866725238]}},{"properties":{"city":"Milton","geo_score":1.0,"country":"Canada","lobsters traced":1,"id":"a64nlxzu7pqm","geo_precision":"zip"},"type":"Feature","geometry":{"type":"Point","coordinates":[-79.882938106,43.516808444]}},{"properties":{"city":"Miramichi","geo_score":1.0,"country":"Canada","lobsters traced":6,"id":"a64nly6xe1z7","geo_precision":"zip"},"type":"Feature","geometry":{"type":"Point","coordinates":[-61.315227432,46.033441422]}},{"properties":{"city":"Mississauga","geo_score":1.0,"country":"Canada","lobsters traced":2,"id":"a64nlycwdshh","geo_precision":"zip"},"type":"Feature","geometry":{"type":"Point","coordinates":[-79.6583032608032,43.5788986029537]}},{"properties":{"city":"Mol","geo_score":1.0,"country":"Belgium","lobsters traced":1,"id":"a64nly1fy9b5","geo_precision":"zip"},"type":"Feature","geometry":{"type":"Point","coordinates":[5.1,51.1833333]}},{"properties":{"city":"Moncton","geo_score":1.0,"country":"Canada","lobsters traced":134,"id":"a64nlyd0e5nu","geo_precision":"zip"},"type":"Feature","geometry":{"type":"Point","coordinates":[-64.801862188,46.115943434]}},{"properties":{"city":"Mont-Laurier","geo_score":1.0,"country":"Canada","lobsters traced":1,"id":"a64nly2rolh8","geo_precision":"zip"},"type":"Feature","geometry":{"type":"Point","coordinates":[-77.532760113,49.800183627]}},{"properties":{"city":"Mont-Tremblant","geo_score":1.0,"country":"Canada","lobsters traced":3,"id":"a64nlxzhw4ou","geo_precision":"zip"},"type":"Feature","geometry":{"type":"Point","coordinates":[-74.583,46.25]}},{"properties":{"city":"Montgomery","geo_score":0.946,"country":"United States","lobsters traced":1,"id":"a64nly1ksyvq","geo_precision":"zip"},"type":"Feature","geometry":{"type":"Point","coordinates":[-77.1997039,39.1501072]}},{"properties":{"city":"Montgomeryville","geo_score":0.946,"country":"United States","lobsters traced":1,"id":"a64nly6nxqgt","geo_precision":"zip"},"type":"Feature","geometry":{"type":"Point","coordinates":[-77.1997039,39.1501072]}},{"properties":{"city":"Montreal","geo_score":1.0,"country":"Canada","lobsters traced":96,"id":"a64nly7llufh","geo_precision":"zip"},"type":"Feature","geometry":{"type":"Point","coordinates":[-73.587809,45.5088375]}},{"properties":{"city":"Moosup","geo_score":1.0,"country":"United States","lobsters traced":1,"id":"a64nlxz9vj8w","geo_precision":"zip"},"type":"Feature","geometry":{"type":"Point","coordinates":[-71.8809054,41.7128767]}},{"properties":{"city":"Morrisville","geo_score":0.961,"country":"United States","lobsters traced":1,"id":"a64nlxzsewnp","geo_precision":"zip"},"type":"Feature","geometry":{"type":"Point","coordinates":[-122.1770818,48.0517637]}},{"properties":{"city":"Munich","geo_score":0.976,"country":"Germany","lobsters traced":1,"id":"a64nly2ahot8","geo_precision":"zip"},"type":"Feature","geometry":{"type":"Point","coordinates":[9.3666667,49.75]}},{"properties":{"city":"Murfreesboro","geo_score":1.0,"country":"United States","lobsters traced":1,"id":"a64nlyco03yx","geo_precision":"zip"},"type":"Feature","geometry":{"type":"Point","coordinates":[-86.39027,35.8456213]}},{"properties":{"city":"Nanaimo","geo_score":1.0,"country":"Canada","lobsters traced":10,"id":"a64nlybwhbcg","geo_precision":"zip"},"type":"Feature","geometry":{"type":"Point","coordinates":[-123.936012692,49.166337382]}},{"properties":{"city":"Nancy","geo_score":1.0,"country":"France","lobsters traced":1,"id":"a64nly4lzolz","geo_precision":"zip"},"type":"Feature","geometry":{"type":"Point","coordinates":[6.2,48.6833333]}},{"properties":{"city":"Nantucket","geo_score":1.0,"country":"United States","lobsters traced":2,"id":"a64nlye2hbw1","geo_precision":"zip"},"type":"Feature","geometry":{"type":"Point","coordinates":[-70.0994605,41.2834563]}},{"properties":{"city":"Naples","geo_score":0.0,"country":"Italy","lobsters traced":7,"id":"a64nly8vneg1","geo_precision":"unmatched"},"type":"Feature","geometry":null},{"properties":{"city":"Narragansett","geo_score":0.964,"country":"United States","lobsters traced":7,"id":"a64nly5ros0b","geo_precision":"zip"},"type":"Feature","geometry":{"type":"Point","coordinates":[-71.4564448,41.4323244]}},{"properties":{"city":"Navesink","geo_score":1.0,"country":"United States","lobsters traced":2,"id":"a64nly9ui1nl","geo_precision":"zip"},"type":"Feature","geometry":{"type":"Point","coordinates":[-74.0354171,40.3995533]}},{"properties":{"city":"Nei-Hu","geo_score":1.0,"country":"Taiwan","lobsters traced":2,"id":"a64nlydttpdw","geo_precision":"zip"},"type":"Feature","geometry":{"type":"Point","coordinates":[121.4,25.15]}},{"properties":{"city":"Neptune","geo_score":0.959,"country":"United States","lobsters traced":1,"id":"a64nly85px30","geo_precision":"zip"},"type":"Feature","geometry":{"type":"Point","coordinates":[-83.8340883,38.4353542]}},{"properties":{"city":"Neufchatel","geo_score":0.0,"country":"Canada","lobsters traced":1,"id":"a64nly7i1v6s","geo_precision":"unmatched"},"type":"Feature","geometry":null},{"properties":{"city":"New Bedford","geo_score":0.957,"country":"Canada","lobsters traced":1,"id":"a64nly2mfvua","geo_precision":"zip"},"type":"Feature","geometry":{"type":"Point","coordinates":[-72.965839644,45.133382318]}},{"properties":{"city":"New Glasgow","geo_score":1.0,"country":"Canada","lobsters traced":23,"id":"a64nlybpfday","geo_precision":"zip"},"type":"Feature","geometry":{"type":"Point","coordinates":[-62.648634074,45.583444684]}},{"properties":{"city":"New Haven","geo_score":1.0,"country":"United States","lobsters traced":2,"id":"a64nly936ssl","geo_precision":"zip"},"type":"Feature","geometry":{"type":"Point","coordinates":[-72.9281578,41.3081527]}},{"properties":{"city":"New London","geo_score":0.943,"country":"United States","lobsters traced":1,"id":"a64nly0bk97a","geo_precision":"zip"},"type":"Feature","geometry":{"type":"Point","coordinates":[-72.0661881,41.4834315]}},{"properties":{"city":"New Paltz","geo_score":0.875,"country":"United States","lobsters traced":3,"id":"a64nlybsfzrf","geo_precision":"zip"},"type":"Feature","geometry":{"type":"Point","coordinates":[-90.7867798,35.224533]}},{"properties":{"city":"New Providence","geo_score":0.92,"country":"United States","lobsters traced":2,"id":"a64nlyb7qtq0","geo_precision":"zip"},"type":"Feature","geometry":{"type":"Point","coordinates":[-71.5995085,41.8334327]}},{"properties":{"city":"New Smyrna Beach","geo_score":0.918,"country":"United States","lobsters traced":1,"id":"a64nly861d5d","geo_precision":"zip"},"type":"Feature","geometry":{"type":"Point","coordinates":[-84.5143761,33.8839926]}},{"properties":{"city":"New Westminster","geo_score":1.0,"country":"Canada","lobsters traced":4,"id":"a64nly30f11l","geo_precision":"zip"},"type":"Feature","geometry":{"type":"Point","coordinates":[-122.910919189453,49.2067756493358]}},{"properties":{"city":"New York","geo_score":1.0,"country":"United States","lobsters traced":63,"id":"a64nly069gxn","geo_precision":"zip"},"type":"Feature","geometry":{"type":"Point","coordinates":[-75.4998978,43.0003472]}},{"properties":{"city":"Newark","geo_score":1.0,"country":"United States","lobsters traced":1,"id":"a64nly8lu6y8","geo_precision":"zip"},"type":"Feature","geometry":{"type":"Point","coordinates":[-74.1723667,40.735657]}},{"properties":{"city":"Newburyport","geo_score":1.0,"country":"United States","lobsters traced":1,"id":"a64nly6uafnk","geo_precision":"zip"},"type":"Feature","geometry":{"type":"Point","coordinates":[-70.8772751,42.8125913]}},{"properties":{"city":"Newfields","geo_score":1.0,"country":"United States","lobsters traced":1,"id":"a64nly5fbz8s","geo_precision":"zip"},"type":"Feature","geometry":{"type":"Point","coordinates":[-70.9383906,43.0370316]}},{"properties":{"city":"Nieuwkuijk","geo_score":1.0,"country":"Netherlands","lobsters traced":2,"id":"a64nlydobaoy","geo_precision":"zip"},"type":"Feature","geometry":{"type":"Point","coordinates":[5.181944,51.69]}},{"properties":{"city":"Nieuwpoort","geo_score":1.0,"country":"Belgium","lobsters traced":2,"id":"a64nly7gi2lp","geo_precision":"zip"},"type":"Feature","geometry":{"type":"Point","coordinates":[2.75,51.1333333]}},{"properties":{"city":"Nijmegen","geo_score":1.0,"country":"Netherlands","lobsters traced":2,"id":"a64nly4gp1by","geo_precision":"zip"},"type":"Feature","geometry":{"type":"Point","coordinates":[5.852778,51.8425]}},{"properties":{"city":"Norcross","geo_score":1.0,"country":"United States","lobsters traced":1,"id":"a64nly49g2vk","geo_precision":"zip"},"type":"Feature","geometry":{"type":"Point","coordinates":[-84.2135309,33.9412127]}},{"properties":{"city":"Norristown","geo_score":1.0,"country":"United States","lobsters traced":1,"id":"a64nlydlp2f6","geo_precision":"zip"},"type":"Feature","geometry":{"type":"Point","coordinates":[-75.3399048,40.121497]}},{"properties":{"city":"North Charleston","geo_score":0.902,"country":"United States","lobsters traced":1,"id":"a64nly9udvsa","geo_precision":"zip"},"type":"Feature","geometry":{"type":"Point","coordinates":[-79.966479,32.7668437]}},{"properties":{"city":"North Palm Beach","geo_score":0.895,"country":"United States","lobsters traced":1,"id":"a64nly05vah9","geo_precision":"zip"},"type":"Feature","geometry":{"type":"Point","coordinates":[-80.4497744,26.6503442]}},{"properties":{"city":"North Sydney","geo_score":0.917,"country":"Canada","lobsters traced":1,"id":"a64nly832m0i","geo_precision":"zip"},"type":"Feature","geometry":{"type":"Point","coordinates":[-57.265003688,49.450005638]}},{"properties":{"city":"Norwich","geo_score":1.0,"country":"United States","lobsters traced":1,"id":"a64nlxzxstn4","geo_precision":"zip"},"type":"Feature","geometry":{"type":"Point","coordinates":[-72.0759105,41.5242649]}},{"properties":{"city":"Nutley","geo_score":1.0,"country":"United States","lobsters traced":1,"id":"a64nly7md8w7","geo_precision":"zip"},"type":"Feature","geometry":{"type":"Point","coordinates":[-74.1598663,40.8223223]}},{"properties":{"city":"Oakdale","geo_score":1.0,"country":"United States","lobsters traced":1,"id":"a64nly7kphco","geo_precision":"zip"},"type":"Feature","geometry":{"type":"Point","coordinates":[-92.9649361,44.9630216]}},{"properties":{"city":"Oakville","geo_score":0.968,"country":"Canada","lobsters traced":1,"id":"a64nlyf2alk4","geo_precision":"zip"},"type":"Feature","geometry":{"type":"Point","coordinates":[-75.366031957,45.00009772]}},{"properties":{"city":"Ocean Grove","geo_score":0.929,"country":"United States","lobsters traced":2,"id":"a64nly76cssg","geo_precision":"zip"},"type":"Feature","geometry":{"type":"Point","coordinates":[-74.2809758,39.7434529]}},{"properties":{"city":"Oceanside","geo_score":1.0,"country":"United States","lobsters traced":1,"id":"a64nlyblzxpa","geo_precision":"zip"},"type":"Feature","geometry":{"type":"Point","coordinates":[-117.3794834,33.1958696]}},{"properties":{"city":"Odessa","geo_score":1.0,"country":"United States","lobsters traced":1,"id":"a64nly0zpi5k","geo_precision":"zip"},"type":"Feature","geometry":{"type":"Point","coordinates":[-102.3676431,31.8456816]}},{"properties":{"city":"Onondaga County","geo_score":1.0,"country":"United States","lobsters traced":1,"id":"a64nly3ng7k5","geo_precision":"zip"},"type":"Feature","geometry":{"type":"Point","coordinates":[-76.1663138,43.0006216]}},{"properties":{"city":"Oostende","geo_score":1.0,"country":"Belgium","lobsters traced":2,"id":"a64nlxzju228","geo_precision":"zip"},"type":"Feature","geometry":{"type":"Point","coordinates":[2.9166667,51.2166667]}},{"properties":{"city":"Orlando","geo_score":1.0,"country":"United States","lobsters traced":4,"id":"a64nly7pr9ea","geo_precision":"zip"},"type":"Feature","geometry":{"type":"Point","coordinates":[-81.3792365,28.5383355]}},{"properties":{"city":"Oshawa","geo_score":1.0,"country":"Canada","lobsters traced":4,"id":"a64nly961jo5","geo_precision":"zip"},"type":"Feature","geometry":{"type":"Point","coordinates":[-78.849568878,43.900120387]}},{"properties":{"city":"Oslo","geo_score":1.0,"country":"Norway","lobsters traced":14,"id":"a64nly3oietv","geo_precision":"zip"},"type":"Feature","geometry":{"type":"Point","coordinates":[10.7389211654663,59.9132457671591]}},{"properties":{"city":"Otisville","geo_score":1.0,"country":"United States","lobsters traced":2,"id":"a64nlybx1vgd","geo_precision":"zip"},"type":"Feature","geometry":{"type":"Point","coordinates":[-74.5384933,41.4734268]}},{"properties":{"city":"Ottawa","geo_score":1.0,"country":"Canada","lobsters traced":150,"id":"a64nlxznaqpy","geo_precision":"zip"},"type":"Feature","geometry":{"type":"Point","coordinates":[-75.6902861595154,45.4209405046496]}},{"properties":{"city":"Outremont","geo_score":0.918,"country":"Canada","lobsters traced":12,"id":"a64nly71e3bs","geo_precision":"zip"},"type":"Feature","geometry":{"type":"Point","coordinates":[-116.385495194,51.349974644]}},{"properties":{"city":"Padova","geo_score":1.0,"country":"Italy","lobsters traced":2,"id":"a64nly1xv08x","geo_precision":"zip"},"type":"Feature","geometry":{"type":"Point","coordinates":[11.881808,45.415194]}},{"properties":{"city":"Palermo","geo_score":1.0,"country":"Italy","lobsters traced":1,"id":"a64nlybxutek","geo_precision":"zip"},"type":"Feature","geometry":{"type":"Point","coordinates":[13.3597612380981,38.115819808927]}},{"properties":{"city":"Palm Beach","geo_score":0.943,"country":"United States","lobsters traced":2,"id":"a64nlya47xe6","geo_precision":"zip"},"type":"Feature","geometry":{"type":"Point","coordinates":[-80.4497744,26.6503442]}},{"properties":{"city":"Palm Coast","geo_score":1.0,"country":"United States","lobsters traced":1,"id":"a64nly6bq4iy","geo_precision":"zip"},"type":"Feature","geometry":{"type":"Point","coordinates":[-81.2078411,29.5849736]}},{"properties":{"city":"Panama City Beach","geo_score":0.952,"country":"United States","lobsters traced":1,"id":"a64nly00dyog","geo_precision":"zip"},"type":"Feature","geometry":{"type":"Point","coordinates":[-85.6602058,30.1588129]}},{"properties":{"city":"Paquetville","geo_score":0.0,"country":"Canada","lobsters traced":5,"id":"a64nly1i9mcp","geo_precision":"unmatched"},"type":"Feature","geometry":null},{"properties":{"city":"Paradise Valley","geo_score":0.939,"country":"United States","lobsters traced":6,"id":"a64nly5sey2w","geo_precision":"zip"},"type":"Feature","geometry":{"type":"Point","coordinates":[-115.1466648,36.0971945]}},{"properties":{"city":"Paris","geo_score":1.0,"country":"France","lobsters traced":2,"id":"a64nlybn23o3","geo_precision":"zip"},"type":"Feature","geometry":{"type":"Point","coordinates":[2.3488,48.85341]}},{"properties":{"city":"Paterson","geo_score":1.0,"country":"United States","lobsters traced":1,"id":"a64nlycdum1y","geo_precision":"zip"},"type":"Feature","geometry":{"type":"Point","coordinates":[-74.171811,40.9167654]}},{"properties":{"city":"Paulsboro","geo_score":1.0,"country":"United States","lobsters traced":1,"id":"a64nlyd8yyy3","geo_precision":"zip"},"type":"Feature","geometry":{"type":"Point","coordinates":[-75.2404608,39.830391]}},{"properties":{"city":"Peabody","geo_score":1.0,"country":"United States","lobsters traced":1,"id":"a64nlyezdi3c","geo_precision":"zip"},"type":"Feature","geometry":{"type":"Point","coordinates":[-70.9286609,42.5278731]}},{"properties":{"city":"Pearl River","geo_score":0.946,"country":"United States","lobsters traced":1,"id":"a64nlxz8nfks","geo_precision":"zip"},"type":"Feature","geometry":{"type":"Point","coordinates":[-89.6414538,30.6426898]}},{"properties":{"city":"Pembroke Pines","geo_score":1.0,"country":"United States","lobsters traced":3,"id":"a64nlyadhviq","geo_precision":"zip"},"type":"Feature","geometry":{"type":"Point","coordinates":[-80.223937,26.0031465]}},{"properties":{"city":"Peoria","geo_score":1.0,"country":"United States","lobsters traced":1,"id":"a64nly6vzkfr","geo_precision":"zip"},"type":"Feature","geometry":{"type":"Point","coordinates":[-89.5889864,40.6936488]}},{"properties":{"city":"Perugia","geo_score":1.0,"country":"Italy","lobsters traced":1,"id":"a64nly1pgde0","geo_precision":"zip"},"type":"Feature","geometry":{"type":"Point","coordinates":[12.382858,43.096743]}},{"properties":{"city":"Peterborough","geo_score":1.0,"country":"Canada","lobsters traced":1,"id":"a64nlyd2g4rj","geo_precision":"zip"},"type":"Feature","geometry":{"type":"Point","coordinates":[-78.316233062,44.300121277]}},{"properties":{"city":"Philadelphia","geo_score":0.952,"country":"United States","lobsters traced":17,"id":"a64nlyd0bwov","geo_precision":"zip"},"type":"Feature","geometry":{"type":"Point","coordinates":[-74.9998916,40.1253879]}},{"properties":{"city":"Phoenix","geo_score":1.0,"country":"United States","lobsters traced":1,"id":"a64nlye94qf3","geo_precision":"zip"},"type":"Feature","geometry":{"type":"Point","coordinates":[-112.0740373,33.4483771]}},{"properties":{"city":"Pijnacker","geo_score":1.0,"country":"Netherlands","lobsters traced":1,"id":"a64nlyf0cq0l","geo_precision":"zip"},"type":"Feature","geometry":{"type":"Point","coordinates":[4.42946434020996,52.0195432022308]}},{"properties":{"city":"Pine Bush","geo_score":0.893,"country":"United States","lobsters traced":1,"id":"a64nly3gmwai","geo_precision":"zip"},"type":"Feature","geometry":{"type":"Point","coordinates":[-89.0800809,39.3889311]}},{"properties":{"city":"Pittsboro","geo_score":0.957,"country":"United States","lobsters traced":1,"id":"a64nlybal0vk","geo_precision":"zip"},"type":"Feature","geometry":{"type":"Point","coordinates":[-79.9958864,40.4406248]}},{"properties":{"city":"Pittsfield","geo_score":1.0,"country":"United States","lobsters traced":1,"id":"a64nly9iunyh","geo_precision":"zip"},"type":"Feature","geometry":{"type":"Point","coordinates":[-73.2453824,42.4500846]}},{"properties":{"city":"Plainview","geo_score":1.0,"country":"United States","lobsters traced":1,"id":"a64nly5bd7ew","geo_precision":"zip"},"type":"Feature","geometry":{"type":"Point","coordinates":[-73.4673455,40.7764882]}},{"properties":{"city":"Plymouth","geo_score":1.0,"country":"United States","lobsters traced":1,"id":"a64nly7t5y99","geo_precision":"zip"},"type":"Feature","geometry":{"type":"Point","coordinates":[-70.6672577,41.9584367]}},{"properties":{"city":"Pointe-Claire","geo_score":0.917,"country":"Canada","lobsters traced":4,"id":"a64nlxzjarvu","geo_precision":"zip"},"type":"Feature","geometry":{"type":"Point","coordinates":[-53.352283278,47.788793269]}},{"properties":{"city":"Pompano Beach","geo_score":1.0,"country":"United States","lobsters traced":1,"id":"a64nlydroohs","geo_precision":"zip"},"type":"Feature","geometry":{"type":"Point","coordinates":[-80.1247667,26.2378597]}},{"properties":{"city":"Port Alberni","geo_score":1.0,"country":"Canada","lobsters traced":1,"id":"a64nly2jmky3","geo_precision":"zip"},"type":"Feature","geometry":{"type":"Point","coordinates":[-124.80280018,49.241325105]}},{"properties":{"city":"Port Hawkesbury","geo_score":0.959,"country":"Canada","lobsters traced":14,"id":"a64nlyc4etck","geo_precision":"zip"},"type":"Feature","geometry":{"type":"Point","coordinates":[-74.615950643,45.600090887]}},{"properties":{"city":"Portland","geo_score":1.0,"country":"United States","lobsters traced":4,"id":"a64nlyan9o7i","geo_precision":"zip"},"type":"Feature","geometry":{"type":"Point","coordinates":[-122.6762071,45.5234515]}},{"properties":{"city":"Portsmouth","geo_score":1.0,"country":"United States","lobsters traced":1,"id":"a64nly73o3nq","geo_precision":"zip"},"type":"Feature","geometry":{"type":"Point","coordinates":[-76.2982742,36.8354258]}},{"properties":{"city":"Prescott","geo_score":1.0,"country":"Canada","lobsters traced":1,"id":"a64nly9yxuhb","geo_precision":"zip"},"type":"Feature","geometry":{"type":"Point","coordinates":[-75.516038916,44.716813041]}},{"properties":{"city":"Prince Rupert","geo_score":1.0,"country":"Canada","lobsters traced":3,"id":"a64nly7ww7zp","geo_precision":"zip"},"type":"Feature","geometry":{"type":"Point","coordinates":[-130.320120831,54.316139543]}},{"properties":{"city":"Providence","geo_score":0.946,"country":"United States","lobsters traced":1,"id":"a64nly51n9l1","geo_precision":"zip"},"type":"Feature","geometry":{"type":"Point","coordinates":[-71.5995085,41.8334327]}},{"properties":{"city":"Pusan","geo_score":1.0,"country":"South Korea","lobsters traced":1,"id":"a64nly30093h","geo_precision":"zip"},"type":"Feature","geometry":{"type":"Point","coordinates":[129.0402778,35.1027778]}},{"properties":{"city":"Quebec","geo_score":1.0,"country":"Canada","lobsters traced":15,"id":"a64nly7xhfo6","geo_precision":"zip"},"type":"Feature","geometry":{"type":"Point","coordinates":[-71.999072249,52.000168346]}},{"properties":{"city":"Queensbury","geo_score":0.943,"country":"United States","lobsters traced":1,"id":"a64nly4c99z0","geo_precision":"zip"},"type":"Feature","geometry":{"type":"Point","coordinates":[-74.1298643,40.4417743]}},{"properties":{"city":"Raymond","geo_score":1.0,"country":"United States","lobsters traced":1,"id":"a64nly5a0q7p","geo_precision":"zip"},"type":"Feature","geometry":{"type":"Point","coordinates":[-71.1833951,43.0361961]}},{"properties":{"city":"Raynham","geo_score":1.0,"country":"United States","lobsters traced":1,"id":"a64nly4exh8z","geo_precision":"zip"},"type":"Feature","geometry":{"type":"Point","coordinates":[-71.0731008,41.9487118]}},{"properties":{"city":"Recife","geo_score":1.0,"country":"Brazil","lobsters traced":1,"id":"a64nly0an9vh","geo_precision":"zip"},"type":"Feature","geometry":{"type":"Point","coordinates":[-34.88111111,-8.053888889]}},{"properties":{"city":"Reno","geo_score":1.0,"country":"United States","lobsters traced":3,"id":"a64nlydcgllw","geo_precision":"zip"},"type":"Feature","geometry":{"type":"Point","coordinates":[-119.8138027,39.5296329]}},{"properties":{"city":"Repentigny","geo_score":1.0,"country":"Canada","lobsters traced":1,"id":"a64nly21opj9","geo_precision":"zip"},"type":"Feature","geometry":{"type":"Point","coordinates":[-73.450083732605,45.7422208710777]}},{"properties":{"city":"Revere","geo_score":1.0,"country":"United States","lobsters traced":3,"id":"a64nlyb0rd0a","geo_precision":"zip"},"type":"Feature","geometry":{"type":"Point","coordinates":[-71.0119948,42.4084302]}},{"properties":{"city":"Rialto","geo_score":1.0,"country":"United States","lobsters traced":1,"id":"a64nly7jxqmp","geo_precision":"zip"},"type":"Feature","geometry":{"type":"Point","coordinates":[-117.3703235,34.1064001]}},{"properties":{"city":"Richmond","geo_score":1.0,"country":"Canada","lobsters traced":4,"id":"a64nly6is022","geo_precision":"zip"},"type":"Feature","geometry":{"type":"Point","coordinates":[-123.136825561523,49.1700323203353]}},{"properties":{"city":"Rochelle Park","geo_score":0.952,"country":"United States","lobsters traced":1,"id":"a64nly1r7et7","geo_precision":"zip"},"type":"Feature","geometry":{"type":"Point","coordinates":[-89.0687074,41.9239178]}},{"properties":{"city":"Rochester","geo_score":1.0,"country":"United States","lobsters traced":3,"id":"a64nlybwvsv3","geo_precision":"zip"},"type":"Feature","geometry":{"type":"Point","coordinates":[-77.6155568,43.1547845]}},{"properties":{"city":"Rockcliffe","geo_score":0.891,"country":"United States","lobsters traced":1,"id":"a64nly0wglck","geo_precision":"zip"},"type":"Feature","geometry":{"type":"Point","coordinates":[-87.6147509,34.5100944]}},{"properties":{"city":"Rockland","geo_score":0.939,"country":"United States","lobsters traced":1,"id":"a64nlxzgh6w1","geo_precision":"zip"},"type":"Feature","geometry":{"type":"Point","coordinates":[-74.0495861,41.1667617]}},{"properties":{"city":"Roeselare","geo_score":0.0,"country":"Netherlands","lobsters traced":2,"id":"a64nly2wv8ci","geo_precision":"unmatched"},"type":"Feature","geometry":null},{"properties":{"city":"Rome","geo_score":0.964,"country":"Italy","lobsters traced":1,"id":"a64nly9c2xsb","geo_precision":"zip"},"type":"Feature","geometry":{"type":"Point","coordinates":[12.4833333,41.9]}},{"properties":{"city":"Roosendaal","geo_score":1.0,"country":"Netherlands","lobsters traced":1,"id":"a64nlyb47ndu","geo_precision":"zip"},"type":"Feature","geometry":{"type":"Point","coordinates":[4.465278,51.530833]}},{"properties":{"city":"Rosemere","geo_score":0.964,"country":"Canada","lobsters traced":2,"id":"a64nly2hxob5","geo_precision":"zip"},"type":"Feature","geometry":{"type":"Point","coordinates":[-112.085110492,50.766818997]}},{"properties":{"city":"Roswell","geo_score":1.0,"country":"United States","lobsters traced":1,"id":"a64nlybv75fl","geo_precision":"zip"},"type":"Feature","geometry":{"type":"Point","coordinates":[-84.3615928,34.0231553]}},{"properties":{"city":"Rotterdam","geo_score":1.0,"country":"Netherlands","lobsters traced":2,"id":"a64nlya34nhy","geo_precision":"zip"},"type":"Feature","geometry":{"type":"Point","coordinates":[4.479167,51.9225]}},{"properties":{"city":"Ruddervoorde","geo_score":1.0,"country":"Belgium","lobsters traced":2,"id":"a64nlya7w6d0","geo_precision":"zip"},"type":"Feature","geometry":{"type":"Point","coordinates":[3.2,51.1]}},{"properties":{"city":"Sackville","geo_score":1.0,"country":"Canada","lobsters traced":8,"id":"a64nlydro7w4","geo_precision":"zip"},"type":"Feature","geometry":{"type":"Point","coordinates":[-64.384546579,45.918750028]}},{"properties":{"city":"Saco","geo_score":1.0,"country":"United States","lobsters traced":2,"id":"a64nlxyxtxve","geo_precision":"zip"},"type":"Feature","geometry":{"type":"Point","coordinates":[-70.4428286,43.5009176]}},{"properties":{"city":"Salaberry-de-Valleyfield","geo_score":1.0,"country":"Canada","lobsters traced":3,"id":"a64nly46cz21","geo_precision":"zip"},"type":"Feature","geometry":{"type":"Point","coordinates":[-74.132534352,45.250083433]}},{"properties":{"city":"Salem","geo_score":1.0,"country":"United States","lobsters traced":3,"id":"a64nly2sqkni","geo_precision":"zip"},"type":"Feature","geometry":{"type":"Point","coordinates":[-123.0350963,44.9428975]}},{"properties":{"city":"Salt Lake City","geo_score":0.969,"country":"United States","lobsters traced":2,"id":"a64nlybqwt7p","geo_precision":"zip"},"type":"Feature","geometry":{"type":"Point","coordinates":[-111.8763236,40.6255033]}},{"properties":{"city":"San Antonio","geo_score":1.0,"country":"United States","lobsters traced":5,"id":"a64nly85ens6","geo_precision":"zip"},"type":"Feature","geometry":{"type":"Point","coordinates":[-98.4936282,29.4241219]}},{"properties":{"city":"San Francisco","geo_score":1.0,"country":"United States","lobsters traced":7,"id":"a64nly3sl2b1","geo_precision":"zip"},"type":"Feature","geometry":{"type":"Point","coordinates":[-122.4194155,37.7749295]}},{"properties":{"city":"Sandefjord","geo_score":1.0,"country":"Norway","lobsters traced":1,"id":"a64nly0i50yt","geo_precision":"zip"},"type":"Feature","geometry":{"type":"Point","coordinates":[10.2333333,59.1333333]}},{"properties":{"city":"Santo Domingo","geo_score":1.0,"country":"Dominican Republic","lobsters traced":1,"id":"a64nly27647d","geo_precision":"zip"},"type":"Feature","geometry":{"type":"Point","coordinates":[-69.9,18.4666667]}},{"properties":{"city":"Saratoga Springs","geo_score":0.886,"country":"United States","lobsters traced":4,"id":"a64nly6u4niu","geo_precision":"zip"},"type":"Feature","geometry":{"type":"Point","coordinates":[-115.2450006,36.1080258]}},{"properties":{"city":"Saskatoon","geo_score":1.0,"country":"Canada","lobsters traced":1,"id":"a64nly6w5b8b","geo_precision":"zip"},"type":"Feature","geometry":{"type":"Point","coordinates":[-106.634521548,52.116786331]}},{"properties":{"city":"Sault Sainte Marie","geo_score":0.938,"country":"Canada","lobsters traced":2,"id":"a64nly0w19x8","geo_precision":"zip"},"type":"Feature","geometry":{"type":"Point","coordinates":[-73.799192449,45.25008039]}},{"properties":{"city":"Schenectady","geo_score":0.95,"country":"United States","lobsters traced":1,"id":"a64nly7gma0g","geo_precision":"zip"},"type":"Feature","geometry":{"type":"Point","coordinates":[-74.0829049,42.8334089]}},{"properties":{"city":"Schiedam","geo_score":1.0,"country":"Netherlands","lobsters traced":1,"id":"a64nly47lfhm","geo_precision":"zip"},"type":"Feature","geometry":{"type":"Point","coordinates":[4.388889,51.919167]}},{"properties":{"city":"Seaside Heights","geo_score":0.929,"country":"United States","lobsters traced":1,"id":"a64nly516xg0","geo_precision":"zip"},"type":"Feature","geometry":{"type":"Point","coordinates":[-121.851619,36.6110709]}},{"properties":{"city":"Seattle","geo_score":1.0,"country":"United States","lobsters traced":6,"id":"a64nlydude57","geo_precision":"zip"},"type":"Feature","geometry":{"type":"Point","coordinates":[-122.3320708,47.6062095]}},{"properties":{"city":"Seoul","geo_score":1.0,"country":"South Korea","lobsters traced":5,"id":"a64nlyccpqjv","geo_precision":"zip"},"type":"Feature","geometry":{"type":"Point","coordinates":[126.9997222,37.5663889]}},{"properties":{"city":"Sevilla","geo_score":1.0,"country":"Spain","lobsters traced":1,"id":"a64nly5h09ic","geo_precision":"zip"},"type":"Feature","geometry":{"type":"Point","coordinates":[-5.95917769065896,37.3914105564361]}},{"properties":{"city":"Sharon","geo_score":1.0,"country":"United States","lobsters traced":1,"id":"a64nly6g6q4m","geo_precision":"zip"},"type":"Feature","geometry":{"type":"Point","coordinates":[-71.1786627,42.1237102]}},{"properties":{"city":"Sherbrooke","geo_score":1.0,"country":"Canada","lobsters traced":1,"id":"a64nly5kgk02","geo_precision":"zip"},"type":"Feature","geometry":{"type":"Point","coordinates":[-71.899077839,45.400083013]}},{"properties":{"city":"Shibuya","geo_score":1.0,"country":"Japan","lobsters traced":1,"id":"a64nly7frcce","geo_precision":"zip"},"type":"Feature","geometry":{"type":"Point","coordinates":[139.7,35.65]}},{"properties":{"city":"Shirley","geo_score":1.0,"country":"United States","lobsters traced":1,"id":"a64nlxyxo47b","geo_precision":"zip"},"type":"Feature","geometry":{"type":"Point","coordinates":[-72.8676033,40.8014876]}},{"properties":{"city":"Silver Spring","geo_score":0.869,"country":"United States","lobsters traced":3,"id":"a64nlydqhtq9","geo_precision":"zip"},"type":"Feature","geometry":{"type":"Point","coordinates":[-115.2450006,36.1080258]}},{"properties":{"city":"Sint Jansteen","geo_score":0.938,"country":"Netherlands","lobsters traced":1,"id":"a64nly5alvu5","geo_precision":"zip"},"type":"Feature","geometry":{"type":"Point","coordinates":[6.005556,52.6775]}},{"properties":{"city":"Sint-Josse-Ten-Noode","geo_score":0.924,"country":"Belgium","lobsters traced":1,"id":"a64nly14wteb","geo_precision":"zip"},"type":"Feature","geometry":{"type":"Point","coordinates":[4.9,51.1833333]}},{"properties":{"city":"Sint-Niklaas","geo_score":1.0,"country":"Belgium","lobsters traced":2,"id":"a64nlycbub4i","geo_precision":"zip"},"type":"Feature","geometry":{"type":"Point","coordinates":[4.1333333,51.1666667]}},{"properties":{"city":"Skedsmokorset","geo_score":0.934,"country":"Norway","lobsters traced":1,"id":"a64nly4lo80c","geo_precision":"zip"},"type":"Feature","geometry":{"type":"Point","coordinates":[11.031791119491,59.9779376945234]}},{"properties":{"city":"Sluis","geo_score":1.0,"country":"Netherlands","lobsters traced":4,"id":"a64nly0339nu","geo_precision":"zip"},"type":"Feature","geometry":{"type":"Point","coordinates":[4.977778,51.955833]}},{"properties":{"city":"Smithville","geo_score":0.957,"country":"United States","lobsters traced":1,"id":"a64nly5f3xs3","geo_precision":"zip"},"type":"Feature","geometry":{"type":"Point","coordinates":[-71.549507,41.9220433]}},{"properties":{"city":"Smyrna","geo_score":1.0,"country":"United States","lobsters traced":2,"id":"a64nlyan48jg","geo_precision":"zip"},"type":"Feature","geometry":{"type":"Point","coordinates":[-84.5143761,33.8839926]}},{"properties":{"city":"Solna","geo_score":0.905,"country":"Sweden","lobsters traced":3,"id":"a64nlybudush","geo_precision":"zip"},"type":"Feature","geometry":{"type":"Point","coordinates":[13.2666667,61.15]}},{"properties":{"city":"Somerset","geo_score":0.939,"country":"United States","lobsters traced":1,"id":"a64nly1e3ew7","geo_precision":"zip"},"type":"Feature","geometry":{"type":"Point","coordinates":[-74.5496003,40.5667697]}},{"properties":{"city":"South Portland","geo_score":0.945,"country":"United States","lobsters traced":1,"id":"a64nlyca925l","geo_precision":"zip"},"type":"Feature","geometry":{"type":"Point","coordinates":[-122.6762071,45.5234515]}},{"properties":{"city":"Springfield","geo_score":0.94,"country":"United States","lobsters traced":2,"id":"a64nly7nidfz","geo_precision":"zip"},"type":"Feature","geometry":{"type":"Point","coordinates":[-115.2450006,36.1080258]}},{"properties":{"city":"St Albert","geo_score":0.946,"country":"Canada","lobsters traced":1,"id":"a64nly0y393o","geo_precision":"zip"},"type":"Feature","geometry":{"type":"Point","coordinates":[-117.469001862,52.283328931]}},{"properties":{"city":"St John","geo_score":0.881,"country":"Canada","lobsters traced":17,"id":"a64nly4ar6ni","geo_precision":"zip"},"type":"Feature","geometry":{"type":"Point","coordinates":[-82.166493584,47.800107613]}},{"properties":{"city":"St John's","geo_score":1.0,"country":"Canada","lobsters traced":74,"id":"a64nlyejdpds","geo_precision":"zip"},"type":"Feature","geometry":{"type":"Point","coordinates":[-52.7093124389648,47.5649440729204]}},{"properties":{"city":"St-Basile-le-Grand","geo_score":0.905,"country":"Canada","lobsters traced":1,"id":"a64nlyf13qgj","geo_precision":"zip"},"type":"Feature","geometry":{"type":"Point","coordinates":[-95.388990236,54.98582603]}},{"properties":{"city":"St-Eustache","geo_score":1.0,"country":"Canada","lobsters traced":2,"id":"a64nly6td2pt","geo_precision":"zip"},"type":"Feature","geometry":{"type":"Point","coordinates":[-97.780700174,49.975313971]}},{"properties":{"city":"St-Georges","geo_score":0.984,"country":"Canada","lobsters traced":1,"id":"a64nlxzu0qsb","geo_precision":"zip"},"type":"Feature","geometry":{"type":"Point","coordinates":[-66.831380227,45.126539366]}},{"properties":{"city":"St-Hubert","geo_score":0.895,"country":"Canada","lobsters traced":1,"id":"a64nly3gx3xz","geo_precision":"zip"},"type":"Feature","geometry":{"type":"Point","coordinates":[-53.514786248,48.149896818]}},{"properties":{"city":"St-Jean-sur-Richelieu","geo_score":0.0,"country":"France","lobsters traced":2,"id":"a64nly5ov1l7","geo_precision":"unmatched"},"type":"Feature","geometry":null},{"properties":{"city":"St-Jerome","geo_score":0.921,"country":"Canada","lobsters traced":1,"id":"a64nly016juf","geo_precision":"zip"},"type":"Feature","geometry":{"type":"Point","coordinates":[-85.249865931,48.050098819]}},{"properties":{"city":"St-Lambert","geo_score":0.0,"country":"Canada","lobsters traced":2,"id":"a64nly6lae6m","geo_precision":"unmatched"},"type":"Feature","geometry":null},{"properties":{"city":"St-Remi","geo_score":0.952,"country":"Canada","lobsters traced":1,"id":"a64nly8r51v2","geo_precision":"zip"},"type":"Feature","geometry":{"type":"Point","coordinates":[-83.083090351,47.550112321]}},{"properties":{"city":"Stamford","geo_score":1.0,"country":"United States","lobsters traced":5,"id":"a64nly351fs1","geo_precision":"zip"},"type":"Feature","geometry":{"type":"Point","coordinates":[-73.5387341,41.0534302]}},{"properties":{"city":"Stavanger","geo_score":1.0,"country":"Norway","lobsters traced":1,"id":"a64nly5uidno","geo_precision":"zip"},"type":"Feature","geometry":{"type":"Point","coordinates":[5.75,58.9666667]}},{"properties":{"city":"Ste-Anne-de-Bellevue","geo_score":0.966,"country":"Canada","lobsters traced":1,"id":"a64nlyf8aog9","geo_precision":"zip"},"type":"Feature","geometry":{"type":"Point","coordinates":[-73.9333333333333,45.4333333333333]}},{"properties":{"city":"Ste-Julie","geo_score":0.0,"country":"Canada","lobsters traced":1,"id":"a64nlxzznhjl","geo_precision":"unmatched"},"type":"Feature","geometry":null},{"properties":{"city":"Stellarton","geo_score":0.929,"country":"Canada","lobsters traced":5,"id":"a64nly1ao6jv","geo_precision":"zip"},"type":"Feature","geometry":{"type":"Point","coordinates":[-105.434705874,59.283702912]}},{"properties":{"city":"Stockholm","geo_score":1.0,"country":"Sweden","lobsters traced":4,"id":"a64nlydani6y","geo_precision":"zip"},"type":"Feature","geometry":{"type":"Point","coordinates":[18.0649030208588,59.3325765361753]}},{"properties":{"city":"Stratford","geo_score":1.0,"country":"Canada","lobsters traced":1,"id":"a64nly0u5ngg","geo_precision":"zip"},"type":"Feature","geometry":{"type":"Point","coordinates":[-80.949723178,43.366792788]}},{"properties":{"city":"Summerside","geo_score":1.0,"country":"Canada","lobsters traced":29,"id":"a64nly497l3b","geo_precision":"zip"},"type":"Feature","geometry":{"type":"Point","coordinates":[-63.787622873,46.395933452]}},{"properties":{"city":"Sussex","geo_score":1.0,"country":"Canada","lobsters traced":1,"id":"a64nlyf6ec9a","geo_precision":"zip"},"type":"Feature","geometry":{"type":"Point","coordinates":[-65.506625267,45.722656556]}},{"properties":{"city":"Swans Island","geo_score":0.893,"country":"United States","lobsters traced":2,"id":"a64nly2zrg25","geo_precision":"zip"},"type":"Feature","geometry":{"type":"Point","coordinates":[-122.5846041,48.1331513]}},{"properties":{"city":"Sydney","geo_score":0.881,"country":"Canada","lobsters traced":61,"id":"a64nly48wt3z","geo_precision":"zip"},"type":"Feature","geometry":{"type":"Point","coordinates":[-82.533113491,48.916923362]}},{"properties":{"city":"Syracuse","geo_score":1.0,"country":"United States","lobsters traced":4,"id":"a64nlydxjxr5","geo_precision":"zip"},"type":"Feature","geometry":{"type":"Point","coordinates":[-76.1474244,43.0481221]}},{"properties":{"city":"Tervuren","geo_score":1.0,"country":"Belgium","lobsters traced":2,"id":"a64nlxzpvprl","geo_precision":"zip"},"type":"Feature","geometry":{"type":"Point","coordinates":[4.5166667,50.8166667]}},{"properties":{"city":"Tewksbury","geo_score":1.0,"country":"United States","lobsters traced":1,"id":"a64nlycq5512","geo_precision":"zip"},"type":"Feature","geometry":{"type":"Point","coordinates":[-71.2342248,42.6106479]}},{"properties":{"city":"The Hague","geo_score":0.911,"country":"Netherlands","lobsters traced":4,"id":"a64nlye03s18","geo_precision":"zip"},"type":"Feature","geometry":{"type":"Point","coordinates":[5.61075210571289,52.9685955104609]}},{"properties":{"city":"Tielt","geo_score":1.0,"country":"Belgium","lobsters traced":1,"id":"a64nly20mvv0","geo_precision":"zip"},"type":"Feature","geometry":{"type":"Point","coordinates":[3.3166667,51.0]}},{"properties":{"city":"Tokyo","geo_score":1.0,"country":"Japan","lobsters traced":1,"id":"a64nlxyxzzr6","geo_precision":"zip"},"type":"Feature","geometry":{"type":"Point","coordinates":[139.691677093506,35.6895265930799]}},{"properties":{"city":"Torhout","geo_score":1.0,"country":"Belgium","lobsters traced":1,"id":"a64nlyevzmyl","geo_precision":"zip"},"type":"Feature","geometry":{"type":"Point","coordinates":[3.1,51.0666667]}},{"properties":{"city":"Toronto","geo_score":1.0,"country":"Canada","lobsters traced":47,"id":"a64nlye0dk9b","geo_precision":"zip"},"type":"Feature","geometry":{"type":"Point","coordinates":[-79.416304194,43.700113788]}},{"properties":{"city":"Torshavn","geo_score":1.0,"country":"Faroe Islands","lobsters traced":1,"id":"a64nly0bxe1w","geo_precision":"zip"},"type":"Feature","geometry":{"type":"Point","coordinates":[-7.1166667,62.05]}},{"properties":{"city":"Tottenham","geo_score":0.952,"country":"United Kingdom","lobsters traced":1,"id":"a64nly1xbrfc","geo_precision":"zip"},"type":"Feature","geometry":{"type":"Point","coordinates":[0.55,52.3166667]}},{"properties":{"city":"Trieste","geo_score":0.0,"country":"Slovenia","lobsters traced":1,"id":"a64nly0tqm1f","geo_precision":"unmatched"},"type":"Feature","geometry":null},{"properties":{"city":"Trois-Rivieres","geo_score":1.0,"country":"Canada","lobsters traced":2,"id":"a64nly9dfqhn","geo_precision":"zip"},"type":"Feature","geometry":{"type":"Point","coordinates":[-72.549118788,46.350060887]}},{"properties":{"city":"Tromso","geo_score":1.0,"country":"Norway","lobsters traced":2,"id":"a64nlydp4vzi","geo_precision":"zip"},"type":"Feature","geometry":{"type":"Point","coordinates":[18.9648056030273,69.6526697884179]}},{"properties":{"city":"Troy","geo_score":1.0,"country":"United States","lobsters traced":2,"id":"a64nlyaxkb2f","geo_precision":"zip"},"type":"Feature","geometry":{"type":"Point","coordinates":[-83.1499304,42.6055893]}},{"properties":{"city":"Truro","geo_score":1.0,"country":"Canada","lobsters traced":1,"id":"a64nlyazspa5","geo_precision":"zip"},"type":"Feature","geometry":{"type":"Point","coordinates":[-63.265378307,45.366848]}},{"properties":{"city":"Tucker","geo_score":1.0,"country":"United States","lobsters traced":1,"id":"a64nly27aw9r","geo_precision":"zip"},"type":"Feature","geometry":{"type":"Point","coordinates":[-84.2171424,33.8545479]}},{"properties":{"city":"Uccle","geo_score":1.0,"country":"Belgium","lobsters traced":1,"id":"a64nlye4i3pl","geo_precision":"zip"},"type":"Feature","geometry":{"type":"Point","coordinates":[4.3166667,50.8]}},{"properties":{"city":"Unionville","geo_score":1.0,"country":"United States","lobsters traced":1,"id":"a64nly1otxjz","geo_precision":"zip"},"type":"Feature","geometry":{"type":"Point","coordinates":[-80.5089552,35.0873694]}},{"properties":{"city":"Valencia","geo_score":1.0,"country":"Spain","lobsters traced":4,"id":"a64nlyceg7td","geo_precision":"zip"},"type":"Feature","geometry":{"type":"Point","coordinates":[-0.377386808395386,39.4697524227712]}},{"properties":{"city":"Valladolid","geo_score":0.901,"country":"France","lobsters traced":1,"id":"a64nly0bvwxg","geo_precision":"zip"},"type":"Feature","geometry":{"type":"Point","coordinates":[7.0666667,47.6333333]}},{"properties":{"city":"Valleyfield","geo_score":0.879,"country":"United States","lobsters traced":2,"id":"a64nly7hns5f","geo_precision":"zip"},"type":"Feature","geometry":{"type":"Point","coordinates":[-87.6578033,34.2256543]}},{"properties":{"city":"Vancouver","geo_score":1.0,"country":"Canada","lobsters traced":114,"id":"a64nly7u1dr2","geo_precision":"zip"},"type":"Feature","geometry":{"type":"Point","coordinates":[-123.119340403,49.249657393]}},{"properties":{"city":"Vanier","geo_score":1.0,"country":"Canada","lobsters traced":2,"id":"a64nlybel5mz","geo_precision":"zip"},"type":"Feature","geometry":{"type":"Point","coordinates":[-78.749592624,49.083481555]}},{"properties":{"city":"Vankleek Hill","geo_score":0.893,"country":"United States","lobsters traced":2,"id":"a64nlycacju1","geo_precision":"zip"},"type":"Feature","geometry":{"type":"Point","coordinates":[-80.2781057,25.8575963]}},{"properties":{"city":"Vaudreuil","geo_score":0.905,"country":"Canada","lobsters traced":3,"id":"a64nly0bte31","geo_precision":"zip"},"type":"Feature","geometry":{"type":"Point","coordinates":[-75.69934674,45.333402218]}},{"properties":{"city":"Veghel","geo_score":1.0,"country":"Netherlands","lobsters traced":1,"id":"a64nly1prbyr","geo_precision":"zip"},"type":"Feature","geometry":{"type":"Point","coordinates":[5.548611,51.616667]}},{"properties":{"city":"Vernon Hills","geo_score":1.0,"country":"United States","lobsters traced":2,"id":"a64nly0qyalu","geo_precision":"zip"},"type":"Feature","geometry":{"type":"Point","coordinates":[-87.9650402069092,42.2411000047487]}},{"properties":{"city":"Verona","geo_score":1.0,"country":"Italy","lobsters traced":1,"id":"a64nly312uv8","geo_precision":"zip"},"type":"Feature","geometry":{"type":"Point","coordinates":[10.997788,45.434186]}},{"properties":{"city":"Viana Do Castelo","geo_score":1.0,"country":"Portugal","lobsters traced":1,"id":"a64nlycso0f2","geo_precision":"zip"},"type":"Feature","geometry":{"type":"Point","coordinates":[-8.8333333,41.7]}},{"properties":{"city":"Victoria","geo_score":1.0,"country":"Canada","lobsters traced":1,"id":"a64nly3dcibd","geo_precision":"zip"},"type":"Feature","geometry":{"type":"Point","coordinates":[-123.369299678,48.432935738]}},{"properties":{"city":"Victoriaville","geo_score":1.0,"country":"Canada","lobsters traced":1,"id":"a64nly02n1w1","geo_precision":"zip"},"type":"Feature","geometry":{"type":"Point","coordinates":[-71.96579271,46.050066958]}},{"properties":{"city":"Vigo","geo_score":1.0,"country":"Spain","lobsters traced":1,"id":"a64nly9g7fnn","geo_precision":"zip"},"type":"Feature","geometry":{"type":"Point","coordinates":[-8.81205840046395,42.2154941475053]}},{"properties":{"city":"Vlissingen","geo_score":1.0,"country":"Netherlands","lobsters traced":3,"id":"a64nlyf25aku","geo_precision":"zip"},"type":"Feature","geometry":{"type":"Point","coordinates":[3.573611,51.4425]}},{"properties":{"city":"Voorburg","geo_score":1.0,"country":"Netherlands","lobsters traced":1,"id":"a64nly6funwa","geo_precision":"zip"},"type":"Feature","geometry":{"type":"Point","coordinates":[4.359722,52.074167]}},{"properties":{"city":"Waregem","geo_score":1.0,"country":"Belgium","lobsters traced":1,"id":"a64nly37gwm6","geo_precision":"zip"},"type":"Feature","geometry":{"type":"Point","coordinates":[3.4166667,50.8833333]}},{"properties":{"city":"Warrenton","geo_score":1.0,"country":"United States","lobsters traced":1,"id":"a64nly7kgtey","geo_precision":"zip"},"type":"Feature","geometry":{"type":"Point","coordinates":[-77.7952712,38.7134516]}},{"properties":{"city":"Washington","geo_score":1.0,"country":"United States","lobsters traced":11,"id":"a64nly7u33uq","geo_precision":"zip"},"type":"Feature","geometry":{"type":"Point","coordinates":[-120.5014693,47.5001238]}},{"properties":{"city":"Waterbury","geo_score":1.0,"country":"United States","lobsters traced":1,"id":"a64nly2pq6so","geo_precision":"zip"},"type":"Feature","geometry":{"type":"Point","coordinates":[-73.0514966,41.5581525]}},{"properties":{"city":"Waterloo","geo_score":1.0,"country":"Canada","lobsters traced":2,"id":"a64nly933xas","geo_precision":"zip"},"type":"Feature","geometry":{"type":"Point","coordinates":[-80.516389802,43.466795567]}},{"properties":{"city":"Watertown","geo_score":1.0,"country":"United States","lobsters traced":1,"id":"a64nly283w4e","geo_precision":"zip"},"type":"Feature","geometry":{"type":"Point","coordinates":[-71.1828321,42.3709299]}},{"properties":{"city":"Weare","geo_score":0.971,"country":"United States","lobsters traced":1,"id":"a64nly93md1n","geo_precision":"zip"},"type":"Feature","geometry":{"type":"Point","coordinates":[-72.2398021,42.2598146]}},{"properties":{"city":"Wellesley","geo_score":1.0,"country":"United States","lobsters traced":1,"id":"a64nly6t30rv","geo_precision":"zip"},"type":"Feature","geometry":{"type":"Point","coordinates":[-71.2925571,42.2964859]}},{"properties":{"city":"West Haven","geo_score":1.0,"country":"United States","lobsters traced":1,"id":"a64nly55o81s","geo_precision":"zip"},"type":"Feature","geometry":{"type":"Point","coordinates":[-72.9470471,41.2706527]}},{"properties":{"city":"West Orange","geo_score":0.943,"country":"United States","lobsters traced":2,"id":"a64nly3ittqg","geo_precision":"zip"},"type":"Feature","geometry":{"type":"Point","coordinates":[-117.8531119,33.7877945]}},{"properties":{"city":"West Palm Beach","geo_score":0.905,"country":"United States","lobsters traced":2,"id":"a64nly18k1jq","geo_precision":"zip"},"type":"Feature","geometry":{"type":"Point","coordinates":[-80.4497744,26.6503442]}},{"properties":{"city":"West Warwick","geo_score":0.948,"country":"United States","lobsters traced":1,"id":"a64nlydjr4rt","geo_precision":"zip"},"type":"Feature","geometry":{"type":"Point","coordinates":[-71.4161671,41.700101]}},{"properties":{"city":"Westford","geo_score":0.917,"country":"United States","lobsters traced":2,"id":"a64nly3htioe","geo_precision":"zip"},"type":"Feature","geometry":{"type":"Point","coordinates":[-80.5000866,38.5003838]}},{"properties":{"city":"Weymouth","geo_score":1.0,"country":"United States","lobsters traced":3,"id":"a64nly5xnyn1","geo_precision":"zip"},"type":"Feature","geometry":{"type":"Point","coordinates":[-70.9397684,42.2209333]}},{"properties":{"city":"Whistler","geo_score":1.0,"country":"Canada","lobsters traced":1,"id":"a64nly1ewtzx","geo_precision":"zip"},"type":"Feature","geometry":{"type":"Point","coordinates":[-122.969456209,50.116395542]}},{"properties":{"city":"White River Junction","geo_score":0.897,"country":"United States","lobsters traced":1,"id":"a64nly1rli0l","geo_precision":"zip"},"type":"Feature","geometry":{"type":"Point","coordinates":[-83.402718,42.7022527]}},{"properties":{"city":"Whitinsville","geo_score":1.0,"country":"United States","lobsters traced":1,"id":"a64nly20mome","geo_precision":"zip"},"type":"Feature","geometry":{"type":"Point","coordinates":[-71.6661783,42.1112075]}},{"properties":{"city":"Wielsbeke","geo_score":1.0,"country":"Belgium","lobsters traced":3,"id":"a64nlyeour3b","geo_precision":"zip"},"type":"Feature","geometry":{"type":"Point","coordinates":[3.3666667,50.9]}},{"properties":{"city":"Wijchen","geo_score":1.0,"country":"Netherlands","lobsters traced":1,"id":"a64nly198x49","geo_precision":"zip"},"type":"Feature","geometry":{"type":"Point","coordinates":[5.725,51.809167]}},{"properties":{"city":"Wilmington","geo_score":1.0,"country":"United States","lobsters traced":2,"id":"a64nlybhonzi","geo_precision":"zip"},"type":"Feature","geometry":{"type":"Point","coordinates":[-77.9447102,34.2257256]}},{"properties":{"city":"Winchester","geo_score":1.0,"country":"United States","lobsters traced":1,"id":"a64nly58go82","geo_precision":"zip"},"type":"Feature","geometry":{"type":"Point","coordinates":[-115.1188877,36.129972]}},{"properties":{"city":"Windham","geo_score":0.934,"country":"United States","lobsters traced":1,"id":"a64nlydpih5g","geo_precision":"zip"},"type":"Feature","geometry":{"type":"Point","coordinates":[-72.0000745,41.8334313]}},{"properties":{"city":"Windsor","geo_score":1.0,"country":"Canada","lobsters traced":2,"id":"a64nlxzy79no","geo_precision":"zip"},"type":"Feature","geometry":{"type":"Point","coordinates":[-83.016543483,42.300083644]}},{"properties":{"city":"Winnipeg","geo_score":1.0,"country":"Canada","lobsters traced":2,"id":"a64nlyc13pmr","geo_precision":"zip"},"type":"Feature","geometry":{"type":"Point","coordinates":[-97.147044715,49.884398624]}},{"properties":{"city":"Woburn","geo_score":1.0,"country":"United States","lobsters traced":3,"id":"a64nly9jgwp1","geo_precision":"zip"},"type":"Feature","geometry":{"type":"Point","coordinates":[-71.1522766,42.4792618]}},{"properties":{"city":"Wolfville","geo_score":1.0,"country":"Canada","lobsters traced":6,"id":"a64nly2mn7wk","geo_precision":"zip"},"type":"Feature","geometry":{"type":"Point","coordinates":[-64.365455132,45.083449463]}},{"properties":{"city":"Woodbury","geo_score":1.0,"country":"United States","lobsters traced":1,"id":"a64nly9v0871","geo_precision":"zip"},"type":"Feature","geometry":{"type":"Point","coordinates":[-92.9593797,44.9238552]}},{"properties":{"city":"Woodstock","geo_score":0.886,"country":"United States","lobsters traced":4,"id":"a64nly0m00qg","geo_precision":"zip"},"type":"Feature","geometry":{"type":"Point","coordinates":[-89.9167821,41.7505854]}},{"properties":{"city":"Worcester","geo_score":0.943,"country":"United States","lobsters traced":2,"id":"a64nlycdnjwh","geo_precision":"zip"},"type":"Feature","geometry":{"type":"Point","coordinates":[-71.8328499,42.3334256]}},{"properties":{"city":"Wynnewood","geo_score":0.905,"country":"United States","lobsters traced":2,"id":"a64nly0vsyuc","geo_precision":"zip"},"type":"Feature","geometry":{"type":"Point","coordinates":[-105.1708193,40.103874]}},{"properties":{"city":"Yarmouth","geo_score":1.0,"country":"Canada","lobsters traced":218,"id":"a64nly3clezk","geo_precision":"zip"},"type":"Feature","geometry":{"type":"Point","coordinates":[-66.11556919,43.833452402]}},{"properties":{"city":"Yellowknife","geo_score":1.0,"country":"Canada","lobsters traced":1,"id":"a64nlyf7kc2o","geo_precision":"zip"},"type":"Feature","geometry":{"type":"Point","coordinates":[-114.352546021,62.455995109]}},{"properties":{"city":"York","geo_score":1.0,"country":"Canada","lobsters traced":1,"id":"a64nlyaohlgv","geo_precision":"zip"},"type":"Feature","geometry":{"type":"Point","coordinates":[-63.098684087,46.316816852]}},{"properties":{"city":"Yorktown Heights","geo_score":1.0,"country":"United States","lobsters traced":1,"id":"a64nlyd9gy7g","geo_precision":"zip"},"type":"Feature","geometry":{"type":"Point","coordinates":[-73.7776336,41.2709274]}},{"properties":{"city":"Youngstown","geo_score":1.0,"country":"United States","lobsters traced":1,"id":"a64nly9m4uly","geo_precision":"zip"},"type":"Feature","geometry":{"type":"Point","coordinates":[-80.6495194,41.0997803]}},{"properties":{"city":"Zanesville","geo_score":1.0,"country":"United States","lobsters traced":1,"id":"a64nlyevg959","geo_precision":"zip"},"type":"Feature","geometry":{"type":"Point","coordinates":[-82.0131924,39.9403453]}},{"properties":{"city":"Zeebrugge","geo_score":0.905,"country":"Belgium","lobsters traced":2,"id":"a64nlxzxhhj3","geo_precision":"zip"},"type":"Feature","geometry":{"type":"Point","coordinates":[4.25,50.8]}},{"properties":{"city":"Zevenbergen","geo_score":0.935,"country":"Netherlands","lobsters traced":2,"id":"a64nlxzvzfxe","geo_precision":"zip"},"type":"Feature","geometry":{"type":"Point","coordinates":[5.85,52.8666667]}},{"properties":{"city":"Zoetermeer","geo_score":1.0,"country":"Netherlands","lobsters traced":4,"id":"a64nly7gruys","geo_precision":"zip"},"type":"Feature","geometry":{"type":"Point","coordinates":[4.493056,52.0575]}},{"properties":{"city":"Zurich","geo_score":1.0,"country":"Switzerland","lobsters traced":1,"id":"a64nly7brlo2","geo_precision":"zip"},"type":"Feature","geometry":{"type":"Point","coordinates":[8.55,47.3666667]}},{"properties":{"city":"Zwolle","geo_score":1.0,"country":"Netherlands","lobsters traced":1,"id":"a64nly5mwt9y","geo_precision":"zip"},"type":"Feature","geometry":{"type":"Point","coordinates":[6.094444,52.5125]}}],"is_temporal":false,"author":{"url":"","metadata":"","contact_name":"","contact_address":"","source":"","contact_phone":""},"source":"","pagination":{"sort":null,"start":0,"total":535,"limit":1000000},"state":"complete","tags":"","published":"2014-08-13T03:12:00-04:00","id":123852}