{"type":"FeatureCollection","data_type":"Dataset","url_type":null,"permissions":[{"permissions":{"download":true,"view":true},"group_id":"everyone"}],"classification":null,"title":"Regional Breweries","count":45,"stream_id":123831,"contributor":{"url":"http://geocommons.com/users/28179","name":"heathercwest"},"data_attributes":null,"calculation_params":null,"icon_link":null,"link":"http://geocommons.com/overlays/123831.json","extent":[-149.544,32.7574,-104.988,61.3193],"geometry_types":["point"],"unique_name":null,"name":"Regional Breweries","feature_count":45,"description":"A list of 45 western US regional breweries (as defined by the Craft Brewers' Association)","next_feature":null,"is_raster":false,"short_classification":"Y","stats":{},"features":[{"properties":{"city":"Juneau","name":"Alaskan Brewing and Bottling Co","zipcode":"99801-9540","geo_score":0.902,"type":"regional","website":"www.alaskanbeer.com","id":"a62255r1w8t3","geo_precision":"range","address":"5429 Shaune Dr","state":"AK"},"type":"Feature","geometry":{"type":"Point","coordinates":[-134.489392,58.356727]}},{"properties":{"city":"Tempe","name":"Four Peaks Brewing Co","zipcode":"85281","geo_score":0.707,"type":"regional","website":"www.fourpeaks.com","id":"a62255vrv3gq","geo_precision":"range","address":"1340 E Eighth St., #104","state":"AZ"},"type":"Feature","geometry":{"type":"Point","coordinates":[-111.553725,32.757429]}},{"properties":{"city":"San Francisco","name":"Anchor Brewing Co","zipcode":"94107-2334","geo_score":0.805,"type":"Regional","website":"www.anchorbrewing.com","id":"a62255uthqan","geo_precision":"range","address":"1705 Mariposa ST","state":"CA"},"type":"Feature","geometry":{"type":"Point","coordinates":[-122.400545,37.763617]}},{"properties":{"city":"Boonville","name":"Anderson Valley Brewing Co","zipcode":"95415","geo_score":0.545,"type":"Regional","website":"www.avbc.com","id":"a62255kbccc9","geo_precision":"street","address":"17700 Hwy 253/PO Box 505","state":"CA"},"type":"Feature","geometry":{"type":"Point","coordinates":[-123.327788,38.999252]}},{"properties":{"city":"San Diego","name":"Ballast Point Brewing Co.","zipcode":null,"geo_score":0.721,"type":"Regional","website":"www.ballastpoint.com","id":"a62255pi4aof","geo_precision":"range","address":"10051 Old Grove Rd Ste B","state":"CA"},"type":"Feature","geometry":{"type":"Point","coordinates":[-117.111213,32.89892]}},{"properties":{"city":"Cloverdale","name":"Bear Republic Brewing Co","zipcode":"95425","geo_score":0.532,"type":"Regional","website":"www.bearrepublic.com","id":"a62255t4m8wa","geo_precision":"city","address":"110 Sandholm Ln #10","state":"CA"},"type":"Feature","geometry":{"type":"Point","coordinates":[-120.609928,38.157975]}},{"properties":{"city":"Cloverdale","name":"Bear Republic Brewing Co- Production facility","zipcode":"95425","geo_score":0.313,"type":"Regional","website":"www.bearrepublic.com","id":"a62255o9urvi","geo_precision":"street","address":"110 Sand Holm Ln","state":"CA"},"type":"Feature","geometry":{"type":"Point","coordinates":[-120.330635,38.258316]}},{"properties":{"city":"San Diego","name":"Firehouse Brewing Co","zipcode":"92108","geo_score":0.805,"type":"Regional","website":"www.firehousebrewery.com","id":"a62255xx9bk4","geo_precision":"range","address":"10306 San Diego Mission Road","state":"CA"},"type":"Feature","geometry":{"type":"Point","coordinates":[-117.11297,32.785811]}},{"properties":{"city":"Paso Robles","name":"Firestone Walker Brewing Co","zipcode":"93446","geo_score":0.805,"type":"Regional","website":"www.firestonebeer.com","id":"a62255j3s74e","geo_precision":"range","address":"1400 Ramada Drive","state":"CA"},"type":"Feature","geometry":{"type":"Point","coordinates":[-120.694462,35.590115]}},{"properties":{"city":"San Jose","name":"Gordon Biersch Brewing Co","zipcode":"95112","geo_score":0.805,"type":"REgional","website":"www.gordonbiersch.com","id":"a62255tu9uct","geo_precision":"range","address":"357 E Taylor St","state":"CA"},"type":"Feature","geometry":{"type":"Point","coordinates":[-121.892887,37.352566]}},{"properties":{"city":"San Diego","name":"Karl Strauss Brewing Co","zipcode":"92109","geo_score":0.805,"type":"regional","website":"www.karlstrauss.com","id":"a62255l6ln1p","geo_precision":"range","address":"5985 Santa Fe St","state":"CA"},"type":"Feature","geometry":{"type":"Point","coordinates":[-117.231992,32.826544]}},{"properties":{"city":"Petaluma","name":"Lagunitas Brewing Co","zipcode":"94954-1113","geo_score":0.805,"type":"regional","website":"www.lagunitas.com","id":"a62255rt9kl7","geo_precision":"range","address":"1280 N McDowell Blvd","state":"CA"},"type":"Feature","geometry":{"type":"Point","coordinates":[-122.662807,38.27169]}},{"properties":{"city":"Eureka","name":"Lost Coast Brewery","zipcode":"95501","geo_score":0.805,"type":"regional","website":"www.lostcoast.com","id":"a62255t93a0q","geo_precision":"range","address":"123 W 3rd St","state":"CA"},"type":"Feature","geometry":{"type":"Point","coordinates":[-124.174054,40.802498]}},{"properties":{"city":"Ukiah","name":"Mendocino Brewing Co","zipcode":"95482","geo_score":0.902,"type":"regional","website":"www.mendobrew.com","id":"a62255r8k0pk","geo_precision":"range","address":"1600 Airport Rd","state":"CA"},"type":"Feature","geometry":{"type":"Point","coordinates":[-123.200558,39.132681]}},{"properties":{"city":"Fort Bragg","name":"North Coast Brewing Co Inc.","zipcode":"95437-3216","geo_score":0.785,"type":"regional","website":"www.northcoastbrewering.com","id":"a62255tmpj9t","geo_precision":"range","address":"455 N Main St","state":"CA"},"type":"Feature","geometry":{"type":"Point","coordinates":[-122.195381,39.620003]}},{"properties":{"city":"Berkeley","name":"Pyramid Brewery/ Independent Brewers United","zipcode":"94710","geo_score":0.772,"type":"regional","website":"www.pyramidbrew.com","id":"a62255jnessq","geo_precision":"range","address":"901 Gillman St","state":"CA"},"type":"Feature","geometry":{"type":"Point","coordinates":[-122.300309,37.879516]}},{"properties":{"city":"Berkeley","name":"Pyramid Brewery/ International Brewers United","zipcode":"94710","geo_score":0.772,"type":"regional","website":"www.pyramidbrew.com","id":"a62255rdgp6y","geo_precision":"range","address":"901 Gillman St","state":"CA"},"type":"Feature","geometry":{"type":"Point","coordinates":[-122.300309,37.879516]}},{"properties":{"city":"Chico","name":"Sierra Nevada Brewing Co","zipcode":"95928-6722","geo_score":0.721,"type":"regional","website":"www.sierranevada.com","id":"a62255ld4i9j","geo_precision":"range","address":"1075 E 20th St","state":"CA"},"type":"Feature","geometry":{"type":"Point","coordinates":[-121.813373,39.724926]}},{"properties":{"city":"Escondido","name":"Stone Brewing Co","zipcode":"92029","geo_score":0.611,"type":"regional","website":"www.stonebrew.com","id":"a62255p31k6i","geo_precision":"street","address":"1999 Citracado Parkway","state":"CA"},"type":"Feature","geometry":{"type":"Point","coordinates":[-117.110715,33.097817]}},{"properties":{"city":"Berkeley","name":"Trumer Brauerei","zipcode":"94710","geo_score":0.688,"type":"regional","website":"www.trumer-international.com","id":"a62255rncrv3","geo_precision":"range","address":"1404 Fourth Street","state":"CA"},"type":"Feature","geometry":{"type":"Point","coordinates":[-122.302965,37.876971]}},{"properties":{"city":"Boulder","name":"Avery Brewing Co","zipcode":"80303","geo_score":0.364,"type":"Regional","website":"www.averybrewing.com","id":"a62255n9s5r5","geo_precision":"street","address":"57635763 Arapahoe Ave, Ste E","state":"CO"},"type":"Feature","geometry":{"type":"Point","coordinates":[-105.297969,40.012919]}},{"properties":{"city":"Boulder","name":"Boulder Beer Co","zipcode":"80301-2258","geo_score":0.805,"type":"Regional","website":"www.boulderbeer.com","id":"a62255t24a7w","geo_precision":"range","address":"2880 Wilderness Pl","state":"CO"},"type":"Feature","geometry":{"type":"Point","coordinates":[-105.248576,40.026163]}},{"properties":{"city":"Denver","name":"Breckenridge Brewery","zipcode":"80204","geo_score":0.805,"type":"Regional","website":"www.breckenridgebrewery.com","id":"a62255ijou5h","geo_precision":"range","address":"471 Kalamath St","state":"CO"},"type":"Feature","geometry":{"type":"Point","coordinates":[-105.000185,39.723665]}},{"properties":{"city":"Denver","name":"Great Divide Brewing Co","zipcode":null,"geo_score":0.805,"type":"Regional","website":"www.greatdivide.com","id":"a62255qxw560","geo_precision":"range","address":"2201 Arapahoe St","state":"CO"},"type":"Feature","geometry":{"type":"Point","coordinates":[-104.988421,39.753478]}},{"properties":{"city":"Longmont","name":"Left Hand Brewing Co","zipcode":"80501-5809","geo_score":0.902,"type":"Regional","website":"www.lefthandbrewing.com","id":"a62255kcv86x","geo_precision":"range","address":"1265 Boston Ave","state":"CO"},"type":"Feature","geometry":{"type":"Point","coordinates":[-105.112647,40.158757]}},{"properties":{"city":"Fort Collins","name":"New Belgium Brewing Co","zipcode":"80524","geo_score":0.6,"type":"Regional","website":"www.newbelgium.com","id":"a62255qqt0z6","geo_precision":"street","address":"500 Linden St","state":"CO"},"type":"Feature","geometry":{"type":"Point","coordinates":[-108.718713,39.166475]}},{"properties":{"city":"Fort Collins","name":"Odell Brewing Co","zipcode":"80524","geo_score":0.584,"type":"Regional","website":"www.odellbrewing.com","id":"a62255uoxf86","geo_precision":"street","address":"800 E Lincoln Ave","state":"CO"},"type":"Feature","geometry":{"type":"Point","coordinates":[-108.356827,39.106276]}},{"properties":{"city":"Longmont","name":"Oskar Blues Brewery &amp; Tasty Weasel Tap Room","zipcode":"80501","geo_score":0.429,"type":"Regional","website":"www.oskarblues.com","id":"a62255t68bn6","geo_precision":"street","address":"1800 Pike Street #B","state":"CO"},"type":"Feature","geometry":{"type":"Point","coordinates":[-105.121476,40.137892]}},{"properties":{"city":"Durango","name":"SKA Brewing","zipcode":null,"geo_score":0.75,"type":"Regional","website":"www.skabrewing.com","id":"a62255qm6sys","geo_precision":"street","address":"225 Girard, Bodo Park","state":"CO"},"type":"Feature","geometry":{"type":"Point","coordinates":[-107.871847,37.240466]}},{"properties":{"city":"Kailua-Kona","name":"Kona Brewing LLC","zipcode":"96740","geo_score":0.502,"type":"regional","website":"www.konabrewingco.com","id":"a62255qlselk","geo_precision":"street","address":"75-5629 Kuakini Hwy","state":"HI*"},"type":"Feature","geometry":{"type":"Point","coordinates":[-149.543621,61.319289]}},{"properties":{"city":"Missoula","name":"Big Sky Brewing Co","zipcode":"59808","geo_score":0.371,"type":"regional","website":"www.bigskybrew.com","id":"a62255qzy6rf","geo_precision":"street","address":"PO Box 17170","state":"MT"},"type":"Feature","geometry":{"type":"Point","coordinates":[-114.081839,47.162383]}},{"properties":{"city":"Portland","name":"BridgePort Brewing Co","zipcode":"97209-2806","geo_score":0.805,"type":"regional","website":"www.bridgeportbrew.com","id":"a62255r5s1i7","geo_precision":"range","address":"1318 NW Northrup St","state":"OR"},"type":"Feature","geometry":{"type":"Point","coordinates":[-122.684598,45.531467]}},{"properties":{"city":"Portland","name":"Craft Brewers Alliance, Inc.","zipcode":null,"geo_score":0.805,"type":"regional","website":"www.widmer.com","id":"a62255j738z3","geo_precision":"range","address":"929 N Russell St","state":"OR"},"type":"Feature","geometry":{"type":"Point","coordinates":[-122.676108,45.541014]}},{"properties":{"city":"Bend","name":"Deschutes Brewery","zipcode":null,"geo_score":0.805,"type":"regional","website":"ww.deschutesbrewery.com","id":"a62255qhzwc6","geo_precision":"range","address":"901 SW Simpson Ave","state":"OR"},"type":"Feature","geometry":{"type":"Point","coordinates":[-121.323225,44.0476]}},{"properties":{"city":"Hood River","name":"Full Sail Brewing Co","zipcode":null,"geo_score":0.902,"type":"regional","website":"www.fullsailbrewing.com","id":"a62255pp08s6","geo_precision":"range","address":"506 Columbia St","state":"OR"},"type":"Feature","geometry":{"type":"Point","coordinates":[-121.515361,45.710285]}},{"properties":{"city":"Eugene","name":"Ninkasi Brewing Co","zipcode":null,"geo_score":0.329,"type":"regional","website":"www.ninkasibrewing.com","id":"a62255q94pew","geo_precision":"street","address":"PO Box 11203","state":"OR"},"type":"Feature","geometry":{"type":"Point","coordinates":[-123.385687,43.150335]}},{"properties":{"city":"Portland","name":"Pyramid Brewery/ Independent Brewers United","zipcode":null,"geo_score":0.74,"type":"regional","website":"macsbeer.com","id":"a62255ms2oq0","geo_precision":"range","address":"2730 NW 31st Ave","state":"OR"},"type":"Feature","geometry":{"type":"Point","coordinates":[-122.713816,45.540797]}},{"properties":{"city":"Newport","name":"Rogue Ales Brewery &amp; Headquarters","zipcode":null,"geo_score":0.585,"type":"regional","website":"www.rogue.com","id":"a62255r73wug","geo_precision":"city","address":"2320 SE Osu Dr","state":"OR"},"type":"Feature","geometry":{"type":"Point","coordinates":[-124.024426,44.552413]}},{"properties":{"city":"Salt Lake City","name":"Uinta Brewing Co","zipcode":"84104","geo_score":0.286,"type":"regional","website":"www.uintabrewing.com","id":"a62255jddoqp","geo_precision":"street","address":"1722 S. Fremont Dr","state":"UT"},"type":"Feature","geometry":{"type":"Point","coordinates":[-111.891076,40.744842]}},{"properties":{"city":"Salt Lake City","name":"Utah Brewers Cooperative","zipcode":"84115","geo_score":0.286,"type":"regional","website":"www.wasatchbeers.com","id":"a62255ua1fbd","geo_precision":"street","address":"1763 South 300 West (UBC)","state":"UT"},"type":"Feature","geometry":{"type":"Point","coordinates":[-111.889664,40.775973]}},{"properties":{"city":"Woodinville","name":"Craft Brewers Alliance","zipcode":"98072","geo_score":0.902,"type":"regional","website":"www.redhook.com","id":"a62255npw9sa","geo_precision":"range","address":"14300 NE 145th St","state":"WA"},"type":"Feature","geometry":{"type":"Point","coordinates":[-122.149896,47.732865]}},{"properties":{"city":"Seattle","name":"Georgetown Brewing Co","zipcode":"98108","geo_score":0.805,"type":"regional","website":"www.georgetownbeer.com","id":"a62255uckzr8","geo_precision":"range","address":"5200 Denver Ave S","state":"WA"},"type":"Feature","geometry":{"type":"Point","coordinates":[-122.3269,47.555563]}},{"properties":{"city":"Redmond","name":"Mac and Jacks Brewing Inc","zipcode":"98052-4995","geo_score":0.429,"type":"regional","website":"www.macandjacks.com","id":"a62255l4ha1o","geo_precision":"street","address":"17825 NE 65th St, Suite B110","state":"WA"},"type":"Feature","geometry":{"type":"Point","coordinates":[-122.287801,47.387488]}},{"properties":{"city":"Seattle","name":"Pyramid Brewery/ Independent Brewers United","zipcode":"98134","geo_score":0.805,"type":"regional","website":"www.pyramidbrew.com","id":"a62255vxgieg","geo_precision":"range","address":"91 S Royal Brougham Way","state":"WA"},"type":"Feature","geometry":{"type":"Point","coordinates":[-122.334602,47.592405]}},{"properties":{"city":null,"name":"Sweetwater Brewing Co.","zipcode":null,"geo_score":0.0,"type":"regional","website":null,"id":"a62255jfjmjy","geo_precision":"unmatched","address":null,"state":"WY"},"type":"Feature","geometry":null}],"is_temporal":false,"author":{"url":"http://www.brewersassociation.org/pages/directories/find-us-brewery","metadata":"","contact_name":"","contact_address":"","source":"Brewers Association","contact_phone":""},"source":"http://www.brewersassociation.org/pages/directories/find-us-brewery","pagination":{"sort":null,"start":0,"total":45,"limit":1000000},"state":"complete","tags":"beer,craft","published":"2014-08-13T03:10:19-04:00","id":123831}