{"type":"FeatureCollection","data_type":"Dataset","url_type":null,"permissions":[{"permissions":{"download":true,"view":true},"group_id":"everyone"}],"classification":null,"title":"Annual Number of Sunny Days for Cities, USA by City, January 1st 2008","count":262,"stream_id":124650,"contributor":{"url":"http://geocommons.com/users/28334","name":"aamgeo123"},"data_attributes":null,"calculation_params":null,"icon_link":null,"link":"http://geocommons.com/overlays/124650.json","extent":[-170.277,13.4465,144.787,71.2901],"geometry_types":["point"],"unique_name":null,"name":"Annual Number of Sunny Days for Cities, USA by City, January 1st 2008","feature_count":262,"description":"This dataset gives the average number of sunny days in a year by city in the USA. The data were collected by NOAA.","next_feature":null,"is_raster":false,"short_classification":"Y","stats":{"days":{"max":242,"mean":102.083969465649,"variance":1321.52548916381,"stdev":36.3527920408297,"min":10,"median":99},"latitude":{"max":71.290082,"mean":40.2460667977099,"variance":77.6431304880684,"stdev":8.81153394637213,"min":13.44645,"median":39.962},"years":{"max":90,"mean":44.2022900763359,"variance":174.108347225878,"stdev":13.1950122101451,"min":3,"median":47},"longitude":{"max":144.786636,"mean":-99.2872236641222,"variance":755.83122861168,"stdev":27.4923849204044,"min":-170.276629,"median":-94.197519}},"features":[{"properties":{"city":"ABERDEEN","days":101,"latitude":45.45909,"years":28,"longitude":-98.487324,"id":"a62691koh6v5","state":"SD"},"type":"Feature","geometry":{"type":"Point","coordinates":[-98.487324,45.45909]}},{"properties":{"city":"ABILENE","days":149,"latitude":32.449175,"years":56,"longitude":-99.741424,"id":"a62691of8o7d","state":"TX"},"type":"Feature","geometry":{"type":"Point","coordinates":[-99.741424,32.449175]}},{"properties":{"city":"AKRON","days":68,"latitude":41.084195,"years":47,"longitude":-81.514059,"id":"a62691hqrws2","state":"OH"},"type":"Feature","geometry":{"type":"Point","coordinates":[-81.514059,41.084195]}},{"properties":{"city":"ALAMOSA","days":148,"latitude":37.46818,"years":33,"longitude":-105.873599,"id":"a62691op6q88","state":"CO"},"type":"Feature","geometry":{"type":"Point","coordinates":[-105.873599,37.46818]}},{"properties":{"city":"ALBANY","days":69,"latitude":42.651455,"years":57,"longitude":-73.755274,"id":"a62691j4cpa2","state":"NY"},"type":"Feature","geometry":{"type":"Point","coordinates":[-73.755274,42.651455]}},{"properties":{"city":"ALBUQUERQUE","days":167,"latitude":35.08418,"years":56,"longitude":-106.648639,"id":"a62691heaaww","state":"NM"},"type":"Feature","geometry":{"type":"Point","coordinates":[-106.648639,35.08418]}},{"properties":{"city":"ALLENTOWN","days":94,"latitude":40.60257,"years":52,"longitude":-75.470204,"id":"a62691i479mx","state":"PA"},"type":"Feature","geometry":{"type":"Point","coordinates":[-75.470204,40.60257]}},{"properties":{"city":"ALPENA","days":67,"latitude":45.061565,"years":36,"longitude":-83.445154,"id":"a62691gw137h","state":"MI"},"type":"Feature","geometry":{"type":"Point","coordinates":[-83.445154,45.061565]}},{"properties":{"city":"AMARILLO","days":157,"latitude":35.207255,"years":51,"longitude":-101.833894,"id":"a62691ni5ccb","state":"TX"},"type":"Feature","geometry":{"type":"Point","coordinates":[-101.833894,35.207255]}},{"properties":{"city":"ANCHORAGE","days":61,"latitude":61.21756,"years":44,"longitude":-149.857749,"id":"a62691rel7ev","state":"AK"},"type":"Feature","geometry":{"type":"Point","coordinates":[-149.857749,61.21756]}},{"properties":{"city":"ANNETTE","days":40,"latitude":55.062382,"years":41,"longitude":-131.540176,"id":"a62691k412jp","state":"AK"},"type":"Feature","geometry":{"type":"Point","coordinates":[-131.540176,55.062382]}},{"properties":{"city":"APALACHICOLA","days":128,"latitude":29.725525,"years":62,"longitude":-84.986999,"id":"a62691lp1nfl","state":"FL"},"type":"Feature","geometry":{"type":"Point","coordinates":[-84.986999,29.725525]}},{"properties":{"city":"ASHEVILLE","days":99,"latitude":35.59846,"years":31,"longitude":-82.553144,"id":"a62691p428pp","state":"NC"},"type":"Feature","geometry":{"type":"Point","coordinates":[-82.553144,35.59846]}},{"properties":{"city":"ASTORIA","days":50,"latitude":46.18977,"years":40,"longitude":-123.833954,"id":"a62691r25rws","state":"OR"},"type":"Feature","geometry":{"type":"Point","coordinates":[-123.833954,46.18977]}},{"properties":{"city":"ATHENS","days":113,"latitude":33.958132,"years":52,"longitude":-83.373255,"id":"a62691py421i","state":"GA"},"type":"Feature","geometry":{"type":"Point","coordinates":[-83.373255,33.958132]}},{"properties":{"city":"ATLANTA","days":110,"latitude":33.748315,"years":61,"longitude":-84.391109,"id":"a62691mnouat","state":"GA"},"type":"Feature","geometry":{"type":"Point","coordinates":[-84.391109,33.748315]}},{"properties":{"city":"ATLANTIC CITY AP","days":94,"latitude":39.362815,"years":37,"longitude":-74.426524,"id":"a62691rktu5q","state":"NJ"},"type":"Feature","geometry":{"type":"Point","coordinates":[-74.426524,39.362815]}},{"properties":{"city":"AUGUSTA","days":112,"latitude":33.47909,"years":44,"longitude":-81.975309,"id":"a62691ttbvl6","state":"GA"},"type":"Feature","geometry":{"type":"Point","coordinates":[-81.975309,33.47909]}},{"properties":{"city":"AUSTIN","days":115,"latitude":30.267605,"years":54,"longitude":-97.742984,"id":"a62691qsj2mn","state":"TX"},"type":"Feature","geometry":{"type":"Point","coordinates":[-97.742984,30.267605]}},{"properties":{"city":"AVOCA","days":70,"latitude":41.335476,"years":40,"longitude":-75.743434,"id":"a62691qgo0k4","state":"PA"},"type":"Feature","geometry":{"type":"Point","coordinates":[-75.743434,41.335476]}},{"properties":{"city":"BAKERSFIELD","days":191,"latitude":35.366975,"years":55,"longitude":-119.018844,"id":"a62691njhxua","state":"CA"},"type":"Feature","geometry":{"type":"Point","coordinates":[-119.018844,35.366975]}},{"properties":{"city":"BALTIMORE","days":105,"latitude":39.290555,"years":45,"longitude":-76.609604,"id":"a62691ly2nj7","state":"MD"},"type":"Feature","geometry":{"type":"Point","coordinates":[-76.609604,39.290555]}},{"properties":{"city":"BARROW","days":66,"latitude":71.290082,"years":54,"longitude":-156.788799,"id":"a62691iopw4s","state":"AK"},"type":"Feature","geometry":{"type":"Point","coordinates":[-156.788799,71.290082]}},{"properties":{"city":"BARTERIS.","days":53,"latitude":62.890301,"years":34,"longitude":-149.054077,"id":"a62691qx8k6s","state":"AK"},"type":"Feature","geometry":{"type":"Point","coordinates":[-149.054077,62.890301]}},{"properties":{"city":"BATON ROUGE","days":99,"latitude":30.44342,"years":42,"longitude":-91.186874,"id":"a62691vfle2u","state":"LA"},"type":"Feature","geometry":{"type":"Point","coordinates":[-91.186874,30.44342]}},{"properties":{"city":"BECKLEY","days":60,"latitude":37.777592,"years":32,"longitude":-81.187647,"id":"a62691iiu54p","state":"WV"},"type":"Feature","geometry":{"type":"Point","coordinates":[-81.187647,37.777592]}},{"properties":{"city":"BETHEL","days":62,"latitude":60.790255,"years":34,"longitude":-161.758647,"id":"a62691hmxyol","state":"AK"},"type":"Feature","geometry":{"type":"Point","coordinates":[-161.758647,60.790255]}},{"properties":{"city":"BETTLES","days":86,"latitude":66.916344,"years":5,"longitude":-151.521408,"id":"a62691i6e51s","state":"AK"},"type":"Feature","geometry":{"type":"Point","coordinates":[-151.521408,66.916344]}},{"properties":{"city":"BIG DELTA","days":60,"latitude":64.152946,"years":3,"longitude":-145.842224,"id":"a62691lu0m2y","state":"AK"},"type":"Feature","geometry":{"type":"Point","coordinates":[-145.842224,64.152946]}},{"properties":{"city":"BILLINGS","days":89,"latitude":45.783975,"years":56,"longitude":-108.505794,"id":"a62691uzrxkv","state":"MT"},"type":"Feature","geometry":{"type":"Point","coordinates":[-108.505794,45.783975]}},{"properties":{"city":"BINGHAMTON","days":52,"latitude":42.098687,"years":44,"longitude":-75.911271,"id":"a62691fmtftu","state":"NY"},"type":"Feature","geometry":{"type":"Point","coordinates":[-75.911271,42.098687]}},{"properties":{"city":"BIRMINGHAM AP","days":99,"latitude":33.520295,"years":37,"longitude":-86.811504,"id":"a62691kvrjxo","state":"AL"},"type":"Feature","geometry":{"type":"Point","coordinates":[-86.811504,33.520295]}},{"properties":{"city":"BISHOP","days":201,"latitude":37.366715,"years":29,"longitude":-118.395354,"id":"a62691m33mkr","state":"CA"},"type":"Feature","geometry":{"type":"Point","coordinates":[-118.395354,37.366715]}},{"properties":{"city":"BISMARCK","days":93,"latitude":46.805371,"years":56,"longitude":-100.779319,"id":"a62691kgoakp","state":"ND"},"type":"Feature","geometry":{"type":"Point","coordinates":[-100.779319,46.805371]}},{"properties":{"city":"BLOCK IS.","days":98,"latitude":41.172112,"years":19,"longitude":-71.564278,"id":"a62691pypkbn","state":"RI"},"type":"Feature","geometry":{"type":"Point","coordinates":[-71.564278,41.172112]}},{"properties":{"city":"BLUE CANYON","days":174,"latitude":39.283249,"years":31,"longitude":-120.703339,"id":"a62691ipyuuc","state":"CA"},"type":"Feature","geometry":{"type":"Point","coordinates":[-120.703339,39.283249]}},{"properties":{"city":"BOISE","days":120,"latitude":43.60698,"years":56,"longitude":-116.193409,"id":"a62691tqq7ae","state":"ID"},"type":"Feature","geometry":{"type":"Point","coordinates":[-116.193409,43.60698]}},{"properties":{"city":"BOSTON","days":98,"latitude":42.358635,"years":60,"longitude":-71.056699,"id":"a62691n5l5pi","state":"MA"},"type":"Feature","geometry":{"type":"Point","coordinates":[-71.056699,42.358635]}},{"properties":{"city":"BRIDGEPORT","days":99,"latitude":41.18188,"years":46,"longitude":-73.191269,"id":"a62691szxgic","state":"CT"},"type":"Feature","geometry":{"type":"Point","coordinates":[-73.191269,41.18188]}},{"properties":{"city":"BRISTOL-JHNSN CTY-KNGSPRT","days":88,"latitude":36.59193,"years":58,"longitude":-82.221268,"id":"a62691u8grjm","state":"TN"},"type":"Feature","geometry":{"type":"Point","coordinates":[-82.221268,36.59193]}},{"properties":{"city":"BROWNSVILLE","days":96,"latitude":25.899585,"years":52,"longitude":-97.495529,"id":"a62691hdm3s1","state":"TX"},"type":"Feature","geometry":{"type":"Point","coordinates":[-97.495529,25.899585]}},{"properties":{"city":"BUFFALO","days":54,"latitude":42.88544,"years":52,"longitude":-78.878464,"id":"a62691p9ap1w","state":"NY"},"type":"Feature","geometry":{"type":"Point","coordinates":[-78.878464,42.88544]}},{"properties":{"city":"BURLINGTON","days":58,"latitude":44.47592,"years":52,"longitude":-73.213234,"id":"a62691mvubiv","state":"VT"},"type":"Feature","geometry":{"type":"Point","coordinates":[-73.213234,44.47592]}},{"properties":{"city":"BURNS","days":120,"latitude":43.58604,"years":11,"longitude":-119.054654,"id":"a62691fmlhgf","state":"OR"},"type":"Feature","geometry":{"type":"Point","coordinates":[-119.054654,43.58604]}},{"properties":{"city":"CAIRO","days":113,"latitude":37.005105,"years":30,"longitude":-89.176269,"id":"a62691lkrhjn","state":"IL"},"type":"Feature","geometry":{"type":"Point","coordinates":[-89.176269,37.005105]}},{"properties":{"city":"CAPE HATTERAS","days":109,"latitude":35.547741,"years":38,"longitude":-75.46492,"id":"a62691vg2o0q","state":"NC"},"type":"Feature","geometry":{"type":"Point","coordinates":[-75.46492,35.547741]}},{"properties":{"city":"CARIBOU","days":59,"latitude":46.859298,"years":54,"longitude":-68.011244,"id":"a62691jfl0iu","state":"ME"},"type":"Feature","geometry":{"type":"Point","coordinates":[-68.011244,46.859298]}},{"properties":{"city":"CASPER","days":107,"latitude":42.850095,"years":45,"longitude":-106.327734,"id":"a62691g7dfst","state":"WY"},"type":"Feature","geometry":{"type":"Point","coordinates":[-106.327734,42.850095]}},{"properties":{"city":"CHARLESTON","days":65,"latitude":38.350215,"years":47,"longitude":-81.638929,"id":"a62691jkrrhi","state":"WV"},"type":"Feature","geometry":{"type":"Point","coordinates":[-81.638929,38.350215]}},{"properties":{"city":"CHARLESTON AP","days":102,"latitude":32.892445,"years":47,"longitude":-80.065999,"id":"a62691nfdd0d","state":"SC"},"type":"Feature","geometry":{"type":"Point","coordinates":[-80.065999,32.892445]}},{"properties":{"city":"CHARLOTTE","days":109,"latitude":35.2225,"years":49,"longitude":-80.837539,"id":"a62691ifeexe","state":"NC"},"type":"Feature","geometry":{"type":"Point","coordinates":[-80.837539,35.2225]}},{"properties":{"city":"CHATTANOOGA","days":104,"latitude":35.046432,"years":65,"longitude":-85.309421,"id":"a62691nx4vds","state":"TN"},"type":"Feature","geometry":{"type":"Point","coordinates":[-85.309421,35.046432]}},{"properties":{"city":"CHEYENNE","days":106,"latitude":41.134815,"years":60,"longitude":-104.821544,"id":"a62691t66o08","state":"WY"},"type":"Feature","geometry":{"type":"Point","coordinates":[-104.821544,41.134815]}},{"properties":{"city":"CHICAGO","days":84,"latitude":41.88415,"years":37,"longitude":-87.632409,"id":"a62691kzhrp8","state":"IL"},"type":"Feature","geometry":{"type":"Point","coordinates":[-87.632409,41.88415]}},{"properties":{"city":"CLAYTON","days":162,"latitude":36.451951,"years":28,"longitude":-103.183669,"id":"a62691i4y8v5","state":"NM"},"type":"Feature","geometry":{"type":"Point","coordinates":[-103.183669,36.451951]}},{"properties":{"city":"CLEVELAND","days":66,"latitude":41.504365,"years":54,"longitude":-81.690459,"id":"a62691oq8q2e","state":"OH"},"type":"Feature","geometry":{"type":"Point","coordinates":[-81.690459,41.504365]}},{"properties":{"city":"COLD BAY","days":10,"latitude":55.20812,"years":42,"longitude":-162.711204,"id":"a62691msyxc2","state":"AK"},"type":"Feature","geometry":{"type":"Point","coordinates":[-162.711204,55.20812]}},{"properties":{"city":"COLORADO SPRINGS","days":127,"latitude":38.83311,"years":44,"longitude":-104.821729,"id":"a62691r0kmcn","state":"CO"},"type":"Feature","geometry":{"type":"Point","coordinates":[-104.821729,38.83311]}},{"properties":{"city":"COLUMBIA","days":115,"latitude":33.99855,"years":48,"longitude":-81.045249,"id":"a62691um61z3","state":"SC"},"type":"Feature","geometry":{"type":"Point","coordinates":[-81.045249,33.99855]}},{"properties":{"city":"COLUMBIA","days":104,"latitude":38.952174,"years":26,"longitude":-92.334157,"id":"a62691t8kmsj","state":"MO"},"type":"Feature","geometry":{"type":"Point","coordinates":[-92.334157,38.952174]}},{"properties":{"city":"COLUMBUS","days":72,"latitude":39.962,"years":46,"longitude":-83.003014,"id":"a62691s4m11p","state":"OH"},"type":"Feature","geometry":{"type":"Point","coordinates":[-83.003014,39.962]}},{"properties":{"city":"COLUMBUS","days":110,"latitude":32.462925,"years":49,"longitude":-84.987629,"id":"a62691f7uq1p","state":"GA"},"type":"Feature","geometry":{"type":"Point","coordinates":[-84.987629,32.462925]}},{"properties":{"city":"CONCORD","days":90,"latitude":43.20725,"years":54,"longitude":-71.536604,"id":"a62691ql4sj2","state":"NH"},"type":"Feature","geometry":{"type":"Point","coordinates":[-71.536604,43.20725]}},{"properties":{"city":"CONCORDIA","days":131,"latitude":39.57102,"years":30,"longitude":-97.657469,"id":"a62691ni94et","state":"KS"},"type":"Feature","geometry":{"type":"Point","coordinates":[-97.657469,39.57102]}},{"properties":{"city":"CORPUS CHRISTI","days":102,"latitude":27.79635,"years":53,"longitude":-97.403564,"id":"a62691rdgj1d","state":"TX"},"type":"Feature","geometry":{"type":"Point","coordinates":[-97.403564,27.79635]}},{"properties":{"city":"DALLAS-FORT WORTH","days":135,"latitude":32.922218,"years":42,"longitude":-97.040901,"id":"a62691o5ne7m","state":"TX"},"type":"Feature","geometry":{"type":"Point","coordinates":[-97.040901,32.922218]}},{"properties":{"city":"DAYTON","days":77,"latitude":39.759055,"years":52,"longitude":-84.194439,"id":"a62691mle12l","state":"OH"},"type":"Feature","geometry":{"type":"Point","coordinates":[-84.194439,39.759055]}},{"properties":{"city":"DAYTONA BEACH","days":97,"latitude":29.203575,"years":52,"longitude":-81.039404,"id":"a62691o67d92","state":"FL"},"type":"Feature","geometry":{"type":"Point","coordinates":[-81.039404,29.203575]}},{"properties":{"city":"DEL RIO","days":121,"latitude":29.366245,"years":16,"longitude":-100.898179,"id":"a62691o0hoku","state":"TX"},"type":"Feature","geometry":{"type":"Point","coordinates":[-100.898179,29.366245]}},{"properties":{"city":"DENVER","days":115,"latitude":39.74001,"years":61,"longitude":-104.992259,"id":"a62691t5v2be","state":"CO"},"type":"Feature","geometry":{"type":"Point","coordinates":[-104.992259,39.74001]}},{"properties":{"city":"DES MOINES","days":105,"latitude":41.589785,"years":46,"longitude":-93.615674,"id":"a62691uxj5ek","state":"IA"},"type":"Feature","geometry":{"type":"Point","coordinates":[-93.615674,41.589785]}},{"properties":{"city":"DETROIT","days":75,"latitude":42.331685,"years":37,"longitude":-83.047924,"id":"a62691m9u856","state":"MI"},"type":"Feature","geometry":{"type":"Point","coordinates":[-83.047924,42.331685]}},{"properties":{"city":"DODGE CITY","days":137,"latitude":37.752644,"years":50,"longitude":-100.018695,"id":"a62691ls0zgy","state":"KS"},"type":"Feature","geometry":{"type":"Point","coordinates":[-100.018695,37.752644]}},{"properties":{"city":"DUBUQUE","days":92,"latitude":42.49913,"years":21,"longitude":-90.663269,"id":"a62691h17glb","state":"IA"},"type":"Feature","geometry":{"type":"Point","coordinates":[-90.663269,42.49913]}},{"properties":{"city":"DULUTH","days":77,"latitude":46.787965,"years":47,"longitude":-92.099849,"id":"a62691s8611u","state":"MN"},"type":"Feature","geometry":{"type":"Point","coordinates":[-92.099849,46.787965]}},{"properties":{"city":"EL PASO","days":193,"latitude":31.759165,"years":53,"longitude":-106.487494,"id":"a62691gkl81f","state":"TX"},"type":"Feature","geometry":{"type":"Point","coordinates":[-106.487494,31.759165]}},{"properties":{"city":"ELKINS","days":48,"latitude":38.92402,"years":49,"longitude":-79.844489,"id":"a62691u7o274","state":"WV"},"type":"Feature","geometry":{"type":"Point","coordinates":[-79.844489,38.92402]}},{"properties":{"city":"ELKO","days":130,"latitude":40.83563,"years":56,"longitude":-115.767629,"id":"a62691q3av2r","state":"NV"},"type":"Feature","geometry":{"type":"Point","coordinates":[-115.767629,40.83563]}},{"properties":{"city":"ELY","days":131,"latitude":39.24705,"years":56,"longitude":-114.894835,"id":"a62691rpc9p1","state":"NV"},"type":"Feature","geometry":{"type":"Point","coordinates":[-114.894835,39.24705]}},{"properties":{"city":"ERIE","days":63,"latitude":42.129445,"years":40,"longitude":-80.085239,"id":"a62691m81qku","state":"PA"},"type":"Feature","geometry":{"type":"Point","coordinates":[-80.085239,42.129445]}},{"properties":{"city":"EUGENE","days":75,"latitude":44.04991,"years":53,"longitude":-123.088919,"id":"a62691mprp80","state":"OR"},"type":"Feature","geometry":{"type":"Point","coordinates":[-123.088919,44.04991]}},{"properties":{"city":"EUREKA","days":77,"latitude":40.803255,"years":90,"longitude":-124.159554,"id":"a62691nb3ids","state":"CA."},"type":"Feature","geometry":{"type":"Point","coordinates":[-124.159554,40.803255]}},{"properties":{"city":"EVANSVILLE","days":102,"latitude":37.976911,"years":55,"longitude":-87.564125,"id":"a62691haom13","state":"IN"},"type":"Feature","geometry":{"type":"Point","coordinates":[-87.564125,37.976911]}},{"properties":{"city":"FAIRBANKS","days":70,"latitude":64.845202,"years":45,"longitude":-147.72212,"id":"a62691shod0q","state":"AK"},"type":"Feature","geometry":{"type":"Point","coordinates":[-147.72212,64.845202]}},{"properties":{"city":"FARGO","days":88,"latitude":46.87591,"years":53,"longitude":-96.781764,"id":"a62691v5bbte","state":"ND"},"type":"Feature","geometry":{"type":"Point","coordinates":[-96.781764,46.87591]}},{"properties":{"city":"FLAGSTAFF","days":162,"latitude":35.1982,"years":43,"longitude":-111.651304,"id":"a62691lvi710","state":"AZ"},"type":"Feature","geometry":{"type":"Point","coordinates":[-111.651304,35.1982]}},{"properties":{"city":"FLINT","days":66,"latitude":43.010745,"years":54,"longitude":-83.686019,"id":"a62691opw6hk","state":"MI"},"type":"Feature","geometry":{"type":"Point","coordinates":[-83.686019,43.010745]}},{"properties":{"city":"FORT MYERS","days":98,"latitude":26.640845,"years":54,"longitude":-81.868194,"id":"a62691rycx0b","state":"FL"},"type":"Feature","geometry":{"type":"Point","coordinates":[-81.868194,26.640845]}},{"properties":{"city":"FORT SMITH","days":123,"latitude":35.3846,"years":49,"longitude":-94.421299,"id":"a62691pqkau7","state":"AR"},"type":"Feature","geometry":{"type":"Point","coordinates":[-94.421299,35.3846]}},{"properties":{"city":"FORT WAYNE","days":78,"latitude":41.075525,"years":49,"longitude":-85.099064,"id":"a62691ghnsad","state":"IN"},"type":"Feature","geometry":{"type":"Point","coordinates":[-85.099064,41.075525]}},{"properties":{"city":"FRESNO","days":194,"latitude":36.740615,"years":46,"longitude":-119.785679,"id":"a62691ljorg8","state":"CA"},"type":"Feature","geometry":{"type":"Point","coordinates":[-119.785679,36.740615]}},{"properties":{"city":"GLASGOW","days":86,"latitude":48.195108,"years":39,"longitude":-106.636841,"id":"a62691rhmkk8","state":"MT"},"type":"Feature","geometry":{"type":"Point","coordinates":[-106.636841,48.195108]}},{"properties":{"city":"GOODLAND","days":143,"latitude":39.36573,"years":72,"longitude":-101.711974,"id":"a62691pgye8l","state":"KS"},"type":"Feature","geometry":{"type":"Point","coordinates":[-101.711974,39.36573]}},{"properties":{"city":"GRAND ISLAND","days":123,"latitude":40.92474,"years":54,"longitude":-98.339904,"id":"a62691m5jaw9","state":"NE"},"type":"Feature","geometry":{"type":"Point","coordinates":[-98.339904,40.92474]}},{"properties":{"city":"GRAND JUNCTION","days":136,"latitude":39.06879,"years":49,"longitude":-108.564454,"id":"a62691tbcbl5","state":"CO"},"type":"Feature","geometry":{"type":"Point","coordinates":[-108.564454,39.06879]}},{"properties":{"city":"GRAND RAPIDS","days":64,"latitude":42.96641,"years":32,"longitude":-85.671179,"id":"a62691lhpz9i","state":"MI"},"type":"Feature","geometry":{"type":"Point","coordinates":[-85.671179,42.96641]}},{"properties":{"city":"GREAT FALLS","days":79,"latitude":47.507145,"years":57,"longitude":-111.306074,"id":"a62691lp8vuw","state":"MT"},"type":"Feature","geometry":{"type":"Point","coordinates":[-111.306074,47.507145]}},{"properties":{"city":"GREEN BAY","days":85,"latitude":44.512795,"years":46,"longitude":-88.010159,"id":"a62691n6mx8k","state":"WI"},"type":"Feature","geometry":{"type":"Point","coordinates":[-88.010159,44.512795]}},{"properties":{"city":"GREENSBORO-WNSTN-SALM-HGHPT","days":109,"latitude":36.069,"years":67,"longitude":-79.794701,"id":"a62691kdcqe1","state":"NC"},"type":"Feature","geometry":{"type":"Point","coordinates":[-79.794701,36.069]}},{"properties":{"city":"GREENVILLE-SPARTANBURG AP","days":121,"latitude":34.890671,"years":33,"longitude":-82.216698,"id":"a62691idfkm0","state":"SC"},"type":"Feature","geometry":{"type":"Point","coordinates":[-82.216698,34.890671]}},{"properties":{"city":"GUAM","days":16,"latitude":13.44645,"years":20,"longitude":144.786636,"id":"a62691tid0e8","state":"PC"},"type":"Feature","geometry":{"type":"Point","coordinates":[144.786636,13.44645]}},{"properties":{"city":"GULKANA","days":67,"latitude":62.26926,"years":5,"longitude":-145.387344,"id":"a62691f81tle","state":"AK"},"type":"Feature","geometry":{"type":"Point","coordinates":[-145.387344,62.26926]}},{"properties":{"city":"HARRISBURG","days":87,"latitude":40.259876,"years":53,"longitude":-76.882222,"id":"a62691rdvzf5","state":"PA"},"type":"Feature","geometry":{"type":"Point","coordinates":[-76.882222,40.259876]}},{"properties":{"city":"HARTFORD","days":82,"latitude":41.763325,"years":41,"longitude":-72.674069,"id":"a62691tl0pvl","state":"CT"},"type":"Feature","geometry":{"type":"Point","coordinates":[-72.674069,41.763325]}},{"properties":{"city":"HELENA","days":82,"latitude":46.58976,"years":54,"longitude":-112.021204,"id":"a62691igvb0w","state":"MT"},"type":"Feature","geometry":{"type":"Point","coordinates":[-112.021204,46.58976]}},{"properties":{"city":"HILO","days":36,"latitude":19.719235,"years":50,"longitude":-155.081864,"id":"a62691oqf5ok","state":"HI"},"type":"Feature","geometry":{"type":"Point","coordinates":[-155.081864,19.719235]}},{"properties":{"city":"HOMER","days":65,"latitude":59.644975,"years":15,"longitude":-151.546059,"id":"a62691kzc2ri","state":"AK"},"type":"Feature","geometry":{"type":"Point","coordinates":[-151.546059,59.644975]}},{"properties":{"city":"HONOLULU","days":90,"latitude":21.304735,"years":47,"longitude":-157.857619,"id":"a62691syvxfu","state":"HI"},"type":"Feature","geometry":{"type":"Point","coordinates":[-157.857619,21.304735]}},{"properties":{"city":"HOUGHTON LAKE","days":65,"latitude":44.30897,"years":30,"longitude":-84.759149,"id":"a62691lgagaq","state":"MI"},"type":"Feature","geometry":{"type":"Point","coordinates":[-84.759149,44.30897]}},{"properties":{"city":"HOUSTON","days":90,"latitude":29.76045,"years":26,"longitude":-95.369784,"id":"a62691im88os","state":"TX"},"type":"Feature","geometry":{"type":"Point","coordinates":[-95.369784,29.76045]}},{"properties":{"city":"HUNTINGTON","days":63,"latitude":38.419825,"years":34,"longitude":-82.445369,"id":"a62691il2z1b","state":"WV"},"type":"Feature","geometry":{"type":"Point","coordinates":[-82.445369,38.419825]}},{"properties":{"city":"HUNTSVILLE","days":100,"latitude":34.729121,"years":27,"longitude":-86.584961,"id":"a62691r7xmhb","state":"AL"},"type":"Feature","geometry":{"type":"Point","coordinates":[-86.584961,34.729121]}},{"properties":{"city":"HURON","days":104,"latitude":44.36385,"years":56,"longitude":-98.214139,"id":"a62691sgk67b","state":"SD"},"type":"Feature","geometry":{"type":"Point","coordinates":[-98.214139,44.36385]}},{"properties":{"city":"INDIANAPOLIS","days":88,"latitude":39.76691,"years":64,"longitude":-86.149964,"id":"a62691hqxpvs","state":"IN"},"type":"Feature","geometry":{"type":"Point","coordinates":[-86.149964,39.76691]}},{"properties":{"city":"INTERNATIONAL FALLS","days":76,"latitude":48.602605,"years":56,"longitude":-93.403654,"id":"a62691p8m03v","state":"MN"},"type":"Feature","geometry":{"type":"Point","coordinates":[-93.403654,48.602605]}},{"properties":{"city":"JACKSON","days":73,"latitude":37.558101,"years":14,"longitude":-83.378014,"id":"a62691ro72xp","state":"KY"},"type":"Feature","geometry":{"type":"Point","coordinates":[-83.378014,37.558101]}},{"properties":{"city":"JACKSON","days":111,"latitude":32.29869,"years":30,"longitude":-90.180489,"id":"a62691ty2c18","state":"MS"},"type":"Feature","geometry":{"type":"Point","coordinates":[-90.180489,32.29869]}},{"properties":{"city":"JACKSONVILLE","days":94,"latitude":30.33138,"years":47,"longitude":-81.655799,"id":"a62691owoeih","state":"FL"},"type":"Feature","geometry":{"type":"Point","coordinates":[-81.655799,30.33138]}},{"properties":{"city":"JOHNSTON ISLAND","days":99,"latitude":44.42335,"years":24,"longitude":-111.371171,"id":"a62691lcgxjv","state":"PC"},"type":"Feature","geometry":{"type":"Point","coordinates":[-111.371171,44.42335]}},{"properties":{"city":"JUNEAU","days":44,"latitude":58.36773,"years":47,"longitude":-134.579512,"id":"a62691pd4nki","state":"AK"},"type":"Feature","geometry":{"type":"Point","coordinates":[-134.579512,58.36773]}},{"properties":{"city":"KAHULUI","days":131,"latitude":20.890775,"years":37,"longitude":-156.467144,"id":"a62691moa1lw","state":"HI"},"type":"Feature","geometry":{"type":"Point","coordinates":[-156.467144,20.890775]}},{"properties":{"city":"KALISPELL","days":70,"latitude":48.20164,"years":45,"longitude":-114.314901,"id":"a62691oyjibg","state":"MT"},"type":"Feature","geometry":{"type":"Point","coordinates":[-114.314901,48.20164]}},{"properties":{"city":"KANSAS CITY","days":120,"latitude":39.10296,"years":23,"longitude":-94.583062,"id":"a62691ntnye3","state":"MO"},"type":"Feature","geometry":{"type":"Point","coordinates":[-94.583062,39.10296]}},{"properties":{"city":"KEY WEST","days":104,"latitude":24.554255,"years":43,"longitude":-81.800629,"id":"a62691km4mm9","state":"FL"},"type":"Feature","geometry":{"type":"Point","coordinates":[-81.800629,24.554255]}},{"properties":{"city":"KING SALMON","days":51,"latitude":58.697111,"years":42,"longitude":-156.697235,"id":"a62691qtvuox","state":"AK"},"type":"Feature","geometry":{"type":"Point","coordinates":[-156.697235,58.697111]}},{"properties":{"city":"KNOXVILLE","days":97,"latitude":35.960495,"years":53,"longitude":-83.920914,"id":"a62691qq0fl6","state":"TN"},"type":"Feature","geometry":{"type":"Point","coordinates":[-83.920914,35.960495]}},{"properties":{"city":"KODIAK","days":59,"latitude":57.79435,"years":25,"longitude":-152.395159,"id":"a62691k2luvc","state":"AK"},"type":"Feature","geometry":{"type":"Point","coordinates":[-152.395159,57.79435]}},{"properties":{"city":"KOTZEBUE","days":100,"latitude":66.89724,"years":52,"longitude":-162.585939,"id":"a62691pf24bn","state":"AK"},"type":"Feature","geometry":{"type":"Point","coordinates":[-162.585939,66.89724]}},{"properties":{"city":"LA CROSSE","days":95,"latitude":43.812625,"years":17,"longitude":-91.251919,"id":"a62691ikdp6z","state":"WI"},"type":"Feature","geometry":{"type":"Point","coordinates":[-91.251919,43.812625]}},{"properties":{"city":"LAKE CHARLES","days":98,"latitude":30.224033,"years":34,"longitude":-93.220111,"id":"a62691tvnnzz","state":"LA"},"type":"Feature","geometry":{"type":"Point","coordinates":[-93.220111,30.224033]}},{"properties":{"city":"LANDER","days":114,"latitude":42.832915,"years":49,"longitude":-108.730179,"id":"a62691l8hsg4","state":"WY"},"type":"Feature","geometry":{"type":"Point","coordinates":[-108.730179,42.832915]}},{"properties":{"city":"LANSING","days":71,"latitude":42.73202,"years":41,"longitude":-84.552279,"id":"a62691uni3rz","state":"MI"},"type":"Feature","geometry":{"type":"Point","coordinates":[-84.552279,42.73202]}},{"properties":{"city":"LAS VEGAS","days":210,"latitude":36.171915,"years":47,"longitude":-115.139974,"id":"a62691im1pey","state":"NV"},"type":"Feature","geometry":{"type":"Point","coordinates":[-115.139974,36.171915]}},{"properties":{"city":"LEWISTON","days":91,"latitude":46.418657,"years":42,"longitude":-117.01666,"id":"a62691q9500a","state":"ID"},"type":"Feature","geometry":{"type":"Point","coordinates":[-117.01666,46.418657]}},{"properties":{"city":"LEXINGTON","days":89,"latitude":38.048595,"years":51,"longitude":-84.500319,"id":"a62691imt8lo","state":"KY"},"type":"Feature","geometry":{"type":"Point","coordinates":[-84.500319,38.048595]}},{"properties":{"city":"LIHUE","days":56,"latitude":21.974925,"years":46,"longitude":-159.368579,"id":"a62691tyvb71","state":"HI"},"type":"Feature","geometry":{"type":"Point","coordinates":[-159.368579,21.974925]}},{"properties":{"city":"LINCOLN","days":117,"latitude":40.81361,"years":28,"longitude":-96.707729,"id":"a62691rl0b7z","state":"NE"},"type":"Feature","geometry":{"type":"Point","coordinates":[-96.707729,40.81361]}},{"properties":{"city":"LITTLE ROCK","days":119,"latitude":34.748655,"years":35,"longitude":-92.274494,"id":"a62691u6r8n5","state":"AR"},"type":"Feature","geometry":{"type":"Point","coordinates":[-92.274494,34.748655]}},{"properties":{"city":"LONG BEACH","days":159,"latitude":33.766425,"years":38,"longitude":-118.192394,"id":"a62691ro8vzg","state":"CA"},"type":"Feature","geometry":{"type":"Point","coordinates":[-118.192394,33.766425]}},{"properties":{"city":"LOS ANGELES AP","days":147,"latitude":34.05329,"years":60,"longitude":-118.245009,"id":"a62691j5i74q","state":"CA"},"type":"Feature","geometry":{"type":"Point","coordinates":[-118.245009,34.05329]}},{"properties":{"city":"LOS ANGELES C.O.","days":186,"latitude":34.05329,"years":34,"longitude":-118.245009,"id":"a62691plq7d9","state":"CA"},"type":"Feature","geometry":{"type":"Point","coordinates":[-118.245009,34.05329]}},{"properties":{"city":"LOUISVILLE","days":93,"latitude":38.25486,"years":47,"longitude":-85.766404,"id":"a62691jouafu","state":"KY"},"type":"Feature","geometry":{"type":"Point","coordinates":[-85.766404,38.25486]}},{"properties":{"city":"LUBBOCK","days":160,"latitude":33.59233,"years":49,"longitude":-101.855869,"id":"a62691stirb7","state":"TX"},"type":"Feature","geometry":{"type":"Point","coordinates":[-101.855869,33.59233]}},{"properties":{"city":"LYNCHBURG","days":112,"latitude":37.41402,"years":49,"longitude":-79.142839,"id":"a62691s7oyhc","state":"VA"},"type":"Feature","geometry":{"type":"Point","coordinates":[-79.142839,37.41402]}},{"properties":{"city":"MACON","days":112,"latitude":32.839685,"years":46,"longitude":-83.627579,"id":"a62691q5bfld","state":"GA"},"type":"Feature","geometry":{"type":"Point","coordinates":[-83.627579,32.839685]}},{"properties":{"city":"MADISON","days":89,"latitude":43.072925,"years":49,"longitude":-89.386659,"id":"a62691ktojl8","state":"WI"},"type":"Feature","geometry":{"type":"Point","coordinates":[-89.386659,43.072925]}},{"properties":{"city":"MANSFIELD","days":73,"latitude":40.758515,"years":30,"longitude":-82.514804,"id":"a62691nvfuk2","state":"OH"},"type":"Feature","geometry":{"type":"Point","coordinates":[-82.514804,40.758515]}},{"properties":{"city":"MCGRATH","days":67,"latitude":62.949119,"years":55,"longitude":-155.559872,"id":"a62691ma17pa","state":"AK"},"type":"Feature","geometry":{"type":"Point","coordinates":[-155.559872,62.949119]}},{"properties":{"city":"MEDFORD","days":117,"latitude":42.32356,"years":67,"longitude":-122.875614,"id":"a62691rjtlnd","state":"OR"},"type":"Feature","geometry":{"type":"Point","coordinates":[-122.875614,42.32356]}},{"properties":{"city":"MEMPHIS","days":118,"latitude":35.149657,"years":43,"longitude":-90.048913,"id":"a62691hg74ih","state":"TN"},"type":"Feature","geometry":{"type":"Point","coordinates":[-90.048913,35.149657]}},{"properties":{"city":"MERIDIAN","days":108,"latitude":32.36503,"years":50,"longitude":-88.703069,"id":"a62691gt4yql","state":"MS"},"type":"Feature","geometry":{"type":"Point","coordinates":[-88.703069,32.36503]}},{"properties":{"city":"MIAMI","days":74,"latitude":25.728985,"years":46,"longitude":-80.237419,"id":"a62691jx8chi","state":"FL"},"type":"Feature","geometry":{"type":"Point","coordinates":[-80.237419,25.728985]}},{"properties":{"city":"MIDLAND-ODESSA","days":165,"latitude":31.84931,"years":47,"longitude":-102.374809,"id":"a62691ljjfs9","state":"TX"},"type":"Feature","geometry":{"type":"Point","coordinates":[-102.374809,31.84931]}},{"properties":{"city":"MILFORD","days":151,"latitude":38.396685,"years":40,"longitude":-113.010864,"id":"a62691uxfzxn","state":"UT"},"type":"Feature","geometry":{"type":"Point","coordinates":[-113.010864,38.396685]}},{"properties":{"city":"MILWAUKEE","days":90,"latitude":43.04181,"years":55,"longitude":-87.906844,"id":"a62691sbqh5b","state":"WI"},"type":"Feature","geometry":{"type":"Point","coordinates":[-87.906844,43.04181]}},{"properties":{"city":"MINNEAPOLIS-ST.PAUL","days":95,"latitude":44.943829,"years":57,"longitude":-93.093326,"id":"a62691qluh38","state":"MN"},"type":"Feature","geometry":{"type":"Point","coordinates":[-93.093326,44.943829]}},{"properties":{"city":"MISSOULA","days":75,"latitude":46.87278,"years":51,"longitude":-113.996234,"id":"a62691i7887b","state":"MT"},"type":"Feature","geometry":{"type":"Point","coordinates":[-113.996234,46.87278]}},{"properties":{"city":"MOBILE","days":102,"latitude":30.686395,"years":47,"longitude":-88.053239,"id":"a62691n7sqtd","state":"AL"},"type":"Feature","geometry":{"type":"Point","coordinates":[-88.053239,30.686395]}},{"properties":{"city":"MOLINE","days":101,"latitude":41.491733,"years":62,"longitude":-90.489899,"id":"a62691rfn873","state":"IL"},"type":"Feature","geometry":{"type":"Point","coordinates":[-90.489899,41.491733]}},{"properties":{"city":"MONTGOMERY","days":107,"latitude":32.38012,"years":51,"longitude":-86.300629,"id":"a62691i70ol5","state":"AL"},"type":"Feature","geometry":{"type":"Point","coordinates":[-86.300629,32.38012]}},{"properties":{"city":"MOUNT SHASTA","days":164,"latitude":41.31297,"years":22,"longitude":-122.312709,"id":"a62691nqpr7v","state":"CA"},"type":"Feature","geometry":{"type":"Point","coordinates":[-122.312709,41.31297]}},{"properties":{"city":"MT.WASHINGTON","days":45,"latitude":43.191306,"years":68,"longitude":-72.019235,"id":"a62691u44sur","state":"NH"},"type":"Feature","geometry":{"type":"Point","coordinates":[-72.019235,43.191306]}},{"properties":{"city":"MUSKEGON","days":75,"latitude":43.23424,"years":53,"longitude":-86.245929,"id":"a62691ouepvu","state":"MI"},"type":"Feature","geometry":{"type":"Point","coordinates":[-86.245929,43.23424]}},{"properties":{"city":"NASHVILLE","days":102,"latitude":36.167762,"years":54,"longitude":-86.778366,"id":"a62691scybdj","state":"TN"},"type":"Feature","geometry":{"type":"Point","coordinates":[-86.778366,36.167762]}},{"properties":{"city":"NEW ORLEANS","days":101,"latitude":29.95369,"years":47,"longitude":-90.077714,"id":"a62691mvkr3q","state":"LA"},"type":"Feature","geometry":{"type":"Point","coordinates":[-90.077714,29.95369]}},{"properties":{"city":"NEW YORK (JFK AP)","days":98,"latitude":40.71455,"years":37,"longitude":-74.007124,"id":"a62691o1azsy","state":"NY"},"type":"Feature","geometry":{"type":"Point","coordinates":[-74.007124,40.71455]}},{"properties":{"city":"NEW YORK (LAGUARDIA AP)","days":96,"latitude":40.71455,"years":47,"longitude":-74.007124,"id":"a62691opluhd","state":"NY"},"type":"Feature","geometry":{"type":"Point","coordinates":[-74.007124,40.71455]}},{"properties":{"city":"NEW YORK C.PARK","days":107,"latitude":40.714531,"years":42,"longitude":-74.007133,"id":"a62691p6p8ho","state":"NY"},"type":"Feature","geometry":{"type":"Point","coordinates":[-74.007133,40.714531]}},{"properties":{"city":"NEWARK","days":93,"latitude":40.73197,"years":53,"longitude":-74.174184,"id":"a62691n2ts9f","state":"NJ"},"type":"Feature","geometry":{"type":"Point","coordinates":[-74.174184,40.73197]}},{"properties":{"city":"NOME","days":91,"latitude":64.49956,"years":51,"longitude":-165.404699,"id":"a62691lha73l","state":"AK"},"type":"Feature","geometry":{"type":"Point","coordinates":[-165.404699,64.49956]}},{"properties":{"city":"NORFOLK","days":117,"latitude":42.0327,"years":50,"longitude":-97.411064,"id":"a62691kxj9v5","state":"NE"},"type":"Feature","geometry":{"type":"Point","coordinates":[-97.411064,42.0327]}},{"properties":{"city":"NORFOLK","days":106,"latitude":36.846825,"years":47,"longitude":-76.285069,"id":"a62691rymxww","state":"VA"},"type":"Feature","geometry":{"type":"Point","coordinates":[-76.285069,36.846825]}},{"properties":{"city":"NORTH PLATTE","days":115,"latitude":41.136325,"years":43,"longitude":-100.763329,"id":"a62691s7u1at","state":"NE"},"type":"Feature","geometry":{"type":"Point","coordinates":[-100.763329,41.136325]}},{"properties":{"city":"OAK RIDGE","days":109,"latitude":36.01478,"years":42,"longitude":-84.255264,"id":"a62691hujyrq","state":"TN"},"type":"Feature","geometry":{"type":"Point","coordinates":[-84.255264,36.01478]}},{"properties":{"city":"OKLAHOMA CITY","days":139,"latitude":35.472005,"years":44,"longitude":-97.520334,"id":"a62691qz3785","state":"OK"},"type":"Feature","geometry":{"type":"Point","coordinates":[-97.520334,35.472005]}},{"properties":{"city":"OLYMPIA","days":52,"latitude":47.039225,"years":54,"longitude":-122.891429,"id":"a62691gwihcy","state":"WA"},"type":"Feature","geometry":{"type":"Point","coordinates":[-122.891429,47.039225]}},{"properties":{"city":"OMAHA (NORTH)","days":110,"latitude":41.260645,"years":18,"longitude":-95.940469,"id":"a62691ul7hz5","state":"NE"},"type":"Feature","geometry":{"type":"Point","coordinates":[-95.940469,41.260645]}},{"properties":{"city":"OMAHA EPPLEY AP","days":111,"latitude":41.260658,"years":49,"longitude":-95.939949,"id":"a62691pe3l1f","state":"NE"},"type":"Feature","geometry":{"type":"Point","coordinates":[-95.939949,41.260658]}},{"properties":{"city":"ORLANDO","days":89,"latitude":28.53774,"years":47,"longitude":-81.377389,"id":"a62691gbhehk","state":"FL"},"type":"Feature","geometry":{"type":"Point","coordinates":[-81.377389,28.53774]}},{"properties":{"city":"PADUCAH","days":101,"latitude":37.08571,"years":11,"longitude":-88.595834,"id":"a62691kpg68f","state":"KY"},"type":"Feature","geometry":{"type":"Point","coordinates":[-88.595834,37.08571]}},{"properties":{"city":"PENDLETON","days":101,"latitude":45.67179,"years":60,"longitude":-118.786401,"id":"a62691o3fwqx","state":"OR"},"type":"Feature","geometry":{"type":"Point","coordinates":[-118.786401,45.67179]}},{"properties":{"city":"PENSACOLA","days":105,"latitude":30.420845,"years":29,"longitude":-87.217239,"id":"a62691vemyvz","state":"FL"},"type":"Feature","geometry":{"type":"Point","coordinates":[-87.217239,30.420845]}},{"properties":{"city":"PEORIA","days":95,"latitude":40.69214,"years":52,"longitude":-89.587764,"id":"a62691k4gocj","state":"IL"},"type":"Feature","geometry":{"type":"Point","coordinates":[-89.587764,40.69214]}},{"properties":{"city":"PHILADELPHIA","days":93,"latitude":39.95227,"years":55,"longitude":-75.162369,"id":"a62691iutclk","state":"PA"},"type":"Feature","geometry":{"type":"Point","coordinates":[-75.162369,39.95227]}},{"properties":{"city":"PHOENIX","days":211,"latitude":33.44826,"years":57,"longitude":-112.075774,"id":"a62691mpxfit","state":"AZ"},"type":"Feature","geometry":{"type":"Point","coordinates":[-112.075774,33.44826]}},{"properties":{"city":"PITTSBURGH","days":59,"latitude":40.43831,"years":43,"longitude":-79.997459,"id":"a62691lviwwl","state":"PA"},"type":"Feature","geometry":{"type":"Point","coordinates":[-79.997459,40.43831]}},{"properties":{"city":"POCATELLO","days":106,"latitude":42.87472,"years":46,"longitude":-112.450579,"id":"a62691nsus9c","state":"ID"},"type":"Feature","geometry":{"type":"Point","coordinates":[-112.450579,42.87472]}},{"properties":{"city":"PORT ARTHUR","days":95,"latitude":29.89932,"years":42,"longitude":-93.929379,"id":"a62691pyz3ux","state":"TX"},"type":"Feature","geometry":{"type":"Point","coordinates":[-93.929379,29.89932]}},{"properties":{"city":"PORTLAND","days":101,"latitude":43.659145,"years":54,"longitude":-70.256654,"id":"a62691gqemib","state":"ME"},"type":"Feature","geometry":{"type":"Point","coordinates":[-70.256654,43.659145]}},{"properties":{"city":"PORTLAND","days":68,"latitude":45.511795,"years":47,"longitude":-122.675629,"id":"a62691v02qsb","state":"OR"},"type":"Feature","geometry":{"type":"Point","coordinates":[-122.675629,45.511795]}},{"properties":{"city":"PROVIDENCE","days":98,"latitude":41.823875,"years":42,"longitude":-71.411994,"id":"a62691oflbrw","state":"RI"},"type":"Feature","geometry":{"type":"Point","coordinates":[-71.411994,41.823875]}},{"properties":{"city":"PUEBLO","days":139,"latitude":38.26386,"years":50,"longitude":-104.612374,"id":"a62691n4hjg5","state":"CO"},"type":"Feature","geometry":{"type":"Point","coordinates":[-104.612374,38.26386]}},{"properties":{"city":"QUILLAYUTE","days":51,"latitude":47.934761,"years":29,"longitude":-124.53331,"id":"a62691iy0xtv","state":"WA"},"type":"Feature","geometry":{"type":"Point","coordinates":[-124.53331,47.934761]}},{"properties":{"city":"RALEIGH","days":111,"latitude":35.78551,"years":47,"longitude":-78.642669,"id":"a62691hiupwv","state":"NC"},"type":"Feature","geometry":{"type":"Point","coordinates":[-78.642669,35.78551]}},{"properties":{"city":"RAPID CITY","days":111,"latitude":44.081165,"years":53,"longitude":-103.230889,"id":"a62691obh0pd","state":"SD"},"type":"Feature","geometry":{"type":"Point","coordinates":[-103.230889,44.081165]}},{"properties":{"city":"REDDING","days":172,"latitude":40.587523,"years":9,"longitude":-122.39291,"id":"a62691po17nb","state":"CA"},"type":"Feature","geometry":{"type":"Point","coordinates":[-122.39291,40.587523]}},{"properties":{"city":"RENO","days":158,"latitude":39.524555,"years":53,"longitude":-119.811649,"id":"a62691ixl7e5","state":"NV"},"type":"Feature","geometry":{"type":"Point","coordinates":[-119.811649,39.524555]}},{"properties":{"city":"RICHMOND","days":100,"latitude":37.540545,"years":50,"longitude":-77.433409,"id":"a62691kp22sf","state":"VA"},"type":"Feature","geometry":{"type":"Point","coordinates":[-77.433409,37.540545]}},{"properties":{"city":"ROANOKE","days":102,"latitude":37.271525,"years":48,"longitude":-79.940534,"id":"a62691oy0ayd","state":"VA"},"type":"Feature","geometry":{"type":"Point","coordinates":[-79.940534,37.271525]}},{"properties":{"city":"ROCHESTER","days":61,"latitude":43.1555,"years":55,"longitude":-77.616033,"id":"a62691o8dshm","state":"NY"},"type":"Feature","geometry":{"type":"Point","coordinates":[-77.616033,43.1555]}},{"properties":{"city":"ROCHESTER","days":86,"latitude":44.01925,"years":35,"longitude":-92.459779,"id":"a62691n524l7","state":"MN"},"type":"Feature","geometry":{"type":"Point","coordinates":[-92.459779,44.01925]}},{"properties":{"city":"ROCKFORD","days":93,"latitude":42.2669,"years":45,"longitude":-89.078354,"id":"a62691htbi3y","state":"IL"},"type":"Feature","geometry":{"type":"Point","coordinates":[-89.078354,42.2669]}},{"properties":{"city":"ROSWELL","days":168,"latitude":33.39482,"years":9,"longitude":-104.52275,"id":"a62691qinjc4","state":"NM"},"type":"Feature","geometry":{"type":"Point","coordinates":[-104.52275,33.39482]}},{"properties":{"city":"SACRAMENTO","days":188,"latitude":38.57906,"years":49,"longitude":-121.490999,"id":"a62691kicoaq","state":"CA"},"type":"Feature","geometry":{"type":"Point","coordinates":[-121.490999,38.57906]}},{"properties":{"city":"SAINT CLOUD","days":97,"latitude":45.565864,"years":50,"longitude":-94.197519,"id":"a62691jbpbhq","state":"MN"},"type":"Feature","geometry":{"type":"Point","coordinates":[-94.197519,45.565864]}},{"properties":{"city":"SALEM","days":77,"latitude":44.93323,"years":58,"longitude":-123.043854,"id":"a62691jf4rvv","state":"OR"},"type":"Feature","geometry":{"type":"Point","coordinates":[-123.043854,44.93323]}},{"properties":{"city":"SALT LAKE CITY","days":125,"latitude":40.75952,"years":69,"longitude":-111.888229,"id":"a62691vjm7hs","state":"UT"},"type":"Feature","geometry":{"type":"Point","coordinates":[-111.888229,40.75952]}},{"properties":{"city":"SAN ANGELO","days":154,"latitude":31.4615,"years":47,"longitude":-100.442424,"id":"a62691j49fzb","state":"TX"},"type":"Feature","geometry":{"type":"Point","coordinates":[-100.442424,31.4615]}},{"properties":{"city":"SAN ANTONIO","days":105,"latitude":29.42449,"years":53,"longitude":-98.494624,"id":"a62691o4ttcu","state":"TX"},"type":"Feature","geometry":{"type":"Point","coordinates":[-98.494624,29.42449]}},{"properties":{"city":"SAN DIEGO","days":146,"latitude":32.715685,"years":55,"longitude":-117.161724,"id":"a62691oxjmc4","state":"CA"},"type":"Feature","geometry":{"type":"Point","coordinates":[-117.161724,32.715685]}},{"properties":{"city":"SAN FRANCISCO AP","days":160,"latitude":37.77916,"years":68,"longitude":-122.420049,"id":"a62691v0wqk8","state":"CA"},"type":"Feature","geometry":{"type":"Point","coordinates":[-122.420049,37.77916]}},{"properties":{"city":"SAN JUAN","days":73,"latitude":18.46617,"years":40,"longitude":-66.106654,"id":"a62691g7ho80","state":"PR"},"type":"Feature","geometry":{"type":"Point","coordinates":[-66.106654,18.46617]}},{"properties":{"city":"SANTA MARIA","days":176,"latitude":34.95313,"years":45,"longitude":-120.434994,"id":"a62691htipkk","state":"CA"},"type":"Feature","geometry":{"type":"Point","coordinates":[-120.434994,34.95313]}},{"properties":{"city":"SAULT STE.MARIE","days":66,"latitude":46.472869,"years":54,"longitude":-84.359735,"id":"a62691ohwqz1","state":"MI"},"type":"Feature","geometry":{"type":"Point","coordinates":[-84.359735,46.472869]}},{"properties":{"city":"SAVANNAH","days":104,"latitude":32.08078,"years":45,"longitude":-81.090719,"id":"a62691uwkllr","state":"GA"},"type":"Feature","geometry":{"type":"Point","coordinates":[-81.090719,32.08078]}},{"properties":{"city":"SCOTTSBLUFF","days":115,"latitude":41.8618,"years":52,"longitude":-103.662759,"id":"a62691o3qso7","state":"NE"},"type":"Feature","geometry":{"type":"Point","coordinates":[-103.662759,41.8618]}},{"properties":{"city":"SEATTLE C.O.","days":71,"latitude":47.603561,"years":24,"longitude":-122.329437,"id":"a62691rs1qlv","state":"WA"},"type":"Feature","geometry":{"type":"Point","coordinates":[-122.329437,47.603561]}},{"properties":{"city":"SEATTLE SEA-TAC AP","days":58,"latitude":47.603561,"years":51,"longitude":-122.329437,"id":"a62691vddza8","state":"WA"},"type":"Feature","geometry":{"type":"Point","coordinates":[-122.329437,47.603561]}},{"properties":{"city":"SEXTON SUMMIT","days":126,"latitude":44.637249,"years":30,"longitude":-123.579006,"id":"a62691jhpamd","state":"OR"},"type":"Feature","geometry":{"type":"Point","coordinates":[-123.579006,44.637249]}},{"properties":{"city":"SHERIDAN","days":95,"latitude":44.797695,"years":55,"longitude":-106.955859,"id":"a62691s58m3a","state":"WY"},"type":"Feature","geometry":{"type":"Point","coordinates":[-106.955859,44.797695]}},{"properties":{"city":"SHREVEPORT","days":114,"latitude":32.514615,"years":43,"longitude":-93.747274,"id":"a62691r6lrei","state":"LA"},"type":"Feature","geometry":{"type":"Point","coordinates":[-93.747274,32.514615]}},{"properties":{"city":"SIOUX CITY","days":104,"latitude":42.499793,"years":55,"longitude":-96.420839,"id":"a62691j3gakk","state":"IA"},"type":"Feature","geometry":{"type":"Point","coordinates":[-96.420839,42.499793]}},{"properties":{"city":"SIOUX FALLS","days":105,"latitude":43.54535,"years":50,"longitude":-96.731284,"id":"a62691jxqp7y","state":"SD"},"type":"Feature","geometry":{"type":"Point","coordinates":[-96.731284,43.54535]}},{"properties":{"city":"SOUTH BEND","days":73,"latitude":41.679058,"years":56,"longitude":-86.254044,"id":"a62691o2txnr","state":"IN"},"type":"Feature","geometry":{"type":"Point","coordinates":[-86.254044,41.679058]}},{"properties":{"city":"SPOKANE","days":86,"latitude":47.65726,"years":48,"longitude":-117.412279,"id":"a62691pbe058","state":"WA"},"type":"Feature","geometry":{"type":"Point","coordinates":[-117.412279,47.65726]}},{"properties":{"city":"SPRINGFIELD","days":115,"latitude":37.208975,"years":50,"longitude":-93.291564,"id":"a62691o0ejt0","state":"MO"},"type":"Feature","geometry":{"type":"Point","coordinates":[-93.291564,37.208975]}},{"properties":{"city":"SPRINGFIELD","days":104,"latitude":39.801055,"years":48,"longitude":-89.643604,"id":"a62691p5l625","state":"IL"},"type":"Feature","geometry":{"type":"Point","coordinates":[-89.643604,39.801055]}},{"properties":{"city":"ST.LOUIS","days":101,"latitude":38.62774,"years":47,"longitude":-90.199514,"id":"a62691ns98te","state":"MO"},"type":"Feature","geometry":{"type":"Point","coordinates":[-90.199514,38.62774]}},{"properties":{"city":"ST.PAUL ISLAND","days":18,"latitude":57.127035,"years":66,"longitude":-170.276629,"id":"a62691p3ckc3","state":"AK"},"type":"Feature","geometry":{"type":"Point","coordinates":[-170.276629,57.127035]}},{"properties":{"city":"STOCKTON","days":184,"latitude":37.95362,"years":46,"longitude":-121.290719,"id":"a62691tz2bxy","state":"CA"},"type":"Feature","geometry":{"type":"Point","coordinates":[-121.290719,37.95362]}},{"properties":{"city":"SYRACUSE","days":63,"latitude":43.04999,"years":44,"longitude":-76.147389,"id":"a62691mu9dr3","state":"NY"},"type":"Feature","geometry":{"type":"Point","coordinates":[-76.147389,43.04999]}},{"properties":{"city":"TALKEETNA","days":67,"latitude":62.321964,"years":10,"longitude":-150.104873,"id":"a62691lxbee4","state":"AK"},"type":"Feature","geometry":{"type":"Point","coordinates":[-150.104873,62.321964]}},{"properties":{"city":"TALLAHASSEE","days":102,"latitude":30.439775,"years":34,"longitude":-84.280649,"id":"a62691ja7q4b","state":"FL"},"type":"Feature","geometry":{"type":"Point","coordinates":[-84.280649,30.439775]}},{"properties":{"city":"TAMPA","days":101,"latitude":27.94653,"years":49,"longitude":-82.459269,"id":"a62691txzdwj","state":"FL"},"type":"Feature","geometry":{"type":"Point","coordinates":[-82.459269,27.94653]}},{"properties":{"city":"TOLEDO","days":73,"latitude":41.65381,"years":40,"longitude":-83.536259,"id":"a62691j1bfbc","state":"OH"},"type":"Feature","geometry":{"type":"Point","coordinates":[-83.536259,41.65381]}},{"properties":{"city":"TOPEKA","days":114,"latitude":39.056735,"years":46,"longitude":-95.677484,"id":"a62691mg4ldb","state":"KS"},"type":"Feature","geometry":{"type":"Point","coordinates":[-95.677484,39.056735]}},{"properties":{"city":"TUCSON","days":193,"latitude":32.221553,"years":55,"longitude":-110.969754,"id":"a62691qysp6u","state":"AZ"},"type":"Feature","geometry":{"type":"Point","coordinates":[-110.969754,32.221553]}},{"properties":{"city":"TULSA","days":127,"latitude":36.14975,"years":54,"longitude":-95.993354,"id":"a62691quubt6","state":"OK"},"type":"Feature","geometry":{"type":"Point","coordinates":[-95.993354,36.14975]}},{"properties":{"city":"TUPELO","days":119,"latitude":34.25741,"years":10,"longitude":-88.707834,"id":"a62691kt2rdm","state":"MS"},"type":"Feature","geometry":{"type":"Point","coordinates":[-88.707834,34.25741]}},{"properties":{"city":"UNALAKLEET","days":83,"latitude":63.878474,"years":4,"longitude":-160.793061,"id":"a62691hpumol","state":"AK"},"type":"Feature","geometry":{"type":"Point","coordinates":[-160.793061,63.878474]}},{"properties":{"city":"VALDEZ","days":58,"latitude":61.130355,"years":21,"longitude":-146.353354,"id":"a62691pgswyr","state":"AK"},"type":"Feature","geometry":{"type":"Point","coordinates":[-146.353354,61.130355]}},{"properties":{"city":"VALENTINE","days":123,"latitude":42.873845,"years":40,"longitude":-100.550627,"id":"a62691u57zcb","state":"NE"},"type":"Feature","geometry":{"type":"Point","coordinates":[-100.550627,42.873845]}},{"properties":{"city":"VICTORIA","days":86,"latitude":28.805965,"years":34,"longitude":-97.003574,"id":"a62691nj0dab","state":"TX"},"type":"Feature","geometry":{"type":"Point","coordinates":[-97.003574,28.805965]}},{"properties":{"city":"WACO","days":130,"latitude":31.571821,"years":50,"longitude":-97.149507,"id":"a62691lb0il2","state":"TX"},"type":"Feature","geometry":{"type":"Point","coordinates":[-97.149507,31.571821]}},{"properties":{"city":"WAKE ISLAND","days":121,"latitude":44.42335,"years":43,"longitude":-111.371171,"id":"a62691jriz2v","state":"PC"},"type":"Feature","geometry":{"type":"Point","coordinates":[-111.371171,44.42335]}},{"properties":{"city":"WASHINGTON DULLES AP","days":92,"latitude":38.955582,"years":33,"longitude":-77.448402,"id":"a62691usm5d2","state":"D.C."},"type":"Feature","geometry":{"type":"Point","coordinates":[-77.448402,38.955582]}},{"properties":{"city":"WASHINGTON NAT'L AP","days":96,"latitude":38.890369,"years":48,"longitude":-77.03199,"id":"a62691pwy92k","state":"D.C."},"type":"Feature","geometry":{"type":"Point","coordinates":[-77.03199,38.890369]}},{"properties":{"city":"WATERLOO","days":91,"latitude":42.492955,"years":35,"longitude":-92.342311,"id":"a62691lv97r9","state":"IA"},"type":"Feature","geometry":{"type":"Point","coordinates":[-92.342311,42.492955]}},{"properties":{"city":"WEST PALM BEACH","days":75,"latitude":26.714388,"years":48,"longitude":-80.052689,"id":"a62691tcctsi","state":"FL"},"type":"Feature","geometry":{"type":"Point","coordinates":[-80.052689,26.714388]}},{"properties":{"city":"WICHITA","days":128,"latitude":37.68698,"years":39,"longitude":-97.335579,"id":"a62691i261dc","state":"KS"},"type":"Feature","geometry":{"type":"Point","coordinates":[-97.335579,37.68698]}},{"properties":{"city":"WICHITA FALLS","days":151,"latitude":33.90831,"years":50,"longitude":-98.500994,"id":"a62691h2m6vf","state":"TX"},"type":"Feature","geometry":{"type":"Point","coordinates":[-98.500994,33.90831]}},{"properties":{"city":"WILLIAMSPORT","days":67,"latitude":41.240945,"years":51,"longitude":-77.001414,"id":"a62691g4rf5d","state":"PA"},"type":"Feature","geometry":{"type":"Point","coordinates":[-77.001414,41.240945]}},{"properties":{"city":"WILLISTON","days":93,"latitude":48.14703,"years":34,"longitude":-103.621889,"id":"a62691v5wm59","state":"ND"},"type":"Feature","geometry":{"type":"Point","coordinates":[-103.621889,48.14703]}},{"properties":{"city":"WILMINGTON","days":97,"latitude":39.740235,"years":47,"longitude":-75.550844,"id":"a62691i3v5b2","state":"DE"},"type":"Feature","geometry":{"type":"Point","coordinates":[-75.550844,39.740235]}},{"properties":{"city":"WILMINGTON","days":111,"latitude":34.23497,"years":44,"longitude":-77.945992,"id":"a62691ph8ac7","state":"NC"},"type":"Feature","geometry":{"type":"Point","coordinates":[-77.945992,34.23497]}},{"properties":{"city":"WINNEMUCCA","days":138,"latitude":40.973176,"years":45,"longitude":-117.73531,"id":"a62691kn5rph","state":"NV"},"type":"Feature","geometry":{"type":"Point","coordinates":[-117.73531,40.973176]}},{"properties":{"city":"WINSLOW","days":177,"latitude":35.024273,"years":37,"longitude":-110.696254,"id":"a62691koektt","state":"AZ"},"type":"Feature","geometry":{"type":"Point","coordinates":[-110.696254,35.024273]}},{"properties":{"city":"WORCESTER","days":90,"latitude":42.26299,"years":40,"longitude":-71.802354,"id":"a62691qybao1","state":"MA"},"type":"Feature","geometry":{"type":"Point","coordinates":[-71.802354,42.26299]}},{"properties":{"city":"YAKIMA","days":109,"latitude":46.604135,"years":49,"longitude":-120.507049,"id":"a62691skpczp","state":"WA"},"type":"Feature","geometry":{"type":"Point","coordinates":[-120.507049,46.604135]}},{"properties":{"city":"YAKUTAT","days":41,"latitude":59.550789,"years":48,"longitude":-139.730898,"id":"a62691un9htx","state":"AK"},"type":"Feature","geometry":{"type":"Point","coordinates":[-139.730898,59.550789]}},{"properties":{"city":"YOUNGSTOWN","days":63,"latitude":41.0981,"years":52,"longitude":-80.650789,"id":"a62691r2t30j","state":"OH"},"type":"Feature","geometry":{"type":"Point","coordinates":[-80.650789,41.0981]}},{"properties":{"city":"YUMA","days":242,"latitude":32.68485,"years":32,"longitude":-114.624614,"id":"a62691p88506","state":"AZ"},"type":"Feature","geometry":{"type":"Point","coordinates":[-114.624614,32.68485]}}],"is_temporal":false,"author":{"url":"http://www.thewellers.com/weller43/sunshine.htm","metadata":"","contact_name":"","contact_address":"","source":"National Oceanic and Atmospheric Administration (NOAA)","contact_phone":""},"source":"http://www.thewellers.com/weller43/sunshine.htm","pagination":{"sort":null,"start":0,"total":262,"limit":1000000},"state":"complete","tags":"","published":"2008-01-01T17:00:00Z","id":124650}