{"type":"FeatureCollection","data_type":"Dataset Analysis","url_type":null,"permissions":[{"permissions":{"download":true,"view":true},"group_id":"everyone"}],"classification":null,"title":"Relationship between Sunny Days per Year and Years in Average from Annual Number of Sunny Days for Cities, USA by City, January 1st 2008","count":262,"stream_id":124651,"contributor":{"url":"http://geocommons.com/users/28334","name":"aamgeo123"},"data_attributes":null,"calculation_params":[{"calculation":"residual","input":{"ds1":"124650","atr_1":"days","atr_2":"years"}}],"icon_link":null,"link":"http://geocommons.com/overlays/124651.json","extent":[-170.277,13.4465,144.787,71.2901],"geometry_types":["point"],"unique_name":null,"name":"Relationship between Sunny Days per Year and Years in Average from Annual Number of Sunny Days for Cities, USA by City, January 1st 2008","feature_count":262,"description":"Dataset derived by applying Refinement module/residual analysis to 'Annual Number of Sunny Days for Cities, USA by City, January 1st 2008' ","next_feature":null,"is_raster":false,"short_classification":"Y","stats":{"residual_x":{"max":5037.86803063762,"mean":2.40998739200708e-12,"variance":2645325.95598527,"stdev":1626.44580481037,"min":-5671.61885128492,"median":-346.02188665654},"latitude":{"max":71.290082,"mean":40.2460667977099,"variance":77.6431304880684,"stdev":8.81153394637213,"min":13.44645,"median":39.962},"days":{"max":242,"mean":102.083969465649,"variance":1321.52548916381,"stdev":36.3527920408297,"min":10,"median":99},"residual_y":{"max":46.0011600716514,"mean":-1.94450054022898e-14,"variance":174.021411349323,"stdev":13.1917175284086,"min":-40.8609569461307,"median":2.8065017438145},"years":{"max":90,"mean":44.2022900763359,"variance":174.108347225878,"stdev":13.1950122101451,"min":3,"median":47},"longitude":{"max":144.786636,"mean":-99.2872236641222,"variance":755.83122861168,"stdev":27.4923849204044,"min":-170.276629,"median":-94.197519}},"features":[{"properties":{"city":"ABERDEEN","days":101,"latitude":45.45909,"residual_x":1996.54421399321,"residual_y":-16.1934982561855,"years":28,"longitude":-98.487324,"id":"a67y81giy2mp","state":"SD"},"type":"Feature","geometry":{"type":"Point","coordinates":[-98.487324,45.45909]}},{"properties":{"city":"ABILENE","days":149,"latitude":32.449175,"residual_x":-1407.65846064853,"residual_y":11.4171850881406,"years":56,"longitude":-99.741424,"id":"a67y81dlr59n","state":"TX"},"type":"Feature","geometry":{"type":"Point","coordinates":[-99.741424,32.449175]}},{"properties":{"city":"AKRON","days":68,"latitude":41.084195,"residual_x":-379.02188665654,"residual_y":3.0741569445903,"years":47,"longitude":-81.514059,"id":"a67y81cszjgo","state":"OH"},"type":"Feature","geometry":{"type":"Point","coordinates":[-81.514059,41.084195]}},{"properties":{"city":"ALAMOSA","days":148,"latitude":37.46818,"residual_x":1427.07945066433,"residual_y":-11.5747041481995,"years":33,"longitude":-105.873599,"id":"a67y81aki070","state":"CO"},"type":"Feature","geometry":{"type":"Point","coordinates":[-105.873599,37.46818]}},{"properties":{"city":"ALBANY","days":69,"latitude":42.651455,"residual_x":-1610.9514133143,"residual_y":13.0660461809304,"years":57,"longitude":-73.755274,"id":"a67y81m70woy","state":"NY"},"type":"Feature","geometry":{"type":"Point","coordinates":[-73.755274,42.651455]}},{"properties":{"city":"ALBUQUERQUE","days":167,"latitude":35.08418,"residual_x":-1389.65846064853,"residual_y":11.2711913422629,"years":56,"longitude":-106.648639,"id":"a67y81j3kd38","state":"NM"},"type":"Feature","geometry":{"type":"Point","coordinates":[-106.648639,35.08418]}},{"properties":{"city":"ALLENTOWN","days":94,"latitude":40.60257,"residual_x":-969.486649985422,"residual_y":7.86327708943361,"years":52,"longitude":-75.470204,"id":"a67y81i7dmxa","state":"PA"},"type":"Feature","geometry":{"type":"Point","coordinates":[-75.470204,40.60257]}},{"properties":{"city":"ALPENA","days":67,"latitude":45.061565,"residual_x":976.200592667,"residual_y":-7.91773229174982,"years":36,"longitude":-83.445154,"id":"a67y81luneg0","state":"MI"},"type":"Feature","geometry":{"type":"Point","coordinates":[-83.445154,45.061565]}},{"properties":{"city":"AMARILLO","days":157,"latitude":35.207255,"residual_x":-783.193697319645,"residual_y":6.35229897886162,"years":51,"longitude":-101.833894,"id":"a67y81jb7357","state":"TX"},"type":"Feature","geometry":{"type":"Point","coordinates":[-101.833894,35.207255]}},{"properties":{"city":"ANCHORAGE","days":61,"latitude":61.21756,"residual_x":-16.1430286592108,"residual_y":0.130932290209415,"years":44,"longitude":-149.857749,"id":"a67y81haiurn","state":"AK"},"type":"Feature","geometry":{"type":"Point","coordinates":[-149.857749,61.21756]}},{"properties":{"city":"ANNETTE","days":40,"latitude":55.062382,"residual_x":332.735829338118,"residual_y":-2.69874167293326,"years":41,"longitude":-131.540176,"id":"a67y81fv42fu","state":"AK"},"type":"Feature","geometry":{"type":"Point","coordinates":[-131.540176,55.062382]}},{"properties":{"city":"APALACHICOLA","days":128,"latitude":29.725525,"residual_x":-2168.41617664319,"residual_y":17.5875111249979,"years":62,"longitude":-84.986999,"id":"a67y81imosv7","state":"FL"},"type":"Feature","geometry":{"type":"Point","coordinates":[-84.986999,29.725525]}},{"properties":{"city":"ASHEVILLE","days":99,"latitude":35.59846,"residual_x":1624.66535599588,"residual_y":-13.1772767288658,"years":31,"longitude":-82.553144,"id":"a67y81nam66f","state":"NC"},"type":"Feature","geometry":{"type":"Point","coordinates":[-82.553144,35.59846]}},{"properties":{"city":"ASTORIA","days":50,"latitude":46.18977,"residual_x":466.028782003895,"residual_y":-3.77984930953199,"years":40,"longitude":-123.833954,"id":"a67y81lrnyv5","state":"OR"},"type":"Feature","geometry":{"type":"Point","coordinates":[-123.833954,46.18977]}},{"properties":{"city":"ATHENS","days":113,"latitude":33.958132,"residual_x":-950.486649985422,"residual_y":7.70917257989603,"years":52,"longitude":-83.373255,"id":"a67y817hx2hw","state":"GA"},"type":"Feature","geometry":{"type":"Point","coordinates":[-83.373255,33.958132]}},{"properties":{"city":"ATLANTA","days":110,"latitude":33.748315,"residual_x":-2063.12322397741,"residual_y":16.7335048708756,"years":61,"longitude":-84.391109,"id":"a67y81l2pvbr","state":"GA"},"type":"Feature","geometry":{"type":"Point","coordinates":[-84.391109,33.748315]}},{"properties":{"city":"ATLANTIC CITY AP","days":94,"latitude":39.362815,"residual_x":879.907640001224,"residual_y":-7.13672291056639,"years":37,"longitude":-74.426524,"id":"a67y8196gr74","state":"NJ"},"type":"Feature","geometry":{"type":"Point","coordinates":[-74.426524,39.362815]}},{"properties":{"city":"AUGUSTA","days":112,"latitude":33.47909,"residual_x":34.8569713407892,"residual_y":-0.282716656444101,"years":44,"longitude":-81.975309,"id":"a67y81lsumn8","state":"GA"},"type":"Feature","geometry":{"type":"Point","coordinates":[-81.975309,33.47909]}},{"properties":{"city":"AUSTIN","days":115,"latitude":30.267605,"residual_x":-1195.07255531697,"residual_y":9.69295105257628,"years":54,"longitude":-97.742984,"id":"a67y818b1lcj","state":"TX"},"type":"Feature","geometry":{"type":"Point","coordinates":[-97.742984,30.267605]}},{"properties":{"city":"AVOCA","days":70,"latitude":41.335476,"residual_x":486.028782003895,"residual_y":-3.94206458272944,"years":40,"longitude":-75.743434,"id":"a67y817x07g4","state":"PA"},"type":"Feature","geometry":{"type":"Point","coordinates":[-75.743434,41.335476]}},{"properties":{"city":"BAKERSFIELD","days":191,"latitude":35.366975,"residual_x":-1242.36550798275,"residual_y":10.0765330144259,"years":55,"longitude":-119.018844,"id":"a67y81mbt00v","state":"CA"},"type":"Feature","geometry":{"type":"Point","coordinates":[-119.018844,35.366975]}},{"properties":{"city":"BALTIMORE","days":105,"latitude":39.290555,"residual_x":-95.4359813249872,"residual_y":0.774058689175007,"years":45,"longitude":-76.609604,"id":"a67y81cjs7tz","state":"MD"},"type":"Feature","geometry":{"type":"Point","coordinates":[-76.609604,39.290555]}},{"properties":{"city":"BARROW","days":66,"latitude":71.290082,"residual_x":-1244.07255531697,"residual_y":10.09037847191,"years":54,"longitude":-156.788799,"id":"a67y81mjs0v5","state":"AK"},"type":"Feature","geometry":{"type":"Point","coordinates":[-156.788799,71.290082]}},{"properties":{"city":"BARTERIS.","days":53,"latitude":62.890301,"residual_x":1208.78649799855,"residual_y":-9.8041816005116,"years":34,"longitude":-149.054077,"id":"a67y81kce5ee","state":"AK"},"type":"Feature","geometry":{"type":"Point","coordinates":[-149.054077,62.890301]}},{"properties":{"city":"BATON ROUGE","days":99,"latitude":30.44342,"residual_x":268.442876672342,"residual_y":-2.17727672886576,"years":42,"longitude":-91.186874,"id":"a67y81c7coud","state":"LA"},"type":"Feature","geometry":{"type":"Point","coordinates":[-91.186874,30.44342]}},{"properties":{"city":"BECKLEY","days":60,"latitude":37.777592,"residual_x":1462.37240333011,"residual_y":-11.8609569461307,"years":32,"longitude":-81.187647,"id":"a67y81c5brc1","state":"WV"},"type":"Feature","geometry":{"type":"Point","coordinates":[-81.187647,37.777592]}},{"properties":{"city":"BETHEL","days":62,"latitude":60.790255,"residual_x":1217.78649799855,"residual_y":-9.87717847345046,"years":34,"longitude":-161.758647,"id":"a67y81g9c7gb","state":"AK"},"type":"Feature","geometry":{"type":"Point","coordinates":[-161.758647,60.790255]}},{"properties":{"city":"BETTLES","days":86,"latitude":66.916344,"residual_x":4817.28212530607,"residual_y":-39.0718368012874,"years":5,"longitude":-151.521408,"id":"a67y81c036i6","state":"AK"},"type":"Feature","geometry":{"type":"Point","coordinates":[-151.521408,66.916344]}},{"properties":{"city":"BIG DELTA","days":60,"latitude":64.152946,"residual_x":5037.86803063762,"residual_y":-40.8609569461307,"years":3,"longitude":-145.842224,"id":"a67y81llttsl","state":"AK"},"type":"Feature","geometry":{"type":"Point","coordinates":[-145.842224,64.152946]}},{"properties":{"city":"BILLINGS","days":89,"latitude":45.783975,"residual_x":-1467.65846064853,"residual_y":11.903830907733,"years":56,"longitude":-108.505794,"id":"a67y81b98wyb","state":"MT"},"type":"Feature","geometry":{"type":"Point","coordinates":[-108.505794,45.783975]}},{"properties":{"city":"BINGHAMTON","days":52,"latitude":42.098687,"residual_x":-25.1430286592108,"residual_y":0.203929163148267,"years":44,"longitude":-75.911271,"id":"a67y81hiqulp","state":"NY"},"type":"Feature","geometry":{"type":"Point","coordinates":[-75.911271,42.098687]}},{"properties":{"city":"BIRMINGHAM AP","days":99,"latitude":33.520295,"residual_x":884.907640001224,"residual_y":-7.17727672886576,"years":37,"longitude":-86.811504,"id":"a67y81cyd9pd","state":"AL"},"type":"Feature","geometry":{"type":"Point","coordinates":[-86.811504,33.520295]}},{"properties":{"city":"BISHOP","days":201,"latitude":37.366715,"residual_x":1973.25126132743,"residual_y":-16.0045746221728,"years":29,"longitude":-118.395354,"id":"a67y819ntwaq","state":"CA"},"type":"Feature","geometry":{"type":"Point","coordinates":[-118.395354,37.366715]}},{"properties":{"city":"BISMARCK","days":93,"latitude":46.805371,"residual_x":-1463.65846064853,"residual_y":11.8713878530935,"years":56,"longitude":-100.779319,"id":"a67y81k9f161","state":"ND"},"type":"Feature","geometry":{"type":"Point","coordinates":[-100.779319,46.805371]}},{"properties":{"city":"BLOCK IS.","days":98,"latitude":41.172112,"residual_x":3103.1807879852,"residual_y":-25.1691659652059,"years":19,"longitude":-71.564278,"id":"a67y81n2kebj","state":"RI"},"type":"Feature","geometry":{"type":"Point","coordinates":[-71.564278,41.172112]}},{"properties":{"city":"BLUE CANYON","days":174,"latitude":39.283249,"residual_x":1699.66535599588,"residual_y":-13.7855840033562,"years":31,"longitude":-120.703339,"id":"a67y81la744y","state":"CA"},"type":"Feature","geometry":{"type":"Point","coordinates":[-120.703339,39.283249]}},{"properties":{"city":"BOISE","days":120,"latitude":43.60698,"residual_x":-1436.65846064853,"residual_y":11.6523972342769,"years":56,"longitude":-116.193409,"id":"a67y81hnybyn","state":"ID"},"type":"Feature","geometry":{"type":"Point","coordinates":[-116.193409,43.60698]}},{"properties":{"city":"BOSTON","days":98,"latitude":42.358635,"residual_x":-1951.83027131163,"residual_y":15.8308340347941,"years":60,"longitude":-71.056699,"id":"a67y817udczi","state":"MA"},"type":"Feature","geometry":{"type":"Point","coordinates":[-71.056699,42.358635]}},{"properties":{"city":"BRIDGEPORT","days":99,"latitude":41.18188,"residual_x":-224.728933990763,"residual_y":1.82272327113424,"years":46,"longitude":-73.191269,"id":"a67y81b859fe","state":"CT"},"type":"Feature","geometry":{"type":"Point","coordinates":[-73.191269,41.18188]}},{"properties":{"city":"BRISTOL-JHNSN CTY-KNGSPRT","days":88,"latitude":36.59193,"residual_x":-1715.24436598008,"residual_y":13.9119416713928,"years":58,"longitude":-82.221268,"id":"a67y81hbqdqt","state":"TN"},"type":"Feature","geometry":{"type":"Point","coordinates":[-82.221268,36.59193]}},{"properties":{"city":"BROWNSVILLE","days":96,"latitude":25.899585,"residual_x":-967.486649985422,"residual_y":7.84705556211387,"years":52,"longitude":-97.495529,"id":"a67y817p01d8","state":"TX"},"type":"Feature","geometry":{"type":"Point","coordinates":[-97.495529,25.899585]}},{"properties":{"city":"BUFFALO","days":54,"latitude":42.88544,"residual_x":-1009.48664998542,"residual_y":8.18770763582852,"years":52,"longitude":-78.878464,"id":"a67y81kt6kue","state":"NY"},"type":"Feature","geometry":{"type":"Point","coordinates":[-78.878464,42.88544]}},{"properties":{"city":"BURLINGTON","days":58,"latitude":44.47592,"residual_x":-1005.48664998542,"residual_y":8.15526458118903,"years":52,"longitude":-73.213234,"id":"a67y818z12at","state":"VT"},"type":"Feature","geometry":{"type":"Point","coordinates":[-73.213234,44.47592]}},{"properties":{"city":"BURNS","days":120,"latitude":43.58604,"residual_x":4111.52440931141,"residual_y":-33.3476027657231,"years":11,"longitude":-119.054654,"id":"a67y819b4xmi","state":"OR"},"type":"Feature","geometry":{"type":"Point","coordinates":[-119.054654,43.58604]}},{"properties":{"city":"CAIRO","days":113,"latitude":37.005105,"residual_x":1761.95830866166,"residual_y":-14.290827420104,"years":30,"longitude":-89.176269,"id":"a67y819txwa6","state":"IL"},"type":"Feature","geometry":{"type":"Point","coordinates":[-89.176269,37.005105]}},{"properties":{"city":"CAPE HATTERAS","days":109,"latitude":35.547741,"residual_x":771.614687335447,"residual_y":-6.25838436546449,"years":38,"longitude":-75.46492,"id":"a67y81ctqup1","state":"NC"},"type":"Feature","geometry":{"type":"Point","coordinates":[-75.46492,35.547741]}},{"properties":{"city":"CARIBOU","days":59,"latitude":46.859298,"residual_x":-1251.07255531697,"residual_y":10.1471538175292,"years":54,"longitude":-68.011244,"id":"a67y81grsxic","state":"ME"},"type":"Feature","geometry":{"type":"Point","coordinates":[-68.011244,46.859298]}},{"properties":{"city":"CASPER","days":107,"latitude":42.850095,"residual_x":-93.4359813249872,"residual_y":0.757837161855264,"years":45,"longitude":-106.327734,"id":"a67y81hy0a1r","state":"WY"},"type":"Feature","geometry":{"type":"Point","coordinates":[-106.327734,42.850095]}},{"properties":{"city":"CHARLESTON","days":65,"latitude":38.350215,"residual_x":-382.02188665654,"residual_y":3.09848923556992,"years":47,"longitude":-81.638929,"id":"a67y81ku2fby","state":"WV"},"type":"Feature","geometry":{"type":"Point","coordinates":[-81.638929,38.350215]}},{"properties":{"city":"CHARLESTON AP","days":102,"latitude":32.892445,"residual_x":-345.02188665654,"residual_y":2.79839098015463,"years":47,"longitude":-80.065999,"id":"a67y81czrush","state":"SC"},"type":"Feature","geometry":{"type":"Point","coordinates":[-80.065999,32.892445]}},{"properties":{"city":"CHARLOTTE","days":109,"latitude":35.2225,"residual_x":-584.607791988093,"residual_y":4.74161563453551,"years":49,"longitude":-80.837539,"id":"a67y81guxj9a","state":"NC"},"type":"Feature","geometry":{"type":"Point","coordinates":[-80.837539,35.2225]}},{"properties":{"city":"CHATTANOOGA","days":104,"latitude":35.046432,"residual_x":-2562.29503464051,"residual_y":20.7821694528349,"years":65,"longitude":-85.309421,"id":"a67y81809wbc","state":"TN"},"type":"Feature","geometry":{"type":"Point","coordinates":[-85.309421,35.046432]}},{"properties":{"city":"CHEYENNE","days":106,"latitude":41.134815,"residual_x":-1943.83027131163,"residual_y":15.7659479255151,"years":60,"longitude":-104.821544,"id":"a67y81a4kx35","state":"WY"},"type":"Feature","geometry":{"type":"Point","coordinates":[-104.821544,41.134815]}},{"properties":{"city":"CHICAGO","days":84,"latitude":41.88415,"residual_x":869.907640001224,"residual_y":-7.05561527396766,"years":37,"longitude":-87.632409,"id":"a67y818vl46z","state":"IL"},"type":"Feature","geometry":{"type":"Point","coordinates":[-87.632409,41.88415]}},{"properties":{"city":"CLAYTON","days":162,"latitude":36.451951,"residual_x":2057.54421399321,"residual_y":-16.6882548394377,"years":28,"longitude":-103.183669,"id":"a67y81mzsuyw","state":"NM"},"type":"Feature","geometry":{"type":"Point","coordinates":[-103.183669,36.451951]}},{"properties":{"city":"CLEVELAND","days":66,"latitude":41.504365,"residual_x":-1244.07255531697,"residual_y":10.09037847191,"years":54,"longitude":-81.690459,"id":"a67y819e7gno","state":"OH"},"type":"Feature","geometry":{"type":"Point","coordinates":[-81.690459,41.504365]}},{"properties":{"city":"COLD BAY","days":10,"latitude":55.20812,"residual_x":179.442876672342,"residual_y":-1.45541876313708,"years":42,"longitude":-162.711204,"id":"a67y818njrqm","state":"AK"},"type":"Feature","geometry":{"type":"Point","coordinates":[-162.711204,55.20812]}},{"properties":{"city":"COLORADO SPRINGS","days":127,"latitude":38.83311,"residual_x":49.8569713407892,"residual_y":-0.404378111342197,"years":44,"longitude":-104.821729,"id":"a67y81cpqbnz","state":"CO"},"type":"Feature","geometry":{"type":"Point","coordinates":[-104.821729,38.83311]}},{"properties":{"city":"COLUMBIA","days":115,"latitude":33.99855,"residual_x":-455.314839322316,"residual_y":3.69295105257628,"years":48,"longitude":-81.045249,"id":"a67y81chm23b","state":"SC"},"type":"Feature","geometry":{"type":"Point","coordinates":[-81.045249,33.99855]}},{"properties":{"city":"COLUMBIA","days":104,"latitude":38.952174,"residual_x":2246.13011932476,"residual_y":-18.2178305471651,"years":26,"longitude":-92.334157,"id":"a67y81fupazw","state":"MO"},"type":"Feature","geometry":{"type":"Point","coordinates":[-92.334157,38.952174]}},{"properties":{"city":"COLUMBUS","days":72,"latitude":39.962,"residual_x":-251.728933990763,"residual_y":2.04171388995081,"years":46,"longitude":-83.003014,"id":"a67y81bd19h8","state":"OH"},"type":"Feature","geometry":{"type":"Point","coordinates":[-83.003014,39.962]}},{"properties":{"city":"COLUMBUS","days":110,"latitude":32.462925,"residual_x":-583.607791988093,"residual_y":4.73350487087564,"years":49,"longitude":-84.987629,"id":"a67y817n2twn","state":"GA"},"type":"Feature","geometry":{"type":"Point","coordinates":[-84.987629,32.462925]}},{"properties":{"city":"CONCORD","days":90,"latitude":43.20725,"residual_x":-1220.07255531697,"residual_y":9.8957201440731,"years":54,"longitude":-71.536604,"id":"a67y81e454x7","state":"NH"},"type":"Feature","geometry":{"type":"Point","coordinates":[-71.536604,43.20725]}},{"properties":{"city":"CONCORDIA","days":131,"latitude":39.57102,"residual_x":1779.95830866166,"residual_y":-14.4368211659817,"years":30,"longitude":-97.657469,"id":"a67y81lmpgn1","state":"KS"},"type":"Feature","geometry":{"type":"Point","coordinates":[-97.657469,39.57102]}},{"properties":{"city":"CORPUS CHRISTI","days":102,"latitude":27.79635,"residual_x":-1084.7796026512,"residual_y":8.79839098015463,"years":53,"longitude":-97.403564,"id":"a67y818er8xm","state":"TX"},"type":"Feature","geometry":{"type":"Point","coordinates":[-97.403564,27.79635]}},{"properties":{"city":"DALLAS-FORT WORTH","days":135,"latitude":32.922218,"residual_x":304.442876672342,"residual_y":-2.46926422062118,"years":42,"longitude":-97.040901,"id":"a67y81bhqacc","state":"TX"},"type":"Feature","geometry":{"type":"Point","coordinates":[-97.040901,32.922218]}},{"properties":{"city":"DAYTON","days":77,"latitude":39.759055,"residual_x":-986.486649985422,"residual_y":8.00116007165145,"years":52,"longitude":-84.194439,"id":"a67y81iad8ae","state":"OH"},"type":"Feature","geometry":{"type":"Point","coordinates":[-84.194439,39.759055]}},{"properties":{"city":"DAYTONA BEACH","days":97,"latitude":29.203575,"residual_x":-966.486649985422,"residual_y":7.83894479845399,"years":52,"longitude":-81.039404,"id":"a67y81k52ekg","state":"FL"},"type":"Feature","geometry":{"type":"Point","coordinates":[-81.039404,29.203575]}},{"properties":{"city":"DEL RIO","days":121,"latitude":29.366245,"residual_x":3496.05964598253,"residual_y":-28.355713529383,"years":16,"longitude":-100.898179,"id":"a67y81acpxps","state":"TX"},"type":"Feature","geometry":{"type":"Point","coordinates":[-100.898179,29.366245]}},{"properties":{"city":"DENVER","days":115,"latitude":39.74001,"residual_x":-2058.12322397741,"residual_y":16.6929510525763,"years":61,"longitude":-104.992259,"id":"a67y81gxoq7a","state":"CO"},"type":"Feature","geometry":{"type":"Point","coordinates":[-104.992259,39.74001]}},{"properties":{"city":"DES MOINES","days":105,"latitude":41.589785,"residual_x":-218.728933990763,"residual_y":1.77405868917501,"years":46,"longitude":-93.615674,"id":"a67y81b2796k","state":"IA"},"type":"Feature","geometry":{"type":"Point","coordinates":[-93.615674,41.589785]}},{"properties":{"city":"DETROIT","days":75,"latitude":42.331685,"residual_x":860.907640001224,"residual_y":-6.98261840102881,"years":37,"longitude":-83.047924,"id":"a67y81g3ueoc","state":"MI"},"type":"Feature","geometry":{"type":"Point","coordinates":[-83.047924,42.331685]}},{"properties":{"city":"DODGE CITY","days":137,"latitude":37.752644,"residual_x":-679.900744653869,"residual_y":5.51451425205908,"years":50,"longitude":-100.018695,"id":"a67y81k5l65a","state":"KS"},"type":"Feature","geometry":{"type":"Point","coordinates":[-100.018695,37.752644]}},{"properties":{"city":"DUBUQUE","days":92,"latitude":42.49913,"residual_x":2850.59488265365,"residual_y":-23.1205013832466,"years":21,"longitude":-90.663269,"id":"a67y81ghjv4f","state":"IA"},"type":"Feature","geometry":{"type":"Point","coordinates":[-90.663269,42.49913]}},{"properties":{"city":"DULUTH","days":77,"latitude":46.787965,"residual_x":-370.02188665654,"residual_y":3.00116007165145,"years":47,"longitude":-92.099849,"id":"a67y81bglbwx","state":"MN"},"type":"Feature","geometry":{"type":"Point","coordinates":[-92.099849,46.787965]}},{"properties":{"city":"EL PASO","days":193,"latitude":31.759165,"residual_x":-993.779602651198,"residual_y":8.0603114871062,"years":53,"longitude":-106.487494,"id":"a67y81cg8h57","state":"TX"},"type":"Feature","geometry":{"type":"Point","coordinates":[-106.487494,31.759165]}},{"properties":{"city":"ELKINS","days":48,"latitude":38.92402,"residual_x":-645.607791988093,"residual_y":5.23637221778776,"years":49,"longitude":-79.844489,"id":"a67y81n9wda7","state":"WV"},"type":"Feature","geometry":{"type":"Point","coordinates":[-79.844489,38.92402]}},{"properties":{"city":"ELKO","days":130,"latitude":40.83563,"residual_x":-1426.65846064853,"residual_y":11.5712895976782,"years":56,"longitude":-115.767629,"id":"a67y81j6bope","state":"NV"},"type":"Feature","geometry":{"type":"Point","coordinates":[-115.767629,40.83563]}},{"properties":{"city":"ELY","days":131,"latitude":39.24705,"residual_x":-1425.65846064853,"residual_y":11.5631788340183,"years":56,"longitude":-114.894835,"id":"a67y81amvpqw","state":"NV"},"type":"Feature","geometry":{"type":"Point","coordinates":[-114.894835,39.24705]}},{"properties":{"city":"ERIE","days":63,"latitude":42.129445,"residual_x":479.028782003895,"residual_y":-3.88528923711034,"years":40,"longitude":-80.085239,"id":"a67y81iev890","state":"PA"},"type":"Feature","geometry":{"type":"Point","coordinates":[-80.085239,42.129445]}},{"properties":{"city":"EUGENE","days":75,"latitude":44.04991,"residual_x":-1111.7796026512,"residual_y":9.01738159897119,"years":53,"longitude":-123.088919,"id":"a67y81ez5mlq","state":"OR"},"type":"Feature","geometry":{"type":"Point","coordinates":[-123.088919,44.04991]}},{"properties":{"city":"EUREKA","days":77,"latitude":40.803255,"residual_x":-5671.61885128492,"residual_y":46.0011600716514,"years":90,"longitude":-124.159554,"id":"a67y8179j839","state":"CA."},"type":"Feature","geometry":{"type":"Point","coordinates":[-124.159554,40.803255]}},{"properties":{"city":"EVANSVILLE","days":102,"latitude":37.976911,"residual_x":-1331.36550798275,"residual_y":10.7983909801546,"years":55,"longitude":-87.564125,"id":"a67y819ay7bx","state":"IN"},"type":"Feature","geometry":{"type":"Point","coordinates":[-87.564125,37.976911]}},{"properties":{"city":"FAIRBANKS","days":70,"latitude":64.845202,"residual_x":-130.435981324987,"residual_y":1.05793541727056,"years":45,"longitude":-147.72212,"id":"a67y817t55fj","state":"AK"},"type":"Feature","geometry":{"type":"Point","coordinates":[-147.72212,64.845202]}},{"properties":{"city":"FARGO","days":88,"latitude":46.87591,"residual_x":-1098.7796026512,"residual_y":8.91194167139285,"years":53,"longitude":-96.781764,"id":"a67y81e2hm6w","state":"ND"},"type":"Feature","geometry":{"type":"Point","coordinates":[-96.781764,46.87591]}},{"properties":{"city":"FLAGSTAFF","days":162,"latitude":35.1982,"residual_x":208.149924006566,"residual_y":-1.68825483943775,"years":43,"longitude":-111.651304,"id":"a67y81klfok2","state":"AZ"},"type":"Feature","geometry":{"type":"Point","coordinates":[-111.651304,35.1982]}},{"properties":{"city":"FLINT","days":66,"latitude":43.010745,"residual_x":-1244.07255531697,"residual_y":10.09037847191,"years":54,"longitude":-83.686019,"id":"a67y81luyshj","state":"MI"},"type":"Feature","geometry":{"type":"Point","coordinates":[-83.686019,43.010745]}},{"properties":{"city":"FORT MYERS","days":98,"latitude":26.640845,"residual_x":-1212.07255531697,"residual_y":9.83083403479412,"years":54,"longitude":-81.868194,"id":"a67y819ac6nt","state":"FL"},"type":"Feature","geometry":{"type":"Point","coordinates":[-81.868194,26.640845]}},{"properties":{"city":"FORT SMITH","days":123,"latitude":35.3846,"residual_x":-570.607791988093,"residual_y":4.6280649432973,"years":49,"longitude":-94.421299,"id":"a67y81dewerc","state":"AR"},"type":"Feature","geometry":{"type":"Point","coordinates":[-94.421299,35.3846]}},{"properties":{"city":"FORT WAYNE","days":78,"latitude":41.075525,"residual_x":-615.607791988093,"residual_y":4.99304930799158,"years":49,"longitude":-85.099064,"id":"a67y81kduq2g","state":"IN"},"type":"Feature","geometry":{"type":"Point","coordinates":[-85.099064,41.075525]}},{"properties":{"city":"FRESNO","days":194,"latitude":36.740615,"residual_x":-129.728933990763,"residual_y":1.05220072344633,"years":46,"longitude":-119.785679,"id":"a67y81l9q2ab","state":"CA"},"type":"Feature","geometry":{"type":"Point","coordinates":[-119.785679,36.740615]}},{"properties":{"city":"GLASGOW","days":86,"latitude":48.195108,"residual_x":625.321734669671,"residual_y":-5.07183680128741,"years":39,"longitude":-106.636841,"id":"a67y81hklcfq","state":"MT"},"type":"Feature","geometry":{"type":"Point","coordinates":[-106.636841,48.195108]}},{"properties":{"city":"GOODLAND","days":143,"latitude":39.36573,"residual_x":-3386.34570330095,"residual_y":27.4658496700998,"years":72,"longitude":-101.711974,"id":"a67y81ldj210","state":"KS"},"type":"Feature","geometry":{"type":"Point","coordinates":[-101.711974,39.36573]}},{"properties":{"city":"GRAND ISLAND","days":123,"latitude":40.92474,"residual_x":-1187.07255531697,"residual_y":9.6280649432973,"years":54,"longitude":-98.339904,"id":"a67y81l1lqw5","state":"NE"},"type":"Feature","geometry":{"type":"Point","coordinates":[-98.339904,40.92474]}},{"properties":{"city":"GRAND JUNCTION","days":136,"latitude":39.06879,"residual_x":-557.607791988093,"residual_y":4.52262501571895,"years":49,"longitude":-108.564454,"id":"a67y81gp7asg","state":"CO"},"type":"Feature","geometry":{"type":"Point","coordinates":[-108.564454,39.06879]}},{"properties":{"city":"GRAND RAPIDS","days":64,"latitude":42.96641,"residual_x":1466.37240333011,"residual_y":-11.8934000007702,"years":32,"longitude":-85.671179,"id":"a67y81g245tq","state":"MI"},"type":"Feature","geometry":{"type":"Point","coordinates":[-85.671179,42.96641]}},{"properties":{"city":"GREAT FALLS","days":79,"latitude":47.507145,"residual_x":-1600.9514133143,"residual_y":12.9849385443317,"years":57,"longitude":-111.306074,"id":"a67y81jjg8n9","state":"MT"},"type":"Feature","geometry":{"type":"Point","coordinates":[-111.306074,47.507145]}},{"properties":{"city":"GREEN BAY","days":85,"latitude":44.512795,"residual_x":-238.728933990763,"residual_y":1.93627396237247,"years":46,"longitude":-88.010159,"id":"a67y817ve3od","state":"WI"},"type":"Feature","geometry":{"type":"Point","coordinates":[-88.010159,44.512795]}},{"properties":{"city":"GREENSBORO-WNSTN-SALM-HGHPT","days":109,"latitude":36.069,"residual_x":-2803.88093997207,"residual_y":22.7416156345355,"years":67,"longitude":-79.794701,"id":"a67y81e0o3m0","state":"NC"},"type":"Feature","geometry":{"type":"Point","coordinates":[-79.794701,36.069]}},{"properties":{"city":"GREENVILLE-SPARTANBURG AP","days":121,"latitude":34.890671,"residual_x":1400.07945066433,"residual_y":-11.355713529383,"years":33,"longitude":-82.216698,"id":"a67y81e122et","state":"SC"},"type":"Feature","geometry":{"type":"Point","coordinates":[-82.216698,34.890671]}},{"properties":{"city":"GUAM","days":16,"latitude":13.44645,"residual_x":2897.88783531942,"residual_y":-23.5040833450963,"years":20,"longitude":144.786636,"id":"a67y81a190kt","state":"PC"},"type":"Feature","geometry":{"type":"Point","coordinates":[144.786636,13.44645]}},{"properties":{"city":"GULKANA","days":67,"latitude":62.26926,"residual_x":4798.28212530607,"residual_y":-38.9177322917498,"years":5,"longitude":-145.387344,"id":"a67y8177rkqf","state":"AK"},"type":"Feature","geometry":{"type":"Point","coordinates":[-145.387344,62.26926]}},{"properties":{"city":"HARRISBURG","days":87,"latitude":40.259876,"residual_x":-1099.7796026512,"residual_y":8.92005243505272,"years":53,"longitude":-76.882222,"id":"a67y81afz60j","state":"PA"},"type":"Feature","geometry":{"type":"Point","coordinates":[-76.882222,40.259876]}},{"properties":{"city":"HARTFORD","days":82,"latitude":41.763325,"residual_x":374.735829338118,"residual_y":-3.03939374664792,"years":41,"longitude":-72.674069,"id":"a67y81dte0x6","state":"CT"},"type":"Feature","geometry":{"type":"Point","coordinates":[-72.674069,41.763325]}},{"properties":{"city":"HELENA","days":82,"latitude":46.58976,"residual_x":-1228.07255531697,"residual_y":9.96060625335208,"years":54,"longitude":-112.021204,"id":"a67y81ljnaku","state":"MT"},"type":"Feature","geometry":{"type":"Point","coordinates":[-112.021204,46.58976]}},{"properties":{"city":"HILO","days":36,"latitude":19.719235,"residual_x":-780.900744653869,"residual_y":6.33370138170623,"years":50,"longitude":-155.081864,"id":"a67y8196jinm","state":"HI"},"type":"Feature","geometry":{"type":"Point","coordinates":[-155.081864,19.719235]}},{"properties":{"city":"HOMER","days":65,"latitude":59.644975,"residual_x":3563.3525986483,"residual_y":-28.9015107644301,"years":15,"longitude":-151.546059,"id":"a67y81ep1xpg","state":"AK"},"type":"Feature","geometry":{"type":"Point","coordinates":[-151.546059,59.644975]}},{"properties":{"city":"HONOLULU","days":90,"latitude":21.304735,"residual_x":-357.02188665654,"residual_y":2.8957201440731,"years":47,"longitude":-157.857619,"id":"a67y81im14fj","state":"HI"},"type":"Feature","geometry":{"type":"Point","coordinates":[-157.857619,21.304735]}},{"properties":{"city":"HOUGHTON LAKE","days":65,"latitude":44.30897,"residual_x":1713.95830866166,"residual_y":-13.9015107644301,"years":30,"longitude":-84.759149,"id":"a67y81d45gyk","state":"MI"},"type":"Feature","geometry":{"type":"Point","coordinates":[-84.759149,44.30897]}},{"properties":{"city":"HOUSTON","days":90,"latitude":29.76045,"residual_x":2232.13011932476,"residual_y":-18.1042798559269,"years":26,"longitude":-95.369784,"id":"a67y81hq7l4c","state":"TX"},"type":"Feature","geometry":{"type":"Point","coordinates":[-95.369784,29.76045]}},{"properties":{"city":"HUNTINGTON","days":63,"latitude":38.419825,"residual_x":1218.78649799855,"residual_y":-9.88528923711034,"years":34,"longitude":-82.445369,"id":"a67y81irx2wl","state":"WV"},"type":"Feature","geometry":{"type":"Point","coordinates":[-82.445369,38.419825]}},{"properties":{"city":"HUNTSVILLE","days":100,"latitude":34.729121,"residual_x":2118.83716665899,"residual_y":-17.1853874925256,"years":27,"longitude":-86.584961,"id":"a67y81jjpl35","state":"AL"},"type":"Feature","geometry":{"type":"Point","coordinates":[-86.584961,34.729121]}},{"properties":{"city":"HURON","days":104,"latitude":44.36385,"residual_x":-1452.65846064853,"residual_y":11.7821694528349,"years":56,"longitude":-98.214139,"id":"a67y81bz8k8j","state":"SD"},"type":"Feature","geometry":{"type":"Point","coordinates":[-98.214139,44.36385]}},{"properties":{"city":"INDIANAPOLIS","days":88,"latitude":39.76691,"residual_x":-2455.00208197474,"residual_y":19.9119416713928,"years":64,"longitude":-86.149964,"id":"a67y81m5wszi","state":"IN"},"type":"Feature","geometry":{"type":"Point","coordinates":[-86.149964,39.76691]}},{"properties":{"city":"INTERNATIONAL FALLS","days":76,"latitude":48.602605,"residual_x":-1480.65846064853,"residual_y":12.0092708353113,"years":56,"longitude":-93.403654,"id":"a67y817eoi46","state":"MN"},"type":"Feature","geometry":{"type":"Point","coordinates":[-93.403654,48.602605]}},{"properties":{"city":"JACKSON","days":73,"latitude":37.558101,"residual_x":3694.64555131408,"residual_y":-29.9663968737091,"years":14,"longitude":-83.378014,"id":"a67y81l1z0zg","state":"KY"},"type":"Feature","geometry":{"type":"Point","coordinates":[-83.378014,37.558101]}},{"properties":{"city":"JACKSON","days":111,"latitude":32.29869,"residual_x":1759.95830866166,"residual_y":-14.2746058927842,"years":30,"longitude":-90.180489,"id":"a67y818udd26","state":"MS"},"type":"Feature","geometry":{"type":"Point","coordinates":[-90.180489,32.29869]}},{"properties":{"city":"JACKSONVILLE","days":94,"latitude":30.33138,"residual_x":-353.02188665654,"residual_y":2.86327708943361,"years":47,"longitude":-81.655799,"id":"a67y81axsoj8","state":"FL"},"type":"Feature","geometry":{"type":"Point","coordinates":[-81.655799,30.33138]}},{"properties":{"city":"JOHNSTON ISLAND","days":99,"latitude":44.42335,"residual_x":2487.71602465632,"residual_y":-20.1772767288658,"years":24,"longitude":-111.371171,"id":"a67y81cl3gey","state":"PC"},"type":"Feature","geometry":{"type":"Point","coordinates":[-111.371171,44.42335]}},{"properties":{"city":"JUNEAU","days":44,"latitude":58.36773,"residual_x":-403.02188665654,"residual_y":3.26881527242725,"years":47,"longitude":-134.579512,"id":"a67y81jbnlfl","state":"AK"},"type":"Feature","geometry":{"type":"Point","coordinates":[-134.579512,58.36773]}},{"properties":{"city":"KAHULUI","days":131,"latitude":20.890775,"residual_x":916.907640001224,"residual_y":-7.43682116598168,"years":37,"longitude":-156.467144,"id":"a67y81ehcy48","state":"HI"},"type":"Feature","geometry":{"type":"Point","coordinates":[-156.467144,20.890775]}},{"properties":{"city":"KALISPELL","days":70,"latitude":48.20164,"residual_x":-130.435981324987,"residual_y":1.05793541727056,"years":45,"longitude":-114.314901,"id":"a67y81agpo11","state":"MT"},"type":"Feature","geometry":{"type":"Point","coordinates":[-114.314901,48.20164]}},{"properties":{"city":"KANSAS CITY","days":120,"latitude":39.10296,"residual_x":2632.00897732209,"residual_y":-21.3476027657231,"years":23,"longitude":-94.583062,"id":"a67y8199tmp1","state":"MO"},"type":"Feature","geometry":{"type":"Point","coordinates":[-94.583062,39.10296]}},{"properties":{"city":"KEY WEST","days":104,"latitude":24.554255,"residual_x":150.149924006566,"residual_y":-1.21783054716512,"years":43,"longitude":-81.800629,"id":"a67y818nikb0","state":"FL"},"type":"Feature","geometry":{"type":"Point","coordinates":[-81.800629,24.554255]}},{"properties":{"city":"KING SALMON","days":51,"latitude":58.697111,"residual_x":220.442876672342,"residual_y":-1.78796007319186,"years":42,"longitude":-156.697235,"id":"a67y81dwjqed","state":"AK"},"type":"Feature","geometry":{"type":"Point","coordinates":[-156.697235,58.697111]}},{"properties":{"city":"KNOXVILLE","days":97,"latitude":35.960495,"residual_x":-1089.7796026512,"residual_y":8.83894479845399,"years":53,"longitude":-83.920914,"id":"a67y81f67wrl","state":"TN"},"type":"Feature","geometry":{"type":"Point","coordinates":[-83.920914,35.960495]}},{"properties":{"city":"KODIAK","days":59,"latitude":57.79435,"residual_x":2324.42307199054,"residual_y":-18.8528461824708,"years":25,"longitude":-152.395159,"id":"a67y81cgykzt","state":"AK"},"type":"Feature","geometry":{"type":"Point","coordinates":[-152.395159,57.79435]}},{"properties":{"city":"KOTZEBUE","days":100,"latitude":66.89724,"residual_x":-963.486649985422,"residual_y":7.81461250747437,"years":52,"longitude":-162.585939,"id":"a67y81k5vu9a","state":"AK"},"type":"Feature","geometry":{"type":"Point","coordinates":[-162.585939,66.89724]}},{"properties":{"city":"LA CROSSE","days":95,"latitude":43.812625,"residual_x":3346.76669331675,"residual_y":-27.1448336742263,"years":17,"longitude":-91.251919,"id":"a67y81e6o4pj","state":"WI"},"type":"Feature","geometry":{"type":"Point","coordinates":[-91.251919,43.812625]}},{"properties":{"city":"LAKE CHARLES","days":98,"latitude":30.224033,"residual_x":1253.78649799855,"residual_y":-10.1691659652059,"years":34,"longitude":-93.220111,"id":"a67y818pjzfu","state":"LA"},"type":"Feature","geometry":{"type":"Point","coordinates":[-93.220111,30.224033]}},{"properties":{"city":"LANDER","days":114,"latitude":42.832915,"residual_x":-579.607791988093,"residual_y":4.70106181623616,"years":49,"longitude":-108.730179,"id":"a67y81ia3tkx","state":"WY"},"type":"Feature","geometry":{"type":"Point","coordinates":[-108.730179,42.832915]}},{"properties":{"city":"LANSING","days":71,"latitude":42.73202,"residual_x":363.735829338118,"residual_y":-2.95017534638932,"years":41,"longitude":-84.552279,"id":"a67y81bavupu","state":"MI"},"type":"Feature","geometry":{"type":"Point","coordinates":[-84.552279,42.73202]}},{"properties":{"city":"LAS VEGAS","days":210,"latitude":36.171915,"residual_x":-237.02188665654,"residual_y":1.92242850488836,"years":47,"longitude":-115.139974,"id":"a67y81bnkwkl","state":"NV"},"type":"Feature","geometry":{"type":"Point","coordinates":[-115.139974,36.171915]}},{"properties":{"city":"LEWISTON","days":91,"latitude":46.418657,"residual_x":260.442876672342,"residual_y":-2.11239061958677,"years":42,"longitude":-117.01666,"id":"a67y81b0nnv1","state":"ID"},"type":"Feature","geometry":{"type":"Point","coordinates":[-117.01666,46.418657]}},{"properties":{"city":"LEXINGTON","days":89,"latitude":38.048595,"residual_x":-851.193697319645,"residual_y":6.90383090773297,"years":51,"longitude":-84.500319,"id":"a67y81f14az5","state":"KY"},"type":"Feature","geometry":{"type":"Point","coordinates":[-84.500319,38.048595]}},{"properties":{"city":"LIHUE","days":56,"latitude":21.974925,"residual_x":-267.728933990763,"residual_y":2.17148610850877,"years":46,"longitude":-159.368579,"id":"a67y81lw92gc","state":"HI"},"type":"Feature","geometry":{"type":"Point","coordinates":[-159.368579,21.974925]}},{"properties":{"city":"LINCOLN","days":117,"latitude":40.81361,"residual_x":2012.54421399321,"residual_y":-16.3232704747435,"years":28,"longitude":-96.707729,"id":"a67y81afxua8","state":"NE"},"type":"Feature","geometry":{"type":"Point","coordinates":[-96.707729,40.81361]}},{"properties":{"city":"LITTLE ROCK","days":119,"latitude":34.748655,"residual_x":1151.49354533278,"residual_y":-9.33949200206321,"years":35,"longitude":-92.274494,"id":"a67y81a27gfo","state":"AR"},"type":"Feature","geometry":{"type":"Point","coordinates":[-92.274494,34.748655]}},{"properties":{"city":"LONG BEACH","days":159,"latitude":33.766425,"residual_x":821.614687335447,"residual_y":-6.66392254845812,"years":38,"longitude":-118.192394,"id":"a67y81cljmdg","state":"CA"},"type":"Feature","geometry":{"type":"Point","coordinates":[-118.192394,33.766425]}},{"properties":{"city":"LOS ANGELES AP","days":147,"latitude":34.05329,"residual_x":-1902.83027131163,"residual_y":15.4334066154603,"years":60,"longitude":-118.245009,"id":"a67y81k8amdf","state":"CA"},"type":"Feature","geometry":{"type":"Point","coordinates":[-118.245009,34.05329]}},{"properties":{"city":"LOS ANGELES C.O.","days":186,"latitude":34.05329,"residual_x":1341.78649799855,"residual_y":-10.8829131672747,"years":34,"longitude":-118.245009,"id":"a67y8192lnyt","state":"CA"},"type":"Feature","geometry":{"type":"Point","coordinates":[-118.245009,34.05329]}},{"properties":{"city":"LOUISVILLE","days":93,"latitude":38.25486,"residual_x":-354.02188665654,"residual_y":2.87138785309348,"years":47,"longitude":-85.766404,"id":"a67y81i610c0","state":"KY"},"type":"Feature","geometry":{"type":"Point","coordinates":[-85.766404,38.25486]}},{"properties":{"city":"LUBBOCK","days":160,"latitude":33.59233,"residual_x":-533.607791988093,"residual_y":4.327966687882,"years":49,"longitude":-101.855869,"id":"a67y81ksjs2i","state":"TX"},"type":"Feature","geometry":{"type":"Point","coordinates":[-101.855869,33.59233]}},{"properties":{"city":"LYNCHBURG","days":112,"latitude":37.41402,"residual_x":-581.607791988093,"residual_y":4.7172833435559,"years":49,"longitude":-79.142839,"id":"a67y817hm29s","state":"VA"},"type":"Feature","geometry":{"type":"Point","coordinates":[-79.142839,37.41402]}},{"properties":{"city":"MACON","days":112,"latitude":32.839685,"residual_x":-211.728933990763,"residual_y":1.7172833435559,"years":46,"longitude":-83.627579,"id":"a67y81kwsim4","state":"GA"},"type":"Feature","geometry":{"type":"Point","coordinates":[-83.627579,32.839685]}},{"properties":{"city":"MADISON","days":89,"latitude":43.072925,"residual_x":-604.607791988093,"residual_y":4.90383090773297,"years":49,"longitude":-89.386659,"id":"a67y819x3b36","state":"WI"},"type":"Feature","geometry":{"type":"Point","coordinates":[-89.386659,43.072925]}},{"properties":{"city":"MANSFIELD","days":73,"latitude":40.758515,"residual_x":1721.95830866166,"residual_y":-13.9663968737091,"years":30,"longitude":-82.514804,"id":"a67y81d6xsn0","state":"OH"},"type":"Feature","geometry":{"type":"Point","coordinates":[-82.514804,40.758515]}},{"properties":{"city":"MCGRATH","days":67,"latitude":62.949119,"residual_x":-1366.36550798275,"residual_y":11.0822677082502,"years":55,"longitude":-155.559872,"id":"a67y81bbyfgd","state":"AK"},"type":"Feature","geometry":{"type":"Point","coordinates":[-155.559872,62.949119]}},{"properties":{"city":"MEDFORD","days":117,"latitude":42.32356,"residual_x":-2795.88093997207,"residual_y":22.6767295252565,"years":67,"longitude":-122.875614,"id":"a67y81jaff9k","state":"OR"},"type":"Feature","geometry":{"type":"Point","coordinates":[-122.875614,42.32356]}},{"properties":{"city":"MEMPHIS","days":118,"latitude":35.149657,"residual_x":164.149924006566,"residual_y":-1.33138123840334,"years":43,"longitude":-90.048913,"id":"a67y81kxl184","state":"TN"},"type":"Feature","geometry":{"type":"Point","coordinates":[-90.048913,35.149657]}},{"properties":{"city":"MERIDIAN","days":108,"latitude":32.36503,"residual_x":-708.900744653869,"residual_y":5.74972639819539,"years":50,"longitude":-88.703069,"id":"a67y81d5tbqe","state":"MS"},"type":"Feature","geometry":{"type":"Point","coordinates":[-88.703069,32.36503]}},{"properties":{"city":"MIAMI","days":74,"latitude":25.728985,"residual_x":-249.728933990763,"residual_y":2.02549236263106,"years":46,"longitude":-80.237419,"id":"a67y819d2t4q","state":"FL"},"type":"Feature","geometry":{"type":"Point","coordinates":[-80.237419,25.728985]}},{"properties":{"city":"MIDLAND-ODESSA","days":165,"latitude":31.84931,"residual_x":-282.02188665654,"residual_y":2.28741286958264,"years":47,"longitude":-102.374809,"id":"a67y8186br0r","state":"TX"},"type":"Feature","geometry":{"type":"Point","coordinates":[-102.374809,31.84931]}},{"properties":{"city":"MILFORD","days":151,"latitude":38.396685,"residual_x":567.028782003895,"residual_y":-4.59903643917914,"years":40,"longitude":-113.010864,"id":"a67y81a6se0e","state":"UT"},"type":"Feature","geometry":{"type":"Point","coordinates":[-113.010864,38.396685]}},{"properties":{"city":"MILWAUKEE","days":90,"latitude":43.04181,"residual_x":-1343.36550798275,"residual_y":10.8957201440731,"years":55,"longitude":-87.906844,"id":"a67y81ks3vrh","state":"WI"},"type":"Feature","geometry":{"type":"Point","coordinates":[-87.906844,43.04181]}},{"properties":{"city":"MINNEAPOLIS-ST.PAUL","days":95,"latitude":44.943829,"residual_x":-1584.9514133143,"residual_y":12.8551663257737,"years":57,"longitude":-93.093326,"id":"a67y81gzmkxm","state":"MN"},"type":"Feature","geometry":{"type":"Point","coordinates":[-93.093326,44.943829]}},{"properties":{"city":"MISSOULA","days":75,"latitude":46.87278,"residual_x":-865.193697319645,"residual_y":7.01738159897119,"years":51,"longitude":-113.996234,"id":"a67y81bk825m","state":"MT"},"type":"Feature","geometry":{"type":"Point","coordinates":[-113.996234,46.87278]}},{"properties":{"city":"MOBILE","days":102,"latitude":30.686395,"residual_x":-345.02188665654,"residual_y":2.79839098015463,"years":47,"longitude":-88.053239,"id":"a67y81as4ex6","state":"AL"},"type":"Feature","geometry":{"type":"Point","coordinates":[-88.053239,30.686395]}},{"properties":{"city":"MOLINE","days":101,"latitude":41.491733,"residual_x":-2195.41617664319,"residual_y":17.8065017438145,"years":62,"longitude":-90.489899,"id":"a67y81fpu4ul","state":"IL"},"type":"Feature","geometry":{"type":"Point","coordinates":[-90.489899,41.491733]}},{"properties":{"city":"MONTGOMERY","days":107,"latitude":32.38012,"residual_x":-833.193697319645,"residual_y":6.75783716185526,"years":51,"longitude":-86.300629,"id":"a67y81k6doln","state":"AL"},"type":"Feature","geometry":{"type":"Point","coordinates":[-86.300629,32.38012]}},{"properties":{"city":"MOUNT SHASTA","days":164,"latitude":41.31297,"residual_x":2799.30192998787,"residual_y":-22.7044763667575,"years":22,"longitude":-122.312709,"id":"a67y8189wne6","state":"CA"},"type":"Feature","geometry":{"type":"Point","coordinates":[-122.312709,41.31297]}},{"properties":{"city":"MT.WASHINGTON","days":45,"latitude":43.191306,"residual_x":-2991.17389263784,"residual_y":24.2607045087674,"years":68,"longitude":-72.019235,"id":"a67y81jvn1qy","state":"NH"},"type":"Feature","geometry":{"type":"Point","coordinates":[-72.019235,43.191306]}},{"properties":{"city":"MUSKEGON","days":75,"latitude":43.23424,"residual_x":-1111.7796026512,"residual_y":9.01738159897119,"years":53,"longitude":-86.245929,"id":"a67y81kuy42m","state":"MI"},"type":"Feature","geometry":{"type":"Point","coordinates":[-86.245929,43.23424]}},{"properties":{"city":"NASHVILLE","days":102,"latitude":36.167762,"residual_x":-1208.07255531697,"residual_y":9.79839098015463,"years":54,"longitude":-86.778366,"id":"a67y81a92mb3","state":"TN"},"type":"Feature","geometry":{"type":"Point","coordinates":[-86.778366,36.167762]}},{"properties":{"city":"NEW ORLEANS","days":101,"latitude":29.95369,"residual_x":-346.02188665654,"residual_y":2.8065017438145,"years":47,"longitude":-90.077714,"id":"a67y81hg5jsn","state":"LA"},"type":"Feature","geometry":{"type":"Point","coordinates":[-90.077714,29.95369]}},{"properties":{"city":"NEW YORK (JFK AP)","days":98,"latitude":40.71455,"residual_x":883.907640001224,"residual_y":-7.16916596520588,"years":37,"longitude":-74.007124,"id":"a67y81mrtb0y","state":"NY"},"type":"Feature","geometry":{"type":"Point","coordinates":[-74.007124,40.71455]}},{"properties":{"city":"NEW YORK (LAGUARDIA AP)","days":96,"latitude":40.71455,"residual_x":-351.02188665654,"residual_y":2.84705556211387,"years":47,"longitude":-74.007124,"id":"a67y817bn70g","state":"NY"},"type":"Feature","geometry":{"type":"Point","coordinates":[-74.007124,40.71455]}},{"properties":{"city":"NEW YORK C.PARK","days":107,"latitude":40.714531,"residual_x":276.442876672342,"residual_y":-2.24216283814474,"years":42,"longitude":-74.007133,"id":"a67y8194v11n","state":"NY"},"type":"Feature","geometry":{"type":"Point","coordinates":[-74.007133,40.714531]}},{"properties":{"city":"NEWARK","days":93,"latitude":40.73197,"residual_x":-1093.7796026512,"residual_y":8.87138785309348,"years":53,"longitude":-74.174184,"id":"a67y81h9zkmf","state":"NJ"},"type":"Feature","geometry":{"type":"Point","coordinates":[-74.174184,40.73197]}},{"properties":{"city":"NOME","days":91,"latitude":64.49956,"residual_x":-849.193697319645,"residual_y":6.88760938041323,"years":51,"longitude":-165.404699,"id":"a67y81g46ddv","state":"AK"},"type":"Feature","geometry":{"type":"Point","coordinates":[-165.404699,64.49956]}},{"properties":{"city":"NORFOLK","days":117,"latitude":42.0327,"residual_x":-699.900744653869,"residual_y":5.67672952525653,"years":50,"longitude":-97.411064,"id":"a67y81lp6li6","state":"NE"},"type":"Feature","geometry":{"type":"Point","coordinates":[-97.411064,42.0327]}},{"properties":{"city":"NORFOLK","days":106,"latitude":36.846825,"residual_x":-341.02188665654,"residual_y":2.76594792551514,"years":47,"longitude":-76.285069,"id":"a67y81jqpges","state":"VA"},"type":"Feature","geometry":{"type":"Point","coordinates":[-76.285069,36.846825]}},{"properties":{"city":"NORTH PLATTE","days":115,"latitude":41.136325,"residual_x":161.149924006566,"residual_y":-1.30704894742372,"years":43,"longitude":-100.763329,"id":"a67y81eb0xs3","state":"NE"},"type":"Feature","geometry":{"type":"Point","coordinates":[-100.763329,41.136325]}},{"properties":{"city":"OAK RIDGE","days":109,"latitude":36.01478,"residual_x":278.442876672342,"residual_y":-2.25838436546449,"years":42,"longitude":-84.255264,"id":"a67y81kuywix","state":"TN"},"type":"Feature","geometry":{"type":"Point","coordinates":[-84.255264,36.01478]}},{"properties":{"city":"OKLAHOMA CITY","days":139,"latitude":35.472005,"residual_x":61.8569713407892,"residual_y":-0.501707275260671,"years":44,"longitude":-97.520334,"id":"a67y816xta9j","state":"OK"},"type":"Feature","geometry":{"type":"Point","coordinates":[-97.520334,35.472005]}},{"properties":{"city":"OLYMPIA","days":52,"latitude":47.039225,"residual_x":-1258.07255531697,"residual_y":10.2039291631483,"years":54,"longitude":-122.891429,"id":"a67y818b8l6m","state":"WA"},"type":"Feature","geometry":{"type":"Point","coordinates":[-122.891429,47.039225]}},{"properties":{"city":"OMAHA (NORTH)","days":110,"latitude":41.260645,"residual_x":3238.47374065097,"residual_y":-26.2664951291244,"years":18,"longitude":-95.940469,"id":"a67y817dltfz","state":"NE"},"type":"Feature","geometry":{"type":"Point","coordinates":[-95.940469,41.260645]}},{"properties":{"city":"OMAHA EPPLEY AP","days":111,"latitude":41.260658,"residual_x":-582.607791988093,"residual_y":4.72539410721577,"years":49,"longitude":-95.939949,"id":"a67y81fm5h5k","state":"NE"},"type":"Feature","geometry":{"type":"Point","coordinates":[-95.939949,41.260658]}},{"properties":{"city":"ORLANDO","days":89,"latitude":28.53774,"residual_x":-358.02188665654,"residual_y":2.90383090773297,"years":47,"longitude":-81.377389,"id":"a67y81kygfz0","state":"FL"},"type":"Feature","geometry":{"type":"Point","coordinates":[-81.377389,28.53774]}},{"properties":{"city":"PADUCAH","days":101,"latitude":37.08571,"residual_x":4092.52440931141,"residual_y":-33.1934982561855,"years":11,"longitude":-88.595834,"id":"a67y816xavvo","state":"KY"},"type":"Feature","geometry":{"type":"Point","coordinates":[-88.595834,37.08571]}},{"properties":{"city":"PENDLETON","days":101,"latitude":45.67179,"residual_x":-1948.83027131163,"residual_y":15.8065017438145,"years":60,"longitude":-118.786401,"id":"a67y81lqjkk3","state":"OR"},"type":"Feature","geometry":{"type":"Point","coordinates":[-118.786401,45.67179]}},{"properties":{"city":"PENSACOLA","days":105,"latitude":30.420845,"residual_x":1877.25126132743,"residual_y":-15.225941310825,"years":29,"longitude":-87.217239,"id":"a67y81e2gw63","state":"FL"},"type":"Feature","geometry":{"type":"Point","coordinates":[-87.217239,30.420845]}},{"properties":{"city":"PEORIA","days":95,"latitude":40.69214,"residual_x":-968.486649985422,"residual_y":7.85516632577374,"years":52,"longitude":-89.587764,"id":"a67y81e3kvwi","state":"IL"},"type":"Feature","geometry":{"type":"Point","coordinates":[-89.587764,40.69214]}},{"properties":{"city":"PHILADELPHIA","days":93,"latitude":39.95227,"residual_x":-1340.36550798275,"residual_y":10.8713878530935,"years":55,"longitude":-75.162369,"id":"a67y81n914cz","state":"PA"},"type":"Feature","geometry":{"type":"Point","coordinates":[-75.162369,39.95227]}},{"properties":{"city":"PHOENIX","days":211,"latitude":33.44826,"residual_x":-1468.9514133143,"residual_y":11.9143177412285,"years":57,"longitude":-112.075774,"id":"a67y81jvuksh","state":"AZ"},"type":"Feature","geometry":{"type":"Point","coordinates":[-112.075774,33.44826]}},{"properties":{"city":"PITTSBURGH","days":59,"latitude":40.43831,"residual_x":105.149924006566,"residual_y":-0.852846182470842,"years":43,"longitude":-79.997459,"id":"a67y81luh9de","state":"PA"},"type":"Feature","geometry":{"type":"Point","coordinates":[-79.997459,40.43831]}},{"properties":{"city":"POCATELLO","days":106,"latitude":42.87472,"residual_x":-217.728933990763,"residual_y":1.76594792551514,"years":46,"longitude":-112.450579,"id":"a67y81dxrzk4","state":"ID"},"type":"Feature","geometry":{"type":"Point","coordinates":[-112.450579,42.87472]}},{"properties":{"city":"PORT ARTHUR","days":95,"latitude":29.89932,"residual_x":264.442876672342,"residual_y":-2.14483367422626,"years":42,"longitude":-93.929379,"id":"a67y81limezc","state":"TX"},"type":"Feature","geometry":{"type":"Point","coordinates":[-93.929379,29.89932]}},{"properties":{"city":"PORTLAND","days":101,"latitude":43.659145,"residual_x":-1209.07255531697,"residual_y":9.8065017438145,"years":54,"longitude":-70.256654,"id":"a67y81fyw1ta","state":"ME"},"type":"Feature","geometry":{"type":"Point","coordinates":[-70.256654,43.659145]}},{"properties":{"city":"PORTLAND","days":68,"latitude":45.511795,"residual_x":-379.02188665654,"residual_y":3.0741569445903,"years":47,"longitude":-122.675629,"id":"a67y81mu5ln6","state":"OR"},"type":"Feature","geometry":{"type":"Point","coordinates":[-122.675629,45.511795]}},{"properties":{"city":"PROVIDENCE","days":98,"latitude":41.823875,"residual_x":267.442876672342,"residual_y":-2.16916596520588,"years":42,"longitude":-71.411994,"id":"a67y8173mgmj","state":"RI"},"type":"Feature","geometry":{"type":"Point","coordinates":[-71.411994,41.823875]}},{"properties":{"city":"PUEBLO","days":139,"latitude":38.26386,"residual_x":-677.900744653869,"residual_y":5.49829272473933,"years":50,"longitude":-104.612374,"id":"a67y81j1c5o1","state":"CO"},"type":"Feature","geometry":{"type":"Point","coordinates":[-104.612374,38.26386]}},{"properties":{"city":"QUILLAYUTE","days":51,"latitude":47.934761,"residual_x":1823.25126132743,"residual_y":-14.7879600731919,"years":29,"longitude":-124.53331,"id":"a67y81fptts5","state":"WA"},"type":"Feature","geometry":{"type":"Point","coordinates":[-124.53331,47.934761]}},{"properties":{"city":"RALEIGH","days":111,"latitude":35.78551,"residual_x":-336.02188665654,"residual_y":2.72539410721577,"years":47,"longitude":-78.642669,"id":"a67y81bymzhh","state":"NC"},"type":"Feature","geometry":{"type":"Point","coordinates":[-78.642669,35.78551]}},{"properties":{"city":"RAPID CITY","days":111,"latitude":44.081165,"residual_x":-1075.7796026512,"residual_y":8.72539410721577,"years":53,"longitude":-103.230889,"id":"a67y81n5iyww","state":"SD"},"type":"Feature","geometry":{"type":"Point","coordinates":[-103.230889,44.081165]}},{"properties":{"city":"REDDING","days":172,"latitude":40.587523,"residual_x":4410.11031464296,"residual_y":-35.7693624760365,"years":9,"longitude":-122.39291,"id":"a67y81fvna3x","state":"CA"},"type":"Feature","geometry":{"type":"Point","coordinates":[-122.39291,40.587523]}},{"properties":{"city":"RENO","days":158,"latitude":39.524555,"residual_x":-1028.7796026512,"residual_y":8.34418821520175,"years":53,"longitude":-119.811649,"id":"a67y81e6likq","state":"NV"},"type":"Feature","geometry":{"type":"Point","coordinates":[-119.811649,39.524555]}},{"properties":{"city":"RICHMOND","days":100,"latitude":37.540545,"residual_x":-716.900744653869,"residual_y":5.81461250747437,"years":50,"longitude":-77.433409,"id":"a67y81mzpzsd","state":"VA"},"type":"Feature","geometry":{"type":"Point","coordinates":[-77.433409,37.540545]}},{"properties":{"city":"ROANOKE","days":102,"latitude":37.271525,"residual_x":-468.314839322316,"residual_y":3.79839098015463,"years":48,"longitude":-79.940534,"id":"a67y81mv29mb","state":"VA"},"type":"Feature","geometry":{"type":"Point","coordinates":[-79.940534,37.271525]}},{"properties":{"city":"ROCHESTER","days":61,"latitude":43.1555,"residual_x":-1372.36550798275,"residual_y":11.1309322902094,"years":55,"longitude":-77.616033,"id":"a67y81jfeujc","state":"NY"},"type":"Feature","geometry":{"type":"Point","coordinates":[-77.616033,43.1555]}},{"properties":{"city":"ROCHESTER","days":86,"latitude":44.01925,"residual_x":1118.49354533278,"residual_y":-9.07183680128741,"years":35,"longitude":-92.459779,"id":"a67y819v2ef3","state":"MN"},"type":"Feature","geometry":{"type":"Point","coordinates":[-92.459779,44.01925]}},{"properties":{"city":"ROCKFORD","days":93,"latitude":42.2669,"residual_x":-107.435981324987,"residual_y":0.871387853093481,"years":45,"longitude":-89.078354,"id":"a67y81iotj4l","state":"IL"},"type":"Feature","geometry":{"type":"Point","coordinates":[-89.078354,42.2669]}},{"properties":{"city":"ROSWELL","days":168,"latitude":33.39482,"residual_x":4406.11031464296,"residual_y":-35.736919421397,"years":9,"longitude":-104.52275,"id":"a67y81mfk385","state":"NM"},"type":"Feature","geometry":{"type":"Point","coordinates":[-104.52275,33.39482]}},{"properties":{"city":"SACRAMENTO","days":188,"latitude":38.57906,"residual_x":-505.607791988093,"residual_y":4.10086530540556,"years":49,"longitude":-121.490999,"id":"a67y81ciuj9x","state":"CA"},"type":"Feature","geometry":{"type":"Point","coordinates":[-121.490999,38.57906]}},{"properties":{"city":"SAINT CLOUD","days":97,"latitude":45.565864,"residual_x":-719.900744653869,"residual_y":5.83894479845399,"years":50,"longitude":-94.197519,"id":"a67y81m8surg","state":"MN"},"type":"Feature","geometry":{"type":"Point","coordinates":[-94.197519,45.565864]}},{"properties":{"city":"SALEM","days":77,"latitude":44.93323,"residual_x":-1726.24436598008,"residual_y":14.0011600716514,"years":58,"longitude":-123.043854,"id":"a67y81mvm3pa","state":"OR"},"type":"Feature","geometry":{"type":"Point","coordinates":[-123.043854,44.93323]}},{"properties":{"city":"SALT LAKE CITY","days":125,"latitude":40.75952,"residual_x":-3034.46684530362,"residual_y":24.6118434159776,"years":69,"longitude":-111.888229,"id":"a67y81cokfc6","state":"UT"},"type":"Feature","geometry":{"type":"Point","coordinates":[-111.888229,40.75952]}},{"properties":{"city":"SAN ANGELO","days":154,"latitude":31.4615,"residual_x":-293.02188665654,"residual_y":2.37663126984124,"years":47,"longitude":-100.442424,"id":"a67y81ky3m8d","state":"TX"},"type":"Feature","geometry":{"type":"Point","coordinates":[-100.442424,31.4615]}},{"properties":{"city":"SAN ANTONIO","days":105,"latitude":29.42449,"residual_x":-1081.7796026512,"residual_y":8.77405868917501,"years":53,"longitude":-98.494624,"id":"a67y81mb2dto","state":"TX"},"type":"Feature","geometry":{"type":"Point","coordinates":[-98.494624,29.42449]}},{"properties":{"city":"SAN DIEGO","days":146,"latitude":32.715685,"residual_x":-1287.36550798275,"residual_y":10.4415173791202,"years":55,"longitude":-117.161724,"id":"a67y81dod07z","state":"CA"},"type":"Feature","geometry":{"type":"Point","coordinates":[-117.161724,32.715685]}},{"properties":{"city":"SAN FRANCISCO AP","days":160,"latitude":37.77916,"residual_x":-2876.17389263784,"residual_y":23.327966687882,"years":68,"longitude":-122.420049,"id":"a67y81dls9vj","state":"CA"},"type":"Feature","geometry":{"type":"Point","coordinates":[-122.420049,37.77916]}},{"properties":{"city":"SAN JUAN","days":73,"latitude":18.46617,"residual_x":489.028782003895,"residual_y":-3.96639687370906,"years":40,"longitude":-66.106654,"id":"a67y81mi2xkw","state":"PR"},"type":"Feature","geometry":{"type":"Point","coordinates":[-66.106654,18.46617]}},{"properties":{"city":"SANTA MARIA","days":176,"latitude":34.95313,"residual_x":-24.4359813249872,"residual_y":0.198194469324037,"years":45,"longitude":-120.434994,"id":"a67y81gwcd6v","state":"CA"},"type":"Feature","geometry":{"type":"Point","coordinates":[-120.434994,34.95313]}},{"properties":{"city":"SAULT STE.MARIE","days":66,"latitude":46.472869,"residual_x":-1244.07255531697,"residual_y":10.09037847191,"years":54,"longitude":-84.359735,"id":"a67y81ica2ge","state":"MI"},"type":"Feature","geometry":{"type":"Point","coordinates":[-84.359735,46.472869]}},{"properties":{"city":"SAVANNAH","days":104,"latitude":32.08078,"residual_x":-96.4359813249872,"residual_y":0.782169452834879,"years":45,"longitude":-81.090719,"id":"a67y817y5m2x","state":"GA"},"type":"Feature","geometry":{"type":"Point","coordinates":[-81.090719,32.08078]}},{"properties":{"city":"SCOTTSBLUFF","days":115,"latitude":41.8618,"residual_x":-948.486649985422,"residual_y":7.69295105257628,"years":52,"longitude":-103.662759,"id":"a67y81942ev9","state":"NE"},"type":"Feature","geometry":{"type":"Point","coordinates":[-103.662759,41.8618]}},{"properties":{"city":"SEATTLE C.O.","days":71,"latitude":47.603561,"residual_x":2459.71602465632,"residual_y":-19.9501753463893,"years":24,"longitude":-122.329437,"id":"a67y81g8z1ii","state":"WA"},"type":"Feature","geometry":{"type":"Point","coordinates":[-122.329437,47.603561]}},{"properties":{"city":"SEATTLE SEA-TAC AP","days":58,"latitude":47.603561,"residual_x":-882.193697319645,"residual_y":7.15526458118903,"years":51,"longitude":-122.329437,"id":"a67y818c9axa","state":"WA"},"type":"Feature","geometry":{"type":"Point","coordinates":[-122.329437,47.603561]}},{"properties":{"city":"SEXTON SUMMIT","days":126,"latitude":44.637249,"residual_x":1774.95830866166,"residual_y":-14.3962673476823,"years":30,"longitude":-123.579006,"id":"a67y8194r3zr","state":"OR"},"type":"Feature","geometry":{"type":"Point","coordinates":[-123.579006,44.637249]}},{"properties":{"city":"SHERIDAN","days":95,"latitude":44.797695,"residual_x":-1338.36550798275,"residual_y":10.8551663257737,"years":55,"longitude":-106.955859,"id":"a67y81al7liv","state":"WY"},"type":"Feature","geometry":{"type":"Point","coordinates":[-106.955859,44.797695]}},{"properties":{"city":"SHREVEPORT","days":114,"latitude":32.514615,"residual_x":160.149924006566,"residual_y":-1.29893818376384,"years":43,"longitude":-93.747274,"id":"a67y81eo8tyr","state":"LA"},"type":"Feature","geometry":{"type":"Point","coordinates":[-93.747274,32.514615]}},{"properties":{"city":"SIOUX CITY","days":104,"latitude":42.499793,"residual_x":-1329.36550798275,"residual_y":10.7821694528349,"years":55,"longitude":-96.420839,"id":"a67y81a3ynv6","state":"IA"},"type":"Feature","geometry":{"type":"Point","coordinates":[-96.420839,42.499793]}},{"properties":{"city":"SIOUX FALLS","days":105,"latitude":43.54535,"residual_x":-711.900744653869,"residual_y":5.77405868917501,"years":50,"longitude":-96.731284,"id":"a67y817d2e23","state":"SD"},"type":"Feature","geometry":{"type":"Point","coordinates":[-96.731284,43.54535]}},{"properties":{"city":"SOUTH BEND","days":73,"latitude":41.679058,"residual_x":-1483.65846064853,"residual_y":12.0336031262909,"years":56,"longitude":-86.254044,"id":"a67y8183ob07","state":"IN"},"type":"Feature","geometry":{"type":"Point","coordinates":[-86.254044,41.679058]}},{"properties":{"city":"SPOKANE","days":86,"latitude":47.65726,"residual_x":-484.314839322316,"residual_y":3.92816319871259,"years":48,"longitude":-117.412279,"id":"a67y81hygdf1","state":"WA"},"type":"Feature","geometry":{"type":"Point","coordinates":[-117.412279,47.65726]}},{"properties":{"city":"SPRINGFIELD","days":115,"latitude":37.208975,"residual_x":-701.900744653869,"residual_y":5.69295105257628,"years":50,"longitude":-93.291564,"id":"a67y81hac7av","state":"MO"},"type":"Feature","geometry":{"type":"Point","coordinates":[-93.291564,37.208975]}},{"properties":{"city":"SPRINGFIELD","days":104,"latitude":39.801055,"residual_x":-466.314839322316,"residual_y":3.78216945283488,"years":48,"longitude":-89.643604,"id":"a67y81hluojm","state":"IL"},"type":"Feature","geometry":{"type":"Point","coordinates":[-89.643604,39.801055]}},{"properties":{"city":"ST.LOUIS","days":101,"latitude":38.62774,"residual_x":-346.02188665654,"residual_y":2.8065017438145,"years":47,"longitude":-90.199514,"id":"a67y818pzeiw","state":"MO"},"type":"Feature","geometry":{"type":"Point","coordinates":[-90.199514,38.62774]}},{"properties":{"city":"ST.PAUL ISLAND","days":18,"latitude":57.127035,"residual_x":-2771.58798730629,"residual_y":22.4796951275839,"years":66,"longitude":-170.276629,"id":"a67y81gy0667","state":"AK"},"type":"Feature","geometry":{"type":"Point","coordinates":[-170.276629,57.127035]}},{"properties":{"city":"STOCKTON","days":184,"latitude":37.95362,"residual_x":-139.728933990763,"residual_y":1.13330836004506,"years":46,"longitude":-121.290719,"id":"a67y81idbf9o","state":"CA"},"type":"Feature","geometry":{"type":"Point","coordinates":[-121.290719,37.95362]}},{"properties":{"city":"SYRACUSE","days":63,"latitude":43.04999,"residual_x":-14.1430286592108,"residual_y":0.114710762889665,"years":44,"longitude":-76.147389,"id":"a67y81a4ikxf","state":"NY"},"type":"Feature","geometry":{"type":"Point","coordinates":[-76.147389,43.04999]}},{"properties":{"city":"TALKEETNA","days":67,"latitude":62.321964,"residual_x":4181.81736197719,"residual_y":-33.9177322917498,"years":10,"longitude":-150.104873,"id":"a67y81fnp1y1","state":"AK"},"type":"Feature","geometry":{"type":"Point","coordinates":[-150.104873,62.321964]}},{"properties":{"city":"TALLAHASSEE","days":102,"latitude":30.439775,"residual_x":1257.78649799855,"residual_y":-10.2016090198454,"years":34,"longitude":-84.280649,"id":"a67y819606y9","state":"FL"},"type":"Feature","geometry":{"type":"Point","coordinates":[-84.280649,30.439775]}},{"properties":{"city":"TAMPA","days":101,"latitude":27.94653,"residual_x":-592.607791988093,"residual_y":4.8065017438145,"years":49,"longitude":-82.459269,"id":"a67y81kcmt9n","state":"FL"},"type":"Feature","geometry":{"type":"Point","coordinates":[-82.459269,27.94653]}},{"properties":{"city":"TOLEDO","days":73,"latitude":41.65381,"residual_x":489.028782003895,"residual_y":-3.96639687370906,"years":40,"longitude":-83.536259,"id":"a67y81h3507x","state":"OH"},"type":"Feature","geometry":{"type":"Point","coordinates":[-83.536259,41.65381]}},{"properties":{"city":"TOPEKA","days":114,"latitude":39.056735,"residual_x":-209.728933990763,"residual_y":1.70106181623616,"years":46,"longitude":-95.677484,"id":"a67y81lz2de5","state":"KS"},"type":"Feature","geometry":{"type":"Point","coordinates":[-95.677484,39.056735]}},{"properties":{"city":"TUCSON","days":193,"latitude":32.221553,"residual_x":-1240.36550798275,"residual_y":10.0603114871062,"years":55,"longitude":-110.969754,"id":"a67y81hcf2zn","state":"AZ"},"type":"Feature","geometry":{"type":"Point","coordinates":[-110.969754,32.221553]}},{"properties":{"city":"TULSA","days":127,"latitude":36.14975,"residual_x":-1183.07255531697,"residual_y":9.5956218886578,"years":54,"longitude":-95.993354,"id":"a67y81hsl68y","state":"OK"},"type":"Feature","geometry":{"type":"Point","coordinates":[-95.993354,36.14975]}},{"properties":{"city":"TUPELO","days":119,"latitude":34.25741,"residual_x":4233.81736197719,"residual_y":-34.3394920020632,"years":10,"longitude":-88.707834,"id":"a67y81l3ehwz","state":"MS"},"type":"Feature","geometry":{"type":"Point","coordinates":[-88.707834,34.25741]}},{"properties":{"city":"UNALAKLEET","days":83,"latitude":63.878474,"residual_x":4937.57507797184,"residual_y":-40.0475045103078,"years":4,"longitude":-160.793061,"id":"a67y81iciu68","state":"AK"},"type":"Feature","geometry":{"type":"Point","coordinates":[-160.793061,63.878474]}},{"properties":{"city":"VALDEZ","days":58,"latitude":61.130355,"residual_x":2816.59488265365,"residual_y":-22.844735418811,"years":21,"longitude":-146.353354,"id":"a67y81abfjua","state":"AK"},"type":"Feature","geometry":{"type":"Point","coordinates":[-146.353354,61.130355]}},{"properties":{"city":"VALENTINE","days":123,"latitude":42.873845,"residual_x":539.028782003895,"residual_y":-4.3719350567027,"years":40,"longitude":-100.550627,"id":"a67y81iundj4","state":"NE"},"type":"Feature","geometry":{"type":"Point","coordinates":[-100.550627,42.873845]}},{"properties":{"city":"VICTORIA","days":86,"latitude":28.805965,"residual_x":1241.78649799855,"residual_y":-10.0718368012874,"years":34,"longitude":-97.003574,"id":"a67y817kcnnq","state":"TX"},"type":"Feature","geometry":{"type":"Point","coordinates":[-97.003574,28.805965]}},{"properties":{"city":"WACO","days":130,"latitude":31.571821,"residual_x":-686.900744653869,"residual_y":5.57128959767819,"years":50,"longitude":-97.149507,"id":"a67y81h5hg7w","state":"TX"},"type":"Feature","geometry":{"type":"Point","coordinates":[-97.149507,31.571821]}},{"properties":{"city":"WAKE ISLAND","days":121,"latitude":44.42335,"residual_x":167.149924006566,"residual_y":-1.35571352938296,"years":43,"longitude":-111.371171,"id":"a67y81i91fdv","state":"PC"},"type":"Feature","geometry":{"type":"Point","coordinates":[-111.371171,44.42335]}},{"properties":{"city":"WASHINGTON DULLES AP","days":92,"latitude":38.955582,"residual_x":1371.07945066433,"residual_y":-11.1205013832466,"years":33,"longitude":-77.448402,"id":"a67y81ic7tim","state":"D.C."},"type":"Feature","geometry":{"type":"Point","coordinates":[-77.448402,38.955582]}},{"properties":{"city":"WASHINGTON NAT'L AP","days":96,"latitude":38.890369,"residual_x":-474.314839322316,"residual_y":3.84705556211387,"years":48,"longitude":-77.03199,"id":"a67y81kgdciu","state":"D.C."},"type":"Feature","geometry":{"type":"Point","coordinates":[-77.03199,38.890369]}},{"properties":{"city":"WATERLOO","days":91,"latitude":42.492955,"residual_x":1123.49354533278,"residual_y":-9.11239061958677,"years":35,"longitude":-92.342311,"id":"a67y81bh61bj","state":"IA"},"type":"Feature","geometry":{"type":"Point","coordinates":[-92.342311,42.492955]}},{"properties":{"city":"WEST PALM BEACH","days":75,"latitude":26.714388,"residual_x":-495.314839322316,"residual_y":4.01738159897119,"years":48,"longitude":-80.052689,"id":"a67y81kzupua","state":"FL"},"type":"Feature","geometry":{"type":"Point","coordinates":[-80.052689,26.714388]}},{"properties":{"city":"WICHITA","days":128,"latitude":37.68698,"residual_x":667.321734669671,"residual_y":-5.41248887500207,"years":39,"longitude":-97.335579,"id":"a67y81dfooc4","state":"KS"},"type":"Feature","geometry":{"type":"Point","coordinates":[-97.335579,37.68698]}},{"properties":{"city":"WICHITA FALLS","days":151,"latitude":33.90831,"residual_x":-665.900744653869,"residual_y":5.40096356082086,"years":50,"longitude":-98.500994,"id":"a67y81i1096n","state":"TX"},"type":"Feature","geometry":{"type":"Point","coordinates":[-98.500994,33.90831]}},{"properties":{"city":"WILLIAMSPORT","days":67,"latitude":41.240945,"residual_x":-873.193697319645,"residual_y":7.08226770825018,"years":51,"longitude":-77.001414,"id":"a67y81cmmmvy","state":"PA"},"type":"Feature","geometry":{"type":"Point","coordinates":[-77.001414,41.240945]}},{"properties":{"city":"WILLISTON","days":93,"latitude":48.14703,"residual_x":1248.78649799855,"residual_y":-10.1286121469065,"years":34,"longitude":-103.621889,"id":"a67y81e9uhh7","state":"ND"},"type":"Feature","geometry":{"type":"Point","coordinates":[-103.621889,48.14703]}},{"properties":{"city":"WILMINGTON","days":97,"latitude":39.740235,"residual_x":-350.02188665654,"residual_y":2.83894479845399,"years":47,"longitude":-75.550844,"id":"a67y81lg7arr","state":"DE"},"type":"Feature","geometry":{"type":"Point","coordinates":[-75.550844,39.740235]}},{"properties":{"city":"WILMINGTON","days":111,"latitude":34.23497,"residual_x":33.8569713407892,"residual_y":-0.27460589278423,"years":44,"longitude":-77.945992,"id":"a67y81cplyxb","state":"NC"},"type":"Feature","geometry":{"type":"Point","coordinates":[-77.945992,34.23497]}},{"properties":{"city":"WINNEMUCCA","days":138,"latitude":40.973176,"residual_x":-62.4359813249872,"residual_y":0.506403488399208,"years":45,"longitude":-117.73531,"id":"a67y81jtqzp7","state":"NV"},"type":"Feature","geometry":{"type":"Point","coordinates":[-117.73531,40.973176]}},{"properties":{"city":"WINSLOW","days":177,"latitude":35.024273,"residual_x":962.907640001224,"residual_y":-7.80991629433584,"years":37,"longitude":-110.696254,"id":"a67y81l5wewu","state":"AZ"},"type":"Feature","geometry":{"type":"Point","coordinates":[-110.696254,35.024273]}},{"properties":{"city":"WORCESTER","days":90,"latitude":42.26299,"residual_x":506.028782003895,"residual_y":-4.1042798559269,"years":40,"longitude":-71.802354,"id":"a67y81cijpkv","state":"MA"},"type":"Feature","geometry":{"type":"Point","coordinates":[-71.802354,42.26299]}},{"properties":{"city":"YAKIMA","days":109,"latitude":46.604135,"residual_x":-584.607791988093,"residual_y":4.74161563453551,"years":49,"longitude":-120.507049,"id":"a67y81l1ahbg","state":"WA"},"type":"Feature","geometry":{"type":"Point","coordinates":[-120.507049,46.604135]}},{"properties":{"city":"YAKUTAT","days":41,"latitude":59.550789,"residual_x":-529.314839322316,"residual_y":4.29314756340687,"years":48,"longitude":-139.730898,"id":"a67y81742hpf","state":"AK"},"type":"Feature","geometry":{"type":"Point","coordinates":[-139.730898,59.550789]}},{"properties":{"city":"YOUNGSTOWN","days":63,"latitude":41.0981,"residual_x":-1000.48664998542,"residual_y":8.11471076288966,"years":52,"longitude":-80.650789,"id":"a67y81e61qso","state":"OH"},"type":"Feature","geometry":{"type":"Point","coordinates":[-80.650789,41.0981]}},{"properties":{"city":"YUMA","days":242,"latitude":32.68485,"residual_x":1644.37240333011,"residual_y":-13.3371159322276,"years":32,"longitude":-114.624614,"id":"a67y81lxmyxj","state":"AZ"},"type":"Feature","geometry":{"type":"Point","coordinates":[-114.624614,32.68485]}}],"is_temporal":false,"author":{"url":null,"metadata":null,"contact_name":null,"contact_address":null,"source":null,"contact_phone":null},"source":null,"pagination":{"sort":null,"start":0,"total":262,"limit":1000000},"state":"complete","tags":"","published":"2014-08-13T04:33:42-04:00","id":124651}