{"type":"FeatureCollection","data_type":"Dataset","url_type":null,"permissions":[{"permissions":{"download":true,"view":true},"group_id":"everyone"}],"classification":null,"title":"2010 Women's Studies Masters Programs","count":23,"stream_id":125193,"contributor":{"url":"http://geocommons.com/users/27067","name":"nwsaweb"},"data_attributes":null,"calculation_params":null,"icon_link":null,"link":"http://geocommons.com/overlays/125193.json","extent":[-123.279,26.3787,-71.1024,47.9335],"geometry_types":["point"],"unique_name":null,"name":"2010 Women's Studies Masters Programs","feature_count":23,"description":"","next_feature":null,"is_raster":false,"short_classification":"Y","stats":{},"features":[{"properties":{"city":"Greensboro","zip":"27402","geo_score":1.0,"insttype":"program","institutionname":"University of North Carolina, Greensboro","id":"a6ap3nw3pyrc","geo_precision":"zip","state":"NC"},"type":"Feature","geometry":{"type":"Point","coordinates":[-79.791901,36.106711]}},{"properties":{"city":"Grand Forks","zip":"58202-7113","geo_score":1.0,"insttype":"program","institutionname":"University of North Dakota","id":"a6ap3nw4vrxc","geo_precision":"zip","state":"ND"},"type":"Feature","geometry":{"type":"Point","coordinates":[-97.394446,47.933481]}},{"properties":{"city":"Waltham","zip":"02454-9110","geo_score":1.0,"insttype":"program","institutionname":"Brandeis University","id":"a6ap3nvvnvtk","geo_precision":"zip","state":"MA"},"type":"Feature","geometry":{"type":"Point","coordinates":[-71.250479,42.356719]}},{"properties":{"city":"Corvallis","zip":"97331","geo_score":1.0,"insttype":"program","institutionname":"Oregon State University","id":"a6ap3nxxicph","geo_precision":"zip","state":"OR"},"type":"Feature","geometry":{"type":"Point","coordinates":[-123.278957,44.565613]}},{"properties":{"city":"Louisville","zip":"40292","geo_score":1.0,"insttype":"program","institutionname":"University of Louisville","id":"a6ap3o0isahq","geo_precision":"zip","state":"KY"},"type":"Feature","geometry":{"type":"Point","coordinates":[-85.676819,38.188962]}},{"properties":{"city":"Boca Raton","zip":"33431","geo_score":1.0,"insttype":"program","institutionname":"Florida Atlantic University","id":"a6ap3nrf7uim","geo_precision":"zip","state":"FL"},"type":"Feature","geometry":{"type":"Point","coordinates":[-80.104343,26.378704]}},{"properties":{"city":"New Haven","zip":"06515","geo_score":0.873,"insttype":"program","institutionname":"Southern Connecticut State University","id":"a6ap3o192316","geo_precision":"zip","state":"CT"},"type":"Feature","geometry":{"type":"Point","coordinates":[-72.97177,41.330653]}},{"properties":{"city":"Atlanta","zip":"30303","geo_score":1.0,"insttype":"program","institutionname":"Georgia State University","id":"a6ap3nq0c4s1","geo_precision":"zip","state":"GA"},"type":"Feature","geometry":{"type":"Point","coordinates":[-84.392026,33.752456]}},{"properties":{"city":"Cincinnati","zip":"45221-0164","geo_score":1.0,"insttype":"program","institutionname":"University of Cincinnati","id":"a6ap3nx1ra89","geo_precision":"zip","state":"OH"},"type":"Feature","geometry":{"type":"Point","coordinates":[-84.53822,39.166759]}},{"properties":{"city":"Gainesville","zip":"32611-7352","geo_score":1.0,"insttype":"program","institutionname":"University of Florida Center for Women's Studies and Gender Reseach","id":"a6ap3nu51ua1","geo_precision":"zip","state":"FL"},"type":"Feature","geometry":{"type":"Point","coordinates":[-82.353862,29.681312]}},{"properties":{"city":"Chicago","zip":"60660","geo_score":1.0,"insttype":"program","institutionname":"Loyola University of Chicago","id":"a6ap3nyygy2m","geo_precision":"zip","state":"IL"},"type":"Feature","geometry":{"type":"Point","coordinates":[-87.68732,41.811929]}},{"properties":{"city":"Chicago","zip":"60614-3504","geo_score":1.0,"insttype":"program","institutionname":"DePaul University","id":"a6ap3nzs3p90","geo_precision":"zip","state":"IL"},"type":"Feature","geometry":{"type":"Point","coordinates":[-87.68732,41.811929]}},{"properties":{"city":"Columbia","zip":"29208","geo_score":1.0,"insttype":"program","institutionname":"University of South Carolina","id":"a6ap3o3vwcmg","geo_precision":"zip","state":"SC"},"type":"Feature","geometry":{"type":"Point","coordinates":[-81.019913,33.993705]}},{"properties":{"city":"San Diego","zip":"92182-6030","geo_score":1.0,"insttype":"program","institutionname":"San Diego State University","id":"a6ap3nvbrf1r","geo_precision":"zip","state":"CA"},"type":"Feature","geometry":{"type":"Point","coordinates":[-117.076176,32.775088]}},{"properties":{"city":"Claremont","zip":"91711-3955","geo_score":1.0,"insttype":"program","institutionname":"Claremont Graduate University","id":"a6ap3o3jxyu5","geo_precision":"zip","state":"CA"},"type":"Feature","geometry":{"type":"Point","coordinates":[-118.298662,33.786594]}},{"properties":{"city":"Mankato","zip":"56001","geo_score":0.857,"insttype":"program","institutionname":"Minnesota State University, Mankato","id":"a6ap3o2he3fn","geo_precision":"zip","state":"MN"},"type":"Feature","geometry":{"type":"Point","coordinates":[-94.030789,44.142188]}},{"properties":{"city":"Towson","zip":"21252","geo_score":0.873,"insttype":"program","institutionname":"Towson University","id":"a6ap3nxqstrb","geo_precision":"zip","state":"MD"},"type":"Feature","geometry":{"type":"Point","coordinates":[-76.613325,39.388799]}},{"properties":{"city":"Denton","zip":"76204","geo_score":1.0,"insttype":"program","institutionname":"Texas Women's University","id":"a6ap3nsz81xb","geo_precision":"zip","state":"TX"},"type":"Feature","geometry":{"type":"Point","coordinates":[-97.116282,33.20743]}},{"properties":{"city":"Washington","zip":"20052","geo_score":1.0,"insttype":"program","institutionname":"George Washington University","id":"a6ap3nswlpzp","geo_precision":"zip","state":"DC"},"type":"Feature","geometry":{"type":"Point","coordinates":[-77.047899,38.90014]}},{"properties":{"city":"Albany","zip":"12222","geo_score":1.0,"insttype":"program","institutionname":"University at Albany, SUNY","id":"a6ap3o3sauxt","geo_precision":"zip","state":"NY"},"type":"Feature","geometry":{"type":"Point","coordinates":[-73.838035,42.692909]}},{"properties":{"city":"Tampa","zip":"33620-8350","geo_score":0.857,"insttype":"program","institutionname":"University of South Florida","id":"a6ap3o17azdt","geo_precision":"zip","state":"FL"},"type":"Feature","geometry":{"type":"Point","coordinates":[-82.436093,28.069196]}},{"properties":{"city":"Boston","zip":"02108","geo_score":1.0,"insttype":"program","institutionname":"Suffolk University","id":"a6ap3nwb9j2v","geo_precision":"zip","state":"MA"},"type":"Feature","geometry":{"type":"Point","coordinates":[-71.102446,42.353806]}},{"properties":{"city":"Madison","zip":"53706","geo_score":1.0,"insttype":"program","institutionname":"University Of Wisconsin-Madison; Dept. of Gender &amp; Women's Studies","id":"a6ap3o03yhow","geo_precision":"zip","state":"WI"},"type":"Feature","geometry":{"type":"Point","coordinates":[-89.413326,43.077755]}}],"is_temporal":false,"author":{"url":null,"metadata":null,"contact_name":null,"contact_address":null,"source":null,"contact_phone":null},"source":null,"pagination":{"sort":null,"start":0,"total":23,"limit":1000000},"state":"complete","tags":"","published":"2014-08-13T05:42:40-04:00","id":125193}