{"type":"FeatureCollection","data_type":"Dataset","url_type":null,"permissions":[{"permissions":{"download":true,"view":true},"group_id":"everyone"}],"classification":null,"title":"2010Small Undergrad Programs","count":146,"stream_id":125189,"contributor":{"url":"http://geocommons.com/users/27067","name":"nwsaweb"},"data_attributes":null,"calculation_params":null,"icon_link":null,"link":"http://geocommons.com/overlays/125189.json","extent":[-147.827,25.7743,-70.4298,64.8591],"geometry_types":["point"],"unique_name":null,"name":"2010Small Undergrad Programs","feature_count":146,"description":"Women's Studies Institutions\r\nbudget under $5,000","next_feature":null,"is_raster":false,"short_classification":"Y","stats":{},"features":[{"properties":{"city":"Jersey City","zip":"07305","insttype":"program","institutionname":"New Jersey City University","id":"a6ap32nsw9hl","state":"NJ"},"type":"Feature","geometry":{"type":"Point","coordinates":[-74.094309,40.70038]}},{"properties":{"city":"Sarasota","zip":"34243-2109","insttype":"program","institutionname":"New College of Florida","id":"a6ap32ncz8fb","state":"FL"},"type":"Feature","geometry":{"type":"Point","coordinates":[-82.523909,27.402542]}},{"properties":{"city":"Casper","zip":"82601","insttype":"program","institutionname":"Casper College","id":"a6ap32o6tyj6","state":"WY"},"type":"Feature","geometry":{"type":"Point","coordinates":[-106.342805,42.898577]}},{"properties":{"city":"Chattanooga","zip":"37403","insttype":"program","institutionname":"University of Tennessee at Chattanooga","id":"a6ap32ntbwtc","state":"TN"},"type":"Feature","geometry":{"type":"Point","coordinates":[-85.292207,35.047273]}},{"properties":{"city":"Augusta","zip":"30904-4562","insttype":"program","institutionname":"Augusta State University","id":"a6ap32kurs2q","state":"GA"},"type":"Feature","geometry":{"type":"Point","coordinates":[-82.016783,33.513191]}},{"properties":{"city":"San Luis Obispo","zip":"93407-0875","insttype":"program","institutionname":"California Polytechnic State University","id":"a6ap32wpnqv6","state":"CA"},"type":"Feature","geometry":{"type":"Point","coordinates":[-120.455345,35.347065]}},{"properties":{"city":"North Andover","zip":"01864","insttype":"program","institutionname":"Merrimack College","id":"a6ap32kcw3fp","state":"MA"},"type":"Feature","geometry":{"type":"Point","coordinates":[-71.083725,42.581332]}},{"properties":{"city":"Notre Dame","zip":"46556","insttype":"program","institutionname":"University of Notre Dame","id":"a6ap32uee07s","state":"IN"},"type":"Feature","geometry":{"type":"Point","coordinates":[-86.292991,41.596769]}},{"properties":{"city":"Kansas City","zip":"64110","insttype":"program","institutionname":"University of Missouri - Kansas City","id":"a6ap32p3fb0i","state":"MO"},"type":"Feature","geometry":{"type":"Point","coordinates":[-94.573333,39.032255]}},{"properties":{"city":"Greenville","zip":"27858","insttype":"program","institutionname":"East Carolina University","id":"a6ap32ww6lve","state":"NC"},"type":"Feature","geometry":{"type":"Point","coordinates":[-77.402789,35.616949]}},{"properties":{"city":"Denver","zip":"80208-0943","insttype":"program","institutionname":"University of Denver","id":"a6ap32ou0ymw","state":"CO"},"type":"Feature","geometry":{"type":"Point","coordinates":[-104.408349,39.738752]}},{"properties":{"city":"Burlington","zip":"05405","insttype":"program","institutionname":"University of Vermont","id":"a6ap32v2kr3r","state":"VT"},"type":"Feature","geometry":{"type":"Point","coordinates":[-73.082525,44.442117]}},{"properties":{"city":"Tuscaloosa","zip":"35487-0272","insttype":"program","institutionname":"University of Alabama, Tuscaloosa","id":"a6ap32omzm9q","state":"AL"},"type":"Feature","geometry":{"type":"Point","coordinates":[-87.585902,33.307222]}},{"properties":{"city":"Kearney","zip":"68849-0001","insttype":"program","institutionname":"University of Nebraska, Kearney","id":"a6ap32o858a9","state":"NE"},"type":"Feature","geometry":{"type":"Point","coordinates":[-99.074058,40.849654]}},{"properties":{"city":"Beloit","zip":"53511-5595","insttype":"program","institutionname":"Beloit College","id":"a6ap32lur7ha","state":"WI"},"type":"Feature","geometry":{"type":"Point","coordinates":[-89.227614,42.542234]}},{"properties":{"city":"Indianola","zip":"50125","insttype":"program","institutionname":"Simpson College","id":"a6ap32w1lp4o","state":"IA"},"type":"Feature","geometry":{"type":"Point","coordinates":[-93.544937,41.43138]}},{"properties":{"city":"Norton","zip":"02766","insttype":"program","institutionname":"Wheaton College","id":"a6ap32p6u9sw","state":"MA"},"type":"Feature","geometry":{"type":"Point","coordinates":[-71.130048,41.976489]}},{"properties":{"city":"Frostburg","zip":"21532","insttype":"program","institutionname":"Frostburg State University","id":"a6ap32njry6w","state":"MD"},"type":"Feature","geometry":{"type":"Point","coordinates":[-78.929191,39.639532]}},{"properties":{"city":"Carlisle","zip":"17013","insttype":"program","institutionname":"Dickinson College","id":"a6ap32ts70ld","state":"PA"},"type":"Feature","geometry":{"type":"Point","coordinates":[-77.313317,40.203143]}},{"properties":{"city":"Tacoma","zip":"98447-0003","insttype":"program","institutionname":"Pacific Lutheran University","id":"a6ap32ya2r6p","state":"WA"},"type":"Feature","geometry":{"type":"Point","coordinates":[-122.113223,47.066193]}},{"properties":{"city":"Swarthmore","zip":"19081-1397","insttype":"program","institutionname":"Swarthmore College","id":"a6ap32taww9t","state":"PA"},"type":"Feature","geometry":{"type":"Point","coordinates":[-75.344083,39.897162]}},{"properties":{"city":"Medford","zip":"02155","insttype":"program","institutionname":"Tufts University","id":"a6ap32qyyx2c","state":"MA"},"type":"Feature","geometry":{"type":"Point","coordinates":[-71.08283,42.411208]}},{"properties":{"city":"Macon","zip":"31207","insttype":"program","institutionname":"Mercer University","id":"a6ap32mxxq71","state":"GA"},"type":"Feature","geometry":{"type":"Point","coordinates":[-83.648552,32.830389]}},{"properties":{"city":"Murfreesboro","zip":"37127","insttype":"program","institutionname":"Middle Tennessee State University","id":"a6ap32lyp3xi","state":"TN"},"type":"Feature","geometry":{"type":"Point","coordinates":[-86.372158,35.762951]}},{"properties":{"city":"Wooster","zip":"44691","insttype":"program","institutionname":"College of Wooster","id":"a6ap32suy53b","state":"OH"},"type":"Feature","geometry":{"type":"Point","coordinates":[-81.959867,40.781446]}},{"properties":{"city":"Fredonia","zip":"14063","insttype":"program","institutionname":"SUNY - Fredonia","id":"a6ap32ocmqbv","state":"NY"},"type":"Feature","geometry":{"type":"Point","coordinates":[-79.298655,42.386725]}},{"properties":{"city":"Stillwater","zip":"74078-4069","insttype":"program","institutionname":"Oklahoma State University","id":"a6ap32z5kgy4","state":"OK"},"type":"Feature","geometry":{"type":"Point","coordinates":[-96.987458,36.093665]}},{"properties":{"city":"Ames","zip":"50011-2060","insttype":"program","institutionname":"Iowa State University","id":"a6ap32vqfjfb","state":"IA"},"type":"Feature","geometry":{"type":"Point","coordinates":[-93.465172,42.035998]}},{"properties":{"city":"Harrisonburg","zip":"22807","insttype":"program","institutionname":"James Madison University","id":"a6ap32o400wy","state":"VA"},"type":"Feature","geometry":{"type":"Point","coordinates":[-78.874173,38.440898]}},{"properties":{"city":"Clarksville","zip":"37044","insttype":"program","institutionname":"Austin Peay State University","id":"a6ap32v9febx","state":"TN"},"type":"Feature","geometry":{"type":"Point","coordinates":[-87.353008,36.531398]}},{"properties":{"city":"White Bear Lake","zip":"55110","insttype":"program","institutionname":"Century College","id":"a6ap32o7zitl","state":"MN"},"type":"Feature","geometry":{"type":"Point","coordinates":[-92.989106,45.099689]}},{"properties":{"city":"St. Paul","zip":"55106-5000","insttype":"program","institutionname":"Metropolitan State University","id":"a6ap32p0424y","state":"MN"},"type":"Feature","geometry":{"type":"Point","coordinates":[-93.041616,44.957065]}},{"properties":{"city":"Rock Island","zip":"61201-2296","insttype":"program","institutionname":"Augustana College","id":"a6ap32pexgep","state":"IL"},"type":"Feature","geometry":{"type":"Point","coordinates":[-90.604899,41.495083]}},{"properties":{"city":"Meadville","zip":"16335","insttype":"program","institutionname":"Allegheny College","id":"a6ap32s3kd0m","state":"PA"},"type":"Feature","geometry":{"type":"Point","coordinates":[-80.144782,41.628388]}},{"properties":{"city":"Geneseo","zip":"14454","insttype":"program","institutionname":"SUNY - Geneseo","id":"a6ap32n9jb28","state":"NY"},"type":"Feature","geometry":{"type":"Point","coordinates":[-77.717222,42.800063]}},{"properties":{"city":"Johnson City","zip":"37614","insttype":"program","institutionname":"East Tennessee State University","id":"a6ap32ztd1nl","state":"TN"},"type":"Feature","geometry":{"type":"Point","coordinates":[-82.562649,36.157086]}},{"properties":{"city":"Jacksonville","zip":"62650","insttype":"program","institutionname":"Illinois College","id":"a6ap32mnivyv","state":"IL"},"type":"Feature","geometry":{"type":"Point","coordinates":[-90.228176,39.708658]}},{"properties":{"city":"Jamaica","zip":"06512","insttype":"program","institutionname":"St. John's University","id":"a6ap32rd1bl8","state":"NY"},"type":"Feature","geometry":{"type":"Point","coordinates":[-72.89399,41.243986]}},{"properties":{"city":"River Falls","zip":"54022","insttype":"program","institutionname":"University of Wisconsin, River Falls","id":"a6ap32lcb7as","state":"WI"},"type":"Feature","geometry":{"type":"Point","coordinates":[-92.595365,44.802351]}},{"properties":{"city":"Santa Clara","zip":"95053-0630","insttype":"program","institutionname":"Santa Clara University","id":"a6ap32z03ncj","state":"CA"},"type":"Feature","geometry":{"type":"Point","coordinates":[-121.705327,37.189396]}},{"properties":{"city":"La Crosse","zip":"54601","insttype":"program","institutionname":"University of Wisconsin, La Crosse","id":"a6ap32v78jif","state":"WI"},"type":"Feature","geometry":{"type":"Point","coordinates":[-91.041799,43.785524]}},{"properties":{"city":"Eau Claire","zip":"54702-4004","insttype":"program","institutionname":"University of Wisconsin, Eau Claire","id":"a6ap32ugw6ga","state":"WI"},"type":"Feature","geometry":{"type":"Point","coordinates":[-91.285931,44.726626]}},{"properties":{"city":"La Grande","zip":"97850","insttype":"program","institutionname":"Eastern Oregon University","id":"a6ap32oiocj4","state":"OR"},"type":"Feature","geometry":{"type":"Point","coordinates":[-118.166611,45.348465]}},{"properties":{"city":"Grand Rapids","zip":"49506-1799","insttype":"program","institutionname":"Aquinas College","id":"a6ap32ociii8","state":"MI"},"type":"Feature","geometry":{"type":"Point","coordinates":[-85.610028,42.941139]}},{"properties":{"city":"Winona","zip":"55987","insttype":"program","institutionname":"Winona State University","id":"a6ap32y5ed75","state":"MN"},"type":"Feature","geometry":{"type":"Point","coordinates":[-91.620146,43.933297]}},{"properties":{"city":"York","zip":"17405","insttype":"program","institutionname":"York College of Pennsylvania","id":"a6ap32m519z9","state":"PA"},"type":"Feature","geometry":{"type":"Point","coordinates":[-76.82775,39.905377]}},{"properties":{"city":"Willimantic","zip":"06226","insttype":"program","institutionname":"Eastern Conn. State University","id":"a6ap32va73tx","state":"CT"},"type":"Feature","geometry":{"type":"Point","coordinates":[-72.202022,41.73871]}},{"properties":{"city":"Plattsburgh","zip":"12901","insttype":"program","institutionname":"SUNY - Plattsburgh","id":"a6ap32rzihxo","state":"NY"},"type":"Feature","geometry":{"type":"Point","coordinates":[-73.411801,44.722543]}},{"properties":{"city":"Muncie","zip":"47306","insttype":"program","institutionname":"Ball State University","id":"a6ap32xfpsd0","state":"IN"},"type":"Feature","geometry":{"type":"Point","coordinates":[-85.408221,40.202293]}},{"properties":{"city":"Minneapolis","zip":"55454","insttype":"program","institutionname":"Augsburg College","id":"a6ap32r0sqh2","state":"MN"},"type":"Feature","geometry":{"type":"Point","coordinates":[-93.252524,44.980859]}},{"properties":{"city":"Williamsport","zip":"17701-5192","insttype":"program","institutionname":"Lycoming College","id":"a6ap32vg1oai","state":"PA"},"type":"Feature","geometry":{"type":"Point","coordinates":[-77.057191,41.293688]}},{"properties":{"city":"Dallas","zip":"75275-0227","insttype":"program","institutionname":"Southern Methodist University","id":"a6ap32ooyaa4","state":"TX"},"type":"Feature","geometry":{"type":"Point","coordinates":[-96.777626,32.767268]}},{"properties":{"city":"Decatur","zip":"30030-3797","insttype":"program","institutionname":"Agnes Scott College","id":"a6ap32mfmcov","state":"GA"},"type":"Feature","geometry":{"type":"Point","coordinates":[-84.291723,33.772554]}},{"properties":{"city":"Kingston","zip":"02881-0806","insttype":"program","institutionname":"University of Rhode Island","id":"a6ap32zvrx61","state":"RI"},"type":"Feature","geometry":{"type":"Point","coordinates":[-71.524317,41.482901]}},{"properties":{"city":"San Rafael","zip":"94901","insttype":"program","institutionname":"Dominican University of California","id":"a6ap32t8j2rz","state":"CA"},"type":"Feature","geometry":{"type":"Point","coordinates":[-122.504286,37.970948]}},{"properties":{"city":"Dayton","zip":"45469-0322","insttype":"program","institutionname":"University of Dayton","id":"a6ap32vy2uba","state":"OH"},"type":"Feature","geometry":{"type":"Point","coordinates":[-84.178939,39.740509]}},{"properties":{"city":"Cedar Falls","zip":"50614-0509","insttype":"program","institutionname":"University of Northern Iowa","id":"a6ap32xnh6qs","state":"IA"},"type":"Feature","geometry":{"type":"Point","coordinates":[-92.309475,42.469768]}},{"properties":{"city":"Camden","zip":"08102","insttype":"program","institutionname":"Rutgers University, Camden","id":"a6ap32x3j2i5","state":"NJ"},"type":"Feature","geometry":{"type":"Point","coordinates":[-75.118869,39.950912]}},{"properties":{"city":"Raleigh","zip":"27695-8103","insttype":"program","institutionname":"North Carolina State University","id":"a6ap32pxx0fn","state":"NC"},"type":"Feature","geometry":{"type":"Point","coordinates":[-78.625265,35.797692]}},{"properties":{"city":"Clinton","zip":"13323","insttype":"program","institutionname":"Hamilton College","id":"a6ap32v62kyq","state":"NY"},"type":"Feature","geometry":{"type":"Point","coordinates":[-75.431562,43.079792]}},{"properties":{"city":"River Forest","zip":"60305","insttype":"program","institutionname":"Concordia University Chicago","id":"a6ap32r45lqt","state":"IL"},"type":"Feature","geometry":{"type":"Point","coordinates":[-87.68732,41.811929]}},{"properties":{"city":"Biddeford","zip":"04005","insttype":"program","institutionname":"University of New England","id":"a6ap32peu74y","state":"ME"},"type":"Feature","geometry":{"type":"Point","coordinates":[-70.429773,43.435641]}},{"properties":{"city":"Oxford","zip":"45056-1825","insttype":"program","institutionname":"Miami University","id":"a6ap32z9nxfg","state":"OH"},"type":"Feature","geometry":{"type":"Point","coordinates":[-84.8494,39.471719]}},{"properties":{"city":"Madison","zip":"53711","insttype":"program","institutionname":"Edgewood College","id":"a6ap32lvvesd","state":"WI"},"type":"Feature","geometry":{"type":"Point","coordinates":[-89.417973,43.021252]}},{"properties":{"city":"Berea","zip":"40404","insttype":"program","institutionname":"Berea College","id":"a6ap32mxxoaj","state":"KY"},"type":"Feature","geometry":{"type":"Point","coordinates":[-84.299699,37.716443]}},{"properties":{"city":"Seattle","zip":"98122","insttype":"program","institutionname":"Seattle University","id":"a6ap32peds65","state":"WA"},"type":"Feature","geometry":{"type":"Point","coordinates":[-121.803388,47.432251]}},{"properties":{"city":"Stony Brook","zip":"11794-3456","insttype":"program","institutionname":"SUNY - Stony Brook","id":"a6ap32nt1ctr","state":"NY"},"type":"Feature","geometry":{"type":"Point","coordinates":[-72.637078,40.922326]}},{"properties":{"city":"Kenosha","zip":"53140","insttype":"program","institutionname":"Carthage College","id":"a6ap32x9kcrj","state":"WI"},"type":"Feature","geometry":{"type":"Point","coordinates":[-87.901188,42.566687]}},{"properties":{"city":"Lawrenceville","zip":"08648-3099","insttype":"program","institutionname":"Rider University","id":"a6ap32m6mnja","state":"NJ"},"type":"Feature","geometry":{"type":"Point","coordinates":[-74.734605,40.253164]}},{"properties":{"city":"Morristown","zip":"07960","insttype":"program","institutionname":"College of Saint Elizabeth","id":"a6ap32po4xko","state":"NJ"},"type":"Feature","geometry":{"type":"Point","coordinates":[-74.527101,40.805656]}},{"properties":{"city":"Washington","zip":"15301","insttype":"program","institutionname":"Washington &amp; Jefferson College","id":"a6ap32snb3ox","state":"PA"},"type":"Feature","geometry":{"type":"Point","coordinates":[-80.287839,40.192849]}},{"properties":{"city":"Hamden","zip":"06518","insttype":"program","institutionname":"Quinnipiac University","id":"a6ap32w66311","state":"CT"},"type":"Feature","geometry":{"type":"Point","coordinates":[-72.90538,41.424264]}},{"properties":{"city":"New Orleans","zip":"70125","insttype":"program","institutionname":"Xavier University of Louisiana","id":"a6ap32qa3o4j","state":"LA"},"type":"Feature","geometry":{"type":"Point","coordinates":[-90.102965,29.952659]}},{"properties":{"city":"Middletown","zip":"06459","insttype":"program","institutionname":"Wesleyan University","id":"a6ap32mrdq8r","state":"CT"},"type":"Feature","geometry":{"type":"Point","coordinates":[-72.658179,41.556463]}},{"properties":{"city":"Fort Wayne","zip":"46805","insttype":"program","institutionname":"Indiana University/Purdue University","id":"a6ap32utz341","state":"IN"},"type":"Feature","geometry":{"type":"Point","coordinates":[-85.134971,41.123104]}},{"properties":{"city":"St. Louis","zip":"63122","insttype":"program","institutionname":"St. Louis Community College - Meramec","id":"a6ap32vycdmy","state":"MO"},"type":"Feature","geometry":{"type":"Point","coordinates":[-90.411785,38.56672]}},{"properties":{"city":"Newtown","zip":"18940","insttype":"program","institutionname":"Bucks County Community College","id":"a6ap32wuo2o2","state":"PA"},"type":"Feature","geometry":{"type":"Point","coordinates":[-74.958779,40.201498]}},{"properties":{"city":"Pittsburgh","zip":"15213-3109","insttype":"program","institutionname":"Carlow University","id":"a6ap32kb3gh8","state":"PA"},"type":"Feature","geometry":{"type":"Point","coordinates":[-79.962552,40.442014]}},{"properties":{"city":"Warrensburg","zip":"64093","insttype":"program","institutionname":"University of Central Missouri","id":"a6ap32vsbr6s","state":"MO"},"type":"Feature","geometry":{"type":"Point","coordinates":[-93.756329,38.881122]}},{"properties":{"city":"University Center","zip":"48710","insttype":"program","institutionname":"Saginaw Valley State University","id":"a6ap32k45hx2","state":"MI"},"type":"Feature","geometry":{"type":"Point","coordinates":[-83.994328,43.556574]}},{"properties":{"city":"Oakland","zip":"94613","insttype":"program","institutionname":"Mills College","id":"a6ap32w8u000","state":"CA"},"type":"Feature","geometry":{"type":"Point","coordinates":[-122.186573,37.781098]}},{"properties":{"city":"Elon","zip":"27244","insttype":"program","institutionname":"Elon University","id":"a6ap32kwy4q0","state":"NC"},"type":"Feature","geometry":{"type":"Point","coordinates":[-79.420023,36.258747]}},{"properties":{"city":"Fairbanks","zip":"99775-6440","insttype":"program","institutionname":"University of Alaska, Fairbanks","id":"a6ap32wcd7kt","state":"AK"},"type":"Feature","geometry":{"type":"Point","coordinates":[-147.826709,64.859078]}},{"properties":{"city":"Lincoln","zip":"68504","insttype":"program","institutionname":"Nebraska Wesleyan University","id":"a6ap32l35j8r","state":"NE"},"type":"Feature","geometry":{"type":"Point","coordinates":[-96.655292,40.840834]}},{"properties":{"city":"Duluth","zip":"55812","insttype":"program","institutionname":"University of Minnesota Duluth","id":"a6ap32qwgavl","state":"MN"},"type":"Feature","geometry":{"type":"Point","coordinates":[-92.072288,46.810788]}},{"properties":{"city":"Roanoke","zip":"24020","insttype":"program","institutionname":"Hollins University","id":"a6ap32lncnzw","state":"VA"},"type":"Feature","geometry":{"type":"Point","coordinates":[-79.944789,37.358887]}},{"properties":{"city":"Oshkosh","zip":"54901","insttype":"program","institutionname":"University of Wisconsin, Oshkosh","id":"a6ap32pzne9d","state":"WI"},"type":"Feature","geometry":{"type":"Point","coordinates":[-88.640389,43.909151]}},{"properties":{"city":"Pueblo","zip":"81001","insttype":"program","institutionname":"Colorado State University-Pueblo","id":"a6ap32rinwcx","state":"CO"},"type":"Feature","geometry":{"type":"Point","coordinates":[-104.45747,38.275002]}},{"properties":{"city":"New York","zip":"10065","insttype":"program","institutionname":"Hunter College","id":"a6ap32yiv27z","state":"NY"},"type":"Feature","geometry":{"type":"Point","coordinates":[-74.005973,40.714269]}},{"properties":{"city":"Cheney","zip":"99004","insttype":"program","institutionname":"Eastern Washington University","id":"a6ap32lut7s0","state":"WA"},"type":"Feature","geometry":{"type":"Point","coordinates":[-117.78355,47.435996]}},{"properties":{"city":"Huntsville","zip":"35899","insttype":"program","institutionname":"University of Alabama, Huntsville","id":"a6ap32qes5t5","state":"AL"},"type":"Feature","geometry":{"type":"Point","coordinates":[-86.645592,34.733898]}},{"properties":{"city":"Bemidji","zip":"56601","insttype":"program","institutionname":"Bemidji State University","id":"a6ap32s1av0h","state":"MN"},"type":"Feature","geometry":{"type":"Point","coordinates":[-94.751653,47.587453]}},{"properties":{"city":"Richardson","zip":"75080","insttype":"program","institutionname":"University of Texas, Dallas","id":"a6ap32sczl1x","state":"TX"},"type":"Feature","geometry":{"type":"Point","coordinates":[-96.724998,32.936513]}},{"properties":{"city":"Iowa City","zip":"52242","insttype":"program","institutionname":"University of Iowa","id":"a6ap32p8qfc5","state":"IA"},"type":"Feature","geometry":{"type":"Point","coordinates":[-91.555328,41.733924]}},{"properties":{"city":"St. Paul","zip":"55104","insttype":"program","institutionname":"Hamline University","id":"a6ap32ne3s6p","state":"MN"},"type":"Feature","geometry":{"type":"Point","coordinates":[-93.16702,44.955615]}},{"properties":{"city":"Moorhead","zip":"56563","insttype":"program","institutionname":"Minnesota State University, Moorhead","id":"a6ap32x1efve","state":"MN"},"type":"Feature","geometry":{"type":"Point","coordinates":[-96.506156,46.890034]}},{"properties":{"city":"Rock Hill","zip":"29733","insttype":"program","institutionname":"Winthrop University","id":"a6ap32r72q35","state":"SC"},"type":"Feature","geometry":{"type":"Point","coordinates":[-81.178712,34.992612]}},{"properties":{"city":"West Hartford","zip":"06117","insttype":"program","institutionname":"Saint Joseph College","id":"a6ap32qqjvzn","state":"CT"},"type":"Feature","geometry":{"type":"Point","coordinates":[-72.685093,41.763711]}},{"properties":{"city":"Asheville","zip":"28804","insttype":"program","institutionname":"UNC Asheville","id":"a6ap32nm0jtk","state":"NC"},"type":"Feature","geometry":{"type":"Point","coordinates":[-82.582073,35.633444]}},{"properties":{"city":"Ellensburg","zip":"98926-7519","insttype":"program","institutionname":"Central Washington University","id":"a6ap32kl5ih3","state":"WA"},"type":"Feature","geometry":{"type":"Point","coordinates":[-120.51118,46.930404]}},{"properties":{"city":"Pensacola","zip":"32514","insttype":"program","institutionname":"University of West Florida","id":"a6ap32tvs83j","state":"FL"},"type":"Feature","geometry":{"type":"Point","coordinates":[-87.212471,30.510196]}},{"properties":{"city":"Brockport","zip":"14420-2959","insttype":"program","institutionname":"SUNY - Brockport","id":"a6ap32jl1eyb","state":"NY"},"type":"Feature","geometry":{"type":"Point","coordinates":[-77.945013,43.178394]}},{"properties":{"city":"Fargo","zip":"58105","insttype":"program","institutionname":"North Dakota State University","id":"a6ap32x5661y","state":"ND"},"type":"Feature","geometry":{"type":"Point","coordinates":[-96.967371,46.9414]}},{"properties":{"city":"Redlands","zip":"92373","insttype":"program","institutionname":"University of Redlands","id":"a6ap32obee9u","state":"CA"},"type":"Feature","geometry":{"type":"Point","coordinates":[-117.158648,34.033903]}},{"properties":{"city":"New Britain","zip":"06050-4010","insttype":"program","institutionname":"Central Connecticut State University","id":"a6ap32n3un6i","state":"CT"},"type":"Feature","geometry":{"type":"Point","coordinates":[-72.778391,41.666049]}},{"properties":{"city":"Scranton","zip":"18510","insttype":"program","institutionname":"University of Scranton","id":"a6ap32nmim68","state":"PA"},"type":"Feature","geometry":{"type":"Point","coordinates":[-75.652869,41.396665]}},{"properties":{"city":"Springfield","zip":"45501-0720","insttype":"program","institutionname":"Wittenberg University","id":"a6ap32unm3va","state":"OH"},"type":"Feature","geometry":{"type":"Point","coordinates":[-83.876597,39.912004]}},{"properties":{"city":"Milledgeville","zip":"31061","insttype":"program","institutionname":"Georgia College &amp; State University","id":"a6ap32sto4r2","state":"GA"},"type":"Feature","geometry":{"type":"Point","coordinates":[-83.234599,33.024866]}},{"properties":{"city":"Westerville","zip":"43081","insttype":"program","institutionname":"Otterbein College","id":"a6ap32xm8zqw","state":"OH"},"type":"Feature","geometry":{"type":"Point","coordinates":[-82.916569,40.088675]}},{"properties":{"city":"Brookings","zip":"57007-0001","insttype":"program","institutionname":"South Dakota State University","id":"a6ap32rba9ij","state":"SD"},"type":"Feature","geometry":{"type":"Point","coordinates":[-96.785332,44.34469]}},{"properties":{"city":"Denver","zip":"80217","insttype":"program","institutionname":"University of Colorado Denver","id":"a6ap32m7e8lq","state":"CO"},"type":"Feature","geometry":{"type":"Point","coordinates":[-104.408349,39.738752]}},{"properties":{"city":"Ogden","zip":"84408-1217","insttype":"program","institutionname":"Weber State University","id":"a6ap32udhwnn","state":"UT"},"type":"Feature","geometry":{"type":"Point","coordinates":[-111.948474,41.195593]}},{"properties":{"city":"Notre Dame","zip":"46556-5001","insttype":"program","institutionname":"Saint Mary's College","id":"a6ap32lgemeq","state":"IN"},"type":"Feature","geometry":{"type":"Point","coordinates":[-86.292991,41.596769]}},{"properties":{"city":"Durham","zip":"03824","insttype":"program","institutionname":"Universtiy of new Hampshire Durham","id":"a6ap32m482gp","state":"NH"},"type":"Feature","geometry":{"type":"Point","coordinates":[-71.01145,43.12314]}},{"properties":{"city":"Ashland","zip":"97520-5086","insttype":"program","institutionname":"Southern Oregon University","id":"a6ap32xmxsuz","state":"OR"},"type":"Feature","geometry":{"type":"Point","coordinates":[-122.384188,42.112083]}},{"properties":{"city":"Milton","zip":"02186","insttype":"program","institutionname":"Curry College","id":"a6ap32pmt0w4","state":"MA"},"type":"Feature","geometry":{"type":"Point","coordinates":[-71.080051,42.254266]}},{"properties":{"city":"Cleveland","zip":"44115","insttype":"program","institutionname":"Cleveland State University","id":"a6ap32xyxkw1","state":"OH"},"type":"Feature","geometry":{"type":"Point","coordinates":[-81.675602,41.490351]}},{"properties":{"city":"De Pere","zip":"54115","insttype":"program","institutionname":"Saint Norbert College","id":"a6ap32t2tj57","state":"WI"},"type":"Feature","geometry":{"type":"Point","coordinates":[-87.947598,44.356937]}},{"properties":{"city":"North Dartmouth","zip":"02747-2300","insttype":"program","institutionname":"University of Massachusetts, Dartmouth","id":"a6ap32yv2sqx","state":"MA"},"type":"Feature","geometry":{"type":"Point","coordinates":[-71.009207,41.640381]}},{"properties":{"city":"Allentown","zip":"18104-5586","insttype":"program","institutionname":"Muhlenberg College","id":"a6ap32nec0dc","state":"PA"},"type":"Feature","geometry":{"type":"Point","coordinates":[-75.522684,40.61343]}},{"properties":{"city":"Oswego","zip":"13126","insttype":"program","institutionname":"SUNY Oswego","id":"a6ap32s4sqt8","state":"NY"},"type":"Feature","geometry":{"type":"Point","coordinates":[-76.577446,43.412568]}},{"properties":{"city":"Rockville","zip":"20850","insttype":"program","institutionname":"Montgomery College","id":"a6ap32jkpl6b","state":"MD"},"type":"Feature","geometry":{"type":"Point","coordinates":[-77.204425,39.080664]}},{"properties":{"city":"Dayton","zip":"45435-0001","insttype":"program","institutionname":"Wright State University","id":"a6ap32rgan4b","state":"OH"},"type":"Feature","geometry":{"type":"Point","coordinates":[-84.268593,39.750471]}},{"properties":{"city":"Lexington","zip":"40508","insttype":"program","institutionname":"Transylvania University","id":"a6ap32ok4uge","state":"KY"},"type":"Feature","geometry":{"type":"Point","coordinates":[-84.498954,38.051285]}},{"properties":{"city":"Valdosta","zip":"31698","insttype":"program","institutionname":"Valdosta State University","id":"a6ap32s4xcm4","state":"GA"},"type":"Feature","geometry":{"type":"Point","coordinates":[-83.287753,30.84848]}},{"properties":{"city":"Chester","zip":"19050","insttype":"program","institutionname":"Widener University","id":"a6ap32jksegs","state":"PA"},"type":"Feature","geometry":{"type":"Point","coordinates":[-75.25296,39.938446]}},{"properties":{"city":"Greensboro","zip":"27410","insttype":"program","institutionname":"Guilford College","id":"a6ap32mrrc1k","state":"NC"},"type":"Feature","geometry":{"type":"Point","coordinates":[-79.887257,36.091803]}},{"properties":{"city":"Walla Walla","zip":"99362","insttype":"program","institutionname":"Whitman College","id":"a6ap32oz3u5d","state":"WA"},"type":"Feature","geometry":{"type":"Point","coordinates":[-118.30403,46.051838]}},{"properties":{"city":"Hammond","zip":"46323","insttype":"program","institutionname":"Purdue University, Calumet","id":"a6ap32quca32","state":"IN"},"type":"Feature","geometry":{"type":"Point","coordinates":[-87.461707,41.595591]}},{"properties":{"city":"Clarion","zip":"16214","insttype":"program","institutionname":"Clarion University of PA","id":"a6ap32why9i9","state":"PA"},"type":"Feature","geometry":{"type":"Point","coordinates":[-79.395322,41.179508]}},{"properties":{"city":"Goshen","zip":"46526","insttype":"program","institutionname":"Goshen College","id":"a6ap32unmspu","state":"IN"},"type":"Feature","geometry":{"type":"Point","coordinates":[-85.830549,41.543105]}},{"properties":{"city":"Statesboro","zip":"30460","insttype":"program","institutionname":"Georgia Southern University","id":"a6ap32k1mr0w","state":"GA"},"type":"Feature","geometry":{"type":"Point","coordinates":[-81.78233,32.41795]}},{"properties":{"city":"Greencastle","zip":"46135","insttype":"program","institutionname":"DePauw University","id":"a6ap32lk04m6","state":"IN"},"type":"Feature","geometry":{"type":"Point","coordinates":[-87.009178,39.7781]}},{"properties":{"city":"Boston","zip":"02115-5898","insttype":"program","institutionname":"Simmons College","id":"a6ap32k5tfgr","state":"MA"},"type":"Feature","geometry":{"type":"Point","coordinates":[-71.096848,42.342043]}},{"properties":{"city":"Detroit","zip":"48202","insttype":"program","institutionname":"Wayne State University","id":"a6ap32npm743","state":"MI"},"type":"Feature","geometry":{"type":"Point","coordinates":[-83.150823,42.239933]}},{"properties":{"city":"Highland Heights","zip":"41076","insttype":"program","institutionname":"Northern Kentucky University","id":"a6ap32su0ow3","state":"KY"},"type":"Feature","geometry":{"type":"Point","coordinates":[-84.451885,39.033117]}},{"properties":{"city":"Durango","zip":"81301","insttype":"program","institutionname":"Fort Lewis College","id":"a6ap32jp0m1c","state":"CO"},"type":"Feature","geometry":{"type":"Point","coordinates":[-107.846455,37.390279]}},{"properties":{"city":"Castleton","zip":"05735","insttype":"program","institutionname":"Castleton State College","id":"a6ap32ws4z85","state":"VT"},"type":"Feature","geometry":{"type":"Point","coordinates":[-73.138166,43.693121]}},{"properties":{"city":"Grinnell","zip":"50112","insttype":"program","institutionname":"Grinnell College","id":"a6ap32zggwk1","state":"IA"},"type":"Feature","geometry":{"type":"Point","coordinates":[-92.82047,41.717215]}},{"properties":{"city":"Selinsgrove","zip":"17870","insttype":"program","institutionname":"Susquehanna University","id":"a6ap32juqic7","state":"PA"},"type":"Feature","geometry":{"type":"Point","coordinates":[-76.900531,40.743418]}},{"properties":{"city":"Rochester","zip":"14618","insttype":"program","institutionname":"St. John Fisher College","id":"a6ap32vl4c37","state":"NY"},"type":"Feature","geometry":{"type":"Point","coordinates":[-77.565555,43.127007]}},{"properties":{"city":"Davidson","zip":"28036","insttype":"program","institutionname":"Davidson College","id":"a6ap32zom7cz","state":"NC"},"type":"Feature","geometry":{"type":"Point","coordinates":[-80.844594,35.283427]}},{"properties":{"city":"Miami","zip":"33199","insttype":"program","institutionname":"Florida International University","id":"a6ap32lgt0xn","state":"FL"},"type":"Feature","geometry":{"type":"Point","coordinates":[-80.193659,25.774266]}},{"properties":{"city":"Louisville","zip":"40202","insttype":"program","institutionname":"Jefferson Community and Technical College","id":"a6ap32rbb31d","state":"KY"},"type":"Feature","geometry":{"type":"Point","coordinates":[-85.753812,38.25247]}},{"properties":{"city":"West Chester","zip":"19382","insttype":"program","institutionname":"West Chester University","id":"a6ap32s7w6rn","state":"PA"},"type":"Feature","geometry":{"type":"Point","coordinates":[-75.630235,39.912284]}},{"properties":{"city":"Gary","zip":"46408","insttype":"program","institutionname":"Indiana University Northwest","id":"a6ap32x4pjus","state":"IN"},"type":"Feature","geometry":{"type":"Point","coordinates":[-87.294759,41.552537]}}],"is_temporal":false,"author":{"url":"","metadata":"","contact_name":"","contact_address":"","source":"","contact_phone":""},"source":"","pagination":{"sort":null,"start":0,"total":146,"limit":1000000},"state":"complete","tags":"","published":"2014-08-13T05:42:37-04:00","id":125189}