{"type":"FeatureCollection","data_type":"Dataset","url_type":null,"permissions":[{"permissions":{"download":true,"view":true},"group_id":"everyone"}],"classification":null,"title":"Produce coords format","count":62,"stream_id":125439,"contributor":{"url":"http://geocommons.com/users/2246","name":"eliana"},"data_attributes":null,"calculation_params":null,"icon_link":null,"link":"http://geocommons.com/overlays/125439.json","extent":[-123.118,49.2079,-123.023,49.2407],"geometry_types":["point"],"unique_name":null,"name":"Produce coords format","feature_count":62,"description":"","next_feature":null,"is_raster":false,"short_classification":"Y","stats":{"latitude":{"max":49.240653,"mean":49.2250763709678,"variance":5.17063663355296e-05,"stdev":0.0071907138960975,"min":49.207914,"median":49.226135},"longitude":{"max":-123.023336,"mean":-123.074856032258,"variance":0.000632383371080892,"stdev":0.0251472338653954,"min":-123.117921,"median":-123.077793}},"features":[{"properties":{"latitude":49.229957,"type":"Produce","longitude":-123.090791,"id":"a6y1ogvcfssu","address":"6011 Fraser St"},"type":"Feature","geometry":{"type":"Point","coordinates":[-123.090791,49.229957]}},{"properties":{"latitude":49.229039,"type":"Produce","longitude":-123.090832,"id":"a6y1oh6w71x3","address":"6115 Fraser St"},"type":"Feature","geometry":{"type":"Point","coordinates":[-123.090832,49.229039]}},{"properties":{"latitude":49.22878,"type":"Produce","longitude":-123.090428,"id":"a6y1ogwqpmgi","address":"6150 Fraser St"},"type":"Feature","geometry":{"type":"Point","coordinates":[-123.090428,49.22878]}},{"properties":{"latitude":49.228645,"type":"Produce","longitude":-123.090845,"id":"a6y1oh7pnt4x","address":"6171 Fraser St"},"type":"Feature","geometry":{"type":"Point","coordinates":[-123.090845,49.228645]}},{"properties":{"latitude":49.227007,"type":"Produce","longitude":-123.090468,"id":"a6y1oh0q2j3x","address":"6350 Fraser St"},"type":"Feature","geometry":{"type":"Point","coordinates":[-123.090468,49.227007]}},{"properties":{"latitude":49.226758,"type":"Produce","longitude":-123.090883,"id":"a6y1oh2qy4qu","address":"6387 Fraser St"},"type":"Feature","geometry":{"type":"Point","coordinates":[-123.090883,49.226758]}},{"properties":{"latitude":49.226673,"type":"Produce","longitude":-123.090563,"id":"a6y1oh6ektds","address":"6398 Fraser St"},"type":"Feature","geometry":{"type":"Point","coordinates":[-123.090563,49.226673]}},{"properties":{"latitude":49.225955,"type":"Produce","longitude":-123.090567,"id":"a6y1ogyt4vzd","address":"6460 Fraser St"},"type":"Feature","geometry":{"type":"Point","coordinates":[-123.090567,49.225955]}},{"properties":{"latitude":49.225731,"type":"Produce","longitude":-123.090863,"id":"a6y1ogtiid6a","address":"6475 Fraser St"},"type":"Feature","geometry":{"type":"Point","coordinates":[-123.090863,49.225731]}},{"properties":{"latitude":49.225298,"type":"Produce","longitude":-123.090677,"id":"a6y1ogsx6zkd","address":"6520 Fraser St"},"type":"Feature","geometry":{"type":"Point","coordinates":[-123.090677,49.225298]}},{"properties":{"latitude":49.224172,"type":"Produce","longitude":-123.090527,"id":"a6y1ogua5ibl","address":"6638 Fraser St"},"type":"Feature","geometry":{"type":"Point","coordinates":[-123.090527,49.224172]}},{"properties":{"latitude":49.226339,"type":"Produce","longitude":-123.101715,"id":"a6y1oh28e4qn","address":"6439 Main St"},"type":"Feature","geometry":{"type":"Point","coordinates":[-123.101715,49.226339]}},{"properties":{"latitude":49.224418,"type":"Produce","longitude":-123.101806,"id":"a6y1ogtz7n8o","address":"6635 Main St"},"type":"Feature","geometry":{"type":"Point","coordinates":[-123.101806,49.224418]}},{"properties":{"latitude":49.224059,"type":"Produce","longitude":-123.101405,"id":"a6y1oh23cf47","address":"6680 Main St"},"type":"Feature","geometry":{"type":"Point","coordinates":[-123.101405,49.224059]}},{"properties":{"latitude":49.218564,"type":"Produce","longitude":-123.102039,"id":"a6y1oh4z9mhi","address":"7295 Main St"},"type":"Feature","geometry":{"type":"Point","coordinates":[-123.102039,49.218564]}},{"properties":{"latitude":49.218075,"type":"Produce","longitude":-123.077793,"id":"a6y1ogzgeppi","address":"1376 57th Ave"},"type":"Feature","geometry":{"type":"Point","coordinates":[-123.077793,49.218075]}},{"properties":{"latitude":49.232512,"type":"Produce","longitude":-123.065612,"id":"a6y1oh5fafzd","address":"5723 Victoria Ave"},"type":"Feature","geometry":{"type":"Point","coordinates":[-123.065612,49.232512]}},{"properties":{"latitude":49.232209,"type":"Produce","longitude":-123.065626,"id":"a6y1ogvcafrq","address":"5751 Victoria Ave"},"type":"Feature","geometry":{"type":"Point","coordinates":[-123.065626,49.232209]}},{"properties":{"latitude":49.231006,"type":"Produce","longitude":-123.065286,"id":"a6y1oh08rg98","address":"SE 43 + Victoria Ave"},"type":"Feature","geometry":{"type":"Point","coordinates":[-123.065286,49.231006]}},{"properties":{"latitude":49.230739,"type":"Produce","longitude":-123.065783,"id":"a6y1ogv3wvrv","address":"5889 Victoria Ave"},"type":"Feature","geometry":{"type":"Point","coordinates":[-123.065783,49.230739]}},{"properties":{"latitude":49.226517,"type":"Produce","longitude":-123.065894,"id":"a6y1oh0b5x2i","address":"6399 Victoria Ave"},"type":"Feature","geometry":{"type":"Point","coordinates":[-123.065894,49.226517]}},{"properties":{"latitude":49.226135,"type":"Produce","longitude":-123.065499,"id":"a6y1ogwx068l","address":"6410 Victoria Ave"},"type":"Feature","geometry":{"type":"Point","coordinates":[-123.065499,49.226135]}},{"properties":{"latitude":49.224154,"type":"Produce","longitude":-123.06581,"id":"a6y1oh1tc23q","address":"6637 Victoria Ave"},"type":"Feature","geometry":{"type":"Point","coordinates":[-123.06581,49.224154]}},{"properties":{"latitude":49.233435,"type":"Produce","longitude":-123.034891,"id":"a6y1oh74itdr","address":"SE Kingsway &amp; Harold"},"type":"Feature","geometry":{"type":"Point","coordinates":[-123.034891,49.233435]}},{"properties":{"latitude":49.233169,"type":"Produce","longitude":-123.033614,"id":"a6y1oh5xhstj","address":"NE Kingsway &amp; Wessex"},"type":"Feature","geometry":{"type":"Point","coordinates":[-123.033614,49.233169]}},{"properties":{"latitude":49.232672,"type":"Produce","longitude":-123.033518,"id":"a6y1oh6xo8dg","address":"SW Kingsway &amp; Senlac"},"type":"Feature","geometry":{"type":"Point","coordinates":[-123.033518,49.232672]}},{"properties":{"latitude":49.232119,"type":"Junk Food","longitude":-123.090414,"id":"a6y1oh0vxlgm","address":"5772 Fraser St"},"type":"Feature","geometry":{"type":"Point","coordinates":[-123.090414,49.232119]}},{"properties":{"latitude":49.229672,"type":"Junk Food","longitude":-123.090805,"id":"a6y1oh052umu","address":"6051 Fraser St"},"type":"Feature","geometry":{"type":"Point","coordinates":[-123.090805,49.229672]}},{"properties":{"latitude":49.227329,"type":"Junk Food","longitude":-123.09082,"id":"a6y1oh1z2g08","address":"6305 Fraser St"},"type":"Feature","geometry":{"type":"Point","coordinates":[-123.09082,49.227329]}},{"properties":{"latitude":49.225417,"type":"Junk Food","longitude":-123.090688,"id":"a6y1oh1409da","address":"6504 Fraser St"},"type":"Feature","geometry":{"type":"Point","coordinates":[-123.090688,49.225417]}},{"properties":{"latitude":49.210734,"type":"Junk Food","longitude":-123.090734,"id":"a6y1oh331ycb","address":"SE Fraser &amp; Marine"},"type":"Feature","geometry":{"type":"Point","coordinates":[-123.090734,49.210734]}},{"properties":{"latitude":49.210816,"type":"Junk Food","longitude":-123.091325,"id":"a6y1oh2olbiq","address":"SW Fraser &amp; Marine"},"type":"Feature","geometry":{"type":"Point","coordinates":[-123.091325,49.210816]}},{"properties":{"latitude":49.21836,"type":"Junk Food","longitude":-123.076766,"id":"a6y1oh5ekzzg","address":"NE Knight &amp; 57th"},"type":"Feature","geometry":{"type":"Point","coordinates":[-123.076766,49.21836]}},{"properties":{"latitude":49.217964,"type":"Junk Food","longitude":-123.077281,"id":"a6y1oh50jwdf","address":"SW Knight &amp; 57th"},"type":"Feature","geometry":{"type":"Point","coordinates":[-123.077281,49.217964]}},{"properties":{"latitude":49.232499,"type":"Junk Food","longitude":-123.077388,"id":"a6y1ogzjgtu2","address":"SW Knight &amp; 41st"},"type":"Feature","geometry":{"type":"Point","coordinates":[-123.077388,49.232499]}},{"properties":{"latitude":49.225479,"type":"Junk Food","longitude":-123.077667,"id":"a6y1ogucuvgf","address":"NW Knight &amp; 49th"},"type":"Feature","geometry":{"type":"Point","coordinates":[-123.077667,49.225479]}},{"properties":{"latitude":49.232675,"type":"Junk Food","longitude":-123.079577,"id":"a6y1ogss74z4","address":"1300 41st Ave"},"type":"Feature","geometry":{"type":"Point","coordinates":[-123.079577,49.232675]}},{"properties":{"latitude":49.23285,"type":"Junk Food","longitude":-123.101184,"id":"a6y1oh2y00kc","address":"SE 41st &amp; Main"},"type":"Feature","geometry":{"type":"Point","coordinates":[-123.101184,49.23285]}},{"properties":{"latitude":49.232937,"type":"Junk Food","longitude":-123.101528,"id":"a6y1ogt7z26o","address":"5721 Main"},"type":"Feature","geometry":{"type":"Point","coordinates":[-123.101528,49.232937]}},{"properties":{"latitude":49.226484,"type":"Junk Food","longitude":-123.101296,"id":"a6y1oh3mz9dh","address":"6420 Main"},"type":"Feature","geometry":{"type":"Point","coordinates":[-123.101296,49.226484]}},{"properties":{"latitude":49.210819,"type":"Junk Food","longitude":-123.102493,"id":"a6y1oh54wqy3","address":"SW Main &amp; Marine"},"type":"Feature","geometry":{"type":"Point","coordinates":[-123.102493,49.210819]}},{"properties":{"latitude":49.225003,"type":"Junk Food","longitude":-123.065457,"id":"a6y1ogt2l93t","address":"SE 49th &amp; Victoria"},"type":"Feature","geometry":{"type":"Point","coordinates":[-123.065457,49.225003]}},{"properties":{"latitude":49.22213,"type":"Junk Food","longitude":-123.065522,"id":"a6y1ogxc69p2","address":"SE 52 &amp; Victoria"},"type":"Feature","geometry":{"type":"Point","coordinates":[-123.065522,49.22213]}},{"properties":{"latitude":49.221149,"type":"Junk Food","longitude":-123.065522,"id":"a6y1ogxqwjki","address":"SE 53 &amp; Victoria"},"type":"Feature","geometry":{"type":"Point","coordinates":[-123.065522,49.221149]}},{"properties":{"latitude":49.216299,"type":"Junk Food","longitude":-123.066208,"id":"a6y1ogxxjza5","address":"NW Prestwick &amp; Victoria"},"type":"Feature","geometry":{"type":"Point","coordinates":[-123.066208,49.216299]}},{"properties":{"latitude":49.216804,"type":"Junk Food","longitude":-123.117299,"id":"a6y1ogwaxkd7","address":"SW Cambie &amp; 59th"},"type":"Feature","geometry":{"type":"Point","coordinates":[-123.117299,49.216804]}},{"properties":{"latitude":49.240653,"type":"Junk Food","longitude":-123.101699,"id":"a6y1oh8dykeg","address":"NW 33rd &amp; Main"},"type":"Feature","geometry":{"type":"Point","coordinates":[-123.101699,49.240653]}},{"properties":{"latitude":49.220055,"type":"Junk Food","longitude":-123.041124,"id":"a6y1oh21o6r5","address":"SE Kerr &amp; 54th"},"type":"Feature","geometry":{"type":"Point","coordinates":[-123.041124,49.220055]}},{"properties":{"latitude":49.213805,"type":"Junk Food","longitude":-123.030095,"id":"a6y1oh26l7mi","address":"7755 Champlain Cr"},"type":"Feature","geometry":{"type":"Point","coordinates":[-123.030095,49.213805]}},{"properties":{"latitude":49.210993,"type":"Junk Food","longitude":-123.028694,"id":"a6y1oh0pc4r8","address":"8188 Champlain Cr"},"type":"Feature","geometry":{"type":"Point","coordinates":[-123.028694,49.210993]}},{"properties":{"latitude":49.221765,"type":"Junk Food","longitude":-123.023336,"id":"a6y1ogyzxj3b","address":"SE Boundary &amp; 49th"},"type":"Feature","geometry":{"type":"Point","coordinates":[-123.023336,49.221765]}},{"properties":{"latitude":49.232499,"type":"Junk Food","longitude":-123.023937,"id":"a6y1oh07yelp","address":"NW Kingsway &amp; Boundary"},"type":"Feature","geometry":{"type":"Point","coordinates":[-123.023937,49.232499]}},{"properties":{"latitude":49.207914,"type":"Junk Food","longitude":-123.06182,"id":"a6y1oh6g90om","address":"SE Gladstone &amp; Marine"},"type":"Feature","geometry":{"type":"Point","coordinates":[-123.06182,49.207914]}},{"properties":{"latitude":49.23373,"type":"Junk Food","longitude":-123.035502,"id":"a6y1ogz6gej7","address":"SE Kingsway &amp; Joyce"},"type":"Feature","geometry":{"type":"Point","coordinates":[-123.035502,49.23373]}},{"properties":{"latitude":49.225031,"type":"Junk Food","longitude":-123.05445,"id":"a6y1oh4zrc56","address":"NE Elliott &amp; 49th"},"type":"Feature","geometry":{"type":"Point","coordinates":[-123.05445,49.225031]}},{"properties":{"latitude":49.229358,"type":"Grocery","longitude":-123.090766,"id":"a6y1oh03lwui","address":"6095 Fraser St"},"type":"Feature","geometry":{"type":"Point","coordinates":[-123.090766,49.229358]}},{"properties":{"latitude":49.210272,"type":"Grocery","longitude":-123.100584,"id":"a6y1oh8av9ha","address":"SE Sophia &amp; Marine"},"type":"Feature","geometry":{"type":"Point","coordinates":[-123.100584,49.210272]}},{"properties":{"latitude":49.232345,"type":"Grocery","longitude":-123.117921,"id":"a6y1oh2fkvj7","address":"SW 41st &amp; Cambie"},"type":"Feature","geometry":{"type":"Point","coordinates":[-123.117921,49.232345]}},{"properties":{"latitude":49.231799,"type":"Grocery","longitude":-123.032048,"id":"a6y1oh6f75py","address":"SW Kingsway &amp; Tyne"},"type":"Feature","geometry":{"type":"Point","coordinates":[-123.032048,49.231799]}},{"properties":{"latitude":49.219873,"type":"Grocery","longitude":-123.040438,"id":"a6y1oh7v90hi","address":"SE Kerr &amp; 54th"},"type":"Feature","geometry":{"type":"Point","coordinates":[-123.040438,49.219873]}},{"properties":{"latitude":49.219621,"type":"Grocery","longitude":-123.041081,"id":"a6y1oh3te3rw","address":"SE Kerr &amp; 54th"},"type":"Feature","geometry":{"type":"Point","coordinates":[-123.041081,49.219621]}},{"properties":{"latitude":49.225465,"type":"Grocery","longitude":-123.05387,"id":"a6y1ogvmrbzc","address":"NE Elliott &amp; 49th"},"type":"Feature","geometry":{"type":"Point","coordinates":[-123.05387,49.225465]}}],"is_temporal":false,"author":{"url":"","metadata":"","contact_name":"","contact_address":"","source":"","contact_phone":""},"source":"","pagination":{"sort":null,"start":0,"total":62,"limit":1000000},"state":"complete","tags":"","published":"2014-08-13T06:07:13-04:00","id":125439}