{"type":"FeatureCollection","data_type":"Dataset","url_type":null,"permissions":[{"permissions":{"download":true,"view":true},"group_id":"everyone"}],"classification":null,"title":"Buying Groups","count":167,"stream_id":125458,"contributor":{"url":"http://geocommons.com/users/28483","name":"pshattock"},"data_attributes":null,"calculation_params":null,"icon_link":null,"link":"http://geocommons.com/overlays/125458.json","extent":[-118.309,-38.1,144.283,58.9667],"geometry_types":["point"],"unique_name":null,"name":"Buying Groups","feature_count":167,"description":"","next_feature":null,"is_raster":false,"short_classification":"Y","stats":{},"features":[{"properties":{"city":"HOYLAKE","post code":"CH47 4FF","county":"WIRRAL","geo_score":0.776,"address 2":"CARHAM COMMERCIAL PARK","id":"a663nyjkjwxg","geo_precision":"zip","buying group":"AVS GROUP"},"type":"Feature","geometry":{"type":"Point","coordinates":[17.1666667,48.8]}},{"properties":{"city":"CROYDON","post code":"CR0 4WP","county":null,"geo_score":0.735,"address 2":"VALLEY POINT IND EST","id":"a663nymer412","geo_precision":"zip","buying group":"AVS GROUP"},"type":"Feature","geometry":{"type":"Point","coordinates":[-118.3089624,33.8883487]}},{"properties":{"city":"EASTLEIGH","post code":"S053 4BT","county":"HAMPSHIRE","geo_score":0.857,"address 2":"CHANDLERS FORD INDUSTRIAL EST","id":"a663nymqmyi0","geo_precision":"zip","buying group":"AVS GROUP"},"type":"Feature","geometry":{"type":"Point","coordinates":[-1.35,50.9666667]}},{"properties":{"city":"STOKE-ON-TRENT","post code":"ST4 5NQ","county":null,"geo_score":0.857,"address 2":"TRENT VALE","id":"a663nydn89ss","geo_precision":"zip","buying group":"AVS GROUP"},"type":"Feature","geometry":{"type":"Point","coordinates":[-2.1833333,53.0]}},{"properties":{"city":"PRESTON","post code":"PR25 2GU","county":null,"geo_score":0.804,"address 2":"CENTURION INDUSTRIAL ESTATE","id":"a663nye3k6o4","geo_precision":"zip","buying group":"AVS GROUP"},"type":"Feature","geometry":{"type":"Point","coordinates":[21.1666667,42.6666667]}},{"properties":{"city":"IPSWICH","post code":"IP6 8RS","county":"SUFFOLK","geo_score":0.857,"address 2":"BADLEY","id":"a663ny8yfkkf","geo_precision":"zip","buying group":"AVS GROUP"},"type":"Feature","geometry":{"type":"Point","coordinates":[1.15699768066406,52.0546544307833]}},{"properties":{"city":"BARRY","post code":"CF63 4JE","county":"SOUTH GLAMORGAN","geo_score":0.8,"address 2":"NO. 2 DOCK","id":"a663nyi6rfpk","geo_precision":"zip","buying group":"AVS GROUP"},"type":"Feature","geometry":{"type":"Point","coordinates":[85.0833333,27.0833333]}},{"properties":{"city":"BERINSFIELD","post code":"OX10 7LN","county":"OXFORDSHIRE","geo_score":0.779,"address 2":"TOWER INDUSTRIAL ESTATE","id":"a663nyimfn32","geo_precision":"zip","buying group":"AVS GROUP"},"type":"Feature","geometry":{"type":"Point","coordinates":[-97.4974838,25.9017472]}},{"properties":{"city":"BODMIN","post code":"PL31 1DQ","county":"CORNWALL","geo_score":0.786,"address 2":"WOODS BROWNING IND ESTATE","id":"a663nyb9rylt","geo_precision":"zip","buying group":"AVS GROUP"},"type":"Feature","geometry":{"type":"Point","coordinates":[41.1205556,37.8827778]}},{"properties":{"city":"EAST KILBRIDE","post code":"G75 0YG","county":null,"geo_score":0.857,"address 2":"KELVIN SOUTH BUSINESS PARK","id":"a663ny9gnb0r","geo_precision":"zip","buying group":"AVS GROUP"},"type":"Feature","geometry":{"type":"Point","coordinates":[-4.1666667,55.7666667]}},{"properties":{"city":"HERTS","post code":"HP2 7PT","county":null,"geo_score":0.755,"address 2":"HEMEL HEMPSTEAD","id":"a663nyenb65u","geo_precision":"zip","buying group":"AVS GROUP"},"type":"Feature","geometry":{"type":"Point","coordinates":[47.3363889,39.4477778]}},{"properties":{"city":"HULL","post code":"HU8 7EX","county":null,"geo_score":0.8,"address 2":null,"id":"a663nyl30tgt","geo_precision":"zip","buying group":"AVS GROUP"},"type":"Feature","geometry":{"type":"Point","coordinates":[12.0,51.5]}},{"properties":{"city":"WILMSLOW","post code":"SK9 5QR","county":"CHESHIRE","geo_score":0.857,"address 2":"WATER LANE","id":"a663nyd3fyf5","geo_precision":"zip","buying group":"AVS GROUP"},"type":"Feature","geometry":{"type":"Point","coordinates":[-2.2333333,53.3333333]}},{"properties":{"city":"NOTTINGHAM","post code":"NG16 4BE","county":null,"geo_score":0.857,"address 2":"BAILEY BROOK INDUSTRIAL ESTATE","id":"a663nydku2rp","geo_precision":"zip","buying group":"AVS GROUP"},"type":"Feature","geometry":{"type":"Point","coordinates":[-1.15047454833984,52.9536023000285]}},{"properties":{"city":"IPSWICH","post code":"IP6 8RS","county":"SUFFOLK","geo_score":0.857,"address 2":"BADLEY","id":"a663nyhh8ufx","geo_precision":"zip","buying group":"AVS GROUP"},"type":"Feature","geometry":{"type":"Point","coordinates":[1.15699768066406,52.0546544307833]}},{"properties":{"city":"MANCHESTER","post code":"M22 4TE","county":null,"geo_score":0.857,"address 2":"BRADNOR ROAD","id":"a663nyczwy9e","geo_precision":"zip","buying group":"AVS GROUP"},"type":"Feature","geometry":{"type":"Point","coordinates":[-2.23743438720703,53.4809464283615]}},{"properties":{"city":"TONBRIDGE","post code":"TN9 2JF","county":"KENT","geo_score":0.857,"address 2":"89 PEMBURY ROAD","id":"a663nyi827hn","geo_precision":"zip","buying group":"AVS GROUP"},"type":"Feature","geometry":{"type":"Point","coordinates":[0.2833333,51.1833333]}},{"properties":{"city":"DOUGLAS","post code":"IM2 2QU","county":"ISLE OF MAN","geo_score":0.857,"address 2":"SPRING VALLEY INDUSTRIAL EST","id":"a663ny8v97i7","geo_precision":"zip","buying group":"AVS GROUP"},"type":"Feature","geometry":{"type":"Point","coordinates":[-4.4833333,54.15]}},{"properties":{"city":"ABERDEEN","post code":"AB21 0GU","county":null,"geo_score":0.857,"address 2":"KIRKHILL INDUSTRIAL ESTATE","id":"a663nyflcrb4","geo_precision":"zip","buying group":"AVS GROUP"},"type":"Feature","geometry":{"type":"Point","coordinates":[-2.1,57.1333333]}},{"properties":{"city":"ABERDEEN","post code":"AB10 1BR","county":null,"geo_score":0.857,"address 2":"1 ALBYN PLACE","id":"a663nydfrs5w","geo_precision":"zip","buying group":"AVS GROUP"},"type":"Feature","geometry":{"type":"Point","coordinates":[-2.1,57.1333333]}},{"properties":{"city":"LONDON","post code":"SE16 3LL","county":null,"geo_score":0.857,"address 2":"BERMONDSEY TRADING ESTATE","id":"a663ny8apgxs","geo_precision":"zip","buying group":"AVS GROUP"},"type":"Feature","geometry":{"type":"Point","coordinates":[-0.125532746315002,51.5084152563931]}},{"properties":{"city":"SHREWSBURY","post code":"SY4 4UG","county":null,"geo_score":0.857,"address 2":"ATCHAM BUSINESS PARK","id":"a663nyls1hvm","geo_precision":"zip","buying group":"AVS GROUP"},"type":"Feature","geometry":{"type":"Point","coordinates":[-2.7520751953125,52.7100913371863]}},{"properties":{"city":"SELBY","post code":"YO8 8BE","county":"NORTH YORKSHIRE","geo_score":0.786,"address 2":null,"id":"a663nykubi0b","geo_precision":"zip","buying group":"AVS GROUP"},"type":"Feature","geometry":{"type":"Point","coordinates":[5.2875,35.8561111]}},{"properties":{"city":"PETERBOROUGH","post code":"PE1 5XG","county":null,"geo_score":0.776,"address 2":"1 DODSON WAY           FENGATE","id":"a663nyfgr6ex","geo_precision":"zip","buying group":"AVS GROUP"},"type":"Feature","geometry":{"type":"Point","coordinates":[8.75535714285714,51.7136428571429]}},{"properties":{"city":"DUBLIN 13","post code":null,"county":null,"geo_score":0.821,"address 2":"BALDOYLE","id":"a663nyf6mqme","geo_precision":"zip","buying group":"AVS GROUP"},"type":"Feature","geometry":{"type":"Point","coordinates":[-6.2488889,53.3330556]}},{"properties":{"city":"WORCESTER","post code":"WR2 6PD","county":null,"geo_score":0.8,"address 2":"HALLOW","id":"a663nykrb6mw","geo_precision":"zip","buying group":"AVS GROUP"},"type":"Feature","geometry":{"type":"Point","coordinates":[-71.8328499,42.3334256]}},{"properties":{"city":"BOTTESFORD","post code":"DN17 2AZ","county":null,"geo_score":0.829,"address 2":"HOYLAKE ROAD","id":"a663nycbdkhg","geo_precision":"zip","buying group":"AVS GROUP"},"type":"Feature","geometry":{"type":"Point","coordinates":[144.2833333,-38.1]}},{"properties":{"city":"SHEFFIELD","post code":"S4 7QQ","county":null,"geo_score":0.857,"address 2":"SUITE 1,   DISTINGTON HOUSE","id":"a663nyf0v7t6","geo_precision":"zip","buying group":"AVS GROUP"},"type":"Feature","geometry":{"type":"Point","coordinates":[-1.46590232849121,53.3829700049879]}},{"properties":{"city":"WEDNESBURY","post code":"WS10 7JX","county":"WEST MIDLANDS","geo_score":0.779,"address 2":null,"id":"a663nydzy8mf","geo_precision":"zip","buying group":"AVS GROUP"},"type":"Feature","geometry":{"type":"Point","coordinates":[-64.8775,32.2586111]}},{"properties":{"city":"ST SAVIOUR","post code":"JE1 3UP","county":null,"geo_score":0.762,"address 2":null,"id":"a663nyl67sjn","geo_precision":"zip","buying group":"AVS GROUP"},"type":"Feature","geometry":{"type":"Point","coordinates":[-4.6799989560814,33.799791148857]}},{"properties":{"city":"BATH","post code":"BA2 8DH","county":null,"geo_score":0.857,"address 2":"PEASEDOWN ST JOHN","id":"a663nyc73vlt","geo_precision":"zip","buying group":"AVS GROUP"},"type":"Feature","geometry":{"type":"Point","coordinates":[-2.3655556,51.3794444]}},{"properties":{"city":"BATH","post code":"BA2 8DH","county":null,"geo_score":0.857,"address 2":"PEASEDOWN ST JOHN","id":"a663nybdgvp1","geo_precision":"zip","buying group":"AVS GROUP"},"type":"Feature","geometry":{"type":"Point","coordinates":[-2.3655556,51.3794444]}},{"properties":{"city":"WAKEFIELD","post code":"WF5 0HP","county":"WEST YORKSHIRE","geo_score":0.857,"address 2":"OSSETT","id":"a663ny94o6s6","geo_precision":"zip","buying group":"AVS GROUP"},"type":"Feature","geometry":{"type":"Point","coordinates":[-1.49768114089966,53.6833140988651]}},{"properties":{"city":"BELLSHILL","post code":"ML4 3NN","county":"LANARKSHIRE","geo_score":0.746,"address 2":"STRATHCLYDE BUSINESS PARK","id":"a663nyh55lwi","geo_precision":"zip","buying group":"COVER GROUP"},"type":"Feature","geometry":{"type":"Point","coordinates":[-0.7333333,51.9833333]}},{"properties":{"city":"LEEDS","post code":"LS2 8NZ","county":null,"geo_score":0.771,"address 2":null,"id":"a663nyoe76zz","geo_precision":"zip","buying group":"COVER GROUP"},"type":"Feature","geometry":{"type":"Point","coordinates":[19.4666667,51.75]}},{"properties":{"city":"GLASGOW","post code":"G40 3DQ","county":null,"geo_score":0.857,"address 2":"ARROL ROAD","id":"a663ny9lu5wa","geo_precision":"zip","buying group":"COVER GROUP"},"type":"Feature","geometry":{"type":"Point","coordinates":[-4.25763130187988,55.8651497187961]}},{"properties":{"city":"GATESHEAD","post code":"NE11 0RQ","county":null,"geo_score":0.73,"address 2":"TEAM VALLEY","id":"a663ny9s0rje","geo_precision":"zip","buying group":"COVER GROUP"},"type":"Feature","geometry":{"type":"Point","coordinates":[47.6061,33.535]}},{"properties":{"city":"STEVENAGE","post code":"SG1 2BH","county":"HERTFORDSHIRE","geo_score":0.794,"address 2":"GUNNELS WOOD PARK","id":"a663nylwpuym","geo_precision":"zip","buying group":"COVER GROUP"},"type":"Feature","geometry":{"type":"Point","coordinates":[5.75,58.9666667]}},{"properties":{"city":"WALSALL","post code":"WS2 8TF","county":"WEST MIDLANDS","geo_score":0.857,"address 2":"MAPLE LEAF INDUSTRIAL ESTATE","id":"a663ny9q46ph","geo_precision":"zip","buying group":"COVER GROUP"},"type":"Feature","geometry":{"type":"Point","coordinates":[-2.0,52.6]}},{"properties":{"city":"PORTSMOUTH","post code":"PO6 1TX","county":"HAMPSHIRE","geo_score":0.857,"address 2":"WARRIOR BUSINESS CENTRE","id":"a663ny9r2tlx","geo_precision":"zip","buying group":"COVER GROUP"},"type":"Feature","geometry":{"type":"Point","coordinates":[-1.07142448425293,50.8090805768295]}},{"properties":{"city":"STOURPORT ON SE","post code":"DY13 9JT","county":"WORCESTERSHIRE","geo_score":0.747,"address 2":"WILDEN LANE","id":"a663nyiqi5vo","geo_precision":"zip","buying group":"COVER GROUP"},"type":"Feature","geometry":{"type":"Point","coordinates":[-97.8202888,30.505198]}},{"properties":{"city":"EDENBRIDGE","post code":"TN8 5EA","county":"KENT","geo_score":0.786,"address 2":"HEVER ROAD","id":"a663nydimdri","geo_precision":"zip","buying group":"COVER GROUP"},"type":"Feature","geometry":{"type":"Point","coordinates":[-3.2,55.95]}},{"properties":{"city":"RIPLEY","post code":"GU23 6BJ","county":"SURREY","geo_score":0.776,"address 2":"WHITE HORSE LANE","id":"a663nyiigsmm","geo_precision":"zip","buying group":"COVER GROUP"},"type":"Feature","geometry":{"type":"Point","coordinates":[80.85,16.0166667]}},{"properties":{"city":"BURNTISLAND","post code":"KY3 0LH","county":"FIFE","geo_score":0.766,"address 2":"MEADOWFIELD INDUSTRIAL ESTATE","id":"a663nyewji56","geo_precision":"zip","buying group":"COVER GROUP"},"type":"Feature","geometry":{"type":"Point","coordinates":[17.936815,40.627731]}},{"properties":{"city":"NORWICH","post code":"NR13 6LQ","county":"NORFOLK","geo_score":0.857,"address 2":"RACKHEATH INDUSTRIAL ESTATE","id":"a663nyfyzosm","geo_precision":"zip","buying group":"COVER GROUP"},"type":"Feature","geometry":{"type":"Point","coordinates":[1.29833936691284,52.6278273182018]}},{"properties":{"city":"NORWICH","post code":"NR13 6LQ","county":"NORFOLK","geo_score":0.857,"address 2":"RACKHEATH INDUSTRIAL ESTATE","id":"a663nyno0hke","geo_precision":"zip","buying group":"COVER GROUP"},"type":"Feature","geometry":{"type":"Point","coordinates":[1.29833936691284,52.6278273182018]}},{"properties":{"city":"SUNDERLAND","post code":"SR1 1HA","county":null,"geo_score":0.74,"address 2":null,"id":"a663nygots78","geo_precision":"zip","buying group":"COVER GROUP"},"type":"Feature","geometry":{"type":"Point","coordinates":[21.0,7.0]}},{"properties":{"city":"WELLINGBOROUGH","post code":"NN8 4BX","county":null,"geo_score":0.857,"address 2":null,"id":"a663nynmhh8l","geo_precision":"zip","buying group":"COVER GROUP"},"type":"Feature","geometry":{"type":"Point","coordinates":[-0.7,52.3]}},{"properties":{"city":"WELLINGBOROUGH","post code":"NN8 4BX","county":"NORTHAMPTONSHIRE","geo_score":0.857,"address 2":null,"id":"a663nycm4fom","geo_precision":"zip","buying group":"COVER GROUP"},"type":"Feature","geometry":{"type":"Point","coordinates":[-0.7,52.3]}},{"properties":{"city":"BRADFORD","post code":"BD4 7HN","county":"WEST YORKS","geo_score":0.857,"address 2":null,"id":"a663nybyqkjq","geo_precision":"zip","buying group":"COVER GROUP"},"type":"Feature","geometry":{"type":"Point","coordinates":[-1.75206184387207,53.7939083408637]}},{"properties":{"city":"INVERNESS","post code":"IV1 1FF","county":null,"geo_score":0.857,"address 2":null,"id":"a663nygm2ly0","geo_precision":"zip","buying group":"COVER GROUP"},"type":"Feature","geometry":{"type":"Point","coordinates":[-4.2333333,57.4666667]}},{"properties":{"city":"ROBOROUGH","post code":"PL6 7EZ","county":"PLYMOUTH","geo_score":0.762,"address 2":"DEVONSHIRE MEADOWS","id":"a663ny9jp1d8","geo_precision":"zip","buying group":"COVER GROUP"},"type":"Feature","geometry":{"type":"Point","coordinates":[82.3408333,53.0733333]}},{"properties":{"city":"ASHFORD","post code":"TN24 0TT","county":"KENT","geo_score":0.857,"address 2":"MOAT WAY","id":"a663nyck52nr","geo_precision":"zip","buying group":"COVER GROUP"},"type":"Feature","geometry":{"type":"Point","coordinates":[0.8833333,51.1333333]}},{"properties":{"city":"PAIGNTON","post code":"TQ4 7QL","county":"DEVON","geo_score":0.804,"address 2":"YALBERTON INDUSTRIAL ESTATE","id":"a663nyg56fk8","geo_precision":"zip","buying group":"COVER GROUP"},"type":"Feature","geometry":{"type":"Point","coordinates":[2.4,48.9]}},{"properties":{"city":"COLCHESTER","post code":"CO3 0AB","county":"ESSEX","geo_score":0.857,"address 2":"PEARTREE ROAD","id":"a663nye2dox4","geo_precision":"zip","buying group":"COVER GROUP"},"type":"Feature","geometry":{"type":"Point","coordinates":[0.9,51.8833333]}},{"properties":{"city":"SOUTHAMPTON","post code":"SO31 1FQ","county":null,"geo_score":0.857,"address 2":"PARKGATE BUSINESS CENTRE","id":"a663nym7t30f","geo_precision":"zip","buying group":"COVER GROUP"},"type":"Feature","geometry":{"type":"Point","coordinates":[-1.4,50.9]}},{"properties":{"city":"LISKEARD","post code":"PL14 3PG","county":"CORNWALL","geo_score":0.857,"address 2":null,"id":"a663nymq4ioa","geo_precision":"zip","buying group":"VENDIA GROUP"},"type":"Feature","geometry":{"type":"Point","coordinates":[-4.4638889,50.4527778]}},{"properties":{"city":"CORBY","post code":"NN18 9QA","county":"NORTHAMPTONSHIRE","geo_score":0.8,"address 2":"OAKELY HAY INDUSTRIAL ESTATE","id":"a663nykqr6le","geo_precision":"zip","buying group":"VENDIA GROUP"},"type":"Feature","geometry":{"type":"Point","coordinates":[82.6833333,22.35]}},{"properties":{"city":"LONDON","post code":"SW18 4RL","county":null,"geo_score":0.857,"address 2":"RAVENSBURY TERRACE","id":"a663nylq89u2","geo_precision":"zip","buying group":"VENDIA GROUP"},"type":"Feature","geometry":{"type":"Point","coordinates":[-0.125532746315002,51.5084152563931]}},{"properties":{"city":"BLACKBURN","post code":"BB1 3AB","county":"LANCASHIRE","geo_score":0.857,"address 2":"DYNELEY RD","id":"a663nyax2z6p","geo_precision":"zip","buying group":"VENDIA GROUP"},"type":"Feature","geometry":{"type":"Point","coordinates":[-2.4833333,53.75]}},{"properties":{"city":"HEMEL HEMPSTEAD","post code":"HP3 9HD","county":null,"geo_score":0.857,"address 2":"CHANCERYGATE BUSINESS CENTRE","id":"a663nyhxqe7a","geo_precision":"zip","buying group":"REFRESH U"},"type":"Feature","geometry":{"type":"Point","coordinates":[-0.4666667,51.75]}},{"properties":{"city":"FEATHERSTONE","post code":"WF7 6NX","county":null,"geo_score":0.857,"address 2":"UNIT 8","id":"a663nydg4eqy","geo_precision":"zip","buying group":"REFRESH U"},"type":"Feature","geometry":{"type":"Point","coordinates":[-1.35646820068359,53.6768832281714]}},{"properties":{"city":"LIVINGSTONE","post code":"EH54 9BX","county":null,"geo_score":0.804,"address 2":"BRUCEFIELD IND PARK","id":"a663nyo14zhl","geo_precision":"zip","buying group":"REFRESH U"},"type":"Feature","geometry":{"type":"Point","coordinates":[-83.9166168,42.6000329]}},{"properties":{"city":"AMINGTON","post code":"B77 4DR","county":"TAMWORTH","geo_score":0.762,"address 2":"MICA CLOSE","id":"a663nyg9rpq2","geo_precision":"zip","buying group":"REFRESH U"},"type":"Feature","geometry":{"type":"Point","coordinates":[70.94,34.16]}},{"properties":{"city":"MAIDSTONE","post code":"ME17 2LH","county":"KENT","geo_score":0.857,"address 2":"LENHAM STORAGE","id":"a663nyk0r5oj","geo_precision":"zip","buying group":"REFRESH U"},"type":"Feature","geometry":{"type":"Point","coordinates":[0.5166667,51.2666667]}},{"properties":{"city":"PLYMOUTH","post code":"PL1 4LL","county":"DEVON","geo_score":0.857,"address 2":"DEVONPORT","id":"a663nylswibn","geo_precision":"zip","buying group":"REFRESH U"},"type":"Feature","geometry":{"type":"Point","coordinates":[-4.14304733276367,50.3715254228346]}},{"properties":{"city":"SHEFFORD","post code":"SG17 5NS","county":"BEDFORDSHIRE","geo_score":0.804,"address 2":null,"id":"a663nye0x8wf","geo_precision":"zip","buying group":"REFRESH U"},"type":"Feature","geometry":{"type":"Point","coordinates":[-94.9966006,30.4979813]}},{"properties":{"city":"SALISBURY","post code":"SP5 3RA","county":null,"geo_score":0.81,"address 2":"DOWNTON BUSINESS CENTRE","id":"a663nyiwupxe","geo_precision":"zip","buying group":"REFRESH U"},"type":"Feature","geometry":{"type":"Point","coordinates":[13.25,47.4166667]}},{"properties":{"city":"TOPSHAM","post code":"EX3 0PB","county":"EXETER","geo_score":0.857,"address 2":"ODHAMS WHARF","id":"a663nya1yguj","geo_precision":"zip","buying group":"REFRESH U"},"type":"Feature","geometry":{"type":"Point","coordinates":[-69.9758839,43.9275797]}},{"properties":{"city":"OOPENCHAW","post code":"M11 2NB","county":"MANCHESTER","geo_score":0.825,"address 2":"18 NORBURY COURT","id":"a663nyirxr1s","geo_precision":"zip","buying group":"REFRESH U"},"type":"Feature","geometry":{"type":"Point","coordinates":[-102.317586571,49.150051751]}},{"properties":{"city":"LISBURN","post code":"BT27 5JW","county":"CO. ANTRIM","geo_score":0.857,"address 2":"DRUMBO","id":"a663nyn4p5wo","geo_precision":"zip","buying group":"REFRESH U"},"type":"Feature","geometry":{"type":"Point","coordinates":[-6.03527069091797,54.5233729865059]}},{"properties":{"city":"NORWICH","post code":"NR9 4AA","county":null,"geo_score":0.857,"address 2":"BELL ROAD","id":"a663ny9ebxz3","geo_precision":"zip","buying group":"REFRESH U"},"type":"Feature","geometry":{"type":"Point","coordinates":[1.29833936691284,52.6278273182018]}},{"properties":{"city":"WALSALL","post code":"WS9 8SW","county":"W. MIDLANDS","geo_score":0.857,"address 2":"UNIT2 MERCHANTS PARK","id":"a663nyigxtut","geo_precision":"zip","buying group":"NIVO"},"type":"Feature","geometry":{"type":"Point","coordinates":[-2.0,52.6]}},{"properties":{"city":"SEVENOAKS","post code":"TN15 8DG","county":"KENT","geo_score":0.79,"address 2":"BOURNE ENTERPRISE CENTRE","id":"a663nydj0xl9","geo_precision":"zip","buying group":"NIVO"},"type":"Feature","geometry":{"type":"Point","coordinates":[0.188698768615723,51.2732931493214]}},{"properties":{"city":"SHEFFIELD","post code":"S3 9PT","county":"S. YORKS","geo_score":0.857,"address 2":null,"id":"a663nyho4ecz","geo_precision":"zip","buying group":"NIVO"},"type":"Feature","geometry":{"type":"Point","coordinates":[-1.46590232849121,53.3829700049879]}},{"properties":{"city":"SWANSEA","post code":"SA1 8QY","county":null,"geo_score":0.857,"address 2":"PRINCE OF WALES DOCK","id":"a663nymnpebs","geo_precision":"zip","buying group":"NIVO"},"type":"Feature","geometry":{"type":"Point","coordinates":[-3.94323348999023,51.6207876683235]}},{"properties":{"city":"PRESTON","post code":"PR5 4PD","county":"LANCASHIRE","geo_score":0.804,"address 2":"WALTON LE DALE","id":"a663nyiounsu","geo_precision":"zip","buying group":"NIVO"},"type":"Feature","geometry":{"type":"Point","coordinates":[21.1666667,42.6666667]}},{"properties":{"city":"SHEFFIELD","post code":"S20 3FF","county":null,"geo_score":0.857,"address 2":"FLOCKTON PARK","id":"a663ny8e12ib","geo_precision":"zip","buying group":"NIVO"},"type":"Feature","geometry":{"type":"Point","coordinates":[-1.46590232849121,53.3829700049879]}},{"properties":{"city":"LONDON","post code":"E3 3JG","county":null,"geo_score":0.857,"address 2":"TWELVETREES CRESCENT","id":"a663nyj4czfs","geo_precision":"zip","buying group":"NIVO"},"type":"Feature","geometry":{"type":"Point","coordinates":[-0.125532746315002,51.5084152563931]}},{"properties":{"city":"DUNDEE","post code":"DD3 7PY","county":null,"geo_score":0.768,"address 2":"MANHATTAN WORKS","id":"a663nymv5f1n","geo_precision":"zip","buying group":"NIVO"},"type":"Feature","geometry":{"type":"Point","coordinates":[-4.8333333,34.5]}},{"properties":{"city":"FALMOUTH","post code":"TR11 5QD","county":"CORNWALL","geo_score":0.857,"address 2":"TREWARDREVA MILL","id":"a663nyb59mle","geo_precision":"zip","buying group":"NIVO"},"type":"Feature","geometry":{"type":"Point","coordinates":[-70.6147519,41.5514979]}},{"properties":{"city":"ELLAND","post code":"HX5 9JP","county":"W.YORKSHIRE","geo_score":0.762,"address 2":"HUDDERSFIELD ROAD","id":"a663nydm0961","geo_precision":"zip","buying group":"NIVO"},"type":"Feature","geometry":{"type":"Point","coordinates":[7.8944444,35.8666667]}},{"properties":{"city":"CREWE","post code":"CW2 8UY","county":"CHESHIRE","geo_score":0.857,"address 2":"UNIT 5","id":"a663nynv2sg7","geo_precision":"zip","buying group":"NIVO"},"type":"Feature","geometry":{"type":"Point","coordinates":[-2.4333333,53.1]}},{"properties":{"city":"SWANSEA","post code":"SA1 7DA","county":null,"geo_score":0.857,"address 2":"VIKING WAY","id":"a663nyk2uewv","geo_precision":"zip","buying group":"NIVO"},"type":"Feature","geometry":{"type":"Point","coordinates":[-3.94323348999023,51.6207876683235]}},{"properties":{"city":"PERSHIRE","post code":"WR10 2DD","county":"WORKS","geo_score":0.839,"address 2":"PERSHIRE TRADING ESTATE","id":"a663nymdl50u","geo_precision":"zip","buying group":"NIVO"},"type":"Feature","geometry":{"type":"Point","coordinates":[-2.0666667,52.1166667]}},{"properties":{"city":"WETHERBY","post code":"LS22 7SU","county":"WEST YORKS","geo_score":0.857,"address 2":"YORK ROAD","id":"a663ny8dc24v","geo_precision":"zip","buying group":"NIVO"},"type":"Feature","geometry":{"type":"Point","coordinates":[-1.39277458190918,53.9289564812156]}},{"properties":{"city":"CAMBRIDGE","post code":"CB22 3AX","county":null,"geo_score":0.857,"address 2":"MOUNT FARM","id":"a663nybt70kh","geo_precision":"zip","buying group":"NIVO"},"type":"Feature","geometry":{"type":"Point","coordinates":[0.1166667,52.2]}},{"properties":{"city":"BOURNEMOUTH","post code":"BH7 6YH","county":"DORSET","geo_score":0.857,"address 2":"19 SOMERSET ROAD","id":"a663nyl9y8at","geo_precision":"zip","buying group":"NIVO"},"type":"Feature","geometry":{"type":"Point","coordinates":[-1.8833333,50.7166667]}},{"properties":{"city":"WITNEY","post code":"OX29 0YG","county":"OXON","geo_score":0.81,"address 2":"DE HAVILLAND WAY","id":"a663nyd1n925","geo_precision":"zip","buying group":"NIVO"},"type":"Feature","geometry":{"type":"Point","coordinates":[7.3333333,51.4333333]}},{"properties":{"city":"REDRUTH","post code":"TR16 4HZ","county":"CORNWALL","geo_score":0.794,"address 2":"PARC ERISSEY INDUSTRIAL ESTATE","id":"a663nygj9h6v","geo_precision":"zip","buying group":"NIVO"},"type":"Feature","geometry":{"type":"Point","coordinates":[7.01667,50.2667]}},{"properties":{"city":"MANCHESTER","post code":"M34 5DW","county":null,"geo_score":0.857,"address 2":"SHEPLEY SOUTH IND EST","id":"a663nyei80qm","geo_precision":"zip","buying group":"NIVO"},"type":"Feature","geometry":{"type":"Point","coordinates":[-2.23743438720703,53.4809464283615]}},{"properties":{"city":"AYLESBURY","post code":"HP19 3TE","county":"BUCKINGHAMSHIRE","geo_score":0.857,"address 2":null,"id":"a663nybm37ki","geo_precision":"zip","buying group":"NIVO"},"type":"Feature","geometry":{"type":"Point","coordinates":[-0.8,51.8166667]}},{"properties":{"city":"NR RIPLEY","post code":"GU23 7EF","county":null,"geo_score":0.75,"address 2":"TANNERY LANE","id":"a663ny88rq2h","geo_precision":"zip","buying group":"NIVO"},"type":"Feature","geometry":{"type":"Point","coordinates":[135.804850459099,34.6850548003686]}},{"properties":{"city":"STOURBRIDGE","post code":"DY9 8RG","county":"WEST MIDLANDS","geo_score":0.857,"address 2":"FOLKES ROAD","id":"a663nykfwm68","geo_precision":"zip","buying group":"NIVO"},"type":"Feature","geometry":{"type":"Point","coordinates":[-2.1333333,52.4666667]}},{"properties":{"city":"GRIMSBY","post code":"DN37 9TJ","county":"LINCOLNSHIRE","geo_score":0.75,"address 2":"INNOVATION WAY","id":"a663nymqwui2","geo_precision":"zip","buying group":"NIVO"},"type":"Feature","geometry":{"type":"Point","coordinates":[46.9486111,39.6758333]}},{"properties":{"city":"CUMBERNAULD","post code":"G68 0LG","county":null,"geo_score":0.857,"address 2":"WARDPARK NORTH","id":"a663nylyvr05","geo_precision":"zip","buying group":"NIVO"},"type":"Feature","geometry":{"type":"Point","coordinates":[-3.9833333,55.95]}},{"properties":{"city":"LEEDS","post code":"LS12 2EJ","county":null,"geo_score":0.771,"address 2":"ALBION WAY","id":"a663nyjt1x57","geo_precision":"zip","buying group":"NIVO"},"type":"Feature","geometry":{"type":"Point","coordinates":[19.4666667,51.75]}},{"properties":{"city":"DUDLEY","post code":"DY1 1TX","county":"WEST MIDLANDS","geo_score":0.857,"address 2":"TURNER STREET","id":"a663nyizbzp8","geo_precision":"zip","buying group":"NIVO"},"type":"Feature","geometry":{"type":"Point","coordinates":[-2.0833333,52.5]}},{"properties":{"city":"BIRMINGHAM","post code":"B24 9PS","county":null,"geo_score":0.857,"address 2":"82 KINGSBURY ROAD","id":"a663ny8jr8t1","geo_precision":"zip","buying group":"NIVO"},"type":"Feature","geometry":{"type":"Point","coordinates":[-1.9166667,52.4666667]}},{"properties":{"city":"BIRMINGHAM","post code":"B19 3NB","county":null,"geo_score":0.857,"address 2":"NEWTOWN","id":"a663nynf4n95","geo_precision":"zip","buying group":"NIVO"},"type":"Feature","geometry":{"type":"Point","coordinates":[-1.9166667,52.4666667]}},{"properties":{"city":"STOKE ON TRENT","post code":"ST1 5NJ","county":null,"geo_score":0.774,"address 2":"FESTIVAL TRADE PARK","id":"a663nyoefp6p","geo_precision":"zip","buying group":"NIVO"},"type":"Feature","geometry":{"type":"Point","coordinates":[-79.416304194,43.700113788]}},{"properties":{"city":"ABERDEEN","post code":"AB10 7JQ","county":null,"geo_score":0.857,"address 2":null,"id":"a663nyhj68nt","geo_precision":"zip","buying group":"NIVO"},"type":"Feature","geometry":{"type":"Point","coordinates":[-2.1,57.1333333]}},{"properties":{"city":"STOCKPORT","post code":"SK6 2SN","county":null,"geo_score":0.857,"address 2":"BREDBURY PARK WA","id":"a663nyh7type","geo_precision":"zip","buying group":"NIVO"},"type":"Feature","geometry":{"type":"Point","coordinates":[-2.15761184692383,53.4097876669541]}},{"properties":{"city":"DORCHESTER","post code":"DORSET","county":null,"geo_score":0.804,"address 2":"THE GROVE TRADING ESTATE","id":"a663nyijwyu5","geo_precision":"zip","buying group":"NIVO"},"type":"Feature","geometry":{"type":"Point","coordinates":[-80.3831528,33.1001666]}},{"properties":{"city":"HORWICH, BOLTON","post code":"BL6 5LU","county":null,"geo_score":0.78,"address 2":"CHORLEY NEW RD","id":"a663nydfo7l1","geo_precision":"zip","buying group":"NIVO"},"type":"Feature","geometry":{"type":"Point","coordinates":[-2.4333333,53.5833333]}},{"properties":{"city":"EXETER","post code":"EX2 8QW","county":"DEVON","geo_score":0.857,"address 2":"MARSH BARTON","id":"a663nygzmksm","geo_precision":"zip","buying group":"NIVO"},"type":"Feature","geometry":{"type":"Point","coordinates":[-3.52750718593597,50.7235979104432]}},{"properties":{"city":"MIDDLEWICH","post code":"CW10 9NX","county":"CHESHIRE","geo_score":0.857,"address 2":"MIDDLEWICH ROAD IND EST","id":"a663nybmnjqi","geo_precision":"zip","buying group":"NIVO"},"type":"Feature","geometry":{"type":"Point","coordinates":[-2.4333333,53.1833333]}},{"properties":{"city":"TAMWORTH","post code":"B79 7TA","county":"STAFFORDSHIRE","geo_score":0.857,"address 2":"BORMAN","id":"a663nymxtso6","geo_precision":"zip","buying group":"NIVO"},"type":"Feature","geometry":{"type":"Point","coordinates":[-1.6833333,52.6166667]}},{"properties":{"city":"SKELMERSDALE","post code":"WN8 9PL","county":"LANCASHIRE","geo_score":0.857,"address 2":"7 PADDOCK ROAD","id":"a663nyna00mi","geo_precision":"zip","buying group":"NIVO"},"type":"Feature","geometry":{"type":"Point","coordinates":[-2.8,53.5333333]}},{"properties":{"city":"GRANTHAM","post code":"NG31 9SG","county":"LINCOLNSHIRE","geo_score":0.857,"address 2":"ALMA PARK INDUSTRIAL ESTATE","id":"a663nylw8jop","geo_precision":"zip","buying group":"NIVO"},"type":"Feature","geometry":{"type":"Point","coordinates":[-0.641841888427734,52.9114901264566]}},{"properties":{"city":"ROCHESTER","post code":"ME2 4FR","county":"KENT","geo_score":0.857,"address 2":"TRIDENT CLOSE","id":"a663nyjxogv6","geo_precision":"zip","buying group":"NIVO"},"type":"Feature","geometry":{"type":"Point","coordinates":[-77.6155568,43.1547845]}},{"properties":{"city":"NOTTINGHAM","post code":"NG8 4GN","county":null,"geo_score":0.857,"address 2":"GLAISDALE DRIVE","id":"a663nyd5u3jq","geo_precision":"zip","buying group":"NIVO"},"type":"Feature","geometry":{"type":"Point","coordinates":[-1.15047454833984,52.9536023000285]}},{"properties":{"city":null,"post code":"NG8 6QP","county":"NOTTINGHAM","address 2":"BROXTOWE BUSINESS CENTRE","id":"a663nybkq2fh","buying group":"NIVO"},"type":"Feature","geometry":null},{"properties":{"city":"GREAT DUNMOW","post code":"CM6 1JA","county":"ESSEX","geo_score":0.753,"address 2":"UNIT 5","id":"a663nyij9s06","geo_precision":"zip","buying group":"NIVO"},"type":"Feature","geometry":{"type":"Point","coordinates":[24.89501953125,35.1558457022654]}},{"properties":{"city":"MANCHESTER","post code":"M34 3JN","county":null,"geo_score":0.857,"address 2":"WINDMILL TRADING ESTATE","id":"a663nyadv86v","geo_precision":"zip","buying group":"NIVO"},"type":"Feature","geometry":{"type":"Point","coordinates":[-2.23743438720703,53.4809464283615]}},{"properties":{"city":"TWYFORD","post code":"RG10 9LT","county":"BERKSHIRE","geo_score":0.75,"address 2":"CHANCERYGATE BUSINESS PARK","id":"a663nydpvz5i","geo_precision":"zip","buying group":"NIVO"},"type":"Feature","geometry":{"type":"Point","coordinates":[-8.85,40.1666667]}},{"properties":{"city":"MILTON KEYNES","post code":"MK7 8AT","county":null,"geo_score":0.762,"address 2":"TILBROOK","id":"a663nygj436n","geo_precision":"zip","buying group":"NIVO"},"type":"Feature","geometry":{"type":"Point","coordinates":[71.4752778,30.1955556]}},{"properties":{"city":"MIDDLETON","post code":"M24 1SW","county":"MANCHESTER","geo_score":0.843,"address 2":"PENNINE HOUSE","id":"a663nygy6359","geo_precision":"zip","buying group":"NIVO"},"type":"Feature","geometry":{"type":"Point","coordinates":[-84.3982763,39.5150576]}},{"properties":{"city":"STROUD","post code":"GL6 0JD","county":"GLOUCESTERSHIRE","geo_score":0.755,"address 2":"TETBURY LANE","id":"a663ny9m9qi7","geo_precision":"zip","buying group":"NIVO"},"type":"Feature","geometry":{"type":"Point","coordinates":[7.5280556,36.1288889]}},{"properties":{"city":"HULL","post code":"HU8 7QA","county":null,"geo_score":0.8,"address 2":"2 UPTON STREET","id":"a663nykpetpv","geo_precision":"zip","buying group":"NIVO"},"type":"Feature","geometry":{"type":"Point","coordinates":[12.0,51.5]}},{"properties":{"city":"WIGAN","post code":"WN4 9DW","county":null,"geo_score":0.857,"address 2":"SOUTH LANCS. INDUSTRIAL ESTATE","id":"a663nyn4afer","geo_precision":"zip","buying group":"NIVO"},"type":"Feature","geometry":{"type":"Point","coordinates":[-2.6166667,53.5333333]}},{"properties":{"city":"WESTBURY","post code":"BA13 4QT","county":"WILTSHIRE","geo_score":0.774,"address 2":"CORY WAY","id":"a663nyfcxz4l","geo_precision":"zip","buying group":"NIVO"},"type":"Feature","geometry":{"type":"Point","coordinates":[-2.0,52.5166667]}},{"properties":{"city":"FIFE","post code":"KY11 9JT","county":null,"geo_score":0.714,"address 2":"HILLEND INDUSTRIAL  ESTATE","id":"a663nydyrons","geo_precision":"zip","buying group":"NIVO"},"type":"Feature","geometry":{"type":"Point","coordinates":[-6.4777778,7.3819444]}},{"properties":{"city":"MANCHESTER","post code":"M43 6BE","county":null,"geo_score":0.857,"address 2":"167 EDGE LANE","id":"a663nyfjvz4e","geo_precision":"zip","buying group":"NIVO"},"type":"Feature","geometry":{"type":"Point","coordinates":[-2.23743438720703,53.4809464283615]}},{"properties":{"city":"LEICESTER","post code":"LE2 5LT","county":null,"geo_score":0.857,"address 2":"OADBY INDUSTRIAL ESTATE","id":"a663nymea951","geo_precision":"zip","buying group":"NIVO"},"type":"Feature","geometry":{"type":"Point","coordinates":[-1.1333333,52.6333333]}},{"properties":{"city":"LOUGHBOROUGH","post code":"LE12 9YE","county":"LEICESTERSHIRE","geo_score":0.857,"address 2":"BAWDON LODGE FARM","id":"a663nyo77vqy","geo_precision":"zip","buying group":"NIVO"},"type":"Feature","geometry":{"type":"Point","coordinates":[-1.2,52.7666667]}},{"properties":{"city":"IVYBRIDGE","post code":"PL21 9GE","county":"DEVON","geo_score":0.857,"address 2":"LEE MILL INDUSTRIAL ESTATE","id":"a663nyhag0q7","geo_precision":"zip","buying group":"NIVO"},"type":"Feature","geometry":{"type":"Point","coordinates":[-3.9166667,50.3833333]}},{"properties":{"city":"BOLTON","post code":"BL5 3XU","county":null,"geo_score":0.857,"address 2":"WINGATES INDUSTRIAL ESTATE","id":"a663nyl3lbwt","geo_precision":"zip","buying group":"NIVO"},"type":"Feature","geometry":{"type":"Point","coordinates":[-2.4333333,53.5833333]}},{"properties":{"city":"IRLAM","post code":"M44 6NN","county":"MANCHESTER","geo_score":0.857,"address 2":"WOODROW BUSINESS CENTRE","id":"a663nyfedxhf","geo_precision":"zip","buying group":"NIVO"},"type":"Feature","geometry":{"type":"Point","coordinates":[-2.4166667,53.4333333]}},{"properties":{"city":"STANSTEAD ABBOT","post code":"SG12 8HG","county":"HERTFORDSHIRE","geo_score":0.745,"address 2":"ROYDON RD","id":"a663nyfu3ra9","geo_precision":"zip","buying group":"NIVO"},"type":"Feature","geometry":{"type":"Point","coordinates":[52.6505556,31.1608333]}},{"properties":{"city":"LIVERPOOL","post code":"L3 2HA","county":null,"geo_score":0.857,"address 2":null,"id":"a663nyhtq0cw","geo_precision":"zip","buying group":"NIVO"},"type":"Feature","geometry":{"type":"Point","coordinates":[-2.97793865203857,53.410580680167]}},{"properties":{"city":"ST HELENS","post code":"WA9 3AH","county":"MERSEYSIDE","geo_score":0.768,"address 2":"JACKSON ST","id":"a663nyie5xmi","geo_precision":"zip","buying group":"NIVO"},"type":"Feature","geometry":{"type":"Point","coordinates":[-79.9430952,37.3412463]}},{"properties":{"city":"GLASGOW","post code":"G4 0BZ","county":null,"geo_score":0.857,"address 2":null,"id":"a663ny9s93bu","geo_precision":"zip","buying group":"NIVO"},"type":"Feature","geometry":{"type":"Point","coordinates":[-4.25763130187988,55.8651497187961]}},{"properties":{"city":"FELTHAM","post code":"TW13 7EJ","county":null,"geo_score":0.804,"address 2":"FOREST ROAD","id":"a663nyg5fjmc","geo_precision":"zip","buying group":"NIVO"},"type":"Feature","geometry":{"type":"Point","coordinates":[8.71699584425745,47.5141903281738]}},{"properties":{"city":null,"post code":"OX5 1YN","county":null,"address 2":"KIDLINGTON","id":"a663ny9dz0g2","buying group":"NIVO"},"type":"Feature","geometry":null},{"properties":{"city":null,"post code":null,"county":null,"address 2":null,"id":"a663nyf8jys5","buying group":"NIVO"},"type":"Feature","geometry":null},{"properties":{"city":"STANNINGTON","post code":"NE61 6AW","county":"NORTHUMBERLAND","geo_score":0.779,"address 2":"WHITEHOUSE CENTRE","id":"a663nynr5l04","geo_precision":"zip","buying group":"NIVO"},"type":"Feature","geometry":{"type":"Point","coordinates":[11.8181025981903,58.0704551538018]}},{"properties":{"city":null,"post code":"S41 9RQ","county":"CHESTERFILED","address 2":"COBNORWOOD CLOSE","id":"a663nyg9jyom","buying group":"NIVO"},"type":"Feature","geometry":null},{"properties":{"city":"BARTON","post code":"PR3 5AH","county":"PRESTON","geo_score":0.833,"address 2":"WHITEHORSE LANE","id":"a663ny8n2um6","geo_precision":"zip","buying group":"NIVO"},"type":"Feature","geometry":{"type":"Point","coordinates":[32.5,41.5833333]}},{"properties":{"city":"BASINGSTOKE","post code":"RG23 7LP","county":"HAMPSHIRE","geo_score":0.857,"address 2":"KEMPSHOT PARK ESTATE","id":"a663ny92dw4e","geo_precision":"zip","buying group":"NIVO"},"type":"Feature","geometry":{"type":"Point","coordinates":[-1.0833333,51.2666667]}},{"properties":{"city":"LONDON","post code":"SW18 4QL","county":null,"geo_score":0.857,"address 2":"DUNTSHILL ROAD","id":"a663nyb3f09u","geo_precision":"zip","buying group":"NIVO"},"type":"Feature","geometry":{"type":"Point","coordinates":[-0.125532746315002,51.5084152563931]}},{"properties":{"city":null,"post code":"CM3 8AB","county":"ESSEX","address 2":"INDUSTRIAL ESTATE","id":"a663ny86h1h8","buying group":"NIVO"},"type":"Feature","geometry":null},{"properties":{"city":"MELMERBY","post code":"HG4 5NB","county":"RIPON","geo_score":0.802,"address 2":"BARKER BUSINESS PARK","id":"a663nyaz4ifm","geo_precision":"zip","buying group":"NIVO"},"type":"Feature","geometry":{"type":"Point","coordinates":[-62.498620157,45.650144617]}},{"properties":{"city":"LINLITHGOW","post code":"EH49 7QY","county":null,"geo_score":0.857,"address 2":"LINLITHGOW BRIDGE","id":"a663nyhyav8g","geo_precision":"zip","buying group":"NIVO"},"type":"Feature","geometry":{"type":"Point","coordinates":[-3.60364437103271,55.9763916543007]}},{"properties":{"city":null,"post code":"PO38 2NQ","county":"ISLE OF WIGHT","address 2":"SANDROCK RD","id":"a663nykmvlye","buying group":"NIVO"},"type":"Feature","geometry":null},{"properties":{"city":"GLENROTHES","post code":"KY7 4AA","county":"FIFE","geo_score":0.857,"address 2":null,"id":"a663nynpdh4z","geo_precision":"zip","buying group":"NIVO"},"type":"Feature","geometry":{"type":"Point","coordinates":[-3.1833333,56.2]}},{"properties":{"city":"KIDDERMINSTER","post code":"DY10 4JB","county":"WORCESTERSHIRE","geo_score":0.857,"address 2":"HARTLEBURY TRADING ESTATE","id":"a663nya6intc","geo_precision":"zip","buying group":"NIVO"},"type":"Feature","geometry":{"type":"Point","coordinates":[-2.25,52.3833333]}},{"properties":{"city":"LONDON","post code":"E16 2BS","county":null,"geo_score":0.857,"address 2":"439 NORTH WOOLWICH ROAD","id":"a663ny8b5i5k","geo_precision":"zip","buying group":"NIVO"},"type":"Feature","geometry":{"type":"Point","coordinates":[-0.125532746315002,51.5084152563931]}},{"properties":{"city":"HULL","post code":"HU5 4HF","county":null,"geo_score":0.8,"address 2":"BONTOFT AVENUE","id":"a663nyo6kwi4","geo_precision":"zip","buying group":"NIVO"},"type":"Feature","geometry":{"type":"Point","coordinates":[12.0,51.5]}},{"properties":{"city":"PORT TALBOT","post code":"SA12 6HZ","county":"WEST GLAMORGAN","geo_score":0.786,"address 2":"ADDISON ROAD","id":"a663nymm5tes","geo_precision":"zip","buying group":"NIVO"},"type":"Feature","geometry":{"type":"Point","coordinates":[-8.6166667,41.15]}},{"properties":{"city":"MANSFIELD","post code":"NG19 7JY","county":"NOTTS","geo_score":0.857,"address 2":"EVANS BUSINESS CENTRE","id":"a663nyjwywx4","geo_precision":"zip","buying group":"NIVO"},"type":"Feature","geometry":{"type":"Point","coordinates":[-1.2,53.1333333]}},{"properties":{"city":"HYDE","post code":"SK14 4GX","county":"CHESHIRE","geo_score":0.821,"address 2":"EAST TAME BUSINESS PARK","id":"a663nyd2v1q8","geo_precision":"zip","buying group":"NIVO"},"type":"Feature","geometry":{"type":"Point","coordinates":[120.2516667,33.7680556]}},{"properties":{"city":null,"post code":null,"county":null,"address 2":null,"id":"a663nym6qu1g","buying group":"NIVO"},"type":"Feature","geometry":null},{"properties":{"city":"UPMINSTER","post code":"RM14 2WL","county":"ESSEX","geo_score":0.857,"address 2":null,"id":"a663nymio7e5","geo_precision":"zip","buying group":"NIVO"},"type":"Feature","geometry":{"type":"Point","coordinates":[0.25,51.55]}},{"properties":{"city":"CALNE","post code":"SN11 9XZ","county":"WILTSHIRE","geo_score":0.735,"address 2":null,"id":"a663nyhv061r","geo_precision":"zip","buying group":"NIVO"},"type":"Feature","geometry":{"type":"Point","coordinates":[114.1833333,22.3166667]}},{"properties":{"city":"OLDHAM","post code":"OL9 6LD","county":null,"geo_score":0.857,"address 2":"NEVILLE STREET INDUSTRIAL EST","id":"a663nykvn0gc","geo_precision":"zip","buying group":"NIVO"},"type":"Feature","geometry":{"type":"Point","coordinates":[-2.11830139160156,53.5405114130026]}},{"properties":{"city":"ROCHESTER","post code":"ME2 4LT","county":"KENT","geo_score":0.857,"address 2":"CENTRAL BUSINESS PARK","id":"a663nymhb47l","geo_precision":"zip","buying group":"NIVO"},"type":"Feature","geometry":{"type":"Point","coordinates":[-77.6155568,43.1547845]}},{"properties":{"city":"MILTON KEYNES","post code":"MK13 9HB","county":null,"geo_score":0.762,"address 2":"BRADWELL ABBEY","id":"a663nyhp1748","geo_precision":"zip","buying group":"NIVO"},"type":"Feature","geometry":{"type":"Point","coordinates":[71.4752778,30.1955556]}},{"properties":{"city":"SOUTHAMPTON","post code":"SO31 1FQ","county":null,"geo_score":0.857,"address 2":"PARKGATE BUSINESS CENTRE","id":"a663nynged9b","geo_precision":"zip","buying group":"NIVO"},"type":"Feature","geometry":{"type":"Point","coordinates":[-1.4,50.9]}},{"properties":{"city":"CO.ANTRIM","post code":"BT38 9AP","county":null,"geo_score":0.769,"address 2":"CARRICKFERGUS","id":"a663nyblxeou","geo_precision":"zip","buying group":"NIVO"},"type":"Feature","geometry":{"type":"Point","coordinates":[-76.2413889,20.2977778]}},{"properties":{"city":"CARRICKFERGUS","post code":"BT38 9AP","county":"CO.ANTRIM","geo_score":0.857,"address 2":null,"id":"a663nydtksip","geo_precision":"zip","buying group":"NIVO"},"type":"Feature","geometry":{"type":"Point","coordinates":[-5.8058,54.7158]}},{"properties":{"city":"RUNCORN","post code":"WA7 5AF","county":"CHESHIRE","geo_score":0.857,"address 2":null,"id":"a663nycytm05","geo_precision":"zip","buying group":"NIVO"},"type":"Feature","geometry":{"type":"Point","coordinates":[-2.75,53.3333333]}},{"properties":{"city":"BRADFORD","post code":"BD4 9SW","county":"W.YORKS","geo_score":0.857,"address 2":"KNOWLES LANE","id":"a663nymz7yvq","geo_precision":"zip","buying group":"NIVO"},"type":"Feature","geometry":{"type":"Point","coordinates":[-1.75206184387207,53.7939083408637]}},{"properties":{"city":"SCARBOROUGH","post code":"YO12 5AF","county":"NORTH YORKSHIRE","geo_score":0.857,"address 2":"COOPLANDS TRADING ESTATE","id":"a663nyhu5swm","geo_precision":"zip","buying group":"NIVO"},"type":"Feature","geometry":{"type":"Point","coordinates":[-0.404434204101562,54.2796584264538]}},{"properties":{"city":"LEEDS","post code":"LS9 7NB","county":null,"geo_score":0.771,"address 2":null,"id":"a663nylfq00s","geo_precision":"zip","buying group":"NIVO"},"type":"Feature","geometry":{"type":"Point","coordinates":[19.4666667,51.75]}},{"properties":{"city":"LYME REGIS","post code":"DT7 3LS","county":"DORSET","geo_score":0.746,"address 2":"UPLYME ROAD IND EST","id":"a663nynmoia3","geo_precision":"zip","buying group":"NIVO"},"type":"Feature","geometry":{"type":"Point","coordinates":[-77.05,-12.05]}},{"properties":{"city":"HAILSHAM","post code":"BN27 3JU","county":"EAST SUSSEX","geo_score":0.857,"address 2":"APEX PARK","id":"a663ny98xhi2","geo_precision":"zip","buying group":"NIVO"},"type":"Feature","geometry":{"type":"Point","coordinates":[0.2666667,50.8666667]}}],"is_temporal":false,"author":{"url":null,"metadata":null,"contact_name":null,"contact_address":null,"source":null,"contact_phone":null},"source":null,"pagination":{"sort":null,"start":0,"total":167,"limit":1000000},"state":"complete","tags":"","published":"2014-08-13T06:09:20-04:00","id":125458}