{"type":"FeatureCollection","data_type":"Dataset","url_type":null,"permissions":[{"permissions":{"download":true,"view":true},"group_id":"everyone"}],"classification":null,"title":"Artist Open Studio in East Bay","count":5,"stream_id":125889,"contributor":{"url":"http://geocommons.com/users/28526","name":"lfernandez"},"data_attributes":null,"calculation_params":null,"icon_link":null,"link":"http://geocommons.com/overlays/125889.json","extent":[-122.369,37.3756,-122.217,37.9603],"geometry_types":["point"],"unique_name":null,"name":"Artist Open Studio in East Bay","feature_count":5,"description":"","next_feature":null,"is_raster":false,"short_classification":"Y","stats":{},"features":[{"properties":{"city":"Martinez","type of art":"ceramics","geo_score":0.61,"artist name":"Jason Henry","id":"a64f8mp4x8s8","geo_precision":"street","address":"3410 Brookside Dr.","state":"CA"},"type":"Feature","geometry":{"type":"Point","coordinates":[-122.216902,37.375621]}},{"properties":{"city":"El Sobrante","type of art":"painting","geo_score":0.902,"artist name":"Sylvia Brallier","id":"a64f8mlke8n8","geo_precision":"range","address":"5336 Brookwood Ct.","state":"CA"},"type":"Feature","geometry":{"type":"Point","coordinates":[-122.248104,37.960303]}},{"properties":{"city":"Richmond","type of art":"metal","geo_score":0.707,"artist name":"Don Carlson","id":"a64f8mfu5gh7","geo_precision":"range","address":"674 35th St,","state":"CA"},"type":"Feature","geometry":{"type":"Point","coordinates":[-122.334535,37.940863]}},{"properties":{"city":"Richmond","type of art":"painting","geo_score":0.768,"artist name":"Tracy Fetter","id":"a64f8mfdp16l","geo_precision":"range","address":"23 Maine Av.","state":"CA"},"type":"Feature","geometry":{"type":"Point","coordinates":[-122.369124,37.928056]}},{"properties":{"city":"Richmond","type of art":"painting","geo_score":0.805,"artist name":"Gary Becker","id":"a64f8mdr6sx3","geo_precision":"range","address":"6057 Felix Ave.","state":"CA"},"type":"Feature","geometry":{"type":"Point","coordinates":[-122.317395,37.947706]}}],"is_temporal":false,"author":{"url":"","metadata":"","contact_name":"","contact_address":"","source":"","contact_phone":""},"source":"","pagination":{"sort":null,"start":0,"total":5,"limit":1000000},"state":"complete","tags":"artist,bay,east,open,studio","published":"2014-08-13T06:44:37-04:00","id":125889}