{"type":"FeatureCollection","data_type":"Dataset","url_type":null,"permissions":[{"permissions":{"download":true,"view":true},"group_id":"everyone"}],"classification":null,"title":"Certified CLinics","count":135,"stream_id":125914,"contributor":{"url":"http://geocommons.com/users/28547","name":"EllenMcCreedy"},"data_attributes":null,"calculation_params":null,"icon_link":null,"link":"http://geocommons.com/overlays/125914.json","extent":[-95.3368,43.6343,-92.4113,46.3802],"geometry_types":["point"],"unique_name":null,"name":"Certified CLinics","feature_count":135,"description":"","next_feature":null,"is_raster":false,"short_classification":"Y","stats":{},"features":[{"properties":{"city":"Rush City","zip":"55,069","county":"Chisago","geo_score":0.0,"organization_name":"Fairview Health Services","clinic_name":"Fairview Rush City Clinic","id":"a65lpxoktcbx","geo_precision":"unmatched","address":"760 W. 4th St."},"type":"Feature","geometry":null},{"properties":{"city":"Plymouth","zip":"55,447","county":"Hennepin","geo_score":0.0,"organization_name":"Park Nicollet","clinic_name":"Park Nicollet Clinic - Plymouth","id":"a65lpxjfc241","geo_precision":"unmatched","address":"3007 Harbor Ln. N."},"type":"Feature","geometry":null},{"properties":{"city":"Coon Rapids","zip":"55433","county":"Anoka","geo_score":0.395,"organization_name":"Allina Hospitals and Clinics","clinic_name":"Allina Medical Clinic - Coon Rapids 1282","id":"a65lpxorbhu9","geo_precision":"street","address":"9055 Springbrook Dr. NW"},"type":"Feature","geometry":{"type":"Point","coordinates":[-93.267066,45.124604]}},{"properties":{"city":"Ramsey","zip":"55303","county":"Anoka","geo_score":0.429,"organization_name":"Allina Hospitals and Clinics","clinic_name":"Allina Medical Clinic - Ramsey 1282","id":"a65lpxgvzlgq","geo_precision":"street","address":"5300 Alpine Dr NW"},"type":"Feature","geometry":{"type":"Point","coordinates":[-93.835119,45.320413]}},{"properties":{"city":"Andover","zip":"55304","county":"Anoka","geo_score":0.721,"organization_name":"Fairview Health Services","clinic_name":"Fairview Andover 1274","id":"a65lpxo049yu","geo_precision":"range","address":"13819 Hanson Blvd NW"},"type":"Feature","geometry":{"type":"Point","coordinates":[-93.306039,45.221289]}},{"properties":{"city":"Andover","zip":"55304","county":"Anoka","geo_score":0.721,"organization_name":"Fairview Health Services","clinic_name":"Fairview Andover 1290","id":"a65lpxq4jer1","geo_precision":"range","address":"13819 Hanson Blvd NW"},"type":"Feature","geometry":{"type":"Point","coordinates":[-93.306039,45.221289]}},{"properties":{"city":"Blaine","zip":"55449","county":"Anoka","geo_score":0.424,"organization_name":"Fairview Health Services","clinic_name":"Fairview Blaine 1291","id":"a65lpxrt3i02","geo_precision":"street","address":"10961 Club West Pkwy NE"},"type":"Feature","geometry":{"type":"Point","coordinates":[-93.396087,44.956779]}},{"properties":{"city":"Columbia Heights","zip":"55,421","county":"Anoka","geo_score":0.0,"organization_name":"Fairview Health Services","clinic_name":"Fairview Columbia Heights 1291","id":"a65lpxl4ykh3","geo_precision":"unmatched","address":"4000 Central Ave NE"},"type":"Feature","geometry":null},{"properties":{"city":"Fridley","zip":"55,432","county":"Anoka","geo_score":0.0,"organization_name":"Fairview Health Services","clinic_name":"Fairview Fridley 1291","id":"a65lpxtd1w4y","geo_precision":"unmatched","address":"6341 University Ave NE"},"type":"Feature","geometry":null},{"properties":{"city":"Lino Lakes","zip":"55014","county":"Anoka","geo_score":0.902,"organization_name":"Fairview Health Services","clinic_name":"Fairview Lino Lakes Clinic 1291","id":"a65lpxhxkbm6","geo_precision":"range","address":"7455 Village Dr."},"type":"Feature","geometry":{"type":"Point","coordinates":[-93.110087,45.18028]}},{"properties":{"city":"Coon Rapids","zip":"55448","county":"Anoka","geo_score":0.338,"organization_name":"North Metro Pediatrics, PA","clinic_name":"North Metro Pediatrics 1278","id":"a65lpxsdp7pk","geo_precision":"street","address":"10081 Dogwood Street NW, Suite 100"},"type":"Feature","geometry":{"type":"Point","coordinates":[-93.271728,45.151196]}},{"properties":{"city":"Mankato","zip":"56002","county":"Blue Earth","geo_score":0.347,"organization_name":"Mankato Clinic","clinic_name":"Mankato Clinic (1230 E. Main St., Mankato) 1273","id":"a65lpxqmqmvh","geo_precision":"street","address":"1230 E. Main St."},"type":"Feature","geometry":{"type":"Point","coordinates":[-93.964948,44.290124]}},{"properties":{"city":"Chaska","zip":"55318","county":"Carver","geo_score":0.567,"organization_name":"Allina Hospitals and Clinics","clinic_name":"Allina Medical Clinic Crossroads - Chaska 1282","id":"a65lpxn6ec2u","geo_precision":"range","address":"3000 N. Chestnut St., #120"},"type":"Feature","geometry":{"type":"Point","coordinates":[-93.599996,44.784468]}},{"properties":{"city":"Chaska","zip":"55318","county":"Carver","geo_score":0.833,"organization_name":"Fairview Health Services","clinic_name":"Fairview Jonathan Clinic 1291","id":"a65lpxp1201q","geo_precision":"range","address":"1580 White Oak Dr"},"type":"Feature","geometry":{"type":"Point","coordinates":[-93.605193,44.805516]}},{"properties":{"city":"Pillager","zip":"56473","county":"Cass","geo_score":0.511,"organization_name":"Lakewood Health System","clinic_name":"Lakewood Health - Pillager","id":"a65lpxiik7n8","geo_precision":"street","address":"653 Pillsbury St No"},"type":"Feature","geometry":{"type":"Point","coordinates":[-94.448231,46.380214]}},{"properties":{"city":"North Branch","zip":"55056","county":"Chisago","geo_score":0.537,"organization_name":"Allina Hospitals and Clinics","clinic_name":"Allina Medical Clinic - North Branch 1282","id":"a65lpxhua9p2","geo_precision":"street","address":"38986 14th Ave."},"type":"Feature","geometry":{"type":"Point","coordinates":[-92.99095,45.51247]}},{"properties":{"city":"Chisago City","zip":"55013","county":"Chisago","geo_score":0.805,"organization_name":"Fairview Health Services","clinic_name":"Fairview Chisago Lakes Clinic 1291","id":"a65lpxp0gys3","geo_precision":"range","address":"11725 Stinson Ave."},"type":"Feature","geometry":{"type":"Point","coordinates":[-92.869544,45.380491]}},{"properties":{"city":"Wyoming","zip":"55092","county":"Chisago","geo_score":0.812,"organization_name":"Fairview Health Services","clinic_name":"Fairview Lakes Family Medicine 1291","id":"a65lpxntohj6","geo_precision":"range","address":"5200 Fairview Blvd."},"type":"Feature","geometry":{"type":"Point","coordinates":[-92.998458,45.322229]}},{"properties":{"city":"North Branch","zip":"55056","county":"Chisago","geo_score":0.814,"organization_name":"Fairview Health Services","clinic_name":"Fairview North Branch Clinic 1291","id":"a65lpxiqk5cq","geo_precision":"range","address":"6413 Oak St."},"type":"Feature","geometry":{"type":"Point","coordinates":[-92.979989,45.509321]}},{"properties":{"city":"Eagan","zip":"55121","county":"Dakota","geo_score":0.805,"organization_name":"Allina Hospitals and Clinics","clinic_name":"Allina Medical Clinic - Eagan 1282","id":"a65lpxgnatk8","geo_precision":"range","address":"1110 Yankee Doodle Rd."},"type":"Feature","geometry":{"type":"Point","coordinates":[-93.14766,44.83354]}},{"properties":{"city":"Farmington","zip":"55024","county":"Dakota","geo_score":0.329,"organization_name":"Allina Hospitals and Clinics","clinic_name":"Allina Medical Clinic - Farmington 1282","id":"a65lpxj1ezaj","geo_precision":"street","address":"21260 Chippendale Ave. West"},"type":"Feature","geometry":{"type":"Point","coordinates":[-93.136534,44.702965]}},{"properties":{"city":"Hastings","zip":"55,033","county":"Dakota","geo_score":0.0,"organization_name":"Allina Hospitals and Clinics","clinic_name":"Allina Medical Clinic - Hastings (1285 Nininger Rd., #100) 1282","id":"a65lpxorprhm","geo_precision":"unmatched","address":"1285 Nininger Rd. Hastings"},"type":"Feature","geometry":null},{"properties":{"city":"Apple Valley","zip":"55124","county":"Dakota","geo_score":0.823,"organization_name":"Fairview Health Services","clinic_name":"Fairview Cedar Ridge Clinic 1291","id":"a65lpxu45hec","geo_precision":"range","address":"15650 Cedar Avenue"},"type":"Feature","geometry":{"type":"Point","coordinates":[-93.217749,44.722196]}},{"properties":{"city":"Apple Valley","zip":"55124","county":"Dakota","geo_score":0.823,"organization_name":"Fairview Health Services","clinic_name":"Fairview Children's Clinic 1291","id":"a65lpxokv5ao","geo_precision":"range","address":"15650 Cedar Avenue"},"type":"Feature","geometry":{"type":"Point","coordinates":[-93.217749,44.722196]}},{"properties":{"city":"Eagan","zip":"55122","county":"Dakota","geo_score":0.805,"organization_name":"Fairview Health Services","clinic_name":"Fairview Eagan Clinic 1291","id":"a65lpxr29ea4","geo_precision":"range","address":"1440 Duckwood Dr."},"type":"Feature","geometry":{"type":"Point","coordinates":[-93.167898,44.827179]}},{"properties":{"city":"Farmington","zip":"55024","county":"Dakota","geo_score":0.62,"organization_name":"Fairview Health Services","clinic_name":"Fairview Farmington Clinic 1291","id":"a65lpxs9q33s","geo_precision":"street","address":"19685 Pilot Knob Road, #100"},"type":"Feature","geometry":{"type":"Point","coordinates":[-93.176831,44.717344]}},{"properties":{"city":"Lakeville","zip":"55044","county":"Dakota","geo_score":0.486,"organization_name":"Fairview Health Services","clinic_name":"Fairview Lakeville Clinic 1291","id":"a65lpxqu7ppp","geo_precision":"street","address":"18580 Joplin Ave Lakeville"},"type":"Feature","geometry":{"type":"Point","coordinates":[-93.280148,44.677789]}},{"properties":{"city":"Burnsville","zip":"55337","county":"Dakota","geo_score":0.88,"organization_name":"Fairview Health Services","clinic_name":"Fairview Ridges Clinic 1291","id":"a65lpxgx4bvc","geo_precision":"range","address":"303 Nicollet Blvd., #140"},"type":"Feature","geometry":{"type":"Point","coordinates":[-93.275812,44.749715]}},{"properties":{"city":"Prior Lake","zip":"55372","county":"Dakota","geo_score":0.831,"organization_name":"Fairview Health Services","clinic_name":"Fairview RidgeValley Clinic 1291","id":"a65lpxf873gi","geo_precision":"range","address":"4151 Willowwood St SE"},"type":"Feature","geometry":{"type":"Point","coordinates":[-93.438492,44.705167]}},{"properties":{"city":"Rosemount","zip":"55068","county":"Dakota","geo_score":0.628,"organization_name":"Fairview Health Services","clinic_name":"Fairview Rosemount Clinic 1291","id":"a65lpxm9e6nn","geo_precision":"street","address":"15075 Cimarron Ave"},"type":"Feature","geometry":{"type":"Point","coordinates":[-93.138956,44.731733]}},{"properties":{"city":"Eagan","zip":"55122","county":"Dakota","geo_score":0.743,"organization_name":"Park Nicollet","clinic_name":"Park Nicollet Clinic - Eagan 1295","id":"a65lpxtg9vsf","geo_precision":"range","address":"1885 Plaza Dr."},"type":"Feature","geometry":{"type":"Point","coordinates":[-93.199936,44.787777]}},{"properties":{"city":"Blue Earth","zip":"56013","county":"Faribault","geo_score":0.774,"organization_name":"United Hospital District Clinics","clinic_name":"United Hospital Clinics - Blue Earth 1268","id":"a65lpxjo3ojf","geo_precision":"range","address":"520 South Galbraith"},"type":"Feature","geometry":{"type":"Point","coordinates":[-94.099478,43.634256]}},{"properties":{"city":"Blaine","zip":"55449","county":"Hennepin","geo_score":0.39,"organization_name":"Allina Hospitals and Clinics","clinic_name":"Allina Medical Clinic - Blaine 1282","id":"a65lpxs9i9kj","geo_precision":"street","address":"10705 Town Square Dr. NE, Ste. 100"},"type":"Feature","geometry":{"type":"Point","coordinates":[-93.298721,44.82188]}},{"properties":{"city":"Brooklyn Park","zip":"55443","county":"Hennepin","geo_score":0.591,"organization_name":"Allina Hospitals and Clinics","clinic_name":"Allina Medical Clinic - Brooklyn Park 1282","id":"a65lpxsirf8c","geo_precision":"street","address":"9300 Noble Pkwy North"},"type":"Feature","geometry":{"type":"Point","coordinates":[-93.336126,45.120284]}},{"properties":{"city":"Champlin","zip":"55316","county":"Hennepin","geo_score":0.462,"organization_name":"Allina Hospitals and Clinics","clinic_name":"Allina Medical Clinic - Champlin 1282","id":"a65lpxubyqr3","geo_precision":"street","address":"11269 Jefferson Hwy. N."},"type":"Feature","geometry":{"type":"Point","coordinates":[-93.39241,45.185932]}},{"properties":{"city":"Edina","zip":"55435","county":"Hennepin","geo_score":0.823,"organization_name":"Allina Hospitals and Clinics","clinic_name":"Allina Medical Clinic - Edina 1282","id":"a65lpxmx6w84","geo_precision":"range","address":"7500 France Avenue South"},"type":"Feature","geometry":{"type":"Point","coordinates":[-93.328912,44.867745]}},{"properties":{"city":"Minneapolis","zip":"55408","county":"Hennepin","geo_score":0.464,"organization_name":"Allina Hospitals and Clinics","clinic_name":"Allina Medical Clinic - Isles 1282","id":"a65lpxu3xj43","geo_precision":"street","address":"2800 Hennepin Ave. S."},"type":"Feature","geometry":{"type":"Point","coordinates":[-93.295717,44.956964]}},{"properties":{"city":"Maple Grove","zip":"55369","county":"Hennepin","geo_score":0.876,"organization_name":"Allina Hospitals and Clinics","clinic_name":"Allina Medical Clinic - Maple Grove 1282","id":"a65lpxv7xiln","geo_precision":"range","address":"7840 Vinewood Lane"},"type":"Feature","geometry":{"type":"Point","coordinates":[-93.448242,45.096796]}},{"properties":{"city":"Minneapolis","zip":"55402","county":"Hennepin","geo_score":0.635,"organization_name":"Allina Hospitals and Clinics","clinic_name":"Allina Medical Clinic - Nicollet Mall 1282","id":"a65lpxprnlj6","geo_precision":"street","address":"825 Nicollet Mall #300"},"type":"Feature","geometry":{"type":"Point","coordinates":[-93.27063,44.978828]}},{"properties":{"city":"Minneapolis","zip":"55408","county":"Hennepin","geo_score":0.902,"organization_name":"Allina Hospitals and Clinics","clinic_name":"Allina Medical Clinic - The Doctors Uptown 1282","id":"a65lpxq2b8oa","geo_precision":"range","address":"1221 West Lake Street"},"type":"Feature","geometry":{"type":"Point","coordinates":[-93.29464,44.948364]}},{"properties":{"city":"Plymouth","zip":"55441","county":"Hennepin","geo_score":0.451,"organization_name":"Allina Hospitals and Clinics","clinic_name":"Allina Medical Clinic - West Health Campus 1282","id":"a65lpxsz46uk","geo_precision":"street","address":"2855 Campus Dr., Ste. 400"},"type":"Feature","geometry":{"type":"Point","coordinates":[-93.447672,45.007749]}},{"properties":{"city":"Richfield","zip":"55423","county":"Hennepin","geo_score":0.49,"organization_name":"Allina Hospitals and Clinics","clinic_name":"Allina Medical Clinic - Woodlake 1282","id":"a65lpxfh1nzy","geo_precision":"street","address":"407 W. 66th St."},"type":"Feature","geometry":{"type":"Point","coordinates":[-93.278137,44.883441]}},{"properties":{"city":"Minneapolis","zip":"55404","county":"Hennepin","geo_score":0.468,"organization_name":"Children's Hospital and Clinics of MN","clinic_name":"Children's Clinic - Minneapolis","id":"a65lpxrsk28i","geo_precision":"street","address":"2525 Chicago Ave. S. Minneapolis"},"type":"Feature","geometry":{"type":"Point","coordinates":[-93.262954,44.970366]}},{"properties":{"city":"Maple Grove","zip":"55311","county":"Hennepin","geo_score":0.556,"organization_name":"Fairview Health Services","clinic_name":"Fairview Bass Lake Clinic 1291","id":"a65lpxp3kowc","geo_precision":"street","address":"6320 Wedgewood Road N."},"type":"Feature","geometry":{"type":"Point","coordinates":[-93.450699,45.091499]}},{"properties":{"city":"Brooklyn Park","zip":"55443","county":"Hennepin","geo_score":0.49,"organization_name":"Fairview Health Services","clinic_name":"Fairview Brooklyn Park 1291","id":"a65lpxsbgyqo","geo_precision":"street","address":"10000 Zane Ave. N."},"type":"Feature","geometry":{"type":"Point","coordinates":[-93.356529,45.104912]}},{"properties":{"city":"Edina","zip":"55435","county":"Hennepin","geo_score":0.364,"organization_name":"Fairview Health Services","clinic_name":"Fairview Crosstown Clinic 1291","id":"a65lpxop0sau","geo_precision":"street","address":"6545 France Ave. S., #150"},"type":"Feature","geometry":{"type":"Point","coordinates":[-93.328976,44.88845]}},{"properties":{"city":"Eden Prairie","zip":"55344","county":"Hennepin","geo_score":0.805,"organization_name":"Fairview Health Services","clinic_name":"Fairview EdenCenter Clinic 1291","id":"a65lpxjbjdie","geo_precision":"range","address":"830 Prairie Center Dr"},"type":"Feature","geometry":{"type":"Point","coordinates":[-93.443556,44.863493]}},{"properties":{"city":"Minneapolis","zip":"55406","county":"Hennepin","geo_score":0.49,"organization_name":"Fairview Health Services","clinic_name":"Fairview Hiawatha Clinic 1291","id":"a65lpxg2s48m","geo_precision":"street","address":"3809 42nd Ave. S."},"type":"Feature","geometry":{"type":"Point","coordinates":[-93.238472,44.926913]}},{"properties":{"city":"Maple Grove","zip":"55369","county":"Hennepin","geo_score":0.634,"organization_name":"Fairview Health Services","clinic_name":"Fairview Maple Grove Medical Center Family Medicine Clinic","id":"a65lpxhlp803","geo_precision":"street","address":"14500 99th Ave North"},"type":"Feature","geometry":{"type":"Point","coordinates":[-93.43949,45.13364]}},{"properties":{"city":"Maple Grove","zip":"55369","county":"Hennepin","geo_score":0.634,"organization_name":"Fairview Health Services","clinic_name":"Fairview Maple Grove Medical Center Family Medicine Clinic 1291","id":"a65lpxlaez28","geo_precision":"street","address":"14500 99th Ave North"},"type":"Feature","geometry":{"type":"Point","coordinates":[-93.43949,45.13364]}},{"properties":{"city":"New Brighton","zip":"55112","county":"Hennepin","geo_score":0.61,"organization_name":"Fairview Health Services","clinic_name":"Fairview Northeast Clinic 1291","id":"a65lpxk1izoa","geo_precision":"street","address":"1151 Silver Lake Road"},"type":"Feature","geometry":{"type":"Point","coordinates":[-93.218943,45.09335]}},{"properties":{"city":"St Bloomington","zip":"55112","county":"Hennepin","geo_score":0.495,"organization_name":"Fairview Health Services","clinic_name":"Fairview Oxboro Clinic 1291","id":"a65lpxqd4fok","geo_precision":"zip","address":"600 West 98th  55420"},"type":"Feature","geometry":{"type":"Point","coordinates":[-93.208558,45.104966]}},{"properties":{"city":"Rogers","zip":"55374","county":"Hennepin","geo_score":0.902,"organization_name":"Fairview Health Services","clinic_name":"Fairview Rogers Clinic 1291","id":"a65lpxrd4hgs","geo_precision":"range","address":"14040 Northdale Blvd."},"type":"Feature","geometry":{"type":"Point","coordinates":[-93.555761,45.209178]}},{"properties":{"city":"Minneapolis","zip":"55408","county":"Hennepin","geo_score":0.902,"organization_name":"Fairview Health Services","clinic_name":"Fairview Uptown Clinic 1291","id":"a65lpxn6jukr","geo_precision":"range","address":"1203 LAGOON AVENUE"},"type":"Feature","geometry":{"type":"Point","coordinates":[-93.294459,44.949167]}},{"properties":{"city":"Apple Valley","zip":"55124","county":"Hennepin","geo_score":0.482,"organization_name":"HealthPartners","clinic_name":"HealthPartners Apple Valley Clinic","id":"a65lpxplaqt3","geo_precision":"street","address":"15290 Pennock Ln Apple Valley"},"type":"Feature","geometry":{"type":"Point","coordinates":[-93.222986,44.733346]}},{"properties":{"city":"Arden Hills","zip":"55112","county":"Hennepin","geo_score":0.756,"organization_name":"HealthPartners","clinic_name":"HealthPartners Arden Hills Clinic","id":"a65lpxikhy9z","geo_precision":"range","address":"3930 Northwoods"},"type":"Feature","geometry":{"type":"Point","coordinates":[-93.150459,45.058219]}},{"properties":{"city":"Bloomington","zip":"55420","county":"Hennepin","geo_score":0.878,"organization_name":"HealthPartners","clinic_name":"HealthPartners Bloomington Clinic","id":"a65lpxsy1h8o","geo_precision":"range","address":"8600 Nicollet Ave S"},"type":"Feature","geometry":{"type":"Point","coordinates":[-93.278411,44.847939]}},{"properties":{"city":"Brooklyn Center","zip":"55429","county":"Hennepin","geo_score":0.902,"organization_name":"HealthPartners","clinic_name":"HealthPartners Brooklyn Center Clinic","id":"a65lpxp6qdjx","geo_precision":"range","address":"6845 Lee Ave N"},"type":"Feature","geometry":{"type":"Point","coordinates":[-93.339106,45.079084]}},{"properties":{"city":"St. Paul","zip":"55104","county":"Hennepin","geo_score":0.429,"organization_name":"HealthPartners","clinic_name":"HealthPartners Center for International Health/Midway Clinic","id":"a65lpxkgtx9k","geo_precision":"street","address":"451 N. Dunlap St."},"type":"Feature","geometry":{"type":"Point","coordinates":[-93.149148,44.941621]}},{"properties":{"city":"St. Paul","zip":"55108","county":"Hennepin","geo_score":0.815,"organization_name":"HealthPartners","clinic_name":"HealthPartners Como Clinic","id":"a65lpxj7jvkl","geo_precision":"range","address":"2500 Como Ave"},"type":"Feature","geometry":{"type":"Point","coordinates":[-93.201017,44.98643]}},{"properties":{"city":"Coon Rapids","zip":"55433","county":"Hennepin","geo_score":0.84,"organization_name":"HealthPartners","clinic_name":"HealthPartners Coon Rapids Clinic","id":"a65lpxsizu8k","geo_precision":"range","address":"11475 Robinson Dr NW"},"type":"Feature","geometry":{"type":"Point","coordinates":[-93.313943,45.179541]}},{"properties":{"city":"St. Paul","zip":"55114","county":"Hennepin","geo_score":0.68,"organization_name":"HealthPartners","clinic_name":"HealthPartners Health Center for Women","id":"a65lpxl3m6mi","geo_precision":"range","address":"2635 University Ave Ste 160"},"type":"Feature","geometry":{"type":"Point","coordinates":[-93.20333,44.966343]}},{"properties":{"city":"Grove Heights","zip":"55077","county":"Hennepin","geo_score":0.752,"organization_name":"HealthPartners","clinic_name":"HealthPartners Inver Grove Heights Clinic","id":"a65lpxf3p56j","geo_precision":"range","address":"5625 Cenex Dr Inver"},"type":"Feature","geometry":{"type":"Point","coordinates":[-93.06166,44.867744]}},{"properties":{"city":"Maplewood","zip":"55109","county":"Hennepin","geo_score":0.902,"organization_name":"HealthPartners","clinic_name":"HealthPartners Maplewood Clinic","id":"a65lpxt49rw7","geo_precision":"range","address":"2165 White Bear Ave N"},"type":"Feature","geometry":{"type":"Point","coordinates":[-93.025167,45.006575]}},{"properties":{"city":"Minneapolis","zip":"55454","county":"Hennepin","geo_score":0.88,"organization_name":"HealthPartners","clinic_name":"HealthPartners Riverside Clinic","id":"a65lpxo8rqvt","geo_precision":"range","address":"2220 Riverside Ave S"},"type":"Feature","geometry":{"type":"Point","coordinates":[-93.24066,44.967384]}},{"properties":{"city":"St. Paul","zip":"55130","county":"Hennepin","geo_score":0.522,"organization_name":"HealthPartners","clinic_name":"HealthPartners Specialty Center - Adult &amp; Seniors Health","id":"a65lpxudk9ds","geo_precision":"street","address":"401 Phalen Blvd"},"type":"Feature","geometry":{"type":"Point","coordinates":[-93.053064,44.994307]}},{"properties":{"city":"St. Paul","zip":"55107","county":"Hennepin","geo_score":0.811,"organization_name":"HealthPartners","clinic_name":"HealthPartners St. Paul Clinic","id":"a65lpxkap7af","geo_precision":"range","address":"205 S Wabasha St"},"type":"Feature","geometry":{"type":"Point","coordinates":[-93.087546,44.93697]}},{"properties":{"city":"St. Louis Park","zip":"55416","county":"Hennepin","geo_score":0.679,"organization_name":"HealthPartners","clinic_name":"HealthPartners West Clinic","id":"a65lpxf556ol","geo_precision":"range","address":"5100 Gamble Dr Ste 100"},"type":"Feature","geometry":{"type":"Point","coordinates":[-93.344529,44.965458]}},{"properties":{"city":"White Bear Lake","zip":"55110","county":"Hennepin","geo_score":0.875,"organization_name":"HealthPartners","clinic_name":"HealthPartners White Bear Lake Clinic","id":"a65lpxukmfy8","geo_precision":"range","address":"1430 Hwy 96 E"},"type":"Feature","geometry":{"type":"Point","coordinates":[-93.039458,45.079225]}},{"properties":{"city":"Woodbury","zip":"55125","county":"Hennepin","geo_score":0.902,"organization_name":"HealthPartners","clinic_name":"HealthPartners Woodbury Clinic","id":"a65lpxqxic6c","geo_precision":"range","address":"8450 Seasons Pkwy"},"type":"Feature","geometry":{"type":"Point","coordinates":[-92.930069,44.935351]}},{"properties":{"city":"Lino Lakes","zip":"55014","county":"Hennepin","geo_score":0.902,"organization_name":"HealthPartners","clinic_name":"North Suburban Family Physicians - Lino Lakes","id":"a65lpxkxb72y","geo_precision":"range","address":"576 Apollo Dr"},"type":"Feature","geometry":{"type":"Point","coordinates":[-93.116173,45.181195]}},{"properties":{"city":"Roseville","zip":"55113","county":"Hennepin","geo_score":0.771,"organization_name":"HealthPartners","clinic_name":"North Suburban Family Physicians - Roseville","id":"a65lpxfstwea","geo_precision":"range","address":"2831 N Snelling Ave"},"type":"Feature","geometry":{"type":"Point","coordinates":[-93.167128,45.025432]}},{"properties":{"city":"Andover","zip":"55303","county":"Hennepin","geo_score":0.805,"organization_name":"HealthPartners","clinic_name":"RiverWay Clinics - Andover","id":"a65lpxj0kkg4","geo_precision":"range","address":"15244 Bluebird St NW"},"type":"Feature","geometry":{"type":"Point","coordinates":[-93.304271,45.247159]}},{"properties":{"city":"Anoka","zip":"55302","county":"Hennepin","geo_score":0.527,"organization_name":"HealthPartners","clinic_name":"RiverWay Clinics - Anoka","id":"a65lpxo3uiqj","geo_precision":"street","address":"1832 2nd Ave S"},"type":"Feature","geometry":{"type":"Point","coordinates":[-93.874586,45.153507]}},{"properties":{"city":"Elk River","zip":"55330","county":"Hennepin","geo_score":0.819,"organization_name":"HealthPartners","clinic_name":"RiverWay Clinics - Elk River","id":"a65lpxfm8y9r","geo_precision":"range","address":"530 3rd St NW"},"type":"Feature","geometry":{"type":"Point","coordinates":[-93.562486,45.304258]}},{"properties":{"city":"Minneapolis","zip":"55411","county":"Hennepin","geo_score":0.902,"organization_name":"NorthPoint Health &amp; Wellness","clinic_name":"NorthPoint Health &amp; Wellness Center","id":"a65lpxllglp7","geo_precision":"range","address":"1313 Penn Ave N"},"type":"Feature","geometry":{"type":"Point","coordinates":[-93.308219,44.991698]}},{"properties":{"city":"Minneapolis","zip":"55404","county":"Hennepin","geo_score":0.462,"organization_name":"Park Nicollet","clinic_name":"Park Nicollet Clinic - Pediatric Specialty 1265","id":"a65lpxt4ifrr","geo_precision":"street","address":"2001 Blaisdell Ave. S."},"type":"Feature","geometry":{"type":"Point","coordinates":[-93.279493,44.962699]}},{"properties":{"city":"St. Louis Park","zip":"55416","county":"Hennepin","geo_score":0.312,"organization_name":"Park Nicollet","clinic_name":"Park Nicollet Clinic - St. Louis Park - Family Medicine Dept. 1265","id":"a65lpxpjwtwv","geo_precision":"street","address":"3800 Park Nicollet Blvd., 2nd Floor"},"type":"Feature","geometry":{"type":"Point","coordinates":[-93.346207,44.932877]}},{"properties":{"city":"St. Louis Park","zip":"55416","county":"Hennepin","geo_score":0.312,"organization_name":"Park Nicollet","clinic_name":"Park Nicollet Clinic - St. Louis Park - Internal Medicine Dept. 1265","id":"a65lpxiddjtn","geo_precision":"street","address":"3800 Park Nicollet Blvd., 3rd Floor"},"type":"Feature","geometry":{"type":"Point","coordinates":[-93.346207,44.932877]}},{"properties":{"city":"St. Louis Park","zip":"55416","county":"Hennepin","geo_score":0.312,"organization_name":"Park Nicollet","clinic_name":"Park Nicollet Clinic - St. Louis Park - Pediatrics Dept. 1265","id":"a65lpxp3yprt","geo_precision":"street","address":"3800 Park Nicollet Blvd., 4th Floor"},"type":"Feature","geometry":{"type":"Point","coordinates":[-93.346207,44.932877]}},{"properties":{"city":"Minneapolis","zip":"55411","county":"Hennepin","geo_score":0.829,"organization_name":"University of Minnesota Physicians","clinic_name":"Broadway Family Medicine 1280","id":"a65lpxjcrioc","geo_precision":"range","address":"1020 W Broadway"},"type":"Feature","geometry":{"type":"Point","coordinates":[-93.292829,44.999142]}},{"properties":{"city":"Minneapolis","zip":"55407","county":"Hennepin","geo_score":0.633,"organization_name":"University of Minnesota Physicians","clinic_name":"Smiley's Clinic 1280","id":"a65lpxjfvyjm","geo_precision":"street","address":"2020 East 28th St Minneapolis"},"type":"Feature","geometry":{"type":"Point","coordinates":[-93.243428,44.951961]}},{"properties":{"city":"Cambridge","zip":"55008","county":"Isanti","geo_score":0.707,"organization_name":"Allina Hospitals and Clinics","clinic_name":"Allina Medical Clinic - Cambridge Medical Center 1282","id":"a65lpxshfa9g","geo_precision":"street","address":"701 South Dellwood Street"},"type":"Feature","geometry":{"type":"Point","coordinates":[-93.229194,45.564758]}},{"properties":{"city":"Milaca","zip":"56353","county":"Mille Lacs","geo_score":0.536,"organization_name":"Fairview Health Services","clinic_name":"Fairview Northland Clinics - Milaca 1291","id":"a65lpxjxjx4j","geo_precision":"street","address":"150 10th St. NW"},"type":"Feature","geometry":{"type":"Point","coordinates":[-93.655219,45.764202]}},{"properties":{"city":"Princeton","zip":"55371","county":"Mille Lacs","geo_score":0.498,"organization_name":"Fairview Health Services","clinic_name":"Fairview Northland Clinics - Princeton 1291","id":"a65lpxsqv8ma","geo_precision":"zip","address":"919 Northland Dr."},"type":"Feature","geometry":{"type":"Point","coordinates":[-93.769694,45.578023]}},{"properties":{"city":"Motley","zip":"56466","county":"Morrison","geo_score":0.572,"organization_name":"Lakewood Health System","clinic_name":"Lakewood Health - Motley","id":"a65lpxugone2","geo_precision":"range","address":"1233 Hwy. 10 S."},"type":"Feature","geometry":{"type":"Point","coordinates":[-94.645891,46.337591]}},{"properties":{"city":"Austin","zip":"55912","county":"Mower","geo_score":0.738,"organization_name":"Mayo Clinic","clinic_name":"Mayo Health System - Austin Medical Center-( 1000 1st Dr. NW) 1271","id":"a65lpxi8klh5","geo_precision":"range","address":"1000 1st Drive NW"},"type":"Feature","geometry":{"type":"Point","coordinates":[-92.9785,43.674536]}},{"properties":{"city":"St. Peter","zip":"56082","county":"Nicollet","geo_score":0.732,"organization_name":"Mankato Clinic","clinic_name":"Mankato Clinic - Daniels Health Center 1273","id":"a65lpxtkj6wy","geo_precision":"street","address":"1901 Old Minnesota Ave."},"type":"Feature","geometry":{"type":"Point","coordinates":[-93.954873,44.353825]}},{"properties":{"city":"Rochester","zip":"55905","county":"Olmsted","geo_score":0.732,"organization_name":"Mayo Clinic","clinic_name":"Mayo Clinic - Employee and Community Health (Baldwin Building, Downtown Rochester) 1281","id":"a65lpxjwjvqf","geo_precision":"range","address":"221 4th Ave SW, Floors 1, 2, 3, 5, 6"},"type":"Feature","geometry":{"type":"Point","coordinates":[-92.468191,44.023439]}},{"properties":{"city":"Kasson","zip":"55904","county":"Olmsted","geo_score":0.476,"organization_name":"Mayo Clinic","clinic_name":"Mayo Clinic - Employee and Community Health (Mayo Family Clinic Kasson) 1281","id":"a65lpxg80z59","geo_precision":"street","address":"411 West Main  55904"},"type":"Feature","geometry":{"type":"Point","coordinates":[-92.411279,43.923999]}},{"properties":{"city":"Rochester","zip":"55906","county":"Olmsted","geo_score":0.78,"organization_name":"Mayo Clinic","clinic_name":"Mayo Clinic - Employee and Community Health (Mayo Family Clinic Northeast) 1281","id":"a65lpxva6c2r","geo_precision":"range","address":"3041 Stonehedge Drive NE"},"type":"Feature","geometry":{"type":"Point","coordinates":[-92.432667,44.054709]}},{"properties":{"city":"Rochester","zip":"55901","county":"Olmsted","geo_score":0.902,"organization_name":"Mayo Clinic","clinic_name":"Mayo Clinic - Employee and Community Health (Mayo Family Clinic Northwest) 1281","id":"a65lpxpy0vn1","geo_precision":"range","address":"41st Street Professional Building, 4111 Hwy 52 North"},"type":"Feature","geometry":{"type":"Point","coordinates":[-92.500123,44.065562]}},{"properties":{"city":"Pine City","zip":"55063","county":"Pine","geo_score":0.819,"organization_name":"Fairview Health Services","clinic_name":"Fairview Pine City Clinic 1291","id":"a65lpxjuqxnp","geo_precision":"range","address":"510 2nd St SE Pine City"},"type":"Feature","geometry":{"type":"Point","coordinates":[-92.966177,45.824396]}},{"properties":{"city":"Shoreview","zip":"55126","county":"Ramsey","geo_score":0.462,"organization_name":"Allina Hospitals and Clinics","clinic_name":"Allina Medical Clinic - Shoreview 1282","id":"a65lpxki10vp","geo_precision":"street","address":"4194 N. Lexington Ave."},"type":"Feature","geometry":{"type":"Point","coordinates":[-93.147048,45.035807]}},{"properties":{"city":"St. Paul","zip":"55102","county":"Ramsey","geo_score":0.675,"organization_name":"Allina Hospitals and Clinics","clinic_name":"Allina Medical Clinic - United Medical Specialists (Smith Ave) 1282","id":"a65lpxtqxtqk","geo_precision":"range","address":"255 North Smith Avenue, Ste. 100"},"type":"Feature","geometry":{"type":"Point","coordinates":[-93.108137,44.942252]}},{"properties":{"city":"St. Paul","zip":"55118","county":"Ramsey","geo_score":0.42,"organization_name":"Allina Hospitals and Clinics","clinic_name":"Allina Medical Clinic - West St. Paul 1282","id":"a65lpxqkhww1","geo_precision":"street","address":"150 E. Emerson Ave. West"},"type":"Feature","geometry":{"type":"Point","coordinates":[-93.085353,44.903296]}},{"properties":{"city":"Woodbury","zip":"55125","county":"Ramsey","geo_score":0.821,"organization_name":"Allina Hospitals and Clinics","clinic_name":"Allina Medical Clinic - Woodbury 1282","id":"a65lpxrdqc08","geo_precision":"range","address":"8675 Valley Creek Rd 55125"},"type":"Feature","geometry":{"type":"Point","coordinates":[-92.932929,44.919963]}},{"properties":{"city":"St. Paul","zip":"55102","county":"Ramsey","geo_score":0.61,"organization_name":"Children's Hospital and Clinics of MN","clinic_name":"Children's Clinic - St. Paul","id":"a65lpxozbsu7","geo_precision":"range","address":"345 N. Smith Ave., #302"},"type":"Feature","geometry":{"type":"Point","coordinates":[-93.105788,44.944061]}},{"properties":{"city":"St. Paul","zip":"55116","county":"Ramsey","geo_score":0.452,"organization_name":"Fairview Health Services","clinic_name":"Fairview Highland Park Clinic 1291","id":"a65lpxk7ec0f","geo_precision":"street","address":"2155 Ford Pkwy., Suite A"},"type":"Feature","geometry":{"type":"Point","coordinates":[-93.145377,44.915065]}},{"properties":{"city":"St. Paul","zip":"55103","county":"Ramsey","geo_score":0.522,"organization_name":"HealthPartners","clinic_name":"Health Partners Specialty Care - Infectious Disease","id":"a65lpxft76zw","geo_precision":"street","address":"401 Phalen Blvd"},"type":"Feature","geometry":{"type":"Point","coordinates":[-93.053064,44.994307]}},{"properties":{"city":"St. Paul","zip":"55103","county":"Ramsey","geo_score":0.381,"organization_name":"University of Minnesota Physicians","clinic_name":"Bethesda Clinic 1280","id":"a65lpxlbnk8t","geo_precision":"street","address":"580 Rice St St. Paul"},"type":"Feature","geometry":{"type":"Point","coordinates":[-93.105295,44.951361]}},{"properties":{"city":"St. Paul","zip":"55106","county":"Ramsey","geo_score":0.417,"organization_name":"University of Minnesota Physicians","clinic_name":"Phalen Village Clinic 1280","id":"a65lpxutjs9i","geo_precision":"street","address":"1414 Maryland Ave. E"},"type":"Feature","geometry":{"type":"Point","coordinates":[-93.073535,44.977447]}},{"properties":{"city":"Faribault","zip":"55021","county":"Rice","geo_score":0.754,"organization_name":"Allina Hospitals and Clinics","clinic_name":"Allina Medical Clinic - Faribault 1282","id":"a65lpxp76n73","geo_precision":"range","address":"100 State Ave."},"type":"Feature","geometry":{"type":"Point","coordinates":[-93.255971,44.289029]}},{"properties":{"city":"Northfield","zip":"55057","county":"Rice","geo_score":0.824,"organization_name":"Allina Hospitals and Clinics","clinic_name":"Allina Medical Clinic - Northfield 1282","id":"a65lpxtild8k","geo_precision":"range","address":"1400 Jefferson Rd."},"type":"Feature","geometry":{"type":"Point","coordinates":[-93.171559,44.44528]}},{"properties":{"city":"Shakopee","zip":"55379","county":"Scott","geo_score":0.357,"organization_name":"Allina Hospitals and Clinics","clinic_name":"Allina Medical Clinic Crossroads Dean Lakes- Shakopee 1282","id":"a65lpxkx4mm0","geo_precision":"street","address":"4201 Dean Lakes Blvd, Ste 120"},"type":"Feature","geometry":{"type":"Point","coordinates":[-93.52017,44.777877]}},{"properties":{"city":"Prior Lake","zip":"55372","county":"Scott","geo_score":0.831,"organization_name":"Allina Hospitals and Clinics","clinic_name":"Allina Medical Clinic Crossroads - Prior Lake 1282","id":"a65lpxj3x9rv","geo_precision":"range","address":"14033 Commerce Ave NE"},"type":"Feature","geometry":{"type":"Point","coordinates":[-93.381453,44.745706]}},{"properties":{"city":"Shakopee","zip":"55379","county":"Scott","geo_score":0.429,"organization_name":"Allina Hospitals and Clinics","clinic_name":"Allina Medical Clinic - Shakopee 1282","id":"a65lpxodskf2","geo_precision":"street","address":"1601 St. Francis Ave, Ste 100"},"type":"Feature","geometry":{"type":"Point","coordinates":[-93.52017,44.777877]}},{"properties":{"city":"Elk River","zip":"55330","county":"Sherburne","geo_score":0.495,"organization_name":"Allina Hospitals and Clinics","clinic_name":"Allina Medical Clinic - Elk River 1282","id":"a65lpxiftssc","geo_precision":"street","address":"14181 Business Center Dr. NW"},"type":"Feature","geometry":{"type":"Point","coordinates":[-93.608291,45.305475]}},{"properties":{"city":"Becker","zip":"55,308","county":"Sherburne","geo_score":0.0,"organization_name":"CentraCare Health System","clinic_name":"CentraCare Clinic - Becker 1295","id":"a65lpxloc87n","geo_precision":"unmatched","address":"12800 Rolling Ridge Rd"},"type":"Feature","geometry":null},{"properties":{"city":"Elk River","zip":"55330","county":"Sherburne","geo_score":0.646,"organization_name":"Fairview Health Services","clinic_name":"Fairview Elk River 1291","id":"a65lpxt4up7m","geo_precision":"range","address":"290 Main St. N.W., #100"},"type":"Feature","geometry":{"type":"Point","coordinates":[-93.554858,45.303225]}},{"properties":{"city":"Zimmerman","zip":"55398","county":"Sherburne","geo_score":0.551,"organization_name":"Fairview Health Services","clinic_name":"Fairview Northland Clinics - Zimmerman 1291","id":"a65lpxqt4g0w","geo_precision":"street","address":"25945 Gateway Dr."},"type":"Feature","geometry":{"type":"Point","coordinates":[-93.757498,45.274705]}},{"properties":{"city":"Duluth","zip":"55,805","county":"St. Louis","geo_score":0.0,"organization_name":"SMDC Health System","clinic_name":"Duluth Clinic - Pediatrics Dept 1276","id":"a65lpxn369p9","geo_precision":"unmatched","address":"400 East Third St"},"type":"Feature","geometry":null},{"properties":{"city":"St Cloud","zip":"56303","county":"Stearns","geo_score":0.371,"organization_name":"CentraCare Health System","clinic_name":"CentraCare Clinic -Family Medicine 1295","id":"a65lpxq7bxq4","geo_precision":"street","address":"1900 CentraCare Circle Suite 1450"},"type":"Feature","geometry":{"type":"Point","coordinates":[-95.336809,45.851805]}},{"properties":{"city":"St Cloud","zip":"56303","county":"Stearns","geo_score":0.429,"organization_name":"CentraCare Health System","clinic_name":"CentraCare Clinic Health Plaza Internal Medicine 1295","id":"a65lpxgcvnmd","geo_precision":"street","address":"1900 CentraCare Circle, Suite 2425"},"type":"Feature","geometry":{"type":"Point","coordinates":[-95.332592,45.853079]}},{"properties":{"city":"St Cloud","zip":"56303","county":"Stearns","geo_score":0.873,"organization_name":"CentraCare Health System","clinic_name":"CentraCare Clinic - Heartland 1295","id":"a65lpxkhnqgt","geo_precision":"range","address":"1520 Whitney Ct."},"type":"Feature","geometry":{"type":"Point","coordinates":[-94.17913,45.576834]}},{"properties":{"city":"Melrose","zip":"56,352","county":"Stearns","geo_score":0.0,"organization_name":"CentraCare Health System","clinic_name":"CentraCare Clinic - Melrose 1295","id":"a65lpxrfnvva","geo_precision":"unmatched","address":"525 W. Main St."},"type":"Feature","geometry":null},{"properties":{"city":"St. Cloud","zip":"56303","county":"Stearns","geo_score":0.79,"organization_name":"CentraCare Health System","clinic_name":"CentraCare Clinic River Campus Internal Medicine 1295","id":"a65lpxgdnf0f","geo_precision":"range","address":"1200 Sixth Avenue North"},"type":"Feature","geometry":{"type":"Point","coordinates":[-94.169019,45.571999]}},{"properties":{"city":"St. Joseph","zip":"56,374","county":"Stearns","geo_score":0.0,"organization_name":"CentraCare Health System","clinic_name":"CentraCare Clinic - St. Joseph 1295","id":"a65lpxjw4jt9","geo_precision":"unmatched","address":"1360 Elm Street East"},"type":"Feature","geometry":null},{"properties":{"city":"St. Cloud","zip":"56303","county":"Stearns","geo_score":0.556,"organization_name":"CentraCare Health System","clinic_name":"CentraCare Clinic Women &amp; Children","id":"a65lpxh79suu","geo_precision":"zip","address":"1900 CentraCare Circle"},"type":"Feature","geometry":{"type":"Point","coordinates":[-94.223023,45.627994]}},{"properties":{"city":"Cold Spring","zip":"56320","county":"Stearns","geo_score":0.638,"organization_name":"Christopher J. Wenner, MD, PA","clinic_name":"Christopher J Wenner MD, PA","id":"a65lpxskl038","geo_precision":"range","address":"24 3rd Ave S Suite #1"},"type":"Feature","geometry":{"type":"Point","coordinates":[-94.42046,45.454267]}},{"properties":{"city":"Owatonna","zip":"55060","county":"Steele","geo_score":0.508,"organization_name":"Mayo Clinic","clinic_name":"Mayo Health System - Owatonna Clinic","id":"a65lpxi43y41","geo_precision":"street","address":"2200 26th Street NW"},"type":"Feature","geometry":{"type":"Point","coordinates":[-93.21165,44.109773]}},{"properties":{"city":"Long Prairie","zip":"56347","county":"Todd","geo_score":0.794,"organization_name":"CentraCare Health System","clinic_name":"CentraCare Clinic - Long Prairie","id":"a65lpxhez7n4","geo_precision":"range","address":"24 9th St SE"},"type":"Feature","geometry":{"type":"Point","coordinates":[-94.850287,45.973832]}},{"properties":{"city":"Browerville","zip":"56438","county":"Todd","geo_score":0.471,"organization_name":"Lakewood Health System","clinic_name":"Lakewood Health - Browerville","id":"a65lpxk6vk6a","geo_precision":"street","address":"333 Gillis Ave. S."},"type":"Feature","geometry":{"type":"Point","coordinates":[-94.868794,46.080265]}},{"properties":{"city":"Eagle Bend","zip":"56446","county":"Todd","geo_score":0.54,"organization_name":"Lakewood Health System","clinic_name":"Lakewood Health - Eagle Bend Clinic","id":"a65lpxivpm5n","geo_precision":"street","address":"815 Hwy 71"},"type":"Feature","geometry":{"type":"Point","coordinates":[-95.03966,46.172031]}},{"properties":{"city":"Staples","zip":"56479","county":"Todd","geo_score":0.526,"organization_name":"Lakewood Health System","clinic_name":"Lakewood Health - Staples","id":"a65lpxme27n1","geo_precision":"street","address":"49725 Cty Rd 83"},"type":"Feature","geometry":{"type":"Point","coordinates":[-94.580846,46.369225]}},{"properties":{"city":"Cottage Grove","zip":"55016","county":"Washington","geo_score":0.329,"organization_name":"Allina Hospitals and Clinics","clinic_name":"Allina Medical Clinic - Cottage Grove 1282","id":"a65lpxj6jtcn","geo_precision":"street","address":"8611 W. Pt. Douglas Rd S."},"type":"Feature","geometry":{"type":"Point","coordinates":[-93.034836,44.870002]}},{"properties":{"city":"Forest Lake","zip":"55025","county":"Washington","geo_score":0.49,"organization_name":"Allina Hospitals and Clinics","clinic_name":"Allina Medical Clinic - Forest Lake 1282","id":"a65lpxunbqcw","geo_precision":"street","address":"1540 S. Lake St."},"type":"Feature","geometry":{"type":"Point","coordinates":[-92.985151,45.279118]}},{"properties":{"city":"Prescott","zip":"54021","county":"Washington","geo_score":0.585,"organization_name":"Allina Hospitals and Clinics","clinic_name":"Allina Medical Clinic - Prescott 1282","id":"a65lpxizoemd","geo_precision":"zip","address":"1400 North Acres Road"},"type":"Feature","geometry":{"type":"Point","coordinates":[-92.640483,44.747209]}},{"properties":{"city":"Stillwater","zip":"55082","county":"Washington","geo_score":0.668,"organization_name":"Bluestone Physician Services","clinic_name":"Bluestone Physician Services 1271","id":"a65lpxfb09st","geo_precision":"range","address":"270 North Main Street 55082"},"type":"Feature","geometry":{"type":"Point","coordinates":[-92.806703,45.058149]}},{"properties":{"city":"Hugo","zip":"55038","county":"Washington","geo_score":0.347,"organization_name":"Fairview Health Services","clinic_name":"Fairview Hugo Clinic 1291","id":"a65lpxfz011a","geo_precision":"street","address":"14663 Mercantile Dr. Hugo"},"type":"Feature","geometry":{"type":"Point","coordinates":[-93.121043,45.142235]}},{"properties":{"city":"Cottage Grove","zip":"55016","county":"Washington","geo_score":0.383,"organization_name":"HealthPartners","clinic_name":"HealthPartners Cottage Grove","id":"a65lpxtdzq19","geo_precision":"street","address":"7500 80th St. S."},"type":"Feature","geometry":{"type":"Point","coordinates":[-92.966574,44.833048]}},{"properties":{"city":"Annandale","zip":"55302","county":"Wright","geo_score":0.815,"organization_name":"Allina Hospitals and Clinics","clinic_name":"Allina Medical Clinic - Annandale 1282","id":"a65lpxpe520d","geo_precision":"range","address":"440 Elm Street East"},"type":"Feature","geometry":{"type":"Point","coordinates":[-94.116147,45.258249]}},{"properties":{"city":"Buffalo","zip":"55313","county":"Wright","geo_score":0.819,"organization_name":"Allina Hospitals and Clinics","clinic_name":"Allina Medical Clinic - Buffalo 1282","id":"a65lpxf9mfcj","geo_precision":"range","address":"303 Catlin Street"},"type":"Feature","geometry":{"type":"Point","coordinates":[-93.871379,45.19321]}},{"properties":{"city":"Cokato","zip":"55321","county":"Wright","geo_score":0.794,"organization_name":"Allina Hospitals and Clinics","clinic_name":"Allina Medical Clinic - Cokato 1282","id":"a65lpxq6pmlt","geo_precision":"range","address":"110 Olsen Blvd."},"type":"Feature","geometry":{"type":"Point","coordinates":[-94.184876,45.080168]}},{"properties":{"city":"Michael","zip":"55376","county":"Wright","geo_score":0.405,"organization_name":"Allina Hospitals and Clinics","clinic_name":"Allina Medical Clinic - St. Michael 1282","id":"a65lpxm0w3tc","geo_precision":"street","address":"4301 Edgewood Dr. N.E. St."},"type":"Feature","geometry":{"type":"Point","coordinates":[-93.653799,45.20996]}}],"is_temporal":false,"author":{"url":"","metadata":"","contact_name":"","contact_address":"","source":"","contact_phone":""},"source":"","pagination":{"sort":null,"start":0,"total":135,"limit":1000000},"state":"complete","tags":"","published":"2014-08-13T06:46:48-04:00","id":125914}