{"type":"FeatureCollection","data_type":"Dataset","url_type":null,"permissions":[{"permissions":{"download":true,"view":true},"group_id":"everyone"}],"classification":null,"title":"cairns LGA","count":62,"stream_id":12617,"contributor":{"url":"http://geocommons.com/users/6604","name":"TheMaha"},"data_attributes":null,"calculation_params":null,"icon_link":null,"link":"http://geocommons.com/overlays/12617.json","extent":[0.0,-17.4694,146.024,0.0],"geometry_types":["point"],"unique_name":null,"name":"cairns LGA","feature_count":62,"description":"","next_feature":null,"is_raster":false,"short_classification":"Y","stats":{"sales":{"max":167.0,"mean":26.2741935483871,"variance":1502.36620835537,"stdev":38.760369043075,"min":0.0,"median":12.0},"lat":{"max":0.0,"mean":-16.7252,"variance":4.69768226918033,"stdev":2.16741372819781,"min":-17.4694,"median":-16.9317},"long":{"max":146.0237,"mean":143.42265,"variance":342.750357473688,"stdev":18.5135182359726,"min":0.0,"median":145.7418}},"features":[{"properties":{"sales":9.0,"suburb":"Aeroglen","id":"a6geq1c50rma","lat":-17.1279,"long":145.8242},"type":"Feature","geometry":{"type":"Point","coordinates":[145.8242,-17.1279]}},{"properties":{"sales":1.0,"suburb":"Aloomba","id":"a6geq1az4rn0","lat":-17.3449,"long":145.9248},"type":"Feature","geometry":{"type":"Point","coordinates":[145.9248,-17.3449]}},{"properties":{"sales":14.0,"suburb":"Babinda","id":"a6geq1n2qurs","lat":-16.8739,"long":145.6976},"type":"Feature","geometry":{"type":"Point","coordinates":[145.6976,-16.8739]}},{"properties":{"sales":0.0,"suburb":"Barron","id":"a6geq17l8tin","lat":-16.8676,"long":145.6754},"type":"Feature","geometry":{"type":"Point","coordinates":[145.6754,-16.8676]}},{"properties":{"sales":0.0,"suburb":"Barron Gorge","id":"a6geq1bcnhfs","lat":-17.4449,"long":145.8884},"type":"Feature","geometry":{"type":"Point","coordinates":[145.8884,-17.4449]}},{"properties":{"sales":1.0,"suburb":"Bartle Frere","id":"a6geq1dko7xp","lat":-16.9583,"long":145.732},"type":"Feature","geometry":{"type":"Point","coordinates":[145.732,-16.9583]}},{"properties":{"sales":56.0,"suburb":"Bayview Heights","id":"a6geq19jko8i","lat":-17.2715,"long":145.9199},"type":"Feature","geometry":{"type":"Point","coordinates":[145.9199,-17.2715]}},{"properties":{"sales":0.0,"suburb":"Bellenden Ker","id":"a6geq1iupbvc","lat":-17.0094,"long":145.7353},"type":"Feature","geometry":{"type":"Point","coordinates":[145.7353,-17.0094]}},{"properties":{"sales":128.0,"suburb":"Bentley Park","id":"a6geq1hgnq0h","lat":-17.354,"long":146.0237},"type":"Feature","geometry":{"type":"Point","coordinates":[146.0237,-17.354]}},{"properties":{"sales":2.0,"suburb":"Bramston Beach","id":"a6geq1mz2o0b","lat":-16.9034,"long":145.713},"type":"Feature","geometry":{"type":"Point","coordinates":[145.713,-16.9034]}},{"properties":{"sales":76.0,"suburb":"Brinsmead","id":"a6geq1hx94sn","lat":-16.9362,"long":145.7573},"type":"Feature","geometry":{"type":"Point","coordinates":[145.7573,-16.9362]}},{"properties":{"sales":18.0,"suburb":"Bungalow","id":"a6geq1e00ory","lat":-16.9265,"long":145.776},"type":"Feature","geometry":{"type":"Point","coordinates":[145.776,-16.9265]}},{"properties":{"sales":2.0,"suburb":"Cairns City","id":"a6geq17m5cnu","lat":-16.9042,"long":145.759},"type":"Feature","geometry":{"type":"Point","coordinates":[145.759,-16.9042]}},{"properties":{"sales":12.0,"suburb":"Cairns North","id":"a6geq1lnsmq6","lat":-16.8591,"long":145.6943},"type":"Feature","geometry":{"type":"Point","coordinates":[145.6943,-16.8591]}},{"properties":{"sales":27.0,"suburb":"Caravonica","id":"a6geq1jvm80a","lat":-16.766,"long":145.6762},"type":"Feature","geometry":{"type":"Point","coordinates":[145.6762,-16.766]}},{"properties":{"sales":23.0,"suburb":"Clifton Beach","id":"a6geq1938bm5","lat":-17.2196,"long":145.9138},"type":"Feature","geometry":{"type":"Point","coordinates":[145.9138,-17.2196]}},{"properties":{"sales":0.0,"suburb":"Deeral","id":"a6geq1gsviy7","lat":-16.9474,"long":145.7362},"type":"Feature","geometry":{"type":"Point","coordinates":[145.7362,-16.9474]}},{"properties":{"sales":21.0,"suburb":"Earlville","id":"a6geq1az5ske","lat":-17.3254,"long":145.9586},"type":"Feature","geometry":{"type":"Point","coordinates":[145.9586,-17.3254]}},{"properties":{"sales":2.0,"suburb":"East Russell","id":"a6geq18ixqj1","lat":-16.9046,"long":145.8158},"type":"Feature","geometry":{"type":"Point","coordinates":[145.8158,-16.9046]}},{"properties":{"sales":3.0,"suburb":"East Trinity","id":"a6geq1fz3u6x","lat":-16.9015,"long":145.7401},"type":"Feature","geometry":{"type":"Point","coordinates":[145.7401,-16.9015]}},{"properties":{"sales":52.0,"suburb":"Edge Hill","id":"a6geq1cnuu4q","lat":-17.0219,"long":145.734},"type":"Feature","geometry":{"type":"Point","coordinates":[145.734,-17.0219]}},{"properties":{"sales":167.0,"suburb":"Edmonton","id":"a6geq1ct3y62","lat":-16.7229,"long":145.643},"type":"Feature","geometry":{"type":"Point","coordinates":[145.643,-16.7229]}},{"properties":{"sales":0.0,"suburb":"Ellis Beach","id":"a6geq1d2utya","lat":-17.1857,"long":145.8881},"type":"Feature","geometry":{"type":"Point","coordinates":[145.8881,-17.1857]}},{"properties":{"sales":0.0,"suburb":"Fishery Falls","id":"a6geq188tav1","lat":-16.9329,"long":145.9939},"type":"Feature","geometry":{"type":"Point","coordinates":[145.9939,-16.9329]}},{"properties":{"sales":0.0,"suburb":"Fitzroy Island","id":"a6geq1l834tr","lat":-16.8818,"long":145.7101},"type":"Feature","geometry":{"type":"Point","coordinates":[145.7101,-16.8818]}},{"properties":{"sales":23.0,"suburb":"Freshwater","id":"a6geq1eqazve","lat":0.0,"long":0.0},"type":"Feature","geometry":{"type":"Point","coordinates":[0.0,0.0]}},{"properties":{"sales":0.0,"suburb":"Gamboola","id":"a6geq1drg4ub","lat":-17.1526,"long":145.7407},"type":"Feature","geometry":{"type":"Point","coordinates":[145.7407,-17.1526]}},{"properties":{"sales":2.0,"suburb":"Goldsborough","id":"a6geq1fobcb2","lat":-17.0995,"long":145.7807},"type":"Feature","geometry":{"type":"Point","coordinates":[145.7807,-17.0995]}},{"properties":{"sales":85.0,"suburb":"Gordonvale","id":"a6geq1hy5ybz","lat":-17.0271,"long":145.8106},"type":"Feature","geometry":{"type":"Point","coordinates":[145.8106,-17.0271]}},{"properties":{"sales":1.0,"suburb":"Green Hill","id":"a6geq1ltzbxt","lat":-16.7587,"long":145.9743},"type":"Feature","geometry":{"type":"Point","coordinates":[145.9743,-16.7587]}},{"properties":{"sales":0.0,"suburb":"Green Island","id":"a6geq1kfggus","lat":-16.8387,"long":145.7399},"type":"Feature","geometry":{"type":"Point","coordinates":[145.7399,-16.8387]}},{"properties":{"sales":26.0,"suburb":"Holloways Beach","id":"a6geq1el3dho","lat":-16.8751,"long":145.6764},"type":"Feature","geometry":{"type":"Point","coordinates":[145.6764,-16.8751]}},{"properties":{"sales":6.0,"suburb":"Kamerunga","id":"a6geq1e5bo0l","lat":-16.9223,"long":145.7263},"type":"Feature","geometry":{"type":"Point","coordinates":[145.7263,-16.9223]}},{"properties":{"sales":23.0,"suburb":"Kanimbla","id":"a6geq1925430","lat":-16.781,"long":145.6879},"type":"Feature","geometry":{"type":"Point","coordinates":[145.6879,-16.781]}},{"properties":{"sales":102.0,"suburb":"Kewarra Beach","id":"a6geq1c0qxql","lat":-17.1592,"long":145.7009},"type":"Feature","geometry":{"type":"Point","coordinates":[145.7009,-17.1592]}},{"properties":{"sales":0.0,"suburb":"Lamb Range","id":"a6geq1di3siy","lat":-17.1411,"long":145.7233},"type":"Feature","geometry":{"type":"Point","coordinates":[145.7233,-17.1411]}},{"properties":{"sales":2.0,"suburb":"Little Mulgrave","id":"a6geq17y6wmk","lat":-16.8476,"long":145.6771},"type":"Feature","geometry":{"type":"Point","coordinates":[145.6771,-16.8476]}},{"properties":{"sales":0.0,"suburb":"Macalister Range","id":"a6geq1kbk90f","lat":-16.8528,"long":145.7444},"type":"Feature","geometry":{"type":"Point","coordinates":[145.7444,-16.8528]}},{"properties":{"sales":12.0,"suburb":"Machans Beach","id":"a6geq1mwzf1m","lat":-16.9135,"long":145.7371},"type":"Feature","geometry":{"type":"Point","coordinates":[145.7371,-16.9135]}},{"properties":{"sales":20.0,"suburb":"Manoora","id":"a6geq1i354yd","lat":-16.9133,"long":145.7499},"type":"Feature","geometry":{"type":"Point","coordinates":[145.7499,-16.9133]}},{"properties":{"sales":23.0,"suburb":"Manunda","id":"a6geq1narf5k","lat":-17.4016,"long":145.909},"type":"Feature","geometry":{"type":"Point","coordinates":[145.909,-17.4016]}},{"properties":{"sales":7.0,"suburb":"Miriwinni","id":"a6geq1j18g29","lat":-16.9362,"long":145.7385},"type":"Feature","geometry":{"type":"Point","coordinates":[145.7385,-16.9362]}},{"properties":{"sales":61.0,"suburb":"Mooroobool","id":"a6geq1ig7v6d","lat":-17.0582,"long":145.7418},"type":"Feature","geometry":{"type":"Point","coordinates":[145.7418,-17.0582]}},{"properties":{"sales":0.0,"suburb":"Mount Peter","id":"a6geq188cenp","lat":-16.9764,"long":145.742},"type":"Feature","geometry":{"type":"Point","coordinates":[145.742,-16.9764]}},{"properties":{"sales":143.0,"suburb":"Mount Sheridan","id":"a6geq1md9l0p","lat":-17.0387,"long":145.8025},"type":"Feature","geometry":{"type":"Point","coordinates":[145.8025,-17.0387]}},{"properties":{"sales":1.0,"suburb":"Packers Camp","id":"a6geq1fsklu0","lat":-16.7459,"long":145.671},"type":"Feature","geometry":{"type":"Point","coordinates":[145.671,-16.7459]}},{"properties":{"sales":20.0,"suburb":"Palm Cove","id":"a6geq1h7nwyk","lat":-16.9256,"long":145.765},"type":"Feature","geometry":{"type":"Point","coordinates":[145.765,-16.9256]}},{"properties":{"sales":24.0,"suburb":"Parramatta Park","id":"a6geq1k5jlg9","lat":-16.9359,"long":145.7695},"type":"Feature","geometry":{"type":"Point","coordinates":[145.7695,-16.9359]}},{"properties":{"sales":0.0,"suburb":"Portsmith","id":"a6geq1gb5fap","lat":-16.8836,"long":145.6933},"type":"Feature","geometry":{"type":"Point","coordinates":[145.6933,-16.8836]}},{"properties":{"sales":129.0,"suburb":"Redlynch","id":"a6geq1fh1ix4","lat":-16.8385,"long":145.6891},"type":"Feature","geometry":{"type":"Point","coordinates":[145.6891,-16.8385]}},{"properties":{"sales":56.0,"suburb":"Smithfield","id":"a6geq19yscem","lat":-16.8754,"long":145.7325},"type":"Feature","geometry":{"type":"Point","coordinates":[145.7325,-16.8754]}},{"properties":{"sales":9.0,"suburb":"Stratford","id":"a6geq1eeh2kz","lat":-16.783,"long":145.6986},"type":"Feature","geometry":{"type":"Point","coordinates":[145.6986,-16.783]}},{"properties":{"sales":47.0,"suburb":"Trinity Beach","id":"a6geq19shvhd","lat":-16.8054,"long":145.7011},"type":"Feature","geometry":{"type":"Point","coordinates":[145.7011,-16.8054]}},{"properties":{"sales":38.0,"suburb":"Trinity Park","id":"a6geq1dx0b4y","lat":-17.4422,"long":145.9432},"type":"Feature","geometry":{"type":"Point","coordinates":[145.9432,-17.4422]}},{"properties":{"sales":1.0,"suburb":"Waugh Pocket","id":"a6geq1ahxj3c","lat":-16.9317,"long":145.7513},"type":"Feature","geometry":{"type":"Point","coordinates":[145.7513,-16.9317]}},{"properties":{"sales":23.0,"suburb":"Westcourt","id":"a6geq1jgeu0w","lat":-16.9781,"long":145.7442},"type":"Feature","geometry":{"type":"Point","coordinates":[145.7442,-16.9781]}},{"properties":{"sales":61.0,"suburb":"White Rock","id":"a6geq1lpcc4q","lat":-16.9039,"long":145.7287},"type":"Feature","geometry":{"type":"Point","coordinates":[145.7287,-16.9039]}},{"properties":{"sales":45.0,"suburb":"Whitfield","id":"a6geq1aqycws","lat":-17.4694,"long":145.8766},"type":"Feature","geometry":{"type":"Point","coordinates":[145.8766,-17.4694]}},{"properties":{"sales":0.0,"suburb":"Woopen Creek","id":"a6geq1axwsmy","lat":-17.3414,"long":145.8703},"type":"Feature","geometry":{"type":"Point","coordinates":[145.8703,-17.3414]}},{"properties":{"sales":0.0,"suburb":"Wooroonooran","id":"a6geq1brf4o0","lat":-16.9544,"long":145.7469},"type":"Feature","geometry":{"type":"Point","coordinates":[145.7469,-16.9544]}},{"properties":{"sales":25.0,"suburb":"Woree","id":"a6geq1f3a0px","lat":-17.0502,"long":145.7683},"type":"Feature","geometry":{"type":"Point","coordinates":[145.7683,-17.0502]}},{"properties":{"sales":0.0,"suburb":"Wrights Creek","id":"a6geq1laee6d","lat":-16.8127,"long":145.7207},"type":"Feature","geometry":{"type":"Point","coordinates":[145.7207,-16.8127]}}],"is_temporal":false,"author":{"url":"","metadata":"","contact_name":"","contact_address":"","source":"xfdgdfg","contact_phone":""},"source":"","pagination":{"sort":null,"start":0,"total":62,"limit":1000000},"state":"complete","tags":"","published":"2009-05-14T12:00:00Z","id":12617}