{"type":"FeatureCollection","data_type":"Dataset","url_type":null,"permissions":[{"permissions":{"download":true,"view":true},"group_id":"everyone"}],"classification":null,"title":"Customers","count":71,"stream_id":126525,"contributor":{"url":"http://geocommons.com/users/28613","name":"Energetica"},"data_attributes":null,"calculation_params":null,"icon_link":null,"link":"http://geocommons.com/overlays/126525.json","extent":[0.0,0.0,0.0,0.0],"geometry_types":null,"unique_name":null,"name":"Customers","feature_count":71,"description":"","next_feature":null,"is_raster":false,"short_classification":"Y","stats":{"postcode":{"max":5540,"mean":2251.10294117647,"variance":494763.526558385,"stdev":703.394289540642,"min":200,"median":2065}},"features":[{"properties":{"postcode":2040,"geo_score":0.0,"country":"Australia","type":"N","suburb":"Lilyfield","id":"a6gebyucr4xm","geo_precision":"unmatched","state":"NSW"},"type":"Feature","geometry":null},{"properties":{"postcode":2601,"geo_score":0.0,"country":"Australia","type":"N","suburb":"Canberra","id":"a6gebyk0tg17","geo_precision":"unmatched","state":"ACT"},"type":"Feature","geometry":null},{"properties":{"postcode":1800,"geo_score":0.0,"country":"Australia","type":"L","suburb":"Ashfield","id":"a6gebyn3g7jf","geo_precision":"unmatched","state":"NSW"},"type":"Feature","geometry":null},{"properties":{"postcode":2016,"geo_score":0.0,"country":"Australia","type":"P","suburb":"Redfern","id":"a6gebyxvy1wi","geo_precision":"unmatched","state":"NSW"},"type":"Feature","geometry":null},{"properties":{"postcode":2065,"geo_score":0.0,"country":"Australia","type":"P","suburb":"St Leonards","id":"a6gebykhrou2","geo_precision":"unmatched","state":"NSW"},"type":"Feature","geometry":null},{"properties":{"postcode":3000,"geo_score":0.0,"country":"Australia","type":"N","suburb":"Melbourne","id":"a6gebyila971","geo_precision":"unmatched","state":"VIC"},"type":"Feature","geometry":null},{"properties":{"postcode":1835,"geo_score":0.0,"country":"Australia","type":"N","suburb":"Auburn","id":"a6gebyj5dqzo","geo_precision":"unmatched","state":"NSW"},"type":"Feature","geometry":null},{"properties":{"postcode":2148,"geo_score":0.0,"country":"Australia","type":"N","suburb":"Blacktown","id":"a6gebyrxlfn5","geo_precision":"unmatched","state":"NSW"},"type":"Feature","geometry":null},{"properties":{"postcode":2120,"geo_score":0.0,"country":"Australia","type":"N","suburb":"Pennant Hills","id":"a6gebykbmlay","geo_precision":"unmatched","state":"NSW"},"type":"Feature","geometry":null},{"properties":{"postcode":2560,"geo_score":0.0,"country":"Australia","type":"N","suburb":"Campbelltown","id":"a6gebywlstxs","geo_precision":"unmatched","state":"NSW"},"type":"Feature","geometry":null},{"properties":{"postcode":4210,"geo_score":0.0,"country":"Australia","type":"N","suburb":"Oxenford","id":"a6gebypvq0mz","geo_precision":"unmatched","state":"Qld"},"type":"Feature","geometry":null},{"properties":{"postcode":2122,"geo_score":0.0,"country":"Australia","type":"N","suburb":"EASTWOOD","id":"a6gebykyb3gn","geo_precision":"unmatched","state":"NSW"},"type":"Feature","geometry":null},{"properties":{"postcode":2010,"geo_score":0.0,"country":"Australia","type":"N","suburb":"Surry hills","id":"a6gebyqka7ew","geo_precision":"unmatched","state":"NSW"},"type":"Feature","geometry":null},{"properties":{"postcode":2000,"geo_score":0.0,"country":"Australia","type":"U","suburb":"Sydney","id":"a6gebyw9k384","geo_precision":"unmatched","state":"NSW"},"type":"Feature","geometry":null},{"properties":{"postcode":5000,"geo_score":0.0,"country":"Australia","type":"N","suburb":"Adelaide","id":"a6gebyn0wy18","geo_precision":"unmatched","state":"SA"},"type":"Feature","geometry":null},{"properties":{"postcode":2011,"geo_score":0.0,"country":"Australia","type":"N","suburb":"Potts Point","id":"a6gebys4c09r","geo_precision":"unmatched","state":"NSW"},"type":"Feature","geometry":null},{"properties":{"postcode":2113,"geo_score":0.0,"country":"Australia","type":"N","suburb":"North Ryde","id":"a6gebyy4wtmu","geo_precision":"unmatched","state":"NSW"},"type":"Feature","geometry":null},{"properties":{"postcode":2124,"geo_score":0.0,"country":"Australia","type":"N","suburb":"Parramatta","id":"a6gebyohlq86","geo_precision":"unmatched","state":"NSW"},"type":"Feature","geometry":null},{"properties":{"postcode":2600,"geo_score":0.0,"country":"Australia","type":"G","suburb":"CANBERRA","id":"a6gebyxfdtdk","geo_precision":"unmatched","state":"ACT"},"type":"Feature","geometry":null},{"properties":{"postcode":2600,"geo_score":0.0,"country":"Australia","type":"G","suburb":"Parkes","id":"a6gebyx2gd95","geo_precision":"unmatched","state":"ACT"},"type":"Feature","geometry":null},{"properties":{"postcode":2124,"geo_score":0.0,"country":"Australia","type":"G","suburb":"Parramatta","id":"a6gebykyycjs","geo_precision":"unmatched","state":"NSW"},"type":"Feature","geometry":null},{"properties":{"postcode":2607,"geo_score":0.0,"country":"Australia","type":"G","suburb":"Barton","id":"a6gebymyylea","geo_precision":"unmatched","state":"ACT"},"type":"Feature","geometry":null},{"properties":{"postcode":2001,"geo_score":0.0,"country":"Australia","type":"G","suburb":"Sydney","id":"a6gebyrbvuiq","geo_precision":"unmatched","state":"NSW"},"type":"Feature","geometry":null},{"properties":{"postcode":2610,"geo_score":0.0,"country":"Australia","type":"G","suburb":"Canberra","id":"a6gebywcw2yk","geo_precision":"unmatched","state":"ACT"},"type":"Feature","geometry":null},{"properties":{"postcode":2000,"geo_score":0.0,"country":"Australia","type":"U","suburb":"Sydney","id":"a6gebyr82cvi","geo_precision":"unmatched","state":"NSW"},"type":"Feature","geometry":null},{"properties":{"postcode":2010,"geo_score":0.0,"country":"Australia","type":"U","suburb":"Surry Hills","id":"a6gebyv8ea0m","geo_precision":"unmatched","state":"NSW"},"type":"Feature","geometry":null},{"properties":{"postcode":2131,"geo_score":0.0,"country":"Australia","type":"N","suburb":"Ashfield","id":"a6gebywp80lv","geo_precision":"unmatched","state":"NSW"},"type":"Feature","geometry":null},{"properties":{"postcode":null,"geo_score":0.0,"country":"Switzerland","type":"N","suburb":"Geneva","id":"a6gebytnd241","geo_precision":"unmatched","state":null},"type":"Feature","geometry":null},{"properties":{"postcode":2037,"geo_score":0.0,"country":"Australia","type":"N","suburb":"Glebe","id":"a6gebys077ei","geo_precision":"unmatched","state":"NSW"},"type":"Feature","geometry":null},{"properties":{"postcode":200,"geo_score":0.0,"country":"Australia","type":"N","suburb":"Sydney","id":"a6gebyosa0ud","geo_precision":"unmatched","state":"nsw"},"type":"Feature","geometry":null},{"properties":{"postcode":2043,"geo_score":0.0,"country":"Australia","type":"N","suburb":"ERSKINEVILLE","id":"a6gebynpzfha","geo_precision":"unmatched","state":"NSW"},"type":"Feature","geometry":null},{"properties":{"postcode":2110,"geo_score":0.0,"country":"Australia","type":"N","suburb":"Hunters Hill","id":"a6gebyq6bnau","geo_precision":"unmatched","state":"NSW"},"type":"Feature","geometry":null},{"properties":{"postcode":2533,"geo_score":0.0,"country":"Australia","type":"N","suburb":"Jamberoo","id":"a6gebyufi4gf","geo_precision":"unmatched","state":"NSW"},"type":"Feature","geometry":null},{"properties":{"postcode":2000,"geo_score":0.0,"country":"Australia","type":"N","suburb":"Sydney","id":"a6gebyoawljz","geo_precision":"unmatched","state":"NSW"},"type":"Feature","geometry":null},{"properties":{"postcode":2037,"geo_score":0.0,"country":"Australia","type":"N","suburb":"Glebe","id":"a6gebywifngl","geo_precision":"unmatched","state":"NSW"},"type":"Feature","geometry":null},{"properties":{"postcode":1240,"geo_score":0.0,"country":"Australia","type":"U","suburb":"Haymarket","id":"a6gebyxchcb0","geo_precision":"unmatched","state":"NSW"},"type":"Feature","geometry":null},{"properties":{"postcode":2000,"geo_score":0.0,"country":"Australia","type":"N","suburb":"SYDNEY","id":"a6gebywecanl","geo_precision":"unmatched","state":"NSW"},"type":"Feature","geometry":null},{"properties":{"postcode":2101,"geo_score":0.0,"country":"Australia","type":"N","suburb":"North Narabeen","id":"a6gebyxmvk2h","geo_precision":"unmatched","state":"NSW"},"type":"Feature","geometry":null},{"properties":{"postcode":2148,"geo_score":0.0,"country":"Australia","type":"N","suburb":"Blacktown","id":"a6gebysvdq1n","geo_precision":"unmatched","state":"NSW"},"type":"Feature","geometry":null},{"properties":{"postcode":2000,"geo_score":0.0,"country":"Australia","type":"U","suburb":"Sydney","id":"a6gebysorhf7","geo_precision":"unmatched","state":"NSW"},"type":"Feature","geometry":null},{"properties":{"postcode":null,"geo_score":0.0,"country":"Australia","type":"N","suburb":"Ultimo","id":"a6gebysfaqlb","geo_precision":"unmatched","state":"NSW"},"type":"Feature","geometry":null},{"properties":{"postcode":2559,"geo_score":0.0,"country":"Australia","type":"N","suburb":"Campbelltown","id":"a6gebyndmpw5","geo_precision":"unmatched","state":"nsw"},"type":"Feature","geometry":null},{"properties":{"postcode":2560,"geo_score":0.0,"country":"Australia","type":"N","suburb":"Campbelltown","id":"a6gebyuyq4zo","geo_precision":"unmatched","state":"nsw"},"type":"Feature","geometry":null},{"properties":{"postcode":2400,"geo_score":0.0,"country":"Australia","type":"N","suburb":"Moree","id":"a6gebyj6ju9n","geo_precision":"unmatched","state":"NSW"},"type":"Feature","geometry":null},{"properties":{"postcode":3000,"geo_score":0.0,"country":"Australia","type":"N","suburb":"Melbourne","id":"a6gebynax4uj","geo_precision":"unmatched","state":"Vic"},"type":"Feature","geometry":null},{"properties":{"postcode":2000,"geo_score":0.0,"country":"Australia","type":"N","suburb":"Sydney","id":"a6gebyva4s67","geo_precision":"unmatched","state":"NSW"},"type":"Feature","geometry":null},{"properties":{"postcode":2000,"geo_score":0.0,"country":"Australia","type":"N","suburb":"Sydney","id":"a6gebyld8i06","geo_precision":"unmatched","state":"NSW"},"type":"Feature","geometry":null},{"properties":{"postcode":2751,"geo_score":0.0,"country":"Australia","type":"N","suburb":"Penrith","id":"a6gebyw29hzg","geo_precision":"unmatched","state":"NSW"},"type":"Feature","geometry":null},{"properties":{"postcode":2224,"geo_score":0.0,"country":"Australia","type":"N","suburb":"Artarman","id":"a6gebyy5xgdt","geo_precision":"unmatched","state":"NSW"},"type":"Feature","geometry":null},{"properties":{"postcode":2010,"geo_score":0.0,"country":"Australia","type":"N","suburb":"SURRY HILLS","id":"a6gebynvf64j","geo_precision":"unmatched","state":"NSW"},"type":"Feature","geometry":null},{"properties":{"postcode":1300,"geo_score":0.0,"country":"Australia","type":"N","suburb":"Darlinghurst","id":"a6gebyxbdkvq","geo_precision":"unmatched","state":"NSW"},"type":"Feature","geometry":null},{"properties":{"postcode":2001,"geo_score":0.0,"country":"Australia","type":"N","suburb":"Sydney","id":"a6gebyoib0a6","geo_precision":"unmatched","state":"NSW"},"type":"Feature","geometry":null},{"properties":{"postcode":2150,"geo_score":0.0,"country":"Australia","type":"L","suburb":"Parramatta","id":"a6gebythrpk0","geo_precision":"unmatched","state":"NSW"},"type":"Feature","geometry":null},{"properties":{"postcode":null,"geo_score":0.0,"country":"Australia","type":"N","suburb":"Port Headland","id":"a6gebyqloh6i","geo_precision":"unmatched","state":"WA"},"type":"Feature","geometry":null},{"properties":{"postcode":2000,"geo_score":0.0,"country":"Australia","type":"N","suburb":"The Rocks","id":"a6gebyivwrrj","geo_precision":"unmatched","state":"NSW"},"type":"Feature","geometry":null},{"properties":{"postcode":2222,"geo_score":0.0,"country":"Australia","type":"N","suburb":"Penshurst","id":"a6gebyyatvuy","geo_precision":"unmatched","state":"NSW"},"type":"Feature","geometry":null},{"properties":{"postcode":2031,"geo_score":0.0,"country":"Australia","type":"N","suburb":"Randwick","id":"a6gebyiwmlem","geo_precision":"unmatched","state":"NSW"},"type":"Feature","geometry":null},{"properties":{"postcode":2000,"geo_score":0.0,"country":"Australia","type":"N","suburb":"Sydney","id":"a6gebyp6k6e2","geo_precision":"unmatched","state":"NSW"},"type":"Feature","geometry":null},{"properties":{"postcode":2000,"geo_score":0.0,"country":"Australia","type":"U","suburb":"Sydney","id":"a6gebyt8mqhu","geo_precision":"unmatched","state":"NSW"},"type":"Feature","geometry":null},{"properties":{"postcode":5540,"geo_score":0.0,"country":"Australia","type":"N","suburb":"Port Pirie","id":"a6gebyw9lwqk","geo_precision":"unmatched","state":"SA"},"type":"Feature","geometry":null},{"properties":{"postcode":2500,"geo_score":0.0,"country":"Australia","type":"N","suburb":"WOLLONGONG","id":"a6gebyw7metr","geo_precision":"unmatched","state":"NSW"},"type":"Feature","geometry":null},{"properties":{"postcode":2011,"geo_score":0.0,"country":"Australia","type":"N","suburb":"Sydney","id":"a6gebyhyyold","geo_precision":"unmatched","state":"NSW"},"type":"Feature","geometry":null},{"properties":{"postcode":2520,"geo_score":0.0,"country":"Australia","type":"N","suburb":"Wollongong","id":"a6gebyjwe9xg","geo_precision":"unmatched","state":"NSW"},"type":"Feature","geometry":null},{"properties":{"postcode":2000,"geo_score":0.0,"country":"Australia","type":"N","suburb":"Sydney","id":"a6gebyqylrcu","geo_precision":"unmatched","state":"NSW"},"type":"Feature","geometry":null},{"properties":{"postcode":2032,"geo_score":0.0,"country":"Australia","type":"N","suburb":"Daceyville","id":"a6gebylktdrc","geo_precision":"unmatched","state":"NSW"},"type":"Feature","geometry":null},{"properties":{"postcode":2007,"geo_score":0.0,"country":"Australia","type":"N","suburb":"Ultimo","id":"a6gebyv3cf1b","geo_precision":"unmatched","state":"NSW"},"type":"Feature","geometry":null},{"properties":{"postcode":2100,"geo_score":0.0,"country":"Australia","type":"N","suburb":"Brookvale","id":"a6gebyl3nei9","geo_precision":"unmatched","state":"NSW"},"type":"Feature","geometry":null},{"properties":{"postcode":2234,"geo_score":0.0,"country":"Australia","type":"N","suburb":"Menai","id":"a6gebyriynml","geo_precision":"unmatched","state":"NSW"},"type":"Feature","geometry":null},{"properties":{"postcode":2000,"geo_score":0.0,"country":"Australia","type":"N","suburb":"Sydney","id":"a6gebyt2ecbg","geo_precision":"unmatched","state":"NSW"},"type":"Feature","geometry":null},{"properties":{"postcode":2000,"geo_score":0.0,"country":"Australia","type":"N","suburb":"Sydney","id":"a6gebyxc4y8w","geo_precision":"unmatched","state":"NSW"},"type":"Feature","geometry":null},{"properties":{"postcode":2016,"geo_score":0.0,"country":"Australia","type":"N","suburb":"Redfern","id":"a6gebyitpug5","geo_precision":"unmatched","state":"NSW"},"type":"Feature","geometry":null}],"is_temporal":false,"author":{"url":null,"metadata":null,"contact_name":null,"contact_address":null,"source":null,"contact_phone":null},"source":null,"pagination":{"sort":null,"start":0,"total":71,"limit":1000000},"state":"complete","tags":"","published":"2014-08-13T07:43:47-04:00","id":126525}