{"type":"FeatureCollection","data_type":"Dataset","url_type":null,"permissions":[{"permissions":{"download":true,"view":true},"group_id":"everyone"}],"classification":null,"title":"11 0617 PAM SalesData","count":36,"stream_id":127076,"contributor":{"url":"http://geocommons.com/users/28248","name":"tommynauw"},"data_attributes":null,"calculation_params":null,"icon_link":null,"link":"http://geocommons.com/overlays/127076.json","extent":[-168.022,20.8327,-70.3701,62.0494],"geometry_types":["point"],"unique_name":null,"name":"11 0617 PAM SalesData","feature_count":36,"description":"","next_feature":null,"is_raster":false,"short_classification":"Y","stats":{},"features":[{"properties":{"city":"Kailua","zip":"96734","geo_score":0.875,"id":"a6388jjiyutr","geo_precision":"zip","state":"HI"},"type":"Feature","geometry":{"type":"Point","coordinates":[-157.754167,21.384722]}},{"properties":{"city":"Scottsdale","zip":"92649","geo_score":0.886,"id":"a6388jrnh8ze","geo_precision":"zip","state":"CA"},"type":"Feature","geometry":{"type":"Point","coordinates":[-117.769442,33.640302]}},{"properties":{"city":"Poland","zip":"04274","geo_score":0.879,"id":"a6388jmbug01","geo_precision":"zip","state":"ME"},"type":"Feature","geometry":{"type":"Point","coordinates":[-70.370055,43.986741]}},{"properties":{"city":"Aberdeen","zip":"07747","geo_score":0.871,"id":"a6388jorg69b","geo_precision":"zip","state":"NJ"},"type":"Feature","geometry":{"type":"Point","coordinates":[-74.213478,40.395942]}},{"properties":{"city":"Eatonville","zip":"98328","geo_score":0.886,"id":"a6388jo6e6p2","geo_precision":"zip","state":"WA"},"type":"Feature","geometry":{"type":"Point","coordinates":[-122.290113,46.800383]}},{"properties":{"city":"Homeland","zip":"92548","geo_score":1.0,"id":"a6388jo3vika","geo_precision":"zip","state":"CA"},"type":"Feature","geometry":{"type":"Point","coordinates":[-116.055617,33.752886]}},{"properties":{"city":"Goleta","zip":"93117","geo_score":0.857,"id":"a6388jmd45as","geo_precision":"zip","state":"CA"},"type":"Feature","geometry":{"type":"Point","coordinates":[-120.22904,34.508044]}},{"properties":{"city":"Huntington Beach","zip":"92647","geo_score":1.0,"id":"a6388jf6rq5y","geo_precision":"zip","state":"CA"},"type":"Feature","geometry":{"type":"Point","coordinates":[-117.769442,33.640302]}},{"properties":{"city":"Honolulu","zip":"96818","geo_score":0.879,"id":"a6388jfppi46","geo_precision":"zip","state":"HI"},"type":"Feature","geometry":{"type":"Point","coordinates":[-157.927778,21.365278]}},{"properties":{"city":"Honolulu","zip":"96825","geo_score":0.873,"id":"a6388jh9hiyy","geo_precision":"zip","state":"HI"},"type":"Feature","geometry":{"type":"Point","coordinates":[-157.705278,21.282778]}},{"properties":{"city":"Wawona","zip":"95389","geo_score":0.866,"id":"a6388jry67to","geo_precision":"zip","state":"CA"},"type":"Feature","geometry":{"type":"Point","coordinates":[-120.488253,37.89076]}},{"properties":{"city":"Honolulu","zip":"96817","geo_score":1.0,"id":"a6388jk5ibs7","geo_precision":"zip","state":"HI"},"type":"Feature","geometry":{"type":"Point","coordinates":[-157.922303,21.65098]}},{"properties":{"city":"Huntington Beach","zip":"92649","geo_score":1.0,"id":"a6388ju3w2ju","geo_precision":"zip","state":"CA"},"type":"Feature","geometry":{"type":"Point","coordinates":[-117.769442,33.640302]}},{"properties":{"city":"Aiea","zip":"96701","geo_score":0.918,"id":"a6388jf6qvq7","geo_precision":"zip","state":"HI"},"type":"Feature","geometry":{"type":"Point","coordinates":[-157.943333,21.404722]}},{"properties":{"city":"Honolulu","zip":"96821","geo_score":1.0,"id":"a6388jncgez0","geo_precision":"zip","state":"HI"},"type":"Feature","geometry":{"type":"Point","coordinates":[-168.021815,24.859832]}},{"properties":{"city":"Palmer","zip":"99645","geo_score":0.878,"id":"a6388jftbqdl","geo_precision":"zip","state":"AK"},"type":"Feature","geometry":{"type":"Point","coordinates":[-146.538333,62.049444]}},{"properties":{"city":"Los Angeles","zip":"90039","geo_score":1.0,"id":"a6388jfj63ap","geo_precision":"zip","state":"CA"},"type":"Feature","geometry":{"type":"Point","coordinates":[-118.298662,33.786594]}},{"properties":{"city":"Honolulu","zip":"96816","geo_score":0.911,"id":"a6388jpgf2w3","geo_precision":"zip","state":"HI"},"type":"Feature","geometry":{"type":"Point","coordinates":[-157.815556,21.278056]}},{"properties":{"city":"Huntington Beach","zip":"92649","geo_score":1.0,"id":"a6388jmxfhc5","geo_precision":"zip","state":"CA"},"type":"Feature","geometry":{"type":"Point","coordinates":[-117.769442,33.640302]}},{"properties":{"city":"Shawnee","zip":"66218","geo_score":0.857,"id":"a6388jjz5he9","geo_precision":"zip","state":"KS"},"type":"Feature","geometry":{"type":"Point","coordinates":[-94.808018,39.038338]}},{"properties":{"city":"Honolulu","zip":"96814","geo_score":0.893,"id":"a6388jo0tv2a","geo_precision":"zip","state":"HI"},"type":"Feature","geometry":{"type":"Point","coordinates":[-157.829167,21.290556]}},{"properties":{"city":"Houston","zip":"77084","geo_score":1.0,"id":"a6388jqt8n16","geo_precision":"zip","state":"TX"},"type":"Feature","geometry":{"type":"Point","coordinates":[-95.434241,29.83399]}},{"properties":{"city":"Brea","zip":"92821","geo_score":1.0,"id":"a6388jpgfz7t","geo_precision":"zip","state":"CA"},"type":"Feature","geometry":{"type":"Point","coordinates":[-117.769442,33.640302]}},{"properties":{"city":"Honolulu","zip":"96813","geo_score":1.0,"id":"a6388jkfwnuq","geo_precision":"zip","state":"HI"},"type":"Feature","geometry":{"type":"Point","coordinates":[-168.021815,24.859832]}},{"properties":{"city":"Palatine","zip":"60067","geo_score":0.873,"id":"a6388jkyl5ni","geo_precision":"zip","state":"IL"},"type":"Feature","geometry":{"type":"Point","coordinates":[-88.096187,42.118082]}},{"properties":{"city":"Honollulu","zip":"96814","geo_score":0.905,"id":"a6388jfdo6ps","geo_precision":"zip","state":"HI"},"type":"Feature","geometry":{"type":"Point","coordinates":[-157.829167,21.290556]}},{"properties":{"city":"Makawao","zip":"96768","geo_score":1.0,"id":"a6388jmqz1ti","geo_precision":"zip","state":"HI"},"type":"Feature","geometry":{"type":"Point","coordinates":[-156.320242,20.832664]}},{"properties":{"city":"Honolulu","zip":"96825","geo_score":0.873,"id":"a6388jlc6mmo","geo_precision":"zip","state":"HI"},"type":"Feature","geometry":{"type":"Point","coordinates":[-157.705278,21.282778]}},{"properties":{"city":"Hon","zip":"96818","geo_score":0.868,"id":"a6388jlzbebj","geo_precision":"zip","state":"HI"},"type":"Feature","geometry":{"type":"Point","coordinates":[-157.927778,21.365278]}},{"properties":{"city":"Honolulu","zip":"96819","geo_score":1.0,"id":"a6388josd9ht","geo_precision":"zip","state":"HI"},"type":"Feature","geometry":{"type":"Point","coordinates":[-157.901979,21.373179]}},{"properties":{"city":"Huntington Beach","zip":"92649","geo_score":1.0,"id":"a6388jmj6rcu","geo_precision":"zip","state":"CA"},"type":"Feature","geometry":{"type":"Point","coordinates":[-117.769442,33.640302]}},{"properties":{"city":"Huntington Beach","zip":"92649","geo_score":1.0,"id":"a6388ju8hi74","geo_precision":"zip","state":"CA"},"type":"Feature","geometry":{"type":"Point","coordinates":[-117.769442,33.640302]}},{"properties":{"city":"Ukiah","zip":"95482","geo_score":0.869,"id":"a6388jg73aar","geo_precision":"zip","state":"CA"},"type":"Feature","geometry":{"type":"Point","coordinates":[-123.158059,39.166837]}},{"properties":{"city":"Louisville","zip":"40245","geo_score":1.0,"id":"a6388jjuef6x","geo_precision":"zip","state":"KY"},"type":"Feature","geometry":{"type":"Point","coordinates":[-85.475021,38.258384]}},{"properties":{"city":"Kaneohe","zip":"96744","geo_score":0.898,"id":"a6388jhese4u","geo_precision":"zip","state":"HI"},"type":"Feature","geometry":{"type":"Point","coordinates":[-157.855,21.500556]}},{"properties":{"city":"Ewa Beach","zip":"96706","geo_score":0.879,"id":"a6388jkg4s8b","geo_precision":"zip","state":"HI"},"type":"Feature","geometry":{"type":"Point","coordinates":[-158.045833,21.336944]}}],"is_temporal":false,"author":{"url":"","metadata":"","contact_name":"","contact_address":"","source":"","contact_phone":""},"source":"","pagination":{"sort":null,"start":0,"total":36,"limit":1000000},"state":"complete","tags":"","published":"2014-08-13T08:40:03-04:00","id":127076}