{"type":"FeatureCollection","data_type":"Dataset","url_type":null,"permissions":[{"permissions":{"download":true,"view":true},"group_id":"everyone"}],"classification":null,"title":"pledgeus","count":72,"stream_id":127539,"contributor":{"url":"http://geocommons.com/users/22104","name":"mkraley@crcna.org"},"data_attributes":null,"calculation_params":null,"icon_link":null,"link":"http://geocommons.com/overlays/127539.json","extent":[-122.49,25.7293,-71.6476,48.719],"geometry_types":["point"],"unique_name":null,"name":"pledgeus","feature_count":72,"description":"","next_feature":null,"is_raster":false,"short_classification":"Y","stats":{},"features":[{"properties":{"zip":"49506","country":"United States","id":"a7kbw3wlwdcd","comment":"I work for OSJ.","state":"MI"},"type":"Feature","geometry":{"type":"Point","coordinates":[-85.610028,42.941139]}},{"properties":{"zip":"49503","country":"United States","id":"a7kbw4139xj0","comment":"I work for OSJ.","state":"MI"},"type":"Feature","geometry":{"type":"Point","coordinates":[-85.660693,42.956176]}},{"properties":{"zip":"49506","country":"United States","id":"a7kbw496emjn","comment":null,"state":"MI"},"type":"Feature","geometry":{"type":"Point","coordinates":[-85.610028,42.941139]}},{"properties":{"zip":"49423","country":"United States","id":"a7kbw4ake5ic","comment":"I want to truly put into practice the call to show hospitality and love to my neighbors. I want to be more able as a nation to share the resources God has blessed us with. I know that my country and church benefit greatly from the immigrants who cross our borders and I don't want a system that turns migrants people into second class citizens. And I want to be cool and support the OSJ.","state":"MI"},"type":"Feature","geometry":{"type":"Point","coordinates":[-86.176153,42.772245]}},{"properties":{"zip":"49506","country":"United States","id":"a7kbw45vcc9r","comment":null,"state":"MI"},"type":"Feature","geometry":{"type":"Point","coordinates":[-85.610028,42.941139]}},{"properties":{"zip":"49506","country":"United States","id":"a7kbw412x763","comment":null,"state":"MI"},"type":"Feature","geometry":{"type":"Point","coordinates":[-85.610028,42.941139]}},{"properties":{"zip":"49423","country":"United States","id":"a7kbw47usf0p","comment":null,"state":"MI"},"type":"Feature","geometry":{"type":"Point","coordinates":[-86.176153,42.772245]}},{"properties":{"zip":"57103","country":"United States","id":"a7kbw3wsx2b5","comment":"My city welcomes immigrants and refugees and I wish others did too!","state":"SD"},"type":"Feature","geometry":{"type":"Point","coordinates":[-96.63871,43.548433]}},{"properties":{"zip":"07307","country":"United States","id":"a7kbw4cjlo2u","comment":null,"state":"NJ"},"type":"Feature","geometry":{"type":"Point","coordinates":[-74.054285,40.749801]}},{"properties":{"zip":"49508","country":"United States","id":"a7kbw4a3rfbx","comment":"Advocate","state":"MI"},"type":"Feature","geometry":{"type":"Point","coordinates":[-85.568358,42.910029]}},{"properties":{"zip":"49507","country":"United States","id":"a7kbw470y46r","comment":"Coordinator of OSJ","state":"MI"},"type":"Feature","geometry":{"type":"Point","coordinates":[-85.656978,42.930777]}},{"properties":{"zip":"49546","country":"United States","id":"a7kbw4bxacbh","comment":null,"state":"MI"},"type":"Feature","geometry":{"type":"Point","coordinates":[-85.53904,42.930146]}},{"properties":{"zip":"52101","country":"United States","id":"a7kbw3yz7zu7","comment":null,"state":"IA"},"type":"Feature","geometry":{"type":"Point","coordinates":[-91.639591,43.392194]}},{"properties":{"zip":"49560","country":"United States","id":"a7kbw4c9t27w","comment":"I immigrated from Mexico as a student in 1999, graduated from Calvin in 2003, and married an American citizen in 2006. Currently, I am a permanent resident or a green card holder. I have an excellent immigration attorney, I have spent well over $10,000 paying for visas and status adjustments. I have payed taxes, been employed (when legally allowed), and been involved in my community the whole time. I am bilingual and a perfect example of the \"right kind\" of immigrant. Assuming all things go smoothly, I'd be allowed to become a US Citizen in 2012. That's 13 years after I arrived. If that's the best the current system can do, something needs to change. A worker recruited by an American business to come to the US to help harvest crops or to clean toilettes has no chance at all to get a visa, let alone a green card. The waiting periods for some family visas run into 20-year waiting periods. How is this reasonable, fair, or economically sound?","state":"MI"},"type":"Feature","geometry":{"type":"Point","coordinates":[-85.550267,43.031413]}},{"properties":{"zip":"49507","country":"United States","id":"a7kbw4b3v5v0","comment":"I'm just very interested in seeing change in this area","state":"MI"},"type":"Feature","geometry":{"type":"Point","coordinates":[-85.656978,42.930777]}},{"properties":{"zip":"60304","country":"United States","id":"a7kbw44qoqot","comment":"Concerned citizen Researcher of second language acquisition in immigrant workers","state":"IL"},"type":"Feature","geometry":{"type":"Point","coordinates":[-87.68732,41.811929]}},{"properties":{"zip":"49419","country":"United States","id":"a7kbw40z9tzy","comment":null,"state":"MI"},"type":"Feature","geometry":{"type":"Point","coordinates":[-86.093093,42.681693]}},{"properties":{"zip":"92026","country":"United States","id":"a7kbw3z57hjc","comment":"have a young man from Peru who is living with us for medical reasons and we have dealt personally with immigration issues int trying to renew and/or extend visas. The system is ridiculous. I now understand why so many people come here illegally. We are trying to do everything legally and it is very difficult. I believe in obeying laws, but the laws need to be changed.","state":"CA"},"type":"Feature","geometry":{"type":"Point","coordinates":[-116.846046,33.016928]}},{"properties":{"zip":"46001","country":"United States","id":"a7kbw46htbmn","comment":"no direct connection","state":"IN"},"type":"Feature","geometry":{"type":"Point","coordinates":[-85.601364,40.193931]}},{"properties":{"zip":"76707","country":"United States","id":"a7kbw3yzrec1","comment":"I am part of a billingual multicultural community of faith that works on immigrant rights issues both locally and nationally.","state":"TX"},"type":"Feature","geometry":{"type":"Point","coordinates":[-97.054163,31.414338]}},{"properties":{"zip":"49507","country":"United States","id":"a7kbw41t0xpa","comment":"I live in an urban neighborhood where immigrants will soon be significant share of the population.","state":"MI"},"type":"Feature","geometry":{"type":"Point","coordinates":[-85.656978,42.930777]}},{"properties":{"zip":"01588","country":"United States","id":"a7kbw455fsjt","comment":"simply conviction","state":"MA"},"type":"Feature","geometry":{"type":"Point","coordinates":[-71.647567,42.122319]}},{"properties":{"zip":"55112","country":"United States","id":"a7kbw4b21pw4","comment":"My present church is the mother church to a SE Asian daughter church with 100+ recent Karen immigrants from Myamar. My previous church hosted Bosnian and Cuban refugee families.","state":"MN"},"type":"Feature","geometry":{"type":"Point","coordinates":[-93.208558,45.104966]}},{"properties":{"zip":"60804","country":"United States","id":"a7kbw492mw6e","comment":"ESL program/latino community/dream act recipients","state":"IL"},"type":"Feature","geometry":{"type":"Point","coordinates":[-87.68732,41.811929]}},{"properties":{"zip":"49301","country":"United States","id":"a7kbw3yln6a0","comment":null,"state":"MI"},"type":"Feature","geometry":{"type":"Point","coordinates":[-85.411412,43.043363]}},{"properties":{"zip":"49508","country":"United States","id":"a7kbw44p2zl3","comment":null,"state":"MI"},"type":"Feature","geometry":{"type":"Point","coordinates":[-85.568358,42.910029]}},{"properties":{"zip":"49508","country":"United States","id":"a7kbw43r5064","comment":"I have a number of friends who immigrated.","state":"MI"},"type":"Feature","geometry":{"type":"Point","coordinates":[-85.568358,42.910029]}},{"properties":{"zip":"49503","country":"United States","id":"a7kbw44oueab","comment":"We have hosted visitors and immigrants in our home and in our church and continue to do so through Bethany/PARA.","state":"MI"},"type":"Feature","geometry":{"type":"Point","coordinates":[-85.660693,42.956176]}},{"properties":{"zip":"49453","country":"United States","id":"a7kbw41hpw9u","comment":null,"state":"MI"},"type":"Feature","geometry":{"type":"Point","coordinates":[-86.165451,42.645611]}},{"properties":{"zip":"49546","country":"United States","id":"a7kbw45wkpwc","comment":null,"state":"MI"},"type":"Feature","geometry":{"type":"Point","coordinates":[-85.53904,42.930146]}},{"properties":{"zip":"49519","country":"United States","id":"a7kbw48zl2lm","comment":null,"state":"MI"},"type":"Feature","geometry":{"type":"Point","coordinates":[-85.668086,42.96336]}},{"properties":{"zip":"49507","country":"United States","id":"a7kbw43jppno","comment":"I know immigrants (legal and not) through several connections--church, extended family, neighborhood, and more.","state":"MI"},"type":"Feature","geometry":{"type":"Point","coordinates":[-85.656978,42.930777]}},{"properties":{"zip":"49505","country":"United States","id":"a7kbw42qc6mv","comment":"I served as a youth director for several years in NJ. There were teens in my youth group who were undocumented and lived in poverty and fear of deportation. Though they were attending high school they had no hope of a bright future because their education would not qualify them for legal work within this country. They were children when they came to the US and do not know any other home, yet they faced a hopeless situation here. Eventually the hopelessness led to a downward spiral of poor choices (better choices weren't even available to them) that had damaging effects on their lives and the lives of others. It doesn't have to be this way. These teens matter--their presence should be recognized, and their gifts should be appreciated. They could have had a bright future. Now they are trapped in a cycle of poverty with no end in sight.","state":"MI"},"type":"Feature","geometry":{"type":"Point","coordinates":[-85.611596,43.017776]}},{"properties":{"zip":"49506","country":"United States","id":"a7kbw4aetywl","comment":null,"state":"MI"},"type":"Feature","geometry":{"type":"Point","coordinates":[-85.610028,42.941139]}},{"properties":{"zip":"33165","country":"United States","id":"a7kbw4b4lz13","comment":null,"state":"FL"},"type":"Feature","geometry":{"type":"Point","coordinates":[-80.372831,25.729268]}},{"properties":{"zip":"99350","country":"United States","id":"a7kbw44bb2eu","comment":"I want to give my support to reunion family.","state":"WA"},"type":"Feature","geometry":{"type":"Point","coordinates":[-119.705587,46.235411]}},{"properties":{"zip":"51250","country":"United States","id":"a7kbw3zfp9vn","comment":"friends and neighbors who are immigrants; acute need for laborers by farms and rural industries in our area","state":"IA"},"type":"Feature","geometry":{"type":"Point","coordinates":[-96.356695,43.098596]}},{"properties":{"zip":"49423","country":"United States","id":"a7kbw44abtv7","comment":"Contact with the Hispanic community in various cities, neighbors in Holland, ministry work, friends around Michigan, some of whom are caught in the system.","state":"MI"},"type":"Feature","geometry":{"type":"Point","coordinates":[-86.176153,42.772245]}},{"properties":{"zip":"49546","country":"United States","id":"a7kbw495ivmv","comment":"Work with immigrant families in health care","state":"MI"},"type":"Feature","geometry":{"type":"Point","coordinates":[-85.53904,42.930146]}},{"properties":{"zip":"449331","country":"United States","id":"a7kbw4839rxs","comment":null,"state":"MI"},"type":"Feature","geometry":null},{"properties":{"zip":"49503","country":"United States","id":"a7kbw4829cep","comment":null,"state":"MI"},"type":"Feature","geometry":{"type":"Point","coordinates":[-85.660693,42.956176]}},{"properties":{"zip":"49503","country":"United States","id":"a7kbw48rh5bq","comment":"I am concerned about the injustice of our immigration system.","state":"MI"},"type":"Feature","geometry":{"type":"Point","coordinates":[-85.660693,42.956176]}},{"properties":{"zip":"92061","country":"United States","id":"a7kbw4891vy4","comment":"Working with immigrant families","state":"CA"},"type":"Feature","geometry":{"type":"Point","coordinates":[-116.846046,33.016928]}},{"properties":{"zip":"49506","country":"United States","id":"a7kbw42mpp4h","comment":"I am a Christian and an American citizen.","state":"MI"},"type":"Feature","geometry":{"type":"Point","coordinates":[-85.610028,42.941139]}},{"properties":{"zip":"80222","country":"United States","id":"a7kbw44adp4l","comment":"Have helped organize immigration information meeting, involved in advocacy.","state":"CO"},"type":"Feature","geometry":{"type":"Point","coordinates":[-104.924134,39.709343]}},{"properties":{"zip":"19083","country":"United States","id":"a7kbw4cuh568","comment":null,"state":"PA"},"type":"Feature","geometry":{"type":"Point","coordinates":[-75.326577,39.973167]}},{"properties":{"zip":"98225","country":"United States","id":"a7kbw441vlea","comment":"A young neighbor who lives in fear of being deported back to Mexico. He has a wife and young child. Finding a job is difficult for him.","state":"WA"},"type":"Feature","geometry":{"type":"Point","coordinates":[-122.489892,48.718997]}},{"properties":{"zip":"76248","country":"United States","id":"a7kbw4cw56pa","comment":"I believe that Jesus wants us to welcome the unwanted and love the unloved.","state":"TX"},"type":"Feature","geometry":{"type":"Point","coordinates":[-97.195014,32.991235]}},{"properties":{"zip":"49546","country":"United States","id":"a7kbw3yd5fdp","comment":null,"state":"MI"},"type":"Feature","geometry":{"type":"Point","coordinates":[-85.53904,42.930146]}},{"properties":{"zip":"53714","country":"United States","id":"a7kbw4bh6umq","comment":"I am very concerned! Trying to find out what is going on in Madison. I do not think we should punish those aliens amongst us just because we do not have an effective policy in place and means by which they can have legal standing in an easy affordable manner","state":"WI"},"type":"Feature","geometry":{"type":"Point","coordinates":[-89.312644,43.118663]}},{"properties":{"zip":"52658","country":"United States","id":"a7kbw43erfwg","comment":"I try my best to follow the \"red letter\" and therefore I want to reach out to those he did.","state":"IA"},"type":"Feature","geometry":{"type":"Point","coordinates":[-91.275705,40.758095]}},{"properties":{"zip":"49506","country":"United States","id":"a7kbw4aubocu","comment":"God made us in His image, and I want to affirm that in the oppressed. Also, God always told the Israelites to take care of the alien, the widow and the fatherless, and I'm sure that mandate extends to the Church today. As I get to know families in Grand Rapids, I do not want to affirm their humanity differently based on their immigration status.","state":"MI"},"type":"Feature","geometry":{"type":"Point","coordinates":[-85.610028,42.941139]}},{"properties":{"zip":"94517","country":"United States","id":"a7kbw3xwaor4","comment":"Some involvement with the Michael Chavez Center, which works in Concord CA to assist immigrants (mostly Hispanic) in job training, work experience, technology classes, language classes, creation of cooperative ventures, etc.","state":"CA"},"type":"Feature","geometry":{"type":"Point","coordinates":[-121.784818,37.897832]}},{"properties":{"zip":"49506","country":"United States","id":"a7kbw41p007s","comment":null,"state":"MI"},"type":"Feature","geometry":{"type":"Point","coordinates":[-85.610028,42.941139]}},{"properties":{"zip":"49423","country":"United States","id":"a7kbw3xx45co","comment":null,"state":"MI"},"type":"Feature","geometry":{"type":"Point","coordinates":[-86.176153,42.772245]}},{"properties":{"zip":"49506","country":"United States","id":"a7kbw40uz52k","comment":"All non-natives are or were Immigrants including me","state":"MI"},"type":"Feature","geometry":{"type":"Point","coordinates":[-85.610028,42.941139]}},{"properties":{"zip":"88001","country":"United States","id":"a7kbw477k7bt","comment":null,"state":"NM"},"type":"Feature","geometry":{"type":"Point","coordinates":[-106.854065,32.41467]}},{"properties":{"zip":"49507","country":"United States","id":"a7kbw40cdx84","comment":"Grew up and lived many years in Latin America. Worked with Latinos in Michigan for 8 years. Personally, see that our immigration system is broken, causes untold harm to families and needs comprehensive reform.","state":"MI"},"type":"Feature","geometry":{"type":"Point","coordinates":[-85.656978,42.930777]}},{"properties":{"zip":"33773","country":"United States","id":"a7kbw43jd0b0","comment":"i was a refugee","state":"FL"},"type":"Feature","geometry":{"type":"Point","coordinates":[-82.753373,27.88015]}},{"properties":{"zip":"49428","country":"United States","id":"a7kbw3zegqed","comment":"friends and siblings in Christ","state":"MI"},"type":"Feature","geometry":{"type":"Point","coordinates":[-85.842586,42.918544]}},{"properties":{"zip":"49506","country":"United States","id":"a7kbw46veph4","comment":null,"state":"MI"},"type":"Feature","geometry":{"type":"Point","coordinates":[-85.610028,42.941139]}},{"properties":{"zip":"81101","country":"United States","id":"a7kbw4arh5mt","comment":"We are 48% Hispanic and have numerous migrant workers who would like to stay in our valley.","state":"CO"},"type":"Feature","geometry":{"type":"Point","coordinates":[-106.006136,37.429727]}},{"properties":{"zip":"49506","country":"United States","id":"a7kbw4acsywb","comment":null,"state":"MI"},"type":"Feature","geometry":{"type":"Point","coordinates":[-85.610028,42.941139]}},{"properties":{"zip":"49546","country":"United States","id":"a7kbw3xgphxm","comment":"I believe that immigration reform is an important issue that needs to be addressed by the government.","state":"MI"},"type":"Feature","geometry":{"type":"Point","coordinates":[-85.53904,42.930146]}},{"properties":{"zip":"49426","country":"United States","id":"a7kbw48w3tv7","comment":"Our Church has taken in refugees from various countries and refugees have also lived with our family.","state":"MI"},"type":"Feature","geometry":{"type":"Point","coordinates":[-85.88198,42.82586]}},{"properties":{"zip":"41042","country":"United States","id":"a7kbw46bio3k","comment":"Lived abroad, hope to be an immigraiton lawyer","state":"KY"},"type":"Feature","geometry":{"type":"Point","coordinates":[-84.662723,38.972839]}},{"properties":{"zip":"49546","country":"United States","id":"a7kbw43lriyd","comment":null,"state":"MI"},"type":"Feature","geometry":{"type":"Point","coordinates":[-85.53904,42.930146]}},{"properties":{"zip":"19141","country":"United States","id":"a7kbw46bcb86","comment":"Lead elementary school with mostly Cambodian students, mostly immigrant parents. Also involved with deportation issue - special problem for Cambodians.","state":"PA"},"type":"Feature","geometry":{"type":"Point","coordinates":[-75.151565,40.028445]}},{"properties":{"zip":"49546","country":"United States","id":"a7kbw40mqyb3","comment":null,"state":"MI"},"type":"Feature","geometry":{"type":"Point","coordinates":[-85.53904,42.930146]}},{"properties":{"zip":"60451","country":"United States","id":"a7kbw44gzka8","comment":"My heart, my passion","state":"IL"},"type":"Feature","geometry":{"type":"Point","coordinates":[-87.94172,41.498088]}},{"properties":{"zip":"49426","country":"United States","id":"a7kbw441crmn","comment":null,"state":"MI"},"type":"Feature","geometry":{"type":"Point","coordinates":[-85.88198,42.82586]}},{"properties":{"zip":"49508","country":"United States","id":"a7kbw4ax6rzp","comment":null,"state":"MI"},"type":"Feature","geometry":{"type":"Point","coordinates":[-85.568358,42.910029]}}],"is_temporal":false,"author":{"url":null,"metadata":null,"contact_name":null,"contact_address":null,"source":null,"contact_phone":null},"source":null,"pagination":{"sort":null,"start":0,"total":72,"limit":1000000},"state":"complete","tags":"","published":"2014-08-13T09:19:19-04:00","id":127539}