{"type":"FeatureCollection","data_type":"Dataset","url_type":null,"permissions":[{"permissions":{"download":true,"view":true},"group_id":"everyone"}],"classification":null,"title":"Employees on nonfarm payrolls by Metropolitan Area, United States, 4/29/2009","count":295,"stream_id":12756,"contributor":{"url":"http://geocommons.com/users/140","name":"Brendan"},"data_attributes":null,"calculation_params":null,"icon_link":null,"link":"http://geocommons.com/overlays/12756.json","extent":[-157.858,0.0,0.0,61.2176],"geometry_types":["point"],"unique_name":null,"name":"Employees on nonfarm payrolls by Metropolitan Area, United States, 4/29/2009","feature_count":295,"description":"This dataset displays the number of Employees on nonfarm payrolls by Metropolitan Area. Please note that numbers are in the thousands. \n\n   Over the year, nonfarm employment fell in 37 of the 38 metropolitan\nareas with annual average employment levels above 750,000 in 2008.  The\nlargest over-the-year percentage declines in employment in these large\nareas were posted in Detroit-Warren-Livonia, Mich., and Phoenix-Mesa-\nScottsdale, Ariz. (-7.1 percent each), Riverside-San Bernardino-Ontario,\nCalif. (-6.6 percent), and Charlotte-Gastonia-Concord, N.C.-S.C. (-6.1 per-\ncent).  For the second consecutive month, Austin-Round Rock, Texas, was the\nonly one of these metropolitan areas to record an over-the-year increase\n(+3,300 or +0.4 percent).\n\n\n   1 Area boundaries do not reflect official OMB definitions.\n        p = preliminary.\n        NOTE:  Data are counts of jobs by place of work.  Estimates subsequent to the current benchmark\n     are provisional and will be revised when new information becomes available.  Area definitions are\n     based on Office of Management and Budget Bulletin No. 09-01, dated November 20, 2008, and available at\n     http://www.bls.gov/lau/lausmsa.htm. Areas in the six New England states are Metropolitan New England City \n     and Town Areas (NECTAs), while areas in other states are county-based.  Some metropolitan areas lie in two\n     or more states.  They are listed under the state that appears first in their titles.  Davenport-Moline-Rock\n     Island, Iowa-Ill., and Weirton-Steubenville, W. Va.-Ohio, are the exceptions in that they are listed under\n     Illinois and Ohio, respectively, for operational reasons.\n\n\n","next_feature":null,"is_raster":false,"short_classification":"Y","stats":{"c":{"max":8520.4,"mean":364.526101694915,"variance":614397.007513663,"stdev":783.834808817306,"min":0.0,"median":130.2},"d":{"max":8329.9,"mean":354.341016949152,"variance":580567.840522772,"stdev":761.950024950962,"min":0.0,"median":126.6},"e":{"max":8571.3,"mean":365.867796610169,"variance":619710.320285944,"stdev":787.216819107636,"min":0.0,"median":130.4},"Latitude":{"max":61.21756,"mean":37.6069848813559,"variance":38.3436877041257,"stdev":6.19222800808608,"min":0.0,"median":38.890369},"f":{"max":8351.6,"mean":347.895254237288,"variance":573197.931882163,"stdev":757.098363412683,"min":0.0,"median":124.7},"g":{"max":3.3,"mean":-11.1657627118644,"variance":740.900286406089,"stdev":27.2194835808119,"min":-221.3,"median":-3.1},"h":{"max":3.4,"mean":-2.65118644067797,"variance":4.82223498212845,"stdev":2.19595878425085,"min":-12.9,"median":-2.5},"longitude":{"max":0.0,"mean":-90.9588120067797,"variance":291.519516604634,"stdev":17.0739426203977,"min":-157.857619,"median":-86.979767}},"features":[{"properties":{"City":"Montgomery","c":179.2,"d":174.6,"e":179.2,"Latitude":32.38012,"State":"Alabama","f":175.3,"g":-3.9,"h":-2.2,"longitude":-86.300629,"id":"a64pyhqu8sey"},"type":"Feature","geometry":{"type":"Point","coordinates":[-86.300629,32.38012]}},{"properties":{"City":"Tuscaloosa","c":98.2,"d":96.7,"e":98.3,"Latitude":33.210425,"State":"Alabama","f":96.9,"g":-1.4,"h":-1.4,"longitude":-87.566209,"id":"a64pyhplwyvc"},"type":"Feature","geometry":{"type":"Point","coordinates":[-87.566209,33.210425]}},{"properties":{"City":"Anniston-Oxford","c":52.5,"d":51.5,"e":53.1,"Latitude":33.613071,"State":"Alabama","f":51.6,"g":-1.5,"h":-2.8,"longitude":-85.835678,"id":"a64pyhslu1pd"},"type":"Feature","geometry":{"type":"Point","coordinates":[-85.835678,33.613071]}},{"properties":{"City":"Auburn-Opelika","c":54.4,"d":53.3,"e":54.7,"Latitude":32.650501,"State":"Alabama","f":53.7,"g":-1.0,"h":-1.8,"longitude":-85.380653,"id":"a64pyhknu9w7"},"type":"Feature","geometry":{"type":"Point","coordinates":[-85.380653,32.650501]}},{"properties":{"City":"Birmingham-Hoover","c":526.9,"d":510.9,"e":527.7,"Latitude":33.387199,"State":"Alabama","f":511.5,"g":-16.2,"h":-3.1,"longitude":-86.804718,"id":"a64pyhvy8tpu"},"type":"Feature","geometry":{"type":"Point","coordinates":[-86.804718,33.387199]}},{"properties":{"City":"Decatur","c":58.8,"d":56.3,"e":59.4,"Latitude":34.607389,"State":"Alabama","f":56.5,"g":-2.9,"h":-4.9,"longitude":-86.979767,"id":"a64pyhw66ijx"},"type":"Feature","geometry":{"type":"Point","coordinates":[-86.979767,34.607389]}},{"properties":{"City":"Dothan","c":61.9,"d":60.2,"e":62.3,"Latitude":31.22324,"State":"Alabama","f":60.3,"g":-2.0,"h":-3.2,"longitude":-85.3933,"id":"a64pyhv2qh91"},"type":"Feature","geometry":{"type":"Point","coordinates":[-85.3933,31.22324]}},{"properties":{"City":"Florence-Muscle Shoals","c":56.1,"d":55.4,"e":56.3,"Latitude":34.742432,"State":"Alabama","f":55.5,"g":-0.8,"h":-1.4,"longitude":-87.667679,"id":"a64pyhr2auh1"},"type":"Feature","geometry":{"type":"Point","coordinates":[-87.667679,34.742432]}},{"properties":{"City":"Mobile","c":184.1,"d":181.7,"e":184.9,"Latitude":30.686395,"State":"Alabama","f":182.8,"g":-2.1,"h":-1.1,"longitude":-88.053239,"id":"a64pyhjc2akf"},"type":"Feature","geometry":{"type":"Point","coordinates":[-88.053239,30.686395]}},{"properties":{"City":"Huntsville","c":213.4,"d":209.5,"e":214.6,"Latitude":34.729121,"State":"Alabama","f":209.8,"g":-4.8,"h":-2.2,"longitude":-86.584961,"id":"a64pyhl1wtm7"},"type":"Feature","geometry":{"type":"Point","coordinates":[-86.584961,34.729121]}},{"properties":{"City":"Anchorage","c":165.3,"d":167.6,"e":166.1,"Latitude":61.21756,"State":"Alaska","f":167.8,"g":1.7,"h":1.0,"longitude":-149.857749,"id":"a64pyhpq2u0i"},"type":"Feature","geometry":{"type":"Point","coordinates":[-149.857749,61.21756]}},{"properties":{"City":"Flagstaff","c":63.7,"d":61.9,"e":65.1,"Latitude":35.1982,"State":"Arizona","f":62.0,"g":-3.1,"h":-4.8,"longitude":-111.651304,"id":"a64pyhpxhb8v"},"type":"Feature","geometry":{"type":"Point","coordinates":[-111.651304,35.1982]}},{"properties":{"City":"Tucson","c":380.6,"d":369.1,"e":385.4,"Latitude":32.221553,"State":"Arizona","f":366.8,"g":-18.6,"h":-4.8,"longitude":-110.969754,"id":"a64pyhkqebd0"},"type":"Feature","geometry":{"type":"Point","coordinates":[-110.969754,32.221553]}},{"properties":{"City":"Yuma","c":56.8,"d":51.2,"e":56.6,"Latitude":32.68485,"State":"Arizona","f":51.2,"g":-5.4,"h":-9.5,"longitude":-114.624614,"id":"a64pyhu27d4c"},"type":"Feature","geometry":{"type":"Point","coordinates":[-114.624614,32.68485]}},{"properties":{"City":"Lake Havasu City-Kingman","c":52.3,"d":48.3,"e":52.8,"Latitude":35.114425,"State":"Arizona","f":48.6,"g":-4.2,"h":-8.0,"longitude":-113.718386,"id":"a64pyhr97yqc"},"type":"Feature","geometry":{"type":"Point","coordinates":[-113.718386,35.114425]}},{"properties":{"City":"Phoenix-Mesa-Scottsdale","c":1909.0,"d":1774.0,"e":1905.6,"Latitude":33.417042,"State":"Arizona","f":1769.6,"g":-136.0,"h":-7.1,"longitude":-111.831429,"id":"a64pyhvcuakd"},"type":"Feature","geometry":{"type":"Point","coordinates":[-111.831429,33.417042]}},{"properties":{"City":"Prescott","c":62.5,"d":57.7,"e":62.9,"Latitude":34.539005,"State":"Arizona","f":57.6,"g":-5.3,"h":-8.4,"longitude":-112.470199,"id":"a64pyhpmmpua"},"type":"Feature","geometry":{"type":"Point","coordinates":[-112.470199,34.539005]}},{"properties":{"City":"Fort Smith","c":125.3,"d":123.0,"e":125.5,"Latitude":35.3846,"State":"Arkansas","f":123.4,"g":-2.1,"h":-1.7,"longitude":-94.421299,"id":"a64pyhh09w1w"},"type":"Feature","geometry":{"type":"Point","coordinates":[-94.421299,35.3846]}},{"properties":{"City":"Little Rock-North Little Rock-Conway","c":347.1,"d":341.5,"e":348.5,"Latitude":35.090832,"State":"Arkansas","f":343.8,"g":-4.7,"h":-1.3,"longitude":-92.440269,"id":"a64pyhi6na0k"},"type":"Feature","geometry":{"type":"Point","coordinates":[-92.440269,35.090832]}},{"properties":{"City":"Fayetteville-Springdale-Rogers","c":207.5,"d":204.9,"e":208.5,"Latitude":36.333481,"State":"Arkansas","f":206.1,"g":-2.4,"h":-1.2,"longitude":-94.12468,"id":"a64pyhiqu38z"},"type":"Feature","geometry":{"type":"Point","coordinates":[-94.12468,36.333481]}},{"properties":{"City":"SanLuis Obispo-Paso Robles","c":103.4,"d":100.6,"e":104.2,"Latitude":35.625092,"State":"California","f":100.3,"g":-3.9,"h":-3.7,"longitude":-120.691238,"id":"a64pyhw4e5hu"},"type":"Feature","geometry":{"type":"Point","coordinates":[-120.691238,35.625092]}},{"properties":{"City":"Visalia-Porterville","c":113.4,"d":110.4,"e":113.9,"Latitude":36.070961,"State":"California","f":110.7,"g":-3.2,"h":-2.8,"longitude":-119.01619,"id":"a64pyhsmsrxn"},"type":"Feature","geometry":{"type":"Point","coordinates":[-119.01619,36.070961]}},{"properties":{"City":"Bakersfield","c":237.2,"d":234.7,"e":238.0,"Latitude":35.366975,"State":"California","f":235.5,"g":-2.5,"h":-1.1,"longitude":-119.018844,"id":"a64pyhi01iq1"},"type":"Feature","geometry":{"type":"Point","coordinates":[-119.018844,35.366975]}},{"properties":{"City":"Chico","c":75.2,"d":72.7,"e":74.9,"Latitude":39.73201,"State":"California","f":72.0,"g":-2.9,"h":-3.9,"longitude":-121.841985,"id":"a64pyhuplpy1"},"type":"Feature","geometry":{"type":"Point","coordinates":[-121.841985,39.73201]}},{"properties":{"City":"Fresno","c":302.1,"d":293.9,"e":303.7,"Latitude":36.740615,"State":"California","f":294.8,"g":-8.9,"h":-2.9,"longitude":-119.785679,"id":"a64pyhufn42y"},"type":"Feature","geometry":{"type":"Point","coordinates":[-119.785679,36.740615]}},{"properties":{"City":"Los Angeles-Long Beach-Santa Ana","c":5583.3,"d":5373.4,"e":5603.7,"Latitude":34.272336,"State":"California","f":5382.4,"g":-221.3,"h":-3.9,"longitude":-118.699465,"id":"a64pyhpm1x8t"},"type":"Feature","geometry":{"type":"Point","coordinates":[-118.699465,34.272336]}},{"properties":{"City":"Merced","c":57.6,"d":55.8,"e":57.9,"Latitude":37.30127,"State":"California","f":55.8,"g":-2.1,"h":-3.6,"longitude":-120.486199,"id":"a64pyhhyu89x"},"type":"Feature","geometry":{"type":"Point","coordinates":[-120.486199,37.30127]}},{"properties":{"City":"Modesto","c":155.0,"d":151.0,"e":155.7,"Latitude":37.6383,"State":"California","f":150.8,"g":-4.9,"h":-3.1,"longitude":-120.999589,"id":"a64pyhi2914p"},"type":"Feature","geometry":{"type":"Point","coordinates":[-120.999589,37.6383]}},{"properties":{"City":"Stockton","c":205.3,"d":201.1,"e":205.7,"Latitude":37.95362,"State":"California","f":201.2,"g":-4.5,"h":-2.2,"longitude":-121.290719,"id":"a64pyhiraewu"},"type":"Feature","geometry":{"type":"Point","coordinates":[-121.290719,37.95362]}},{"properties":{"City":"Oxnard-Thousand Oaks-Ventura","c":293.0,"d":278.7,"e":293.0,"Latitude":34.18502,"State":"California","f":279.1,"g":-13.9,"h":-4.7,"longitude":-118.894249,"id":"a64pyhprwti8"},"type":"Feature","geometry":{"type":"Point","coordinates":[-118.894249,34.18502]}},{"properties":{"City":"Redding","c":61.7,"d":58.9,"e":61.7,"Latitude":40.587523,"State":"California","f":59.0,"g":-2.7,"h":-4.4,"longitude":-122.39291,"id":"a64pyhsglnmn"},"type":"Feature","geometry":{"type":"Point","coordinates":[-122.39291,40.587523]}},{"properties":{"City":"Riverside-San Bernardino-Ontario","c":1246.1,"d":1164.3,"e":1246.3,"Latitude":34.06459,"State":"California","f":1163.5,"g":-82.8,"h":-6.6,"longitude":-117.647812,"id":"a64pyhni0dwz"},"type":"Feature","geometry":{"type":"Point","coordinates":[-117.647812,34.06459]}},{"properties":{"City":"Sacramento--Arden-Arcade--Roseville","c":888.1,"d":846.6,"e":889.7,"Latitude":38.72414,"State":"California","f":844.3,"g":-45.4,"h":-5.1,"longitude":-120.80442,"id":"a64pyhg70vor"},"type":"Feature","geometry":{"type":"Point","coordinates":[-120.80442,38.72414]}},{"properties":{"City":"Salinas","c":127.5,"d":124.5,"e":127.4,"Latitude":36.670845,"State":"California","f":123.8,"g":-3.6,"h":-2.8,"longitude":-121.654834,"id":"a64pyhofs8f3"},"type":"Feature","geometry":{"type":"Point","coordinates":[-121.654834,36.670845]}},{"properties":{"City":"San Diego-Carlsbad-San Marcos","c":1299.5,"d":1259.9,"e":1304.2,"Latitude":33.140862,"State":"California","f":1259.6,"g":-44.6,"h":-3.4,"longitude":-117.158827,"id":"a64pyhiudrrz"},"type":"Feature","geometry":{"type":"Point","coordinates":[-117.158827,33.140862]}},{"properties":{"City":"San Francisco-Oakland-Fremont","c":2030.6,"d":1955.6,"e":2032.6,"Latitude":37.773949,"State":"California","f":1953.0,"g":-79.6,"h":-3.9,"longitude":-122.208527,"id":"a64pyhrrefb0"},"type":"Feature","geometry":{"type":"Point","coordinates":[-122.208527,37.773949]}},{"properties":{"City":"San Jose-Sunnyvale-Santa Clara","c":914.2,"d":885.1,"e":917.8,"Latitude":37.37159,"State":"California","f":881.1,"g":-36.7,"h":-4.0,"longitude":-122.038239,"id":"a64pyhs0jmqo"},"type":"Feature","geometry":{"type":"Point","coordinates":[-122.038239,37.37159]}},{"properties":{"City":"Vallejo-Fairfield","c":124.4,"d":120.1,"e":125.0,"Latitude":38.100842,"State":"California","f":120.4,"g":-4.6,"h":-3.7,"longitude":-122.254936,"id":"a64pyhvlqytr"},"type":"Feature","geometry":{"type":"Point","coordinates":[-122.254936,38.100842]}},{"properties":{"City":"Santa Barbara-Santa Maria-Goleta","c":173.1,"d":170.5,"e":173.8,"Latitude":34.435719,"State":"California","f":171.0,"g":-2.8,"h":-1.6,"longitude":-119.823761,"id":"a64pyhth6rmn"},"type":"Feature","geometry":{"type":"Point","coordinates":[-119.823761,34.435719]}},{"properties":{"City":"Santa Cruz-Watsonville","c":93.2,"d":89.7,"e":93.6,"Latitude":36.908699,"State":"California","f":89.7,"g":-3.9,"h":-4.2,"longitude":-121.755157,"id":"a64pyhvck3gl"},"type":"Feature","geometry":{"type":"Point","coordinates":[-121.755157,36.908699]}},{"properties":{"City":"Santa Rosa-Petaluma","c":187.3,"d":178.3,"e":188.1,"Latitude":38.232449,"State":"California","f":178.8,"g":-9.3,"h":-4.9,"longitude":-122.644432,"id":"a64pyhg95vgn"},"type":"Feature","geometry":{"type":"Point","coordinates":[-122.644432,38.232449]}},{"properties":{"City":"Napa","c":63.7,"d":61.0,"e":64.3,"Latitude":38.298855,"State":"California","f":60.9,"g":-3.4,"h":-5.3,"longitude":-122.285194,"id":"a64pyhhect9r"},"type":"Feature","geometry":{"type":"Point","coordinates":[-122.285194,38.298855]}},{"properties":{"City":"Greeley","c":81.5,"d":81.3,"e":82.4,"Latitude":40.42328,"State":"Colorado","f":81.2,"g":-1.2,"h":-1.5,"longitude":-104.694464,"id":"a64pyhpkuc1x"},"type":"Feature","geometry":{"type":"Point","coordinates":[-104.694464,40.42328]}},{"properties":{"City":"Pueblo","c":58.6,"d":57.6,"e":58.7,"Latitude":38.26386,"State":"Colorado","f":57.5,"g":-1.2,"h":-2.0,"longitude":-104.612374,"id":"a64pyhul5e3x"},"type":"Feature","geometry":{"type":"Point","coordinates":[-104.612374,38.26386]}},{"properties":{"City":"Boulder","c":168.5,"d":164.5,"e":169.1,"Latitude":40.01574,"State":"Colorado","f":164.4,"g":-4.7,"h":-2.8,"longitude":-105.279239,"id":"a64pyho49gis"},"type":"Feature","geometry":{"type":"Point","coordinates":[-105.279239,40.01574]}},{"properties":{"City":"Colorado Springs","c":257.0,"d":249.2,"e":258.2,"Latitude":38.83311,"State":"Colorado","f":249.5,"g":-8.7,"h":-3.4,"longitude":-104.821729,"id":"a64pyhsedxsp"},"type":"Feature","geometry":{"type":"Point","coordinates":[-104.821729,38.83311]}},{"properties":{"City":"Denver-Aurora-Broomfield","c":1237.2,"d":1195.7,"e":1244.5,"Latitude":39.91954,"State":"Colorado","f":1198.1,"g":-46.4,"h":-3.7,"longitude":-105.069839,"id":"a64pyhphh1h7"},"type":"Feature","geometry":{"type":"Point","coordinates":[-105.069839,39.91954]}},{"properties":{"City":"Fort Collins-Loveland","c":134.6,"d":134.5,"e":135.6,"Latitude":40.392719,"State":"Colorado","f":135.3,"g":-0.3,"h":-0.2,"longitude":-105.073898,"id":"a64pyhswf6uf"},"type":"Feature","geometry":{"type":"Point","coordinates":[-105.073898,40.392719]}},{"properties":{"City":"Grand Junction","c":63.7,"d":65.3,"e":64.3,"Latitude":39.06879,"State":"Colorado","f":65.6,"g":1.3,"h":2.0,"longitude":-108.564454,"id":"a64pyhl93eog"},"type":"Feature","geometry":{"type":"Point","coordinates":[-108.564454,39.06879]}},{"properties":{"City":"New Haven","c":278.4,"d":273.9,"e":276.9,"Latitude":41.307115,"State":"Connecticut","f":271.4,"g":-5.5,"h":-2.0,"longitude":-72.924959,"id":"a64pyhtb6uvw"},"type":"Feature","geometry":{"type":"Point","coordinates":[-72.924959,41.307115]}},{"properties":{"City":"Norwich-New London","c":133.7,"d":130.0,"e":133.8,"Latitude":41.356435,"State":"Connecticut","f":130.2,"g":-3.6,"h":-2.7,"longitude":-72.096469,"id":"a64pyhp90b2m"},"type":"Feature","geometry":{"type":"Point","coordinates":[-72.096469,41.356435]}},{"properties":{"City":"Bridgeport-Stamford-Norwalk","c":413.1,"d":400.7,"e":415.6,"Latitude":41.113659,"State":"Connecticut","f":402.3,"g":-13.3,"h":-3.2,"longitude":-73.407631,"id":"a64pyhilfzsq"},"type":"Feature","geometry":{"type":"Point","coordinates":[-73.407631,41.113659]}},{"properties":{"City":"Danbury","c":69.2,"d":66.1,"e":69.5,"Latitude":41.392682,"State":"Connecticut","f":66.6,"g":-2.9,"h":-4.2,"longitude":-73.453592,"id":"a64pyhhoe96o"},"type":"Feature","geometry":{"type":"Point","coordinates":[-73.453592,41.392682]}},{"properties":{"City":"Hartford-West Hartford-East Hartford","c":555.1,"d":544.5,"e":557.1,"Latitude":41.763325,"State":"Connecticut","f":543.4,"g":-13.7,"h":-2.5,"longitude":-72.674069,"id":"a64pyhn28323"},"type":"Feature","geometry":{"type":"Point","coordinates":[-72.674069,41.763325]}},{"properties":{"City":"Waterbury","c":67.1,"d":65.0,"e":66.9,"Latitude":41.554082,"State":"Connecticut","f":65.0,"g":-1.9,"h":-2.8,"longitude":-73.046155,"id":"a64pyhg93viy"},"type":"Feature","geometry":{"type":"Point","coordinates":[-73.046155,41.554082]}},{"properties":{"City":"Dover","c":65.5,"d":62.3,"e":66.0,"Latitude":39.158031,"State":"Deleware","f":62.6,"g":-3.4,"h":-5.2,"longitude":-75.524727,"id":"a64pyhin0l92"},"type":"Feature","geometry":{"type":"Point","coordinates":[-75.524727,39.158031]}},{"properties":{"City":"Washington-Arlington-Alexandria","c":2968.1,"d":2961.6,"e":2985.9,"Latitude":38.890369,"State":"District of Columbia","f":2967.6,"g":-18.3,"h":-0.6,"longitude":-77.03199,"id":"a64pyhrdgese"},"type":"Feature","geometry":{"type":"Point","coordinates":[-77.03199,38.890369]}},{"properties":{"City":"","c":0.0,"d":0.0,"e":0.0,"Latitude":0.0,"State":"Employees on nonfarm payrolls by state and metropolitan area","f":0.0,"g":0.0,"h":0.0,"longitude":0.0,"id":"a64pyhspcudu"},"type":"Feature","geometry":{"type":"Point","coordinates":[3.13425111285779e-274,3.32285867379565e-308]}},{"properties":{"City":"Tampa-St Petersburg-Clearwater","c":1245.0,"d":1194.1,"e":1249.9,"Latitude":27.90654,"State":"Florida","f":1189.7,"g":-60.2,"h":-4.8,"longitude":-82.692368,"id":"a64pyhumhb8f"},"type":"Feature","geometry":{"type":"Point","coordinates":[-82.692368,27.90654]}},{"properties":{"City":"Bradenton-Sarasota-Venice","c":279.3,"d":257.7,"e":280.7,"Latitude":27.09944,"State":"Florida","f":258.8,"g":-21.9,"h":-7.8,"longitude":-82.450043,"id":"a64pyhstkrza"},"type":"Feature","geometry":{"type":"Point","coordinates":[-82.450043,27.09944]}},{"properties":{"City":"Cape Coral-Fort Myers","c":226.9,"d":205.8,"e":227.2,"Latitude":26.696875,"State":"Florida","f":205.2,"g":-22.0,"h":-9.7,"longitude":-81.832494,"id":"a64pyhpenvm3"},"type":"Feature","geometry":{"type":"Point","coordinates":[-81.832494,26.696875]}},{"properties":{"City":"Deltona-Daytona Beach-Ormand Beach","c":173.9,"d":164.4,"e":172.5,"Latitude":29.203569,"State":"Florida","f":164.3,"g":-8.2,"h":-4.8,"longitude":-81.039398,"id":"a64pyhouje4i"},"type":"Feature","geometry":{"type":"Point","coordinates":[-81.039398,29.203569]}},{"properties":{"City":"Fort Walton Beach-Crestview-Destin","c":81.5,"d":79.8,"e":83.2,"Latitude":30.392941,"State":"Florida","f":80.5,"g":-2.7,"h":-3.2,"longitude":-86.495773,"id":"a64pyhvfluwh"},"type":"Feature","geometry":{"type":"Point","coordinates":[-86.495773,30.392941]}},{"properties":{"City":"Gainesville","c":137.2,"d":134.3,"e":135.1,"Latitude":29.65195,"State":"Florida","f":132.3,"g":-2.8,"h":-2.1,"longitude":-82.323184,"id":"a64pyhsegf9i"},"type":"Feature","geometry":{"type":"Point","coordinates":[-82.323184,29.65195]}},{"properties":{"City":"Jacksonville","c":629.5,"d":604.4,"e":630.8,"Latitude":30.33138,"State":"Florida","f":604.7,"g":-26.1,"h":-4.1,"longitude":-81.655799,"id":"a64pyhjnwjd6"},"type":"Feature","geometry":{"type":"Point","coordinates":[-81.655799,30.33138]}},{"properties":{"City":"Lakeland-Winter Haven","c":213.6,"d":204.2,"e":214.7,"Latitude":28.02232,"State":"Florida","f":204.0,"g":-10.7,"h":-5.0,"longitude":-81.732948,"id":"a64pyhqwjj1a"},"type":"Feature","geometry":{"type":"Point","coordinates":[-81.732948,28.02232]}},{"properties":{"City":"Miami-Fort Lauderdale-Pompano Beach","c":2413.9,"d":2313.8,"e":2420.2,"Latitude":26.23106,"State":"Florida","f":2306.8,"g":-113.4,"h":-4.7,"longitude":-80.159599,"id":"a64pyhmcecln"},"type":"Feature","geometry":{"type":"Point","coordinates":[-80.159599,26.23106]}},{"properties":{"City":"Naples-Marco Island","c":131.1,"d":122.7,"e":130.9,"Latitude":25.953671,"State":"Florida","f":122.2,"g":-8.7,"h":-6.6,"longitude":-81.724426,"id":"a64pyhlnhohk"},"type":"Feature","geometry":{"type":"Point","coordinates":[-81.724426,25.953671]}},{"properties":{"City":"Ocala","c":106.0,"d":100.4,"e":106.1,"Latitude":29.187525,"State":"Florida","f":100.5,"g":-5.6,"h":-5.3,"longitude":-82.140379,"id":"a64pyhgmzf0h"},"type":"Feature","geometry":{"type":"Point","coordinates":[-82.140379,29.187525]}},{"properties":{"City":"Orlando-Kissimmee","c":1099.4,"d":1043.6,"e":1103.0,"Latitude":28.294451,"State":"Florida","f":1040.4,"g":-62.6,"h":-5.7,"longitude":-81.406761,"id":"a64pyhmordsc"},"type":"Feature","geometry":{"type":"Point","coordinates":[-81.406761,28.294451]}},{"properties":{"City":"Palm Bay-Melbourne-Titusville","c":212.6,"d":201.0,"e":212.8,"Latitude":28.608009,"State":"Florida","f":202.1,"g":-10.7,"h":-5.0,"longitude":-80.807983,"id":"a64pyhwdften"},"type":"Feature","geometry":{"type":"Point","coordinates":[-80.807983,28.608009]}},{"properties":{"City":"Panama City-Lynn Haven-Panama City Beach","c":74.8,"d":72.8,"e":77.4,"Latitude":30.191641,"State":"Florida","f":74.3,"g":-3.1,"h":-4.0,"longitude":-85.832489,"id":"a64pyhq0z50n"},"type":"Feature","geometry":{"type":"Point","coordinates":[-85.832489,30.191641]}},{"properties":{"City":"Pensacola-Ferry Pass-Brent","c":169.4,"d":163.5,"e":170.2,"Latitude":30.464199,"State":"Florida","f":163.6,"g":-6.6,"h":-3.9,"longitude":-87.241364,"id":"a64pyhh9uvvn"},"type":"Feature","geometry":{"type":"Point","coordinates":[-87.241364,30.464199]}},{"properties":{"City":"Tallahassee","c":180.3,"d":175.6,"e":179.9,"Latitude":30.439775,"State":"Florida","f":175.2,"g":-4.7,"h":-2.6,"longitude":-84.280649,"id":"a64pyht4qhzf"},"type":"Feature","geometry":{"type":"Point","coordinates":[-84.280649,30.439775]}},{"properties":{"City":"Port St Lucie","c":132.8,"d":124.5,"e":132.5,"Latitude":27.274187,"State":"Florida","f":124.5,"g":-8.0,"h":-6.0,"longitude":-80.363319,"id":"a64pyhs2l118"},"type":"Feature","geometry":{"type":"Point","coordinates":[-80.363319,27.274187]}},{"properties":{"City":"Warner Robins","c":58.6,"d":56.6,"e":58.6,"Latitude":32.620835,"State":"Georgia","f":57.1,"g":-1.5,"h":-2.6,"longitude":-83.606874,"id":"a64pyhh2ijto"},"type":"Feature","geometry":{"type":"Point","coordinates":[-83.606874,32.620835]}},{"properties":{"City":"Albany","c":64.8,"d":62.7,"e":64.7,"Latitude":31.58076,"State":"Georgia","f":62.2,"g":-2.5,"h":-3.9,"longitude":-84.155989,"id":"a64pyhhs04l6"},"type":"Feature","geometry":{"type":"Point","coordinates":[-84.155989,31.58076]}},{"properties":{"City":"Athens-Clarke County","c":85.0,"d":84.6,"e":85.5,"Latitude":34.042652,"State":"Georgia","f":84.1,"g":-1.4,"h":-1.6,"longitude":-83.776596,"id":"a64pyhrnpm2i"},"type":"Feature","geometry":{"type":"Point","coordinates":[-83.776596,34.042652]}},{"properties":{"City":"Atlanta-Sandy Springs-Marietta","c":2444.0,"d":2330.6,"e":2445.6,"Latitude":33.953209,"State":"Georgia","f":2329.7,"g":-115.9,"h":-4.7,"longitude":-84.545883,"id":"a64pyhuk0u2l"},"type":"Feature","geometry":{"type":"Point","coordinates":[-84.545883,33.953209]}},{"properties":{"City":"Augusta-Richmond County","c":215.0,"d":211.8,"e":216.0,"Latitude":34.042652,"State":"Georgia","f":212.9,"g":-3.1,"h":-1.4,"longitude":-83.776596,"id":"a64pyhrjjqfz"},"type":"Feature","geometry":{"type":"Point","coordinates":[-83.776596,34.042652]}},{"properties":{"City":"Columbus","c":121.7,"d":118.8,"e":121.3,"Latitude":32.462925,"State":"Georgia","f":119.8,"g":-1.5,"h":-1.2,"longitude":-84.987629,"id":"a64pyhowzlj9"},"type":"Feature","geometry":{"type":"Point","coordinates":[-84.987629,32.462925]}},{"properties":{"City":"Dalton","c":75.6,"d":69.7,"e":75.6,"Latitude":34.76145,"State":"Georgia","f":69.1,"g":-6.5,"h":-8.6,"longitude":-84.972179,"id":"a64pyhod7fjr"},"type":"Feature","geometry":{"type":"Point","coordinates":[-84.972179,34.76145]}},{"properties":{"City":"Valdosta","c":57.0,"d":55.5,"e":56.3,"Latitude":30.834729,"State":"Georgia","f":55.8,"g":-0.5,"h":-0.9,"longitude":-83.280929,"id":"a64pyhunm4ku"},"type":"Feature","geometry":{"type":"Point","coordinates":[-83.280929,30.834729]}},{"properties":{"City":"Macon","c":100.9,"d":98.0,"e":101.1,"Latitude":32.839685,"State":"Georgia","f":98.7,"g":-2.4,"h":-2.4,"longitude":-83.627579,"id":"a64pyhnbd1in"},"type":"Feature","geometry":{"type":"Point","coordinates":[-83.627579,32.839685]}},{"properties":{"City":"Savannah","c":160.2,"d":155.8,"e":160.7,"Latitude":32.08078,"State":"Georgia","f":156.8,"g":-3.9,"h":-2.4,"longitude":-81.090719,"id":"a64pyhsst32i"},"type":"Feature","geometry":{"type":"Point","coordinates":[-81.090719,32.08078]}},{"properties":{"City":"Gainesville","c":78.3,"d":75.8,"e":78.3,"Latitude":34.297274,"State":"Georgia","f":76.1,"g":-2.2,"h":-2.8,"longitude":-83.825503,"id":"a64pyhqhmn6g"},"type":"Feature","geometry":{"type":"Point","coordinates":[-83.825503,34.297274]}},{"properties":{"City":"Honolulu","c":456.6,"d":446.2,"e":459.3,"Latitude":21.304735,"State":"Hawaii","f":447.8,"g":-11.5,"h":-2.5,"longitude":-157.857619,"id":"a64pyhpqpppa"},"type":"Feature","geometry":{"type":"Point","coordinates":[-157.857619,21.304735]}},{"properties":{"City":"Coeur d'Alene","c":53.7,"d":54.2,"e":54.7,"Latitude":47.671866,"State":"Idaho","f":54.7,"g":0.0,"h":0.0,"longitude":-116.776166,"id":"a64pyhocz7kk"},"type":"Feature","geometry":{"type":"Point","coordinates":[-116.776166,47.671866]}},{"properties":{"City":"Boise City-Nampa","c":269.5,"d":253.3,"e":271.0,"Latitude":43.588692,"State":"Idaho","f":252.6,"g":-18.4,"h":-6.8,"longitude":-116.595773,"id":"a64pyhhard67"},"type":"Feature","geometry":{"type":"Point","coordinates":[-116.595773,43.588692]}},{"properties":{"City":"Bloomington-Normal","c":91.2,"d":91.6,"e":91.0,"Latitude":40.484051,"State":"Illinois","f":91.4,"g":0.4,"h":0.4,"longitude":-88.913437,"id":"a64pyhtyxs9p"},"type":"Feature","geometry":{"type":"Point","coordinates":[-88.913437,40.484051]}},{"properties":{"City":"Springfield","c":110.0,"d":110.2,"e":110.8,"Latitude":39.801055,"State":"Illinois","f":110.1,"g":-0.7,"h":-0.6,"longitude":-89.643604,"id":"a64pyhr79g9j"},"type":"Feature","geometry":{"type":"Point","coordinates":[-89.643604,39.801055]}},{"properties":{"City":"Champaign-Urbana","c":113.4,"d":115.6,"e":113.8,"Latitude":40.114201,"State":"Illinois","f":116.0,"g":2.2,"h":1.9,"longitude":-88.2435,"id":"a64pyhhv0ykg"},"type":"Feature","geometry":{"type":"Point","coordinates":[-88.2435,40.114201]}},{"properties":{"City":"Chicago-Naperville-Joliet","c":4468.8,"d":4331.4,"e":4489.0,"Latitude":41.52491,"State":"Illinois","f":4331.4,"g":-157.6,"h":-3.5,"longitude":-88.084587,"id":"a64pyhgfekaa"},"type":"Feature","geometry":{"type":"Point","coordinates":[-88.084587,41.52491]}},{"properties":{"City":"Davenport-Moline-Rock Island","c":186.2,"d":186.2,"e":187.9,"Latitude":42.274945,"State":"Illinois","f":187.0,"g":-0.9,"h":-0.5,"longitude":-88.191234,"id":"a64pyhi8dwcq"},"type":"Feature","geometry":{"type":"Point","coordinates":[-88.191234,42.274945]}},{"properties":{"City":"Decatur","c":54.2,"d":53.5,"e":54.5,"Latitude":39.845845,"State":"Illinois","f":53.4,"g":-1.1,"h":-2.0,"longitude":-88.952459,"id":"a64pyhv8cgtw"},"type":"Feature","geometry":{"type":"Point","coordinates":[-88.952459,39.845845]}},{"properties":{"City":"Peoria","c":185.7,"d":185.0,"e":187.4,"Latitude":40.69214,"State":"Illinois","f":187.3,"g":-0.1,"h":-0.1,"longitude":-89.587764,"id":"a64pyhpo73vq"},"type":"Feature","geometry":{"type":"Point","coordinates":[-89.587764,40.69214]}},{"properties":{"City":"Rockford","c":158.2,"d":153.4,"e":158.2,"Latitude":42.2669,"State":"Illinois","f":154.0,"g":-4.2,"h":-2.7,"longitude":-89.078354,"id":"a64pyhhrp61k"},"type":"Feature","geometry":{"type":"Point","coordinates":[-89.078354,42.2669]}},{"properties":{"City":"South Bend-Mishawaka","c":141.4,"d":138.7,"e":142.1,"Latitude":41.65578,"State":"Indiana","f":138.9,"g":-3.2,"h":-2.3,"longitude":-86.167939,"id":"a64pyht6ttsp"},"type":"Feature","geometry":{"type":"Point","coordinates":[-86.167939,41.65578]}},{"properties":{"City":"Bloomington","c":84.1,"d":83.5,"e":84.1,"Latitude":39.16659,"State":"Indiana","f":83.2,"g":-0.9,"h":-1.1,"longitude":-86.534244,"id":"a64pyhwi7jhl"},"type":"Feature","geometry":{"type":"Point","coordinates":[-86.534244,39.16659]}},{"properties":{"City":"Elkhart-Goshen","c":124.5,"d":108.3,"e":124.6,"Latitude":41.58918,"State":"Indiana","f":108.5,"g":-16.1,"h":-12.9,"longitude":-85.836952,"id":"a64pyhw38ovq"},"type":"Feature","geometry":{"type":"Point","coordinates":[-85.836952,41.58918]}},{"properties":{"City":"Evansville","c":175.2,"d":170.1,"e":176.7,"Latitude":37.976911,"State":"Indiana","f":170.9,"g":-5.8,"h":-3.3,"longitude":-87.564125,"id":"a64pyhpxtwki"},"type":"Feature","geometry":{"type":"Point","coordinates":[-87.564125,37.976911]}},{"properties":{"City":"Fort Wayne","c":214.3,"d":208.1,"e":212.6,"Latitude":41.075525,"State":"Indiana","f":209.4,"g":-3.2,"h":-1.5,"longitude":-85.099064,"id":"a64pyhocs6h8"},"type":"Feature","geometry":{"type":"Point","coordinates":[-85.099064,41.075525]}},{"properties":{"City":"Indianapolis-Carmel","c":901.4,"d":876.5,"e":907.7,"Latitude":39.978409,"State":"Indiana","f":879.4,"g":-28.3,"h":-3.1,"longitude":-86.126419,"id":"a64pyhmwegxh"},"type":"Feature","geometry":{"type":"Point","coordinates":[-86.126419,39.978409]}},{"properties":{"City":"Lafayette","c":95.3,"d":94.9,"e":95.4,"Latitude":40.41737,"State":"Indiana","f":95.5,"g":0.1,"h":0.1,"longitude":-86.876554,"id":"a64pyhr2d18m"},"type":"Feature","geometry":{"type":"Point","coordinates":[-86.876554,40.41737]}},{"properties":{"City":"Muncie","c":53.1,"d":52.0,"e":52.4,"Latitude":40.193165,"State":"Indiana","f":51.5,"g":-0.9,"h":-1.7,"longitude":-85.381734,"id":"a64pyhkn1rf4"},"type":"Feature","geometry":{"type":"Point","coordinates":[-85.381734,40.193165]}},{"properties":{"City":"Terre Haute","c":72.6,"d":70.6,"e":72.6,"Latitude":39.466495,"State":"Indiana","f":70.6,"g":-2.0,"h":-2.8,"longitude":-87.413229,"id":"a64pyhhl3gub"},"type":"Feature","geometry":{"type":"Point","coordinates":[-87.413229,39.466495]}},{"properties":{"City":"Iowa City","c":90.2,"d":90.0,"e":90.9,"Latitude":41.657825,"State":"Iowa","f":90.2,"g":-0.7,"h":-0.8,"longitude":-91.526534,"id":"a64pyhj4pcjt"},"type":"Feature","geometry":{"type":"Point","coordinates":[-91.526534,41.657825]}},{"properties":{"City":"Cedar Repids","c":137.5,"d":136.6,"e":138.4,"Latitude":41.976345,"State":"Iowa","f":137.2,"g":-1.2,"h":-0.9,"longitude":-91.673759,"id":"a64pyhhzhvwf"},"type":"Feature","geometry":{"type":"Point","coordinates":[-91.673759,41.976345]}},{"properties":{"City":"Des Moines-West Des Moines","c":319.9,"d":316.7,"e":321.2,"Latitude":41.587265,"State":"Iowa","f":318.3,"g":-2.9,"h":-0.9,"longitude":-93.625179,"id":"a64pyhnks07y"},"type":"Feature","geometry":{"type":"Point","coordinates":[-93.625179,41.587265]}},{"properties":{"City":"Dubuque","c":54.9,"d":53.9,"e":55.2,"Latitude":42.49913,"State":"Iowa","f":53.6,"g":-1.6,"h":-2.9,"longitude":-90.663269,"id":"a64pyhltscs5"},"type":"Feature","geometry":{"type":"Point","coordinates":[-90.663269,42.49913]}},{"properties":{"City":"Waterloo-Cedar Falls","c":88.8,"d":89.3,"e":89.2,"Latitude":42.528141,"State":"Iowa","f":88.2,"g":-1.0,"h":-1.1,"longitude":-92.445549,"id":"a64pyhix6zzq"},"type":"Feature","geometry":{"type":"Point","coordinates":[-92.445549,42.528141]}},{"properties":{"City":"Sioux City","c":75.1,"d":74.6,"e":75.6,"Latitude":42.499793,"State":"Iowa","f":74.2,"g":-1.4,"h":-1.9,"longitude":-96.420839,"id":"a64pyhpftesd"},"type":"Feature","geometry":{"type":"Point","coordinates":[-96.420839,42.499793]}},{"properties":{"City":"Wichita","c":305.2,"d":305.9,"e":307.6,"Latitude":37.68698,"State":"Kansas","f":306.6,"g":-1.0,"h":-0.3,"longitude":-97.335579,"id":"a64pyhunu371"},"type":"Feature","geometry":{"type":"Point","coordinates":[-97.335579,37.68698]}},{"properties":{"City":"Topeka","c":109.8,"d":110.4,"e":110.7,"Latitude":39.056735,"State":"Kansas","f":110.8,"g":0.1,"h":0.1,"longitude":-95.677484,"id":"a64pyhova5j9"},"type":"Feature","geometry":{"type":"Point","coordinates":[-95.677484,39.056735]}},{"properties":{"City":"Louisville-Jefferson County","c":615.5,"d":596.9,"e":617.9,"Latitude":38.25486,"State":"Kentucky","f":599.6,"g":-18.3,"h":-3.0,"longitude":-85.766373,"id":"a64pyhnsvc07"},"type":"Feature","geometry":{"type":"Point","coordinates":[-85.766373,38.25486]}},{"properties":{"City":"Lexington-Fayette","c":254.2,"d":246.4,"e":255.3,"Latitude":38.048592,"State":"Kentucky","f":248.1,"g":-7.2,"h":-2.8,"longitude":-84.50032,"id":"a64pyhr3mli8"},"type":"Feature","geometry":{"type":"Point","coordinates":[-84.50032,38.048592]}},{"properties":{"City":"Bowling Green","c":61.7,"d":59.5,"e":61.8,"Latitude":36.994625,"State":"Kentucky","f":59.4,"g":-2.4,"h":-3.9,"longitude":-86.445584,"id":"a64pyhgmvkal"},"type":"Feature","geometry":{"type":"Point","coordinates":[-86.445584,36.994625]}},{"properties":{"City":"Shreveport-Bossier City","c":180.3,"d":179.2,"e":181.4,"Latitude":32.515942,"State":"Louisiana","f":179.9,"g":-1.5,"h":-0.8,"longitude":-93.735382,"id":"a64pyhhu54on"},"type":"Feature","geometry":{"type":"Point","coordinates":[-93.735382,32.515942]}},{"properties":{"City":"Alexandria","c":66.9,"d":66.7,"e":67.3,"Latitude":31.312685,"State":"Louisiana","f":66.6,"g":-0.7,"h":-1.0,"longitude":-92.445649,"id":"a64pyhih92qp"},"type":"Feature","geometry":{"type":"Point","coordinates":[-92.445649,31.312685]}},{"properties":{"City":"Baton Rouge","c":374.7,"d":375.4,"e":376.1,"Latitude":30.44342,"State":"Louisiana","f":377.5,"g":1.4,"h":0.4,"longitude":-91.186874,"id":"a64pyhwifngy"},"type":"Feature","geometry":{"type":"Point","coordinates":[-91.186874,30.44342]}},{"properties":{"City":"Houma-Bayou Cane-Thibodaux","c":96.4,"d":98.2,"e":97.0,"Latitude":29.795521,"State":"Louisiana","f":98.5,"g":1.5,"h":1.5,"longitude":-90.822533,"id":"a64pyhqszo92"},"type":"Feature","geometry":{"type":"Point","coordinates":[-90.822533,29.795521]}},{"properties":{"City":"New Orleans-Metairie-Kenner","c":524.8,"d":525.6,"e":528.4,"Latitude":29.98988,"State":"Louisiana","f":527.3,"g":-1.1,"h":-0.2,"longitude":-90.242081,"id":"a64pyhniujrz"},"type":"Feature","geometry":{"type":"Point","coordinates":[-90.242081,29.98988]}},{"properties":{"City":"Lake Charles","c":93.7,"d":92.7,"e":93.9,"Latitude":30.224033,"State":"Louisiana","f":92.7,"g":-1.2,"h":-1.3,"longitude":-93.220111,"id":"a64pyhicm8ll"},"type":"Feature","geometry":{"type":"Point","coordinates":[-93.220111,30.224033]}},{"properties":{"City":"Monroe","c":78.6,"d":78.6,"e":79.1,"Latitude":32.50965,"State":"Louisiana","f":78.9,"g":-0.2,"h":-0.3,"longitude":-92.119049,"id":"a64pyhuexe94"},"type":"Feature","geometry":{"type":"Point","coordinates":[-92.119049,32.50965]}},{"properties":{"City":"Lafayette","c":151.1,"d":150.7,"e":151.7,"Latitude":30.220325,"State":"Louisiana","f":151.1,"g":-0.6,"h":-0.4,"longitude":-92.017054,"id":"a64pyhu7vpo9"},"type":"Feature","geometry":{"type":"Point","coordinates":[-92.017054,30.220325]}},{"properties":{"City":"Portland-South Portland-Biddeford","c":189.9,"d":185.8,"e":189.9,"Latitude":43.49374,"State":"Maine","f":185.2,"g":-4.7,"h":-2.5,"longitude":-70.456886,"id":"a64pyhosnmpx"},"type":"Feature","geometry":{"type":"Point","coordinates":[-70.456886,43.49374]}},{"properties":{"City":"Bangor","c":66.3,"d":64.6,"e":65.9,"Latitude":44.80172,"State":"Maine","f":64.6,"g":-1.3,"h":-2.0,"longitude":-68.770775,"id":"a64pyhigradj"},"type":"Feature","geometry":{"type":"Point","coordinates":[-68.770775,44.80172]}},{"properties":{"City":"Salisbury","c":55.2,"d":53.9,"e":55.7,"Latitude":38.365735,"State":"Maryland","f":53.8,"g":-1.9,"h":-3.4,"longitude":-75.595319,"id":"a64pyhq5ahfh"},"type":"Feature","geometry":{"type":"Point","coordinates":[-75.595319,38.365735]}},{"properties":{"City":"Baltimore-Towson","c":1302.0,"d":1270.6,"e":1311.5,"Latitude":39.399929,"State":"Maryland","f":1279.1,"g":-32.4,"h":-2.5,"longitude":-76.605377,"id":"a64pyhjdnzh9"},"type":"Feature","geometry":{"type":"Point","coordinates":[-76.605377,39.399929]}},{"properties":{"City":"Hagerstown-Martinsburg","c":101.3,"d":98.5,"e":101.6,"Latitude":39.164631,"State":"Maryland","f":99.2,"g":-2.4,"h":-2.4,"longitude":-77.477692,"id":"a64pyht0xi83"},"type":"Feature","geometry":{"type":"Point","coordinates":[-77.477692,39.164631]}},{"properties":{"City":"Worcester","c":246.2,"d":241.8,"e":246.6,"Latitude":42.26299,"State":"Massachusetts","f":242.2,"g":-4.4,"h":-1.8,"longitude":-71.802354,"id":"a64pyhvyrw01"},"type":"Feature","geometry":{"type":"Point","coordinates":[-71.802354,42.26299]}},{"properties":{"City":"Barnstable Town","c":90.7,"d":88.7,"e":91.6,"Latitude":41.701962,"State":"Massachusetts","f":89.5,"g":-2.1,"h":-2.3,"longitude":-70.30442,"id":"a64pyhqimutf"},"type":"Feature","geometry":{"type":"Point","coordinates":[-70.30442,41.701962]}},{"properties":{"City":"Boston-Cambridge-Quincy","c":2467.0,"d":2409.5,"e":2476.0,"Latitude":42.25227,"State":"Massachusetts","f":2413.1,"g":-62.9,"h":-2.5,"longitude":-71.004181,"id":"a64pyhog14w1"},"type":"Feature","geometry":{"type":"Point","coordinates":[-71.004181,42.25227]}},{"properties":{"City":"New Bedford","c":64.9,"d":63.9,"e":65.5,"Latitude":41.637655,"State":"Massachusetts","f":63.8,"g":-1.7,"h":-2.6,"longitude":-70.930864,"id":"a64pyhv726jr"},"type":"Feature","geometry":{"type":"Point","coordinates":[-70.930864,41.637655]}},{"properties":{"City":"Springfield","c":293.2,"d":286.6,"e":295.9,"Latitude":42.10122,"State":"Massachusetts","f":287.1,"g":-8.8,"h":-3.0,"longitude":-72.589264,"id":"a64pyhhw8qtv"},"type":"Feature","geometry":{"type":"Point","coordinates":[-72.589264,42.10122]}},{"properties":{"City":"Niles-Benton Harbor","c":63.1,"d":60.5,"e":63.6,"Latitude":42.115528,"State":"Michigan","f":60.9,"g":-2.7,"h":-4.2,"longitude":-86.457481,"id":"a64pyhkh73z1"},"type":"Feature","geometry":{"type":"Point","coordinates":[-86.457481,42.115528]}},{"properties":{"City":"Ann Arbor","c":197.3,"d":189.3,"e":196.9,"Latitude":42.281875,"State":"Michigan","f":188.9,"g":-8.0,"h":-4.1,"longitude":-83.748479,"id":"a64pyhr8wovj"},"type":"Feature","geometry":{"type":"Point","coordinates":[-83.748479,42.281875]}},{"properties":{"City":"Battle Creek","c":57.9,"d":54.7,"e":58.2,"Latitude":42.31617,"State":"Michigan","f":54.8,"g":-3.4,"h":-5.8,"longitude":-85.180224,"id":"a64pyhphz1yr"},"type":"Feature","geometry":{"type":"Point","coordinates":[-85.180224,42.31617]}},{"properties":{"City":"Detroit-Warren-Livonia","c":1911.8,"d":1773.0,"e":1907.5,"Latitude":42.39658,"State":"Michigan","f":1772.2,"g":-135.3,"h":-7.1,"longitude":-83.369591,"id":"a64pyhwi4jj0"},"type":"Feature","geometry":{"type":"Point","coordinates":[-83.369591,42.39658]}},{"properties":{"City":"Flint","c":145.6,"d":136.0,"e":142.1,"Latitude":43.010745,"State":"Michigan","f":136.1,"g":-6.0,"h":-4.2,"longitude":-83.686019,"id":"a64pyhmywig0"},"type":"Feature","geometry":{"type":"Point","coordinates":[-83.686019,43.010745]}},{"properties":{"City":"Grand Rapids-Wyoming","c":385.2,"d":365.1,"e":385.6,"Latitude":42.913391,"State":"Michigan","f":365.4,"g":-20.2,"h":-5.2,"longitude":-85.693291,"id":"a64pyhlikk8u"},"type":"Feature","geometry":{"type":"Point","coordinates":[-85.693291,42.913391]}},{"properties":{"City":"Holland-Grand Haven","c":111.0,"d":103.7,"e":111.3,"Latitude":43.06295,"State":"Michigan","f":103.9,"g":-7.4,"h":-6.6,"longitude":-86.225983,"id":"a64pyhwcvnqs"},"type":"Feature","geometry":{"type":"Point","coordinates":[-86.225983,43.06295]}},{"properties":{"City":"Jackson","c":57.1,"d":54.3,"e":57.3,"Latitude":42.244765,"State":"Michigan","f":54.4,"g":-2.9,"h":-5.1,"longitude":-84.400524,"id":"a64pyhildt03"},"type":"Feature","geometry":{"type":"Point","coordinates":[-84.400524,42.244765]}},{"properties":{"City":"Kalamazoo-Portage","c":143.4,"d":137.8,"e":143.9,"Latitude":42.292431,"State":"Michigan","f":138.1,"g":-5.8,"h":-4.0,"longitude":-85.601112,"id":"a64pyhto3zb9"},"type":"Feature","geometry":{"type":"Point","coordinates":[-85.601112,42.292431]}},{"properties":{"City":"Lansing-East Lansing","c":226.4,"d":220.2,"e":226.8,"Latitude":42.74931,"State":"Michigan","f":219.8,"g":-7.0,"h":-3.1,"longitude":-84.565709,"id":"a64pyhqgs0c4"},"type":"Feature","geometry":{"type":"Point","coordinates":[-84.565709,42.74931]}},{"properties":{"City":"Muskegon-Norton Shores","c":63.0,"d":59.8,"e":63.0,"Latitude":43.234241,"State":"Michigan","f":60.0,"g":-3.0,"h":-4.8,"longitude":-86.245934,"id":"a64pyhnkaixf"},"type":"Feature","geometry":{"type":"Point","coordinates":[-86.245934,43.234241]}},{"properties":{"City":"Saginaw-Saginaw Township North","c":86.7,"d":82.9,"e":86.4,"Latitude":43.06478,"State":"Michigan","f":82.8,"g":-3.6,"h":-4.2,"longitude":-82.527599,"id":"a64pyhgx0luu"},"type":"Feature","geometry":{"type":"Point","coordinates":[-82.527599,43.06478]}},{"properties":{"City":"St Cloud","c":101.3,"d":100.0,"e":102.2,"Latitude":45.565864,"State":"Minnesota","f":100.1,"g":-2.1,"h":-2.1,"longitude":-94.197519,"id":"a64pyhhmmotj"},"type":"Feature","geometry":{"type":"Point","coordinates":[-94.197519,45.565864]}},{"properties":{"City":"Duluth","c":131.6,"d":128.6,"e":131.8,"Latitude":46.787965,"State":"Minnesota","f":128.3,"g":-3.5,"h":-2.7,"longitude":-92.099849,"id":"a64pyhvrzlx3"},"type":"Feature","geometry":{"type":"Point","coordinates":[-92.099849,46.787965]}},{"properties":{"City":"Minneapolis-St Paul-Bloomington","c":1766.7,"d":1711.5,"e":1770.6,"Latitude":44.879269,"State":"Minnesota","f":1706.1,"g":-64.5,"h":-3.6,"longitude":-93.198708,"id":"a64pyhtvkdlo"},"type":"Feature","geometry":{"type":"Point","coordinates":[-93.198708,44.879269]}},{"properties":{"City":"Rochester","c":103.8,"d":103.8,"e":104.5,"Latitude":44.01925,"State":"Minnesota","f":103.8,"g":-0.7,"h":-0.7,"longitude":-92.459779,"id":"a64pyhmaufus"},"type":"Feature","geometry":{"type":"Point","coordinates":[-92.459779,44.01925]}},{"properties":{"City":"Jackson","c":261.5,"d":256.2,"e":262.0,"Latitude":32.29869,"State":"Mississippi","f":257.4,"g":-4.6,"h":-1.8,"longitude":-90.180489,"id":"a64pyhh7o4kd"},"type":"Feature","geometry":{"type":"Point","coordinates":[-90.180489,32.29869]}},{"properties":{"City":"Gulfport-Biloxi","c":109.8,"d":106.9,"e":110.8,"Latitude":30.41334,"State":"Mississippi","f":107.5,"g":-3.3,"h":-3.0,"longitude":-89.072021,"id":"a64pyhk1pbkq"},"type":"Feature","geometry":{"type":"Point","coordinates":[-89.072021,30.41334]}},{"properties":{"City":"Hattiesburg","c":61.3,"d":59.9,"e":61.1,"Latitude":31.327357,"State":"Mississippi","f":60.0,"g":-1.1,"h":-1.8,"longitude":-89.290719,"id":"a64pyhgluc4a"},"type":"Feature","geometry":{"type":"Point","coordinates":[-89.290719,31.327357]}},{"properties":{"City":"Pascagoula","c":59.4,"d":57.5,"e":59.8,"Latitude":30.36536,"State":"Mississippi","f":58.5,"g":-1.3,"h":-2.2,"longitude":-88.55645,"id":"a64pyhh5yx9t"},"type":"Feature","geometry":{"type":"Point","coordinates":[-88.55645,30.36536]}},{"properties":{"City":"Springfield","c":197.8,"d":194.8,"e":199.8,"Latitude":37.208975,"State":"Missouri","f":195.4,"g":-4.4,"h":-2.2,"longitude":-93.291564,"id":"a64pyhvt7da5"},"type":"Feature","geometry":{"type":"Point","coordinates":[-93.291564,37.208975]}},{"properties":{"City":"St Louis","c":1346.4,"d":1315.8,"e":1350.1,"Latitude":38.62774,"State":"Missouri","f":1318.4,"g":-31.7,"h":-2.3,"longitude":-90.199514,"id":"a64pyhpdyktz"},"type":"Feature","geometry":{"type":"Point","coordinates":[-90.199514,38.62774]}},{"properties":{"City":"Jefferson City","c":79.4,"d":78.2,"e":79.7,"Latitude":38.577515,"State":"Missouri","f":78.4,"g":-1.3,"h":-1.6,"longitude":-92.177839,"id":"a64pyhka2n94"},"type":"Feature","geometry":{"type":"Point","coordinates":[-92.177839,38.577515]}},{"properties":{"City":"Joplin","c":80.0,"d":79.5,"e":80.6,"Latitude":37.091455,"State":"Missouri","f":79.9,"g":-0.7,"h":-0.9,"longitude":-94.513169,"id":"a64pyhtmr290"},"type":"Feature","geometry":{"type":"Point","coordinates":[-94.513169,37.091455]}},{"properties":{"City":"Kansas City","c":1004.3,"d":994.3,"e":1013.7,"Latitude":39.10296,"State":"Missouri","f":1002.1,"g":-11.6,"h":-1.1,"longitude":-94.583062,"id":"a64pyhh4s00r"},"type":"Feature","geometry":{"type":"Point","coordinates":[-94.583062,39.10296]}},{"properties":{"City":"St Joseph","c":59.2,"d":57.8,"e":59.4,"Latitude":39.7666,"State":"Missouri","f":58.0,"g":-1.4,"h":-2.4,"longitude":-94.856074,"id":"a64pyhq20z43"},"type":"Feature","geometry":{"type":"Point","coordinates":[-94.856074,39.7666]}},{"properties":{"City":"Columbia","c":92.4,"d":92.8,"e":93.7,"Latitude":38.952174,"State":"Missouri","f":93.4,"g":-0.3,"h":-0.3,"longitude":-92.334157,"id":"a64pyhvw1dxe"},"type":"Feature","geometry":{"type":"Point","coordinates":[-92.334157,38.952174]}},{"properties":{"City":"Missoula","c":56.0,"d":53.2,"e":56.4,"Latitude":46.87278,"State":"Montana","f":53.6,"g":-2.8,"h":-5.0,"longitude":-113.996234,"id":"a64pyhvmrrv6"},"type":"Feature","geometry":{"type":"Point","coordinates":[-113.996234,46.87278]}},{"properties":{"City":"Billings","c":80.1,"d":76.8,"e":80.6,"Latitude":45.783975,"State":"Montana","f":77.3,"g":-3.3,"h":-4.1,"longitude":-108.505794,"id":"a64pyhlyn80d"},"type":"Feature","geometry":{"type":"Point","coordinates":[-108.505794,45.783975]}},{"properties":{"City":"Omaha-Council Bluffs","c":460.6,"d":459.2,"e":463.0,"Latitude":41.260658,"State":"Nebraska","f":455.9,"g":-7.1,"h":-1.5,"longitude":-95.939949,"id":"a64pyhqmvxd0"},"type":"Feature","geometry":{"type":"Point","coordinates":[-95.939949,41.260658]}},{"properties":{"City":"Lincoln","c":170.8,"d":170.3,"e":172.2,"Latitude":40.81361,"State":"Nebraska","f":170.5,"g":-1.7,"h":-1.0,"longitude":-96.707729,"id":"a64pyhoqjrg3"},"type":"Feature","geometry":{"type":"Point","coordinates":[-96.707729,40.81361]}},{"properties":{"City":"Las Vegas-Paradise","c":921.4,"d":878.6,"e":923.6,"Latitude":36.09993,"State":"Nevada","f":875.7,"g":-47.9,"h":-5.2,"longitude":-115.116707,"id":"a64pyhk31w9h"},"type":"Feature","geometry":{"type":"Point","coordinates":[-115.116707,36.09993]}},{"properties":{"City":"Reno-Sparks","c":215.7,"d":199.9,"e":215.6,"Latitude":39.540981,"State":"Nevada","f":199.5,"g":-16.1,"h":-7.5,"longitude":-119.749191,"id":"a64pyhn7ugu5"},"type":"Feature","geometry":{"type":"Point","coordinates":[-119.749191,39.540981]}},{"properties":{"City":"Manchester","c":99.7,"d":99.6,"e":99.7,"Latitude":42.991175,"State":"New Hampshire","f":99.5,"g":-0.2,"h":-0.2,"longitude":-71.463089,"id":"a64pyhoxq8rl"},"type":"Feature","geometry":{"type":"Point","coordinates":[-71.463089,42.991175]}},{"properties":{"City":"Portsmouth","c":53.0,"d":53.4,"e":53.0,"Latitude":43.070623,"State":"New Hampshire","f":53.7,"g":0.7,"h":1.3,"longitude":-70.77212,"id":"a64pyhs7jyn0"},"type":"Feature","geometry":{"type":"Point","coordinates":[-70.77212,43.070623]}},{"properties":{"City":"Rochester-Dover","c":58.3,"d":57.5,"e":58.6,"Latitude":43.305328,"State":"New Hampshire","f":57.5,"g":-1.1,"h":-1.9,"longitude":-70.979408,"id":"a64pyhgxszew"},"type":"Feature","geometry":{"type":"Point","coordinates":[-70.979408,43.305328]}},{"properties":{"City":"Atlantic City-Hammonton","c":145.1,"d":139.7,"e":147.1,"Latitude":39.65014,"State":"New Jersey","f":139.8,"g":-7.3,"h":-5.0,"longitude":-74.827704,"id":"a64pyhoy2hkf"},"type":"Feature","geometry":{"type":"Point","coordinates":[-74.827704,39.65014]}},{"properties":{"City":"Vineland-Millville-Bridgeton","c":61.6,"d":60.7,"e":62.1,"Latitude":39.42947,"State":"New Jersey","f":60.9,"g":-1.2,"h":-1.9,"longitude":-75.234062,"id":"a64pyhr7lshy"},"type":"Feature","geometry":{"type":"Point","coordinates":[-75.234062,39.42947]}},{"properties":{"City":"Trenton-Ewing","c":240.5,"d":235.5,"e":241.1,"Latitude":40.217869,"State":"New Jersey","f":237.5,"g":-3.6,"h":-1.5,"longitude":-74.759377,"id":"a64pyhprz2jn"},"type":"Feature","geometry":{"type":"Point","coordinates":[-74.759377,40.217869]}},{"properties":{"City":"Santa Fe","c":63.9,"d":63.3,"e":64.4,"Latitude":35.691543,"State":"New Mexico","f":63.3,"g":-1.1,"h":-1.7,"longitude":-105.937406,"id":"a64pyhwlnka9"},"type":"Feature","geometry":{"type":"Point","coordinates":[-105.937406,35.691543]}},{"properties":{"City":"Albuquerque","c":392.8,"d":385.9,"e":394.6,"Latitude":35.08418,"State":"New Mexico","f":386.9,"g":-7.7,"h":-2.0,"longitude":-106.648639,"id":"a64pyhudfcs2"},"type":"Feature","geometry":{"type":"Point","coordinates":[-106.648639,35.08418]}},{"properties":{"City":"Las Cruces","c":69.4,"d":69.5,"e":69.9,"Latitude":32.30673,"State":"New Mexico","f":69.9,"g":0.0,"h":0.0,"longitude":-106.777734,"id":"a64pyhsj72u5"},"type":"Feature","geometry":{"type":"Point","coordinates":[-106.777734,32.30673]}},{"properties":{"City":"Glens Falls","c":52.5,"d":51.8,"e":52.1,"Latitude":43.31122,"State":"New York","f":51.8,"g":-0.3,"h":-0.6,"longitude":-73.643759,"id":"a64pyhmsd3vw"},"type":"Feature","geometry":{"type":"Point","coordinates":[-73.643759,43.31122]}},{"properties":{"City":"Albany-Schenectady-Troy","c":445.9,"d":439.6,"e":446.8,"Latitude":42.734402,"State":"New York","f":439.5,"g":-7.3,"h":-1.6,"longitude":-73.688179,"id":"a64pyhrmyo59"},"type":"Feature","geometry":{"type":"Point","coordinates":[-73.688179,42.734402]}},{"properties":{"City":"Binghamton","c":113.4,"d":111.9,"e":113.8,"Latitude":42.098687,"State":"New York","f":111.8,"g":-2.0,"h":-1.8,"longitude":-75.911271,"id":"a64pyhjsoen6"},"type":"Feature","geometry":{"type":"Point","coordinates":[-75.911271,42.098687]}},{"properties":{"City":"Buffalo-Niagara Falls","c":541.4,"d":529.4,"e":542.9,"Latitude":43.09549,"State":"New York","f":531.8,"g":-11.1,"h":-2.0,"longitude":-79.055847,"id":"a64pyhk1whtc"},"type":"Feature","geometry":{"type":"Point","coordinates":[-79.055847,43.09549]}},{"properties":{"City":"Utica-Rome","c":130.8,"d":130.0,"e":131.3,"Latitude":43.21516,"State":"New York","f":130.9,"g":-0.4,"h":-0.3,"longitude":-75.453362,"id":"a64pyhrh2mh2"},"type":"Feature","geometry":{"type":"Point","coordinates":[-75.453362,43.21516]}},{"properties":{"City":"Ithaca","c":65.4,"d":65.2,"e":65.2,"Latitude":42.440495,"State":"New York","f":65.1,"g":-0.1,"h":-0.2,"longitude":-76.495454,"id":"a64pyhsjylre"},"type":"Feature","geometry":{"type":"Point","coordinates":[-76.495454,42.440495]}},{"properties":{"City":"Kingston","c":62.4,"d":61.3,"e":63.2,"Latitude":41.926718,"State":"New York","f":61.8,"g":-1.4,"h":-2.2,"longitude":-73.996506,"id":"a64pyhrrk7ix"},"type":"Feature","geometry":{"type":"Point","coordinates":[-73.996506,41.926718]}},{"properties":{"City":"New York-Northern New Yersey-Long Island","c":8520.4,"d":8329.9,"e":8571.3,"Latitude":40.60075,"State":"New York","f":8351.6,"g":-219.7,"h":-2.6,"longitude":-73.655919,"id":"a64pyhnzhkk9"},"type":"Feature","geometry":{"type":"Point","coordinates":[-73.655919,40.60075]}},{"properties":{"City":"Poughkeepsie-Newburgh-Middletown","c":252.0,"d":248.9,"e":253.0,"Latitude":41.44556,"State":"New York","f":249.5,"g":-3.5,"h":-1.4,"longitude":-74.422478,"id":"a64pyhkwdfar"},"type":"Feature","geometry":{"type":"Point","coordinates":[-74.422478,41.44556]}},{"properties":{"City":"Rochester","c":509.5,"d":508.0,"e":510.2,"Latitude":43.1555,"State":"New York","f":508.0,"g":-2.2,"h":-0.4,"longitude":-77.616033,"id":"a64pyhth6u8k"},"type":"Feature","geometry":{"type":"Point","coordinates":[-77.616033,43.1555]}},{"properties":{"City":"Syracuse","c":319.9,"d":318.5,"e":320.3,"Latitude":43.04999,"State":"New York","f":317.9,"g":-2.4,"h":-0.7,"longitude":-76.147389,"id":"a64pyhqlpdos"},"type":"Feature","geometry":{"type":"Point","coordinates":[-76.147389,43.04999]}},{"properties":{"City":"Burlington","c":60.8,"d":58.3,"e":61.3,"Latitude":36.096865,"State":"North Carolina","f":58.0,"g":-3.3,"h":-5.4,"longitude":-79.437914,"id":"a64pyhgu0cjv"},"type":"Feature","geometry":{"type":"Point","coordinates":[-79.437914,36.096865]}},{"properties":{"City":"Asheville","c":175.9,"d":167.8,"e":176.4,"Latitude":35.59846,"State":"North Carolina","f":167.2,"g":-9.2,"h":-5.2,"longitude":-82.553144,"id":"a64pyhtcova4"},"type":"Feature","geometry":{"type":"Point","coordinates":[-82.553144,35.59846]}},{"properties":{"City":"Winston-Salem","c":219.2,"d":212.2,"e":220.0,"Latitude":36.0996,"State":"North Carolina","f":212.0,"g":-8.0,"h":-3.6,"longitude":-80.241094,"id":"a64pyhiyzt3x"},"type":"Feature","geometry":{"type":"Point","coordinates":[-80.241094,36.0996]}},{"properties":{"City":"Charlotte-Gastonia-Concord","c":863.0,"d":816.9,"e":868.3,"Latitude":35.409931,"State":"North Carolina","f":815.2,"g":-53.1,"h":-6.1,"longitude":-80.580673,"id":"a64pyhsty5zm"},"type":"Feature","geometry":{"type":"Point","coordinates":[-80.580673,35.409931]}},{"properties":{"City":"Durham-Chapel Hill","c":289.0,"d":286.9,"e":291.1,"Latitude":35.914639,"State":"North Carolina","f":285.3,"g":-5.8,"h":-2.0,"longitude":-79.056587,"id":"a64pyhpkvgzr"},"type":"Feature","geometry":{"type":"Point","coordinates":[-79.056587,35.914639]}},{"properties":{"City":"Fayetteville","c":129.1,"d":126.6,"e":129.5,"Latitude":35.054495,"State":"North Carolina","f":126.8,"g":-2.7,"h":-2.1,"longitude":-78.877579,"id":"a64pyhs2cee6"},"type":"Feature","geometry":{"type":"Point","coordinates":[-78.877579,35.054495]}},{"properties":{"City":"Greensboro-High Point","c":370.3,"d":348.0,"e":371.7,"Latitude":35.954659,"State":"North Carolina","f":347.9,"g":-23.8,"h":-6.4,"longitude":-80.005013,"id":"a64pyhihncpx"},"type":"Feature","geometry":{"type":"Point","coordinates":[-80.005013,35.954659]}},{"properties":{"City":"Wilmington","c":145.2,"d":140.7,"e":147.0,"Latitude":34.23497,"State":"North Carolina","f":140.6,"g":-6.4,"h":-4.4,"longitude":-77.945992,"id":"a64pyhrbarym"},"type":"Feature","geometry":{"type":"Point","coordinates":[-77.945992,34.23497]}},{"properties":{"City":"Hickory-Lenoir-Morganton","c":160.0,"d":150.0,"e":161.5,"Latitude":35.746799,"State":"North Carolina","f":148.1,"g":-13.4,"h":-8.3,"longitude":-81.68586,"id":"a64pyhqywr3d"},"type":"Feature","geometry":{"type":"Point","coordinates":[-81.68586,35.746799]}},{"properties":{"City":"Raleigh-Cary","c":519.4,"d":503.2,"e":520.5,"Latitude":35.78933,"State":"North Carolina","f":501.9,"g":-18.6,"h":-3.6,"longitude":-78.781151,"id":"a64pyhu9vs72"},"type":"Feature","geometry":{"type":"Point","coordinates":[-78.781151,35.78933]}},{"properties":{"City":"Rocky Mount","c":65.6,"d":62.1,"e":65.9,"Latitude":35.948199,"State":"North Carolina","f":61.8,"g":-4.1,"h":-6.2,"longitude":-77.795207,"id":"a64pyhp0dluw"},"type":"Feature","geometry":{"type":"Point","coordinates":[-77.795207,35.948199]}},{"properties":{"City":"Greenville","c":78.7,"d":75.7,"e":78.8,"Latitude":35.607195,"State":"North Carolina","f":75.8,"g":-3.0,"h":-3.8,"longitude":-77.380224,"id":"a64pyhq15zv0"},"type":"Feature","geometry":{"type":"Point","coordinates":[-77.380224,35.607195]}},{"properties":{"City":"Grand Forks","c":53.7,"d":53.5,"e":53.7,"Latitude":47.924085,"State":"North Dakota","f":53.7,"g":0.0,"h":0.0,"longitude":-97.032034,"id":"a64pyhpervnm"},"type":"Feature","geometry":{"type":"Point","coordinates":[-97.032034,47.924085]}},{"properties":{"City":"Bismarck","c":59.5,"d":60.0,"e":60.1,"Latitude":46.805371,"State":"North Dakota","f":60.5,"g":0.4,"h":0.7,"longitude":-100.779319,"id":"a64pyhnil99h"},"type":"Feature","geometry":{"type":"Point","coordinates":[-100.779319,46.805371]}},{"properties":{"City":"Fargo","c":120.0,"d":120.0,"e":121.0,"Latitude":46.87591,"State":"North Dakota","f":120.3,"g":-0.7,"h":-0.6,"longitude":-96.781764,"id":"a64pyhkrktnh"},"type":"Feature","geometry":{"type":"Point","coordinates":[-96.781764,46.87591]}},{"properties":{"City":"Dayton","c":395.4,"d":380.1,"e":393.7,"Latitude":39.759055,"State":"Ohio","f":381.3,"g":-12.4,"h":-3.1,"longitude":-84.194439,"id":"a64pyhprxksc"},"type":"Feature","geometry":{"type":"Point","coordinates":[-84.194439,39.759055]}},{"properties":{"City":"Akron","c":337.9,"d":325.9,"e":337.9,"Latitude":41.084195,"State":"Ohio","f":326.7,"g":-11.2,"h":-3.3,"longitude":-81.514059,"id":"a64pyhu0hbss"},"type":"Feature","geometry":{"type":"Point","coordinates":[-81.514059,41.084195]}},{"properties":{"City":"Canton-Massillon","c":170.0,"d":165.0,"e":169.6,"Latitude":40.794628,"State":"Ohio","f":165.7,"g":-3.9,"h":-2.3,"longitude":-81.522827,"id":"a64pyhj6qy8a"},"type":"Feature","geometry":{"type":"Point","coordinates":[-81.522827,40.794628]}},{"properties":{"City":"Cincinnati-Middletown","c":1034.4,"d":1004.2,"e":1037.1,"Latitude":39.50988,"State":"Ohio","f":1009.0,"g":-28.1,"h":-2.7,"longitude":-84.403572,"id":"a64pyhrsshro"},"type":"Feature","geometry":{"type":"Point","coordinates":[-84.403572,39.50988]}},{"properties":{"City":"Cleveland-Elyria-Mentor","c":1050.4,"d":1009.4,"e":1048.2,"Latitude":41.697971,"State":"Ohio","f":1008.9,"g":-39.3,"h":-3.7,"longitude":-81.337273,"id":"a64pyhgmemt6"},"type":"Feature","geometry":{"type":"Point","coordinates":[-81.337273,41.697971]}},{"properties":{"City":"Columbus","c":931.8,"d":912.9,"e":931.0,"Latitude":39.962,"State":"Ohio","f":916.6,"g":-14.4,"h":-1.5,"longitude":-83.003014,"id":"a64pyhsb42te"},"type":"Feature","geometry":{"type":"Point","coordinates":[-83.003014,39.962]}},{"properties":{"City":"Youngstown-Warren-Boardman","c":232.3,"d":222.3,"e":232.8,"Latitude":41.024349,"State":"Ohio","f":223.0,"g":-9.8,"h":-4.2,"longitude":-80.65976,"id":"a64pyhld6bkm"},"type":"Feature","geometry":{"type":"Point","coordinates":[-80.65976,41.024349]}},{"properties":{"City":"Lima","c":54.0,"d":53.1,"e":54.3,"Latitude":40.742695,"State":"Ohio","f":53.4,"g":-0.9,"h":-1.7,"longitude":-84.107294,"id":"a64pyhw4y1au"},"type":"Feature","geometry":{"type":"Point","coordinates":[-84.107294,40.742695]}},{"properties":{"City":"Mansfield","c":56.7,"d":54.8,"e":56.4,"Latitude":40.758515,"State":"Ohio","f":54.9,"g":-1.5,"h":-2.7,"longitude":-82.514804,"id":"a64pyhud4cpb"},"type":"Feature","geometry":{"type":"Point","coordinates":[-82.514804,40.758515]}},{"properties":{"City":"Springfield","c":52.1,"d":51.2,"e":52.3,"Latitude":39.92502,"State":"Ohio","f":51.7,"g":-0.6,"h":-1.1,"longitude":-83.806734,"id":"a64pyhr250j0"},"type":"Feature","geometry":{"type":"Point","coordinates":[-83.806734,39.92502]}},{"properties":{"City":"Toledo","c":318.5,"d":300.2,"e":318.3,"Latitude":41.65381,"State":"Ohio","f":300.5,"g":-17.8,"h":-5.6,"longitude":-83.536259,"id":"a64pyhk031cw"},"type":"Feature","geometry":{"type":"Point","coordinates":[-83.536259,41.65381]}},{"properties":{"City":"Tulsa","c":431.1,"d":428.8,"e":434.0,"Latitude":36.14975,"State":"Oklahoma","f":429.9,"g":-4.1,"h":-0.9,"longitude":-95.993354,"id":"a64pyhvbpomi"},"type":"Feature","geometry":{"type":"Point","coordinates":[-95.993354,36.14975]}},{"properties":{"City":"Oklahoma City","c":571.4,"d":572.8,"e":575.4,"Latitude":35.472005,"State":"Oklahoma","f":572.9,"g":-2.5,"h":-0.4,"longitude":-97.520334,"id":"a64pyhka7csb"},"type":"Feature","geometry":{"type":"Point","coordinates":[-97.520334,35.472005]}},{"properties":{"City":"Salem","c":151.0,"d":147.7,"e":151.6,"Latitude":44.93323,"State":"Oregon","f":147.6,"g":-4.0,"h":-2.6,"longitude":-123.043854,"id":"a64pyhof428s"},"type":"Feature","geometry":{"type":"Point","coordinates":[-123.043854,44.93323]}},{"properties":{"City":"Bend","c":67.8,"d":65.0,"e":68.3,"Latitude":44.05766,"State":"Oregon","f":65.7,"g":-2.6,"h":-3.8,"longitude":-121.315584,"id":"a64pyhgp8bqc"},"type":"Feature","geometry":{"type":"Point","coordinates":[-121.315584,44.05766]}},{"properties":{"City":"Eugene-Springfield","c":156.1,"d":147.8,"e":156.8,"Latitude":44.047279,"State":"Oregon","f":147.5,"g":-9.3,"h":-5.9,"longitude":-123.019531,"id":"a64pyhwfutoa"},"type":"Feature","geometry":{"type":"Point","coordinates":[-123.019531,44.047279]}},{"properties":{"City":"Medford","c":81.2,"d":78.2,"e":81.3,"Latitude":42.32356,"State":"Oregon","f":78.0,"g":-3.3,"h":-4.1,"longitude":-122.875614,"id":"a64pyhm2urtr"},"type":"Feature","geometry":{"type":"Point","coordinates":[-122.875614,42.32356]}},{"properties":{"City":"Portland-Vancouver-Beaverton","c":1033.3,"d":995.7,"e":1036.8,"Latitude":45.485321,"State":"Oregon","f":993.1,"g":-43.7,"h":-4.2,"longitude":-122.796509,"id":"a64pyhq6717o"},"type":"Feature","geometry":{"type":"Point","coordinates":[-122.796509,45.485321]}},{"properties":{"City":"Harrisburg-Carlisle","c":326.3,"d":320.2,"e":328.9,"Latitude":40.20118,"State":"Pennsylvania","f":320.7,"g":-8.2,"h":-2.5,"longitude":-77.18911,"id":"a64pyhtb37i4"},"type":"Feature","geometry":{"type":"Point","coordinates":[-77.18911,40.20118]}},{"properties":{"City":"Allentown-Bethlehem-Easton","c":339.3,"d":332.5,"e":342.5,"Latitude":40.651428,"State":"Pennsylvania","f":334.6,"g":-7.9,"h":-2.3,"longitude":-75.434219,"id":"a64pyhpkc667"},"type":"Feature","geometry":{"type":"Point","coordinates":[-75.434219,40.651428]}},{"properties":{"City":"Altoona","c":61.1,"d":59.4,"e":61.2,"Latitude":40.50719,"State":"Pennsylvania","f":59.5,"g":-1.7,"h":-2.8,"longitude":-78.398904,"id":"a64pyhix2wy2"},"type":"Feature","geometry":{"type":"Point","coordinates":[-78.398904,40.50719]}},{"properties":{"City":"Erie","c":131.3,"d":129.4,"e":131.5,"Latitude":42.129445,"State":"Pennsylvania","f":129.2,"g":-2.3,"h":-1.7,"longitude":-80.085239,"id":"a64pyhvtkzdx"},"type":"Feature","geometry":{"type":"Point","coordinates":[-80.085239,42.129445]}},{"properties":{"City":"York-Hanover","c":181.5,"d":178.5,"e":182.7,"Latitude":39.800739,"State":"Pennsylvania","f":178.5,"g":-4.2,"h":-2.3,"longitude":-76.982857,"id":"a64pyhgsacor"},"type":"Feature","geometry":{"type":"Point","coordinates":[-76.982857,39.800739]}},{"properties":{"City":"Johnstown","c":61.5,"d":59.9,"e":61.8,"Latitude":40.32726,"State":"Pennsylvania","f":60.2,"g":-1.6,"h":-2.6,"longitude":-78.918354,"id":"a64pyhmc2yp1"},"type":"Feature","geometry":{"type":"Point","coordinates":[-78.918354,40.32726]}},{"properties":{"City":"Lancaster","c":234.9,"d":229.4,"e":236.8,"Latitude":40.038045,"State":"Pennsylvania","f":230.0,"g":-6.8,"h":-2.9,"longitude":-76.301269,"id":"a64pyhhjpc3m"},"type":"Feature","geometry":{"type":"Point","coordinates":[-76.301269,40.038045]}},{"properties":{"City":"Philadelphia-Camden-Wilmington","c":2789.8,"d":2721.5,"e":2801.8,"Latitude":41.1418,"State":"Pennsylvania","f":2724.6,"g":-77.2,"h":-2.8,"longitude":-80.32106,"id":"a64pyhv6n133"},"type":"Feature","geometry":{"type":"Point","coordinates":[-80.32106,41.1418]}},{"properties":{"City":"Pittsburgh","c":1128.0,"d":1110.3,"e":1135.5,"Latitude":40.43831,"State":"Pennsylvania","f":1115.3,"g":-20.2,"h":-1.8,"longitude":-79.997459,"id":"a64pyhuf40xo"},"type":"Feature","geometry":{"type":"Point","coordinates":[-79.997459,40.43831]}},{"properties":{"City":"Reading","c":172.6,"d":168.2,"e":173.7,"Latitude":40.336585,"State":"Pennsylvania","f":168.1,"g":-5.6,"h":-3.2,"longitude":-75.927843,"id":"a64pyhu4b6zi"},"type":"Feature","geometry":{"type":"Point","coordinates":[-75.927843,40.336585]}},{"properties":{"City":"Scranton--Wilkes-Barre","c":258.9,"d":252.9,"e":259.5,"Latitude":41.230488,"State":"Pennsylvania","f":252.9,"g":-6.6,"h":-2.5,"longitude":-75.890297,"id":"a64pyhkt5mxk"},"type":"Feature","geometry":{"type":"Point","coordinates":[-75.890297,41.230488]}},{"properties":{"City":"State College","c":74.8,"d":73.8,"e":75.3,"Latitude":40.79373,"State":"Pennsylvania","f":74.2,"g":-1.1,"h":-1.5,"longitude":-77.860704,"id":"a64pyhj8ms2z"},"type":"Feature","geometry":{"type":"Point","coordinates":[-77.860704,40.79373]}},{"properties":{"City":"Williamsport","c":53.5,"d":51.6,"e":53.8,"Latitude":41.240945,"State":"Pennsylvania","f":51.7,"g":-2.1,"h":-3.9,"longitude":-77.001414,"id":"a64pyhve4i56"},"type":"Feature","geometry":{"type":"Point","coordinates":[-77.001414,41.240945]}},{"properties":{"City":"Ponce","c":65.5,"d":63.8,"e":65.5,"Latitude":18.013615,"State":"Puerto Rico","f":64.3,"g":-1.2,"h":-1.8,"longitude":-66.614919,"id":"a64pyhvnrjg7"},"type":"Feature","geometry":{"type":"Point","coordinates":[-66.614919,18.013615]}},{"properties":{"City":"Charleston-North Charlestown-Summerville","c":297.7,"d":290.7,"e":299.5,"Latitude":33.018909,"State":"South Carolina","f":290.3,"g":-9.2,"h":-3.1,"longitude":-80.176041,"id":"a64pyhqtcs0k"},"type":"Feature","geometry":{"type":"Point","coordinates":[-80.176041,33.018909]}},{"properties":{"City":"Greenville-Mauldin-Easley","c":319.1,"d":311.8,"e":320.6,"Latitude":34.830879,"State":"South Carolina","f":311.8,"g":-8.8,"h":-2.7,"longitude":-82.60038,"id":"a64pyhteu43c"},"type":"Feature","geometry":{"type":"Point","coordinates":[-82.60038,34.830879]}},{"properties":{"City":"Myrtle Beach-North Myrtle Beach-Conway","c":118.2,"d":110.2,"e":122.8,"Latitude":33.817865,"State":"South Carolina","f":114.9,"g":-7.9,"h":-6.4,"longitude":-78.685919,"id":"a64pyhq127px"},"type":"Feature","geometry":{"type":"Point","coordinates":[-78.685919,33.817865]}},{"properties":{"City":"Spartanburg","c":128.9,"d":124.6,"e":129.8,"Latitude":34.948265,"State":"South Carolina","f":124.1,"g":-5.7,"h":-4.4,"longitude":-81.934829,"id":"a64pyhoht202"},"type":"Feature","geometry":{"type":"Point","coordinates":[-81.934829,34.948265]}},{"properties":{"City":"Rapid City","c":59.3,"d":59.1,"e":59.7,"Latitude":44.081165,"State":"South Dakota","f":59.4,"g":-0.3,"h":-0.5,"longitude":-103.230889,"id":"a64pyhmljux3"},"type":"Feature","geometry":{"type":"Point","coordinates":[-103.230889,44.081165]}},{"properties":{"City":"Sioux Falls","c":133.5,"d":133.4,"e":133.9,"Latitude":43.54535,"State":"South Dakota","f":133.2,"g":-0.7,"h":-0.5,"longitude":-96.731284,"id":"a64pyhgy29a6"},"type":"Feature","geometry":{"type":"Point","coordinates":[-96.731284,43.54535]}},{"properties":{"City":"City","c":2008.0,"d":2009.0,"e":2008.0,"Latitude":0.0,"State":"State","f":0.0,"g":0.0,"h":0.0,"longitude":0.0,"id":"a64pyhpsmmxo"},"type":"Feature","geometry":{"type":"Point","coordinates":[3.13425111285779e-274,3.32285867379565e-308]}},{"properties":{"City":"Clarksville","c":84.4,"d":80.9,"e":84.7,"Latitude":36.530755,"State":"Tennessee","f":81.3,"g":-3.4,"h":-4.0,"longitude":-87.359769,"id":"a64pyhrl48is"},"type":"Feature","geometry":{"type":"Point","coordinates":[-87.359769,36.530755]}},{"properties":{"City":"Kingsport-Bristol-Bristol","c":122.8,"d":119.4,"e":123.7,"Latitude":36.59193,"State":"Tennessee","f":119.6,"g":-4.1,"h":-3.3,"longitude":-82.221268,"id":"a64pyhnri9s8"},"type":"Feature","geometry":{"type":"Point","coordinates":[-82.221268,36.59193]}},{"properties":{"City":"Knoxville","c":334.6,"d":324.2,"e":335.2,"Latitude":35.960495,"State":"Tennessee","f":323.9,"g":-11.3,"h":-3.4,"longitude":-83.920914,"id":"a64pyhuf4oey"},"type":"Feature","geometry":{"type":"Point","coordinates":[-83.920914,35.960495]}},{"properties":{"City":"Chattanooga","c":246.2,"d":240.6,"e":247.2,"Latitude":35.046432,"State":"Tennessee","f":240.9,"g":-6.3,"h":-2.5,"longitude":-85.309421,"id":"a64pyhnxdb4p"},"type":"Feature","geometry":{"type":"Point","coordinates":[-85.309421,35.046432]}},{"properties":{"City":"Amarillo","c":112.5,"d":112.2,"e":112.8,"Latitude":35.207255,"State":"Texas","f":112.3,"g":-0.5,"h":-0.4,"longitude":-101.833894,"id":"a64pyhk5jdc5"},"type":"Feature","geometry":{"type":"Point","coordinates":[-101.833894,35.207255]}},{"properties":{"City":"Austin-Round Rock","c":771.8,"d":772.1,"e":773.9,"Latitude":29.99626,"State":"Texas","f":777.2,"g":3.3,"h":0.4,"longitude":-97.43066,"id":"a64pyhnz65py"},"type":"Feature","geometry":{"type":"Point","coordinates":[-97.43066,29.99626]}},{"properties":{"City":"Beaumont-Port Arthur","c":164.9,"d":161.2,"e":165.5,"Latitude":33.868675,"State":"Texas","f":161.5,"g":-4.0,"h":-2.4,"longitude":-95.505509,"id":"a64pyhuwa6ep"},"type":"Feature","geometry":{"type":"Point","coordinates":[-95.505509,33.868675]}},{"properties":{"City":"Brownsville-Harlingen","c":126.9,"d":124.2,"e":127.3,"Latitude":26.189859,"State":"Texas","f":124.7,"g":-2.6,"h":-2.0,"longitude":-97.695549,"id":"a64pyhpt84kt"},"type":"Feature","geometry":{"type":"Point","coordinates":[-97.695549,26.189859]}},{"properties":{"City":"College Station-Bryan","c":95.2,"d":94.1,"e":95.4,"Latitude":30.620489,"State":"Texas","f":94.0,"g":-1.4,"h":-1.5,"longitude":-96.325974,"id":"a64pyhtsp92a"},"type":"Feature","geometry":{"type":"Point","coordinates":[-96.325974,30.620489]}},{"properties":{"City":"Corpus Christi","c":181.6,"d":181.0,"e":183.7,"Latitude":27.79635,"State":"Texas","f":181.4,"g":-2.3,"h":-1.3,"longitude":-97.403564,"id":"a64pyhnsebt2"},"type":"Feature","geometry":{"type":"Point","coordinates":[-97.403564,27.79635]}},{"properties":{"City":"Dallas-Fort Worth-Arlington","c":2965.5,"d":2934.2,"e":2975.9,"Latitude":32.922218,"State":"Texas","f":2937.1,"g":-38.8,"h":-1.3,"longitude":-97.040901,"id":"a64pyhoby4dy"},"type":"Feature","geometry":{"type":"Point","coordinates":[-97.040901,32.922218]}},{"properties":{"City":"Killeen-Temple-Fort Hood","c":125.0,"d":127.2,"e":125.4,"Latitude":33.542955,"State":"Texas","f":127.7,"g":2.3,"h":1.8,"longitude":-97.346534,"id":"a64pyhkknpnq"},"type":"Feature","geometry":{"type":"Point","coordinates":[-97.346534,33.542955]}},{"properties":{"City":"Abilene","c":66.9,"d":67.2,"e":67.4,"Latitude":32.449175,"State":"Texas","f":67.4,"g":0.0,"h":0.0,"longitude":-99.741424,"id":"a64pyhmgzwg4"},"type":"Feature","geometry":{"type":"Point","coordinates":[-99.741424,32.449175]}},{"properties":{"City":"Longview","c":97.7,"d":97.3,"e":98.2,"Latitude":32.50064,"State":"Texas","f":97.5,"g":-0.7,"h":-0.7,"longitude":-94.741075,"id":"a64pyhhhva21"},"type":"Feature","geometry":{"type":"Point","coordinates":[-94.741075,32.50064]}},{"properties":{"City":"Lubbock","c":130.2,"d":130.0,"e":130.4,"Latitude":33.59233,"State":"Texas","f":130.5,"g":0.1,"h":0.1,"longitude":-101.855869,"id":"a64pyhnxho23"},"type":"Feature","geometry":{"type":"Point","coordinates":[-101.855869,33.59233]}},{"properties":{"City":"McAllen-Edinburg-Mission","c":219.9,"d":220.0,"e":220.3,"Latitude":26.21534,"State":"Texas","f":220.6,"g":0.3,"h":0.1,"longitude":-98.325813,"id":"a64pyhshit9d"},"type":"Feature","geometry":{"type":"Point","coordinates":[-98.325813,26.21534]}},{"properties":{"City":"Midland","c":68.3,"d":70.7,"e":69.1,"Latitude":32.000105,"State":"Texas","f":70.7,"g":1.6,"h":2.3,"longitude":-102.075694,"id":"a64pyhh9myna"},"type":"Feature","geometry":{"type":"Point","coordinates":[-102.075694,32.000105]}},{"properties":{"City":"Odessa","c":62.0,"d":64.2,"e":62.3,"Latitude":31.84915,"State":"Texas","f":64.4,"g":2.1,"h":3.4,"longitude":-102.375189,"id":"a64pyhlhx8ya"},"type":"Feature","geometry":{"type":"Point","coordinates":[-102.375189,31.84915]}},{"properties":{"City":"San Antonio","c":845.8,"d":845.2,"e":850.7,"Latitude":29.42449,"State":"Texas","f":849.2,"g":-1.5,"h":-0.2,"longitude":-98.494624,"id":"a64pyhii8yn2"},"type":"Feature","geometry":{"type":"Point","coordinates":[-98.494624,29.42449]}},{"properties":{"City":"Texarkana","c":57.8,"d":57.8,"e":57.8,"Latitude":33.42558,"State":"Texas","f":57.8,"g":0.0,"h":0.0,"longitude":-94.048254,"id":"a64pyhwj1u1p"},"type":"Feature","geometry":{"type":"Point","coordinates":[-94.048254,33.42558]}},{"properties":{"City":"Tyler","c":94.4,"d":95.6,"e":95.0,"Latitude":32.347475,"State":"Texas","f":95.8,"g":0.8,"h":0.8,"longitude":-95.294299,"id":"a64pyhkk677d"},"type":"Feature","geometry":{"type":"Point","coordinates":[-95.294299,32.347475]}},{"properties":{"City":"Waco","c":105.9,"d":106.2,"e":106.6,"Latitude":31.571821,"State":"Texas","f":106.5,"g":-0.1,"h":-0.1,"longitude":-97.149507,"id":"a64pyhubzfe3"},"type":"Feature","geometry":{"type":"Point","coordinates":[-97.149507,31.571821]}},{"properties":{"City":"Wichita Falls","c":61.7,"d":60.2,"e":62.0,"Latitude":33.90831,"State":"Texas","f":60.4,"g":-1.6,"h":-2.6,"longitude":-98.500994,"id":"a64pyhljew74"},"type":"Feature","geometry":{"type":"Point","coordinates":[-98.500994,33.90831]}},{"properties":{"City":"Laredo","c":90.1,"d":90.6,"e":90.5,"Latitude":27.53092,"State":"Texas","f":91.1,"g":0.6,"h":0.7,"longitude":-99.502009,"id":"a64pyhkkjbds"},"type":"Feature","geometry":{"type":"Point","coordinates":[-99.502009,27.53092]}},{"properties":{"City":"Salt Lake City","c":641.3,"d":628.5,"e":642.5,"Latitude":40.75952,"State":"Utah","f":625.5,"g":-17.0,"h":-2.6,"longitude":-111.888229,"id":"a64pyhrhj7ng"},"type":"Feature","geometry":{"type":"Point","coordinates":[-111.888229,40.75952]}},{"properties":{"City":"St George","c":52.0,"d":50.0,"e":52.5,"Latitude":37.109075,"State":"Utah","f":49.9,"g":-2.6,"h":-5.0,"longitude":-113.583304,"id":"a64pyhkz9x4w"},"type":"Feature","geometry":{"type":"Point","coordinates":[-113.583304,37.109075]}},{"properties":{"City":"Provo-Orem","c":188.5,"d":182.5,"e":189.3,"Latitude":40.298061,"State":"Utah","f":182.5,"g":-6.8,"h":-3.6,"longitude":-111.695389,"id":"a64pyhnevcsc"},"type":"Feature","geometry":{"type":"Point","coordinates":[-111.695389,40.298061]}},{"properties":{"City":"Ogden-Clearfield","c":199.1,"d":194.8,"e":200.6,"Latitude":41.113811,"State":"Utah","f":195.3,"g":-5.3,"h":-2.6,"longitude":-112.022308,"id":"a64pyhrhkudp"},"type":"Feature","geometry":{"type":"Point","coordinates":[-112.022308,41.113811]}},{"properties":{"City":"Burlington-South Burlington","c":113.9,"d":108.7,"e":112.9,"Latitude":44.47783,"State":"Vermont","f":107.4,"g":-5.5,"h":-4.9,"longitude":-73.215684,"id":"a64pyhuzk8mv"},"type":"Feature","geometry":{"type":"Point","coordinates":[-73.215684,44.47783]}},{"properties":{"City":"Winchester","c":55.9,"d":53.2,"e":56.1,"Latitude":39.184005,"State":"Virginia","f":53.5,"g":-2.6,"h":-4.6,"longitude":-78.164049,"id":"a64pyhlfuuco"},"type":"Feature","geometry":{"type":"Point","coordinates":[-78.164049,39.184005]}},{"properties":{"City":"Harrisonburg","c":63.9,"d":62.2,"e":63.9,"Latitude":38.451534,"State":"Virginia","f":62.5,"g":-1.4,"h":-2.2,"longitude":-78.869047,"id":"a64pyhqaklxj"},"type":"Feature","geometry":{"type":"Point","coordinates":[-78.869047,38.451534]}},{"properties":{"City":"Lynchburg","c":108.5,"d":107.9,"e":108.9,"Latitude":37.41402,"State":"Virginia","f":109.1,"g":0.2,"h":0.2,"longitude":-79.142839,"id":"a64pyhr3h7ji"},"type":"Feature","geometry":{"type":"Point","coordinates":[-79.142839,37.41402]}},{"properties":{"City":"Richmond","c":627.1,"d":604.8,"e":629.7,"Latitude":37.540545,"State":"Virginia","f":607.8,"g":-21.9,"h":-3.5,"longitude":-77.433409,"id":"a64pyhthpe6j"},"type":"Feature","geometry":{"type":"Point","coordinates":[-77.433409,37.540545]}},{"properties":{"City":"Charlottesville","c":102.2,"d":99.8,"e":102.8,"Latitude":38.032125,"State":"Virginia","f":100.3,"g":-2.5,"h":-2.4,"longitude":-78.477519,"id":"a64pyhtllv71"},"type":"Feature","geometry":{"type":"Point","coordinates":[-78.477519,38.032125]}},{"properties":{"City":"Blacksburg-Christiansburg-Radford","c":70.3,"d":71.7,"e":70.6,"Latitude":37.120689,"State":"Virginia","f":71.6,"g":1.0,"h":1.4,"longitude":-80.589958,"id":"a64pyhmxqjq8"},"type":"Feature","geometry":{"type":"Point","coordinates":[-80.589958,37.120689]}},{"properties":{"City":"Bremerton-Silverdale","c":85.8,"d":81.9,"e":86.0,"Latitude":47.6516,"State":"Washington","f":81.6,"g":-4.4,"h":-5.1,"longitude":-122.692917,"id":"a64pyholzvyf"},"type":"Feature","geometry":{"type":"Point","coordinates":[-122.692917,47.6516]}},{"properties":{"City":"Kennewick-Pasco-Richland","c":91.3,"d":92.4,"e":92.8,"Latitude":46.274059,"State":"Washington","f":93.0,"g":0.2,"h":0.2,"longitude":-119.273727,"id":"a64pyholq3ko"},"type":"Feature","geometry":{"type":"Point","coordinates":[-119.273727,46.274059]}},{"properties":{"City":"Spokane","c":216.4,"d":212.4,"e":219.0,"Latitude":47.65726,"State":"Washington","f":212.9,"g":-6.1,"h":-2.8,"longitude":-117.412279,"id":"a64pyhsdyspb"},"type":"Feature","geometry":{"type":"Point","coordinates":[-117.412279,47.65726]}},{"properties":{"City":"Bellingham","c":84.6,"d":82.7,"e":85.3,"Latitude":48.75235,"State":"Washington","f":82.9,"g":-2.4,"h":-2.8,"longitude":-122.471219,"id":"a64pyhhcs09e"},"type":"Feature","geometry":{"type":"Point","coordinates":[-122.471219,48.75235]}},{"properties":{"City":"Parkersburg-Marietta-Vienna","c":71.4,"d":71.0,"e":72.0,"Latitude":39.687757,"State":"West Virginia","f":71.6,"g":-0.4,"h":-0.6,"longitude":-80.635728,"id":"a64pyhkbyn6d"},"type":"Feature","geometry":{"type":"Point","coordinates":[-80.635728,39.687757]}},{"properties":{"City":"Huntington-Ashland","c":118.3,"d":117.5,"e":119.4,"Latitude":39.687757,"State":"West Virginia","f":118.3,"g":-1.1,"h":-0.9,"longitude":-80.635728,"id":"a64pyhhrxvd9"},"type":"Feature","geometry":{"type":"Point","coordinates":[-80.635728,39.687757]}},{"properties":{"City":"Wheeling","c":67.0,"d":66.7,"e":67.7,"Latitude":40.063965,"State":"West Virginia","f":67.1,"g":-0.6,"h":-0.9,"longitude":-80.721424,"id":"a64pyhgk32fs"},"type":"Feature","geometry":{"type":"Point","coordinates":[-80.721424,40.063965]}},{"properties":{"City":"Morgantown","c":61.8,"d":62.7,"e":62.4,"Latitude":39.630375,"State":"West Virginia","f":63.1,"g":0.7,"h":1.1,"longitude":-79.957849,"id":"a64pyhg5toin"},"type":"Feature","geometry":{"type":"Point","coordinates":[-79.957849,39.630375]}},{"properties":{"City":"Eau Claire","c":82.5,"d":80.5,"e":82.5,"Latitude":44.816512,"State":"Wisconsin","f":80.4,"g":-2.1,"h":-2.5,"longitude":-91.501238,"id":"a64pyhjllfeo"},"type":"Feature","geometry":{"type":"Point","coordinates":[-91.501238,44.816512]}},{"properties":{"City":"Green Bay","c":165.6,"d":162.9,"e":166.7,"Latitude":44.512795,"State":"Wisconsin","f":163.0,"g":-3.7,"h":-2.2,"longitude":-88.010159,"id":"a64pyhha9y8z"},"type":"Feature","geometry":{"type":"Point","coordinates":[-88.010159,44.512795]}},{"properties":{"City":"Janesville","c":68.0,"d":64.0,"e":68.4,"Latitude":42.687892,"State":"Wisconsin","f":64.3,"g":-4.1,"h":-6.0,"longitude":-89.018214,"id":"a64pyhtz3goh"},"type":"Feature","geometry":{"type":"Point","coordinates":[-89.018214,42.687892]}},{"properties":{"City":"Appleton","c":115.7,"d":113.0,"e":116.0,"Latitude":44.26178,"State":"Wisconsin","f":113.0,"g":-3.0,"h":-2.6,"longitude":-88.416564,"id":"a64pyhqk9icl"},"type":"Feature","geometry":{"type":"Point","coordinates":[-88.416564,44.26178]}},{"properties":{"City":"Oshkosh-Neenah","c":92.4,"d":92.1,"e":93.0,"Latitude":44.186089,"State":"Wisconsin","f":92.0,"g":-1.0,"h":-1.1,"longitude":-88.461952,"id":"a64pyhtvnv3z"},"type":"Feature","geometry":{"type":"Point","coordinates":[-88.461952,44.186089]}},{"properties":{"City":"Milwaukee-Waukesha-West Allis","c":842.9,"d":814.0,"e":846.1,"Latitude":43.016621,"State":"Wisconsin","f":810.3,"g":-35.8,"h":-4.2,"longitude":-88.006691,"id":"a64pyhtnizq7"},"type":"Feature","geometry":{"type":"Point","coordinates":[-88.006691,43.016621]}},{"properties":{"City":"Sheboygan","c":62.7,"d":60.9,"e":63.0,"Latitude":43.74978,"State":"Wisconsin","f":61.0,"g":-2.0,"h":-3.2,"longitude":-87.713749,"id":"a64pyhvnux8s"},"type":"Feature","geometry":{"type":"Point","coordinates":[-87.713749,43.74978]}},{"properties":{"City":"Wausau","c":71.3,"d":69.0,"e":71.7,"Latitude":44.959535,"State":"Wisconsin","f":69.2,"g":-2.5,"h":-3.5,"longitude":-89.630309,"id":"a64pyhkh3rzu"},"type":"Feature","geometry":{"type":"Point","coordinates":[-89.630309,44.959535]}},{"properties":{"City":"Racine","c":78.7,"d":77.1,"e":79.1,"Latitude":42.725218,"State":"Wisconsin","f":76.7,"g":-2.4,"h":-3.0,"longitude":-87.790395,"id":"a64pyhjgweqe"},"type":"Feature","geometry":{"type":"Point","coordinates":[-87.790395,42.725218]}},{"properties":{"City":"Cheyenne","c":44.1,"d":44.4,"e":44.6,"Latitude":41.134815,"State":"Wyoming","f":44.5,"g":-0.1,"h":-0.2,"longitude":-104.821544,"id":"a64pyhs1j65r"},"type":"Feature","geometry":{"type":"Point","coordinates":[-104.821544,41.134815]}}],"is_temporal":false,"author":{"url":"http://www.bls.gov/news.release/metro.t03.htm","metadata":"","contact_name":"","contact_address":"","source":"Bureau of Labor Statistics","contact_phone":"(202) 691-6559  "},"source":"http://www.bls.gov/news.release/metro.t03.htm","pagination":{"sort":null,"start":0,"total":295,"limit":1000000},"state":"complete","tags":"employment,nonfarm,payroll","published":"2009-04-29T12:00:00Z","id":12756}