{"type":"FeatureCollection","data_type":"Dataset","url_type":null,"permissions":[{"permissions":{"download":true,"view":true},"group_id":"everyone"}],"classification":null,"title":"11 0620 PAM SalesData","count":41,"stream_id":127834,"contributor":{"url":"http://geocommons.com/users/28248","name":"tommynauw"},"data_attributes":null,"calculation_params":null,"icon_link":null,"link":"http://geocommons.com/overlays/127834.json","extent":[-168.022,20.8327,-70.3701,62.0494],"geometry_types":["point"],"unique_name":null,"name":"11 0620 PAM SalesData","feature_count":41,"description":"","next_feature":null,"is_raster":false,"short_classification":"Y","stats":{},"features":[{"properties":{"city":"Kailua","zip":"96734","geo_score":0.875,"id":"a65w3chj0pkl","geo_precision":"zip","state":"HI"},"type":"Feature","geometry":{"type":"Point","coordinates":[-157.754167,21.384722]}},{"properties":{"city":"Scottsdale","zip":"92649","geo_score":0.886,"id":"a65w3c79rxy1","geo_precision":"zip","state":"CA"},"type":"Feature","geometry":{"type":"Point","coordinates":[-117.769442,33.640302]}},{"properties":{"city":"Poland","zip":"04274","geo_score":0.879,"id":"a65w3cl5tkk1","geo_precision":"zip","state":"ME"},"type":"Feature","geometry":{"type":"Point","coordinates":[-70.370055,43.986741]}},{"properties":{"city":"Hauula","zip":"96717","geo_score":0.878,"id":"a65w3c7kf5j6","geo_precision":"zip","state":"HI"},"type":"Feature","geometry":{"type":"Point","coordinates":[-157.896667,21.5925]}},{"properties":{"city":"Aberdeen","zip":"07747","geo_score":0.871,"id":"a65w3cbgd18m","geo_precision":"zip","state":"NJ"},"type":"Feature","geometry":{"type":"Point","coordinates":[-74.213478,40.395942]}},{"properties":{"city":"Eatonville","zip":"98328","geo_score":0.886,"id":"a65w3c8nkiyr","geo_precision":"zip","state":"WA"},"type":"Feature","geometry":{"type":"Point","coordinates":[-122.290113,46.800383]}},{"properties":{"city":"Homeland","zip":"92548","geo_score":1.0,"id":"a65w3ce4p7vt","geo_precision":"zip","state":"CA"},"type":"Feature","geometry":{"type":"Point","coordinates":[-116.055617,33.752886]}},{"properties":{"city":"Honolulu","zip":"96825","geo_score":0.873,"id":"a65w3cew8wu1","geo_precision":"zip","state":"HI"},"type":"Feature","geometry":{"type":"Point","coordinates":[-157.705278,21.282778]}},{"properties":{"city":"Fort Worth","zip":"76244","geo_score":0.873,"id":"a65w3cdkb9t1","geo_precision":"zip","state":"TX"},"type":"Feature","geometry":{"type":"Point","coordinates":[-97.291484,32.771419]}},{"properties":{"city":"Kaneohe","zip":"96744","geo_score":0.898,"id":"a65w3ci3cara","geo_precision":"zip","state":"HI"},"type":"Feature","geometry":{"type":"Point","coordinates":[-157.855,21.500556]}},{"properties":{"city":"Goleta","zip":"93117","geo_score":0.857,"id":"a65w3ck7blv8","geo_precision":"zip","state":"CA"},"type":"Feature","geometry":{"type":"Point","coordinates":[-120.22904,34.508044]}},{"properties":{"city":"Huntington Beach","zip":"92647","geo_score":1.0,"id":"a65w3cjb2n9s","geo_precision":"zip","state":"CA"},"type":"Feature","geometry":{"type":"Point","coordinates":[-117.769442,33.640302]}},{"properties":{"city":"Honolulu","zip":"96818","geo_score":0.879,"id":"a65w3cavgnh6","geo_precision":"zip","state":"HI"},"type":"Feature","geometry":{"type":"Point","coordinates":[-157.927778,21.365278]}},{"properties":{"city":"Honolulu","zip":"96825","geo_score":0.873,"id":"a65w3cd5nk45","geo_precision":"zip","state":"HI"},"type":"Feature","geometry":{"type":"Point","coordinates":[-157.705278,21.282778]}},{"properties":{"city":"Wawona","zip":"95389","geo_score":0.866,"id":"a65w3c7xbq12","geo_precision":"zip","state":"CA"},"type":"Feature","geometry":{"type":"Point","coordinates":[-120.488253,37.89076]}},{"properties":{"city":"Honolulu","zip":"96817","geo_score":1.0,"id":"a65w3cmeka8c","geo_precision":"zip","state":"HI"},"type":"Feature","geometry":{"type":"Point","coordinates":[-157.922303,21.65098]}},{"properties":{"city":"Huntington Beach","zip":"92649","geo_score":1.0,"id":"a65w3cdtq0ny","geo_precision":"zip","state":"CA"},"type":"Feature","geometry":{"type":"Point","coordinates":[-117.769442,33.640302]}},{"properties":{"city":"Aiea","zip":"96701","geo_score":0.918,"id":"a65w3chlzkk1","geo_precision":"zip","state":"HI"},"type":"Feature","geometry":{"type":"Point","coordinates":[-157.943333,21.404722]}},{"properties":{"city":"Honolulu","zip":"96821","geo_score":1.0,"id":"a65w3c9ligzk","geo_precision":"zip","state":"HI"},"type":"Feature","geometry":{"type":"Point","coordinates":[-168.021815,24.859832]}},{"properties":{"city":"Palmer","zip":"99645","geo_score":0.878,"id":"a65w3cdn5bks","geo_precision":"zip","state":"AK"},"type":"Feature","geometry":{"type":"Point","coordinates":[-146.538333,62.049444]}},{"properties":{"city":"Los Angeles","zip":"90039","geo_score":1.0,"id":"a65w3cn1oka0","geo_precision":"zip","state":"CA"},"type":"Feature","geometry":{"type":"Point","coordinates":[-118.298662,33.786594]}},{"properties":{"city":"Honolulu","zip":"96816","geo_score":0.911,"id":"a65w3cmw1on2","geo_precision":"zip","state":"HI"},"type":"Feature","geometry":{"type":"Point","coordinates":[-157.815556,21.278056]}},{"properties":{"city":"Huntington Beach","zip":"92649","geo_score":1.0,"id":"a65w3ck8lbc3","geo_precision":"zip","state":"CA"},"type":"Feature","geometry":{"type":"Point","coordinates":[-117.769442,33.640302]}},{"properties":{"city":"Shawnee","zip":"66218","geo_score":0.857,"id":"a65w3caa2i4d","geo_precision":"zip","state":"KS"},"type":"Feature","geometry":{"type":"Point","coordinates":[-94.808018,39.038338]}},{"properties":{"city":"Honolulu","zip":"96814","geo_score":0.893,"id":"a65w3c9hhii1","geo_precision":"zip","state":"HI"},"type":"Feature","geometry":{"type":"Point","coordinates":[-157.829167,21.290556]}},{"properties":{"city":"Houston","zip":"77084","geo_score":1.0,"id":"a65w3cj5cq3g","geo_precision":"zip","state":"TX"},"type":"Feature","geometry":{"type":"Point","coordinates":[-95.434241,29.83399]}},{"properties":{"city":"Brea","zip":"92821","geo_score":1.0,"id":"a65w3ck3odp2","geo_precision":"zip","state":"CA"},"type":"Feature","geometry":{"type":"Point","coordinates":[-117.769442,33.640302]}},{"properties":{"city":"Honolulu","zip":"96813","geo_score":1.0,"id":"a65w3ckleeoh","geo_precision":"zip","state":"HI"},"type":"Feature","geometry":{"type":"Point","coordinates":[-168.021815,24.859832]}},{"properties":{"city":"Palatine","zip":"60067","geo_score":0.873,"id":"a65w3cbrvd0r","geo_precision":"zip","state":"IL"},"type":"Feature","geometry":{"type":"Point","coordinates":[-88.096187,42.118082]}},{"properties":{"city":"Honollulu","zip":"96814","geo_score":0.905,"id":"a65w3ca8a3en","geo_precision":"zip","state":"HI"},"type":"Feature","geometry":{"type":"Point","coordinates":[-157.829167,21.290556]}},{"properties":{"city":"Makawao","zip":"96768","geo_score":1.0,"id":"a65w3cbfe14z","geo_precision":"zip","state":"HI"},"type":"Feature","geometry":{"type":"Point","coordinates":[-156.320242,20.832664]}},{"properties":{"city":"Honolulu","zip":"96825","geo_score":0.873,"id":"a65w3chbk0an","geo_precision":"zip","state":"HI"},"type":"Feature","geometry":{"type":"Point","coordinates":[-157.705278,21.282778]}},{"properties":{"city":"Hon","zip":"96818","geo_score":0.868,"id":"a65w3cfusks4","geo_precision":"zip","state":"HI"},"type":"Feature","geometry":{"type":"Point","coordinates":[-157.927778,21.365278]}},{"properties":{"city":"Honolulu","zip":"96819","geo_score":1.0,"id":"a65w3cn5bqcu","geo_precision":"zip","state":"HI"},"type":"Feature","geometry":{"type":"Point","coordinates":[-157.901979,21.373179]}},{"properties":{"city":"Reno","zip":"89506","geo_score":0.881,"id":"a65w3ccll044","geo_precision":"zip","state":"NV"},"type":"Feature","geometry":{"type":"Point","coordinates":[-119.843249,39.636021]}},{"properties":{"city":"Huntington Beach","zip":"92649","geo_score":1.0,"id":"a65w3ciz2cso","geo_precision":"zip","state":"CA"},"type":"Feature","geometry":{"type":"Point","coordinates":[-117.769442,33.640302]}},{"properties":{"city":"Huntington Beach","zip":"92649","geo_score":1.0,"id":"a65w3cikhl9y","geo_precision":"zip","state":"CA"},"type":"Feature","geometry":{"type":"Point","coordinates":[-117.769442,33.640302]}},{"properties":{"city":"Ukiah","zip":"95482","geo_score":0.869,"id":"a65w3cmvt9z3","geo_precision":"zip","state":"CA"},"type":"Feature","geometry":{"type":"Point","coordinates":[-123.158059,39.166837]}},{"properties":{"city":"Louisville","zip":"40245","geo_score":1.0,"id":"a65w3ca2v59g","geo_precision":"zip","state":"KY"},"type":"Feature","geometry":{"type":"Point","coordinates":[-85.475021,38.258384]}},{"properties":{"city":"Kaneohe","zip":"96744","geo_score":0.898,"id":"a65w3c8dvfe9","geo_precision":"zip","state":"HI"},"type":"Feature","geometry":{"type":"Point","coordinates":[-157.855,21.500556]}},{"properties":{"city":"Ewa Beach","zip":"96706","geo_score":0.879,"id":"a65w3cnc5a9j","geo_precision":"zip","state":"HI"},"type":"Feature","geometry":{"type":"Point","coordinates":[-158.045833,21.336944]}}],"is_temporal":false,"author":{"url":"","metadata":"","contact_name":"","contact_address":"","source":"","contact_phone":""},"source":"","pagination":{"sort":null,"start":0,"total":41,"limit":1000000},"state":"complete","tags":"","published":"2014-08-13T09:43:04-04:00","id":127834}