{"type":"FeatureCollection","data_type":"Dataset","url_type":null,"permissions":[{"permissions":{"download":true,"view":true},"group_id":"everyone"}],"classification":null,"title":"US Companies Version 1","count":150,"stream_id":12791,"contributor":{"url":"http://geocommons.com/users/6707","name":"bradterrell"},"data_attributes":null,"calculation_params":null,"icon_link":null,"link":"http://geocommons.com/overlays/12791.json","extent":[71.5,33.29,122.41,47.37],"geometry_types":["point"],"unique_name":null,"name":"US Companies Version 1","feature_count":150,"description":"","next_feature":null,"is_raster":false,"short_classification":"Y","stats":{"latitude":{"max":47.37,"mean":39.4229333333333,"variance":18.518753753915,"stdev":4.30334216091574,"min":33.29,"median":39.45},"longitude":{"max":122.41,"mean":105.000266666667,"variance":438.537842881432,"stdev":20.9412951576886,"min":71.5,"median":118.15}},"features":[{"properties":{"city":"Burbank","latitude":34.3,"website":"abcfamily.go.com","longitude":118.15,"id":"a64nl5ntniiu","state":"CA"},"type":"Feature","geometry":{"type":"Point","coordinates":[118.15,34.3]}},{"properties":{"city":"Seattle","latitude":47.37,"website":"foo","longitude":122.2,"id":"a64nl5uz9mwo","state":"WA"},"type":"Feature","geometry":{"type":"Point","coordinates":[122.2,47.37]}},{"properties":{"city":"Portland","latitude":45.31,"website":"foo","longitude":122.41,"id":"a64nl5p5jtgd","state":"OR"},"type":"Feature","geometry":{"type":"Point","coordinates":[122.41,45.31]}},{"properties":{"city":"Portland","latitude":45.31,"website":"foo","longitude":122.41,"id":"a64nl5qxiden","state":"OR"},"type":"Feature","geometry":{"type":"Point","coordinates":[122.41,45.31]}},{"properties":{"city":"Medford","latitude":45.31,"website":"foo","longitude":122.41,"id":"a64nl5q9xok4","state":"OR"},"type":"Feature","geometry":{"type":"Point","coordinates":[122.41,45.31]}},{"properties":{"city":"New York","latitude":40.47,"website":"foo","longitude":73.58,"id":"a64nl5lcq0fw","state":"NY"},"type":"Feature","geometry":{"type":"Point","coordinates":[73.58,40.47]}},{"properties":{"city":"New York","latitude":40.47,"website":"foo","longitude":73.58,"id":"a64nl5rhp5zu","state":"NY"},"type":"Feature","geometry":{"type":"Point","coordinates":[73.58,40.47]}},{"properties":{"city":"New York","latitude":40.47,"website":"foo","longitude":73.58,"id":"a64nl5tkdhkg","state":"NY"},"type":"Feature","geometry":{"type":"Point","coordinates":[73.58,40.47]}},{"properties":{"city":"Seattle","latitude":47.37,"website":"foo","longitude":122.2,"id":"a64nl5rer56z","state":"WA"},"type":"Feature","geometry":{"type":"Point","coordinates":[122.2,47.37]}},{"properties":{"city":"San Francisco","latitude":37.47,"website":"http://automattic.com and www.wordpress.com","longitude":122.26,"id":"a64nl5st51ca","state":"CA"},"type":"Feature","geometry":{"type":"Point","coordinates":[122.26,37.47]}},{"properties":{"city":"San Francisco","latitude":37.47,"website":"http://boston.craigslist.org/","longitude":122.26,"id":"a64nl5j103oi","state":"CA"},"type":"Feature","geometry":{"type":"Point","coordinates":[122.26,37.47]}},{"properties":{"city":"Silver Spring","latitude":38.53,"website":"http://corporate.discovery.com/","longitude":77.2,"id":"a64nl5km2mzz","state":"MD"},"type":"Feature","geometry":{"type":"Point","coordinates":[77.2,38.53]}},{"properties":{"city":"Burbank","latitude":34.3,"website":"http://corporate.disney.go.com","longitude":118.15,"id":"a64nl5jhfnha","state":"CA"},"type":"Feature","geometry":{"type":"Point","coordinates":[118.15,34.3]}},{"properties":{"city":"San Francisco","latitude":37.47,"website":"http://digg.com/","longitude":122.26,"id":"a64nl5kkxhre","state":"CA"},"type":"Feature","geometry":{"type":"Point","coordinates":[122.26,37.47]}},{"properties":{"city":"Reston","latitude":38.53,"website":"http://ir.comscore.com","longitude":77.2,"id":"a64nl5uy8t2l","state":"VA"},"type":"Feature","geometry":{"type":"Point","coordinates":[77.2,38.53]}},{"properties":{"city":"Santa Monica","latitude":34.3,"website":"http://new.umusic.com/flash.aspx","longitude":118.15,"id":"a64nl5w94h8s","state":"CA"},"type":"Feature","geometry":{"type":"Point","coordinates":[118.15,34.3]}},{"properties":{"city":"New York","latitude":40.47,"website":"http://online.wsj.com","longitude":73.58,"id":"a64nl5w9c2rw","state":"NY"},"type":"Feature","geometry":{"type":"Point","coordinates":[73.58,40.47]}},{"properties":{"city":"Denver","latitude":39.45,"website":"http://photobucket.com/","longitude":105.0,"id":"a64nl5rikjdu","state":"CO"},"type":"Feature","geometry":{"type":"Point","coordinates":[105.0,39.45]}},{"properties":{"city":"Seattle","latitude":47.37,"website":"http://pro.corbis.com/","longitude":122.2,"id":"a64nl5usfp7j","state":"WA"},"type":"Feature","geometry":{"type":"Point","coordinates":[122.2,47.37]}},{"properties":{"city":"New York","latitude":40.47,"website":"http://thomsonreuters.com/","longitude":73.58,"id":"a64nl5pmnn5e","state":"NY"},"type":"Feature","geometry":{"type":"Point","coordinates":[73.58,40.47]}},{"properties":{"city":"Santa Monica","latitude":34.3,"website":"http://www.activision.com","longitude":118.15,"id":"a64nl5m07ic0","state":"CA"},"type":"Feature","geometry":{"type":"Point","coordinates":[118.15,34.3]}},{"properties":{"city":"San Francisco","latitude":37.47,"website":"http://www.adbrite.com/","longitude":122.26,"id":"a64nl5mod26z","state":"CA"},"type":"Feature","geometry":{"type":"Point","coordinates":[122.26,37.47]}},{"properties":{"city":"Los Angeles","latitude":34.3,"website":"http://www.addynamix.com/","longitude":118.15,"id":"a64nl5nxwen6","state":"CA"},"type":"Feature","geometry":{"type":"Point","coordinates":[118.15,34.3]}},{"properties":{"city":"Los Angeles","latitude":34.3,"website":"http://www.adlink.com/home.shtml","longitude":118.15,"id":"a64nl5ph4toh","state":"CA"},"type":"Feature","geometry":{"type":"Point","coordinates":[118.15,34.3]}},{"properties":{"city":"San Jose","latitude":37.47,"website":"http://www.adobe.com/","longitude":122.26,"id":"a64nl5hsmj2a","state":"CA"},"type":"Feature","geometry":{"type":"Point","coordinates":[122.26,37.47]}},{"properties":{"city":"Chicago","latitude":41.5,"website":"http://www.aegisplc.com/ags/","longitude":87.37,"id":"a64nl5nft7ga","state":"IL"},"type":"Feature","geometry":{"type":"Point","coordinates":[87.37,41.5]}},{"properties":{"city":"Provo","latitude":40.46,"website":"http://www.ancestry.com/","longitude":111.54,"id":"a64nl5v0q7jd","state":"UT"},"type":"Feature","geometry":{"type":"Point","coordinates":[111.54,40.46]}},{"properties":{"city":"Cupertino","latitude":37.47,"website":"http://www.apple.com/","longitude":122.26,"id":"a64nl5qe7zcm","state":"CA"},"type":"Feature","geometry":{"type":"Point","coordinates":[122.26,37.47]}},{"properties":{"city":"Chicago","latitude":41.5,"website":"http://www.arcww.com/","longitude":87.37,"id":"a64nl5sn05hn","state":"IL"},"type":"Feature","geometry":{"type":"Point","coordinates":[87.37,41.5]}},{"properties":{"city":"Oakland","latitude":37.47,"website":"http://www.ask.com","longitude":122.26,"id":"a64nl5l314l0","state":"CA"},"type":"Feature","geometry":{"type":"Point","coordinates":[122.26,37.47]}},{"properties":{"city":"Bellevue","latitude":47.37,"website":"http://www.audiencescience.com/","longitude":122.2,"id":"a64nl5kxekdv","state":"WA"},"type":"Feature","geometry":{"type":"Point","coordinates":[122.2,47.37]}},{"properties":{"city":"San Francisco","latitude":37.47,"website":"http://www.babycenter.com/","longitude":122.26,"id":"a64nl5l5ogj4","state":"CA"},"type":"Feature","geometry":{"type":"Point","coordinates":[122.26,37.47]}},{"properties":{"city":"Los Angeles","latitude":34.3,"website":"http://www.bizrate.com/","longitude":118.15,"id":"a64nl5iuh3jo","state":"CA"},"type":"Feature","geometry":{"type":"Point","coordinates":[118.15,34.3]}},{"properties":{"city":"New York","latitude":40.47,"website":"http://www.bloomberg.com","longitude":73.58,"id":"a64nl5jv4q4p","state":"NY"},"type":"Feature","geometry":{"type":"Point","coordinates":[73.58,40.47]}},{"properties":{"city":"Bellevue","latitude":47.37,"website":"http://www.bluekai.com","longitude":122.2,"id":"a64nl5vppmuc","state":"WA"},"type":"Feature","geometry":{"type":"Point","coordinates":[122.2,47.37]}},{"properties":{"city":"Seattle","latitude":47.37,"website":"http://www.bluenile.com/","longitude":122.2,"id":"a64nl5r7gy6r","state":"WA"},"type":"Feature","geometry":{"type":"Point","coordinates":[122.2,47.37]}},{"properties":{"city":"Salt Lake City","latitude":40.46,"website":"http://www.bonneville.com/","longitude":111.54,"id":"a64nl5u46klc","state":"UT"},"type":"Feature","geometry":{"type":"Point","coordinates":[111.54,40.46]}},{"properties":{"city":"Burbank","latitude":34.3,"website":"http://www.bravotv.com","longitude":118.15,"id":"a64nl5q8zi91","state":"CA"},"type":"Feature","geometry":{"type":"Point","coordinates":[118.15,34.3]}},{"properties":{"city":"New York","latitude":40.47,"website":"http://www.cbscorporation.com/","longitude":73.58,"id":"a64nl5m4qur7","state":"NY"},"type":"Feature","geometry":{"type":"Point","coordinates":[73.58,40.47]}},{"properties":{"city":"Fort Collins","latitude":39.45,"website":"http://www.centerpartners.com","longitude":105.0,"id":"a64nl5s7czd2","state":"CO"},"type":"Feature","geometry":{"type":"Point","coordinates":[105.0,39.45]}},{"properties":{"city":"Alpharetta","latitude":33.45,"website":"http://www.choicepoint.com/","longitude":84.23,"id":"a64nl5qdqp0q","state":"GA"},"type":"Feature","geometry":{"type":"Point","coordinates":[84.23,33.45]}},{"properties":{"city":"New York","latitude":40.47,"website":"http://www.condenet.com/index.html","longitude":73.58,"id":"a64nl5u771z4","state":"NY"},"type":"Feature","geometry":{"type":"Point","coordinates":[73.58,40.47]}},{"properties":{"city":"San Mateo","latitude":37.47,"website":"http://www.coremetrics.com/","longitude":122.26,"id":"a64nl5hhziyk","state":"CA"},"type":"Feature","geometry":{"type":"Point","coordinates":[122.26,37.47]}},{"properties":{"city":"New York","latitude":40.47,"website":"http://www.deutschinc.com/","longitude":73.58,"id":"a64nl5r9lltf","state":"NY"},"type":"Feature","geometry":{"type":"Point","coordinates":[73.58,40.47]}},{"properties":{"city":"Boston","latitude":42.21,"website":"http://www.digitas.com/","longitude":71.5,"id":"a64nl5smygcu","state":"MA"},"type":"Feature","geometry":{"type":"Point","coordinates":[71.5,42.21]}},{"properties":{"city":"New York","latitude":40.47,"website":"http://www.dj.com/","longitude":73.58,"id":"a64nl5kpq6es","state":"NY"},"type":"Feature","geometry":{"type":"Point","coordinates":[73.58,40.47]}},{"properties":{"city":"Chicago","latitude":41.5,"website":"http://www.draftfcb.com","longitude":87.37,"id":"a64nl5ly461z","state":"IL"},"type":"Feature","geometry":{"type":"Point","coordinates":[87.37,41.5]}},{"properties":{"city":"Glendale","latitude":34.3,"website":"http://www.dreamworksanimation.com/","longitude":118.15,"id":"a64nl5m78tvl","state":"CA"},"type":"Feature","geometry":{"type":"Point","coordinates":[118.15,34.3]}},{"properties":{"city":"Redwood City","latitude":37.47,"website":"http://www.ea.com/","longitude":122.26,"id":"a64nl5rk517o","state":"CA"},"type":"Feature","geometry":{"type":"Point","coordinates":[122.26,37.47]}},{"properties":{"city":"San Jose","latitude":37.47,"website":"http://www.ebay.com/","longitude":122.26,"id":"a64nl5t7yf7c","state":"CA"},"type":"Feature","geometry":{"type":"Point","coordinates":[122.26,37.47]}},{"properties":{"city":"Bellevue","latitude":47.37,"website":"http://www.ehow.com/","longitude":122.2,"id":"a64nl5talyjp","state":"WA"},"type":"Feature","geometry":{"type":"Point","coordinates":[122.2,47.37]}},{"properties":{"city":"Atlanta","latitude":33.45,"website":"http://www.equifax.com","longitude":84.23,"id":"a64nl5kt3hmn","state":"GA"},"type":"Feature","geometry":{"type":"Point","coordinates":[84.23,33.45]}},{"properties":{"city":"Costa Mesa","latitude":34.3,"website":"http://www.experian.com/","longitude":118.15,"id":"a64nl5uppuf9","state":"CA"},"type":"Feature","geometry":{"type":"Point","coordinates":[118.15,34.3]}},{"properties":{"city":"Emeryville","latitude":37.47,"website":"http://www.exponential.com/","longitude":122.26,"id":"a64nl5khqkys","state":"CA"},"type":"Feature","geometry":{"type":"Point","coordinates":[122.26,37.47]}},{"properties":{"city":"Poway","latitude":34.3,"website":"http://www.facredco.com/","longitude":118.15,"id":"a64nl5i5c51i","state":"CA"},"type":"Feature","geometry":{"type":"Point","coordinates":[118.15,34.3]}},{"properties":{"city":"Los Angeles","latitude":34.3,"website":"http://www.fandango.com","longitude":118.15,"id":"a64nl5t7e2tl","state":"CA"},"type":"Feature","geometry":{"type":"Point","coordinates":[118.15,34.3]}},{"properties":{"city":"New York","latitude":40.47,"website":"http://www.forbes.com/","longitude":73.58,"id":"a64nl5uftk0d","state":"NY"},"type":"Feature","geometry":{"type":"Point","coordinates":[73.58,40.47]}},{"properties":{"city":"Seattle","latitude":47.37,"website":"http://www.fsci.com/","longitude":122.2,"id":"a64nl5igd12g","state":"WA"},"type":"Feature","geometry":{"type":"Point","coordinates":[122.2,47.37]}},{"properties":{"city":"Studio City","latitude":34.3,"website":"http://www.hallmarkchannel.com","longitude":118.15,"id":"a64nl5kewnht","state":"CA"},"type":"Feature","geometry":{"type":"Point","coordinates":[118.15,34.3]}},{"properties":{"city":"New York","latitude":40.47,"website":"http://www.harpercollins.com/","longitude":73.58,"id":"a64nl5phh54q","state":"NY"},"type":"Feature","geometry":{"type":"Point","coordinates":[73.58,40.47]}},{"properties":{"city":"Boston","latitude":42.21,"website":"http://www.hhcc.com/","longitude":71.5,"id":"a64nl5oyo78s","state":"MA"},"type":"Feature","geometry":{"type":"Point","coordinates":[71.5,42.21]}},{"properties":{"city":"Los Angeles","latitude":34.3,"website":"http://www.information.com/","longitude":118.15,"id":"a64nl5oz1l36","state":"CA"},"type":"Feature","geometry":{"type":"Point","coordinates":[118.15,34.3]}},{"properties":{"city":"Bellevue","latitude":47.37,"website":"http://www.intelius.com/","longitude":122.2,"id":"a64nl5jln6f5","state":"WA"},"type":"Feature","geometry":{"type":"Point","coordinates":[122.2,47.37]}},{"properties":{"city":"New York","latitude":40.47,"website":"http://www.interpublic.com/","longitude":73.58,"id":"a64nl5nxzu5t","state":"NY"},"type":"Feature","geometry":{"type":"Point","coordinates":[73.58,40.47]}},{"properties":{"city":"Mountain View","latitude":37.47,"website":"http://www.intuit.com/","longitude":122.26,"id":"a64nl5udreit","state":"CA"},"type":"Feature","geometry":{"type":"Point","coordinates":[122.26,37.47]}},{"properties":{"city":"Irvine","latitude":34.3,"website":"http://www.kbb.com/","longitude":118.15,"id":"a64nl5jmzpev","state":"CA"},"type":"Feature","geometry":{"type":"Point","coordinates":[118.15,34.3]}},{"properties":{"city":"Tempe","latitude":33.29,"website":"http://www.limelightnetworks.com","longitude":112.4,"id":"a64nl5wb2726","state":"AZ"},"type":"Feature","geometry":{"type":"Point","coordinates":[112.4,33.29]}},{"properties":{"city":"Beverly Hills","latitude":34.3,"website":"http://www.livenation.com/","longitude":118.15,"id":"a64nl5n0h7um","state":"CA"},"type":"Feature","geometry":{"type":"Point","coordinates":[118.15,34.3]}},{"properties":{"city":"Irvine","latitude":34.3,"website":"http://www.local.com/","longitude":118.15,"id":"a64nl5nz6t21","state":"CA"},"type":"Feature","geometry":{"type":"Point","coordinates":[118.15,34.3]}},{"properties":{"city":"Denver","latitude":39.45,"website":"http://www.mapquest.com/","longitude":105.0,"id":"a64nl5tc5n2g","state":"CO"},"type":"Feature","geometry":{"type":"Point","coordinates":[105.0,39.45]}},{"properties":{"city":"Seattle","latitude":47.37,"website":"http://www.marchex.com/","longitude":122.2,"id":"a64nl5j2t82q","state":"WA"},"type":"Feature","geometry":{"type":"Point","coordinates":[122.2,47.37]}},{"properties":{"city":"New York","latitude":40.47,"website":"http://www.marketwatch.com","longitude":73.58,"id":"a64nl5w4nbqv","state":"NY"},"type":"Feature","geometry":{"type":"Point","coordinates":[73.58,40.47]}},{"properties":{"city":"New York","latitude":40.47,"website":"http://www.marthastewart.com/","longitude":73.58,"id":"a64nl5wbhs9u","state":"NY"},"type":"Feature","geometry":{"type":"Point","coordinates":[73.58,40.47]}},{"properties":{"city":"Sacramento","latitude":37.47,"website":"http://www.mcclatchy.com/","longitude":122.26,"id":"a64nl5rengne","state":"CA"},"type":"Feature","geometry":{"type":"Point","coordinates":[122.26,37.47]}},{"properties":{"city":"Palo Alto","latitude":37.47,"website":"http://www.metacafe.com/","longitude":122.26,"id":"a64nl5olkeb2","state":"CA"},"type":"Feature","geometry":{"type":"Point","coordinates":[122.26,37.47]}},{"properties":{"city":"Seattle","latitude":47.37,"website":"http://www.motricity.com/","longitude":122.2,"id":"a64nl5lb8l4u","state":"WA"},"type":"Feature","geometry":{"type":"Point","coordinates":[122.2,47.37]}},{"properties":{"city":"New York","latitude":40.47,"website":"http://www.mtvmusic.com/","longitude":73.58,"id":"a64nl5s3al6i","state":"NY"},"type":"Feature","geometry":{"type":"Point","coordinates":[73.58,40.47]}},{"properties":{"city":"Los Gatos","latitude":37.47,"website":"http://www.netflix.com/","longitude":122.26,"id":"a64nl5xjhs7z","state":"CA"},"type":"Feature","geometry":{"type":"Point","coordinates":[122.26,37.47]}},{"properties":{"city":"New York","latitude":40.47,"website":"http://www.newscorp.com/","longitude":73.58,"id":"a64nl5vzjtt4","state":"NY"},"type":"Feature","geometry":{"type":"Point","coordinates":[73.58,40.47]}},{"properties":{"city":"Beverly Hills","latitude":34.3,"website":"http://www.newscorp.com/","longitude":118.15,"id":"a64nl5m72236","state":"CA"},"type":"Feature","geometry":{"type":"Point","coordinates":[118.15,34.3]}},{"properties":{"city":"San Mateo","latitude":37.47,"website":"http://www.nextag.com/","longitude":122.26,"id":"a64nl5qejmvs","state":"CA"},"type":"Feature","geometry":{"type":"Point","coordinates":[122.26,37.47]}},{"properties":{"city":"New York","latitude":40.47,"website":"http://www.nytimes.com/","longitude":73.58,"id":"a64nl5velvya","state":"NY"},"type":"Feature","geometry":{"type":"Point","coordinates":[73.58,40.47]}},{"properties":{"city":"New York","latitude":40.47,"website":"http://www.ogilvyaction.com","longitude":73.58,"id":"a64nl5tah7cg","state":"NY"},"type":"Feature","geometry":{"type":"Point","coordinates":[73.58,40.47]}},{"properties":{"city":"New York","latitude":40.47,"website":"http://www.omd.com/","longitude":73.58,"id":"a64nl5je3eyk","state":"NY"},"type":"Feature","geometry":{"type":"Point","coordinates":[73.58,40.47]}},{"properties":{"city":"New York","latitude":40.47,"website":"http://www.omnicomgroup.com","longitude":73.58,"id":"a64nl5mg9ifd","state":"NY"},"type":"Feature","geometry":{"type":"Point","coordinates":[73.58,40.47]}},{"properties":{"city":"Orem","latitude":40.46,"website":"http://www.omniture.com","longitude":111.54,"id":"a64nl5mz6dpj","state":"UT"},"type":"Feature","geometry":{"type":"Point","coordinates":[111.54,40.46]}},{"properties":{"city":"Salt Lake City","latitude":40.46,"website":"http://www.overstock.com","longitude":111.54,"id":"a64nl5jm7ktm","state":"UT"},"type":"Feature","geometry":{"type":"Point","coordinates":[111.54,40.46]}},{"properties":{"city":"New York","latitude":40.47,"website":"http://www.publicis-usa.com","longitude":73.58,"id":"a64nl5ivcw02","state":"NY"},"type":"Feature","geometry":{"type":"Point","coordinates":[73.58,40.47]}},{"properties":{"city":"Chicago","latitude":41.5,"website":"http://www.smvgroup.com","longitude":87.37,"id":"a64nl5qhfn3v","state":"IL"},"type":"Feature","geometry":{"type":"Point","coordinates":[87.37,41.5]}},{"properties":{"city":"Denver","latitude":39.45,"website":"http://www.startek.com/","longitude":105.0,"id":"a64nl5lznt2s","state":"CO"},"type":"Feature","geometry":{"type":"Point","coordinates":[105.0,39.45]}},{"properties":{"city":"Englewood","latitude":39.45,"website":"http://www.starz.com","longitude":105.0,"id":"a64nl5vnt4e3","state":"CO"},"type":"Feature","geometry":{"type":"Point","coordinates":[105.0,39.45]}},{"properties":{"city":"San Diego","latitude":34.3,"website":"http://www.station.sony.com/","longitude":118.15,"id":"a64nl5wcvfwr","state":"CA"},"type":"Feature","geometry":{"type":"Point","coordinates":[118.15,34.3]}},{"properties":{"city":"San Francisco","latitude":37.47,"website":"http://www.stumbleupon.com","longitude":122.26,"id":"a64nl5ubdaue","state":"CA"},"type":"Feature","geometry":{"type":"Point","coordinates":[122.26,37.47]}},{"properties":{"city":"Denver","latitude":39.45,"website":"http://www.theparentcompany.com/","longitude":105.0,"id":"a64nl5k3lcai","state":"CO"},"type":"Feature","geometry":{"type":"Point","coordinates":[105.0,39.45]}},{"properties":{"city":"West Hollywood","latitude":34.3,"website":"http://www.ticketmaster.com/","longitude":118.15,"id":"a64nl5vary90","state":"CA"},"type":"Feature","geometry":{"type":"Point","coordinates":[118.15,34.3]}},{"properties":{"city":"New York","latitude":40.47,"website":"http://www.tns-mi.com/","longitude":73.58,"id":"a64nl5p0op7g","state":"NY"},"type":"Feature","geometry":{"type":"Point","coordinates":[73.58,40.47]}},{"properties":{"city":"Redwood City","latitude":37.47,"website":"http://www.turn.com/corp/index.jsp","longitude":122.26,"id":"a64nl5x9sgvl","state":"CA"},"type":"Feature","geometry":{"type":"Point","coordinates":[122.26,37.47]}},{"properties":{"city":"Atlanta","latitude":33.45,"website":"http://www.turner.com/","longitude":84.23,"id":"a64nl5sup0du","state":"GA"},"type":"Feature","geometry":{"type":"Point","coordinates":[84.23,33.45]}},{"properties":{"city":"Westlake Village","latitude":34.3,"website":"http://www.valueclick.com/","longitude":118.15,"id":"a64nl5il4pvf","state":"CA"},"type":"Feature","geometry":{"type":"Point","coordinates":[118.15,34.3]}},{"properties":{"city":"Costa Mesa","latitude":34.3,"website":"http://www.volcom.com/","longitude":118.15,"id":"a64nl5v6vfrz","state":"CA"},"type":"Feature","geometry":{"type":"Point","coordinates":[118.15,34.3]}},{"properties":{"city":"Portland","latitude":45.31,"website":"http://www.webtrends.com/","longitude":122.41,"id":"a64nl5qbb8xp","state":"OR"},"type":"Feature","geometry":{"type":"Point","coordinates":[122.41,45.31]}},{"properties":{"city":"Seattle","latitude":47.37,"website":"http://www.whitepages.com/","longitude":122.2,"id":"a64nl5oe4n79","state":"WA"},"type":"Feature","geometry":{"type":"Point","coordinates":[122.2,47.37]}},{"properties":{"city":"Seattle","latitude":47.37,"website":"http://www.wirelesscorp.com/","longitude":122.2,"id":"a64nl5jxnxxv","state":"WA"},"type":"Feature","geometry":{"type":"Point","coordinates":[122.2,47.37]}},{"properties":{"city":"New York","latitude":40.47,"website":"http://www.wpp.com/wpp/","longitude":73.58,"id":"a64nl5m70ck5","state":"NY"},"type":"Feature","geometry":{"type":"Point","coordinates":[73.58,40.47]}},{"properties":{"city":"New York","latitude":40.47,"website":"http://www.wunderman.com/","longitude":73.58,"id":"a64nl5og7030","state":"NY"},"type":"Feature","geometry":{"type":"Point","coordinates":[73.58,40.47]}},{"properties":{"city":"Sunnyvale","latitude":37.47,"website":"http://www.yahoo.com/","longitude":122.26,"id":"a64nl5mtc0lm","state":"CA"},"type":"Feature","geometry":{"type":"Point","coordinates":[122.26,37.47]}},{"properties":{"city":"Glendale, San Francisco","latitude":34.3,"website":"http://www.yellowpages.com","longitude":118.15,"id":"a64nl5t5cmrf","state":"CA"},"type":"Feature","geometry":{"type":"Point","coordinates":[118.15,34.3]}},{"properties":{"city":"San Francisco","latitude":37.47,"website":"http://www.yelp.com","longitude":122.26,"id":"a64nl5ijsxrr","state":"CA"},"type":"Feature","geometry":{"type":"Point","coordinates":[122.26,37.47]}},{"properties":{"city":"San Bruno","latitude":37.47,"website":"http://www.youtube.com","longitude":122.26,"id":"a64nl5p0jsfs","state":"CA"},"type":"Feature","geometry":{"type":"Point","coordinates":[122.26,37.47]}},{"properties":{"city":"Seattle","latitude":47.37,"website":"www.allrecipes.com","longitude":122.2,"id":"a64nl5j7qa0z","state":"WA"},"type":"Feature","geometry":{"type":"Point","coordinates":[122.2,47.37]}},{"properties":{"city":"New York","latitude":40.47,"website":"www.businessweek.com","longitude":73.58,"id":"a64nl5tsifn4","state":"NY"},"type":"Feature","geometry":{"type":"Point","coordinates":[73.58,40.47]}},{"properties":{"city":"Woodland Hills","latitude":34.3,"website":"www.classmatesmedia.com","longitude":118.15,"id":"a64nl5r5r221","state":"CA"},"type":"Feature","geometry":{"type":"Point","coordinates":[118.15,34.3]}},{"properties":{"city":"Atlanta","latitude":33.45,"website":"www.cnn.com","longitude":84.23,"id":"a64nl5sinznr","state":"GA"},"type":"Feature","geometry":{"type":"Point","coordinates":[84.23,33.45]}},{"properties":{"city":"Redmond","latitude":40.47,"website":"www.concur.com","longitude":73.58,"id":"a64nl5l4u36n","state":"WA"},"type":"Feature","geometry":{"type":"Point","coordinates":[73.58,40.47]}},{"properties":{"city":"Bellevue","latitude":47.37,"website":"www.drugstore.com","longitude":122.2,"id":"a64nl5u60pel","state":"WA"},"type":"Feature","geometry":{"type":"Point","coordinates":[122.2,47.37]}},{"properties":{"city":"San Francisco","latitude":37.47,"website":"www.esurance.com","longitude":122.26,"id":"a64nl5v243yv","state":"CA"},"type":"Feature","geometry":{"type":"Point","coordinates":[122.26,37.47]}},{"properties":{"city":"West Hollywood","latitude":34.3,"website":"www.evite.com","longitude":118.15,"id":"a64nl5u2xxt3","state":"CA"},"type":"Feature","geometry":{"type":"Point","coordinates":[118.15,34.3]}},{"properties":{"city":"Bellevue","latitude":47.37,"website":"www.expedia.com","longitude":122.2,"id":"a64nl5lxfm7s","state":"WA"},"type":"Feature","geometry":{"type":"Point","coordinates":[122.2,47.37]}},{"properties":{"city":"Santa Ana","latitude":34.3,"website":"www.facorelogic.com","longitude":118.15,"id":"a64nl5jzaw20","state":"CA"},"type":"Feature","geometry":{"type":"Point","coordinates":[118.15,34.3]}},{"properties":{"city":"San Francisco","latitude":37.47,"website":"www.federatedmedia.net","longitude":122.26,"id":"a64nl5uot6m9","state":"CA"},"type":"Feature","geometry":{"type":"Point","coordinates":[122.26,37.47]}},{"properties":{"city":"Los Angeles","latitude":34.3,"website":"www.foxsports.com","longitude":118.15,"id":"a64nl5jxgbgm","state":"CA"},"type":"Feature","geometry":{"type":"Point","coordinates":[118.15,34.3]}},{"properties":{"city":"McLean","latitude":38.53,"website":"www.gannett.com","longitude":77.2,"id":"a64nl5qhpauu","state":"VA"},"type":"Feature","geometry":{"type":"Point","coordinates":[77.2,38.53]}},{"properties":{"city":"Seattle","latitude":47.37,"website":"www.gettyimages.com","longitude":122.2,"id":"a64nl5nckw6c","state":"WA"},"type":"Feature","geometry":{"type":"Point","coordinates":[122.2,47.37]}},{"properties":{"city":"Brisbane","latitude":37.47,"website":"www.glammedia.com","longitude":122.26,"id":"a64nl5ohgq43","state":"CA"},"type":"Feature","geometry":{"type":"Point","coordinates":[122.26,37.47]}},{"properties":{"city":"Mountain View","latitude":37.47,"website":"www.google.com","longitude":122.26,"id":"a64nl5p068hx","state":"CA"},"type":"Feature","geometry":{"type":"Point","coordinates":[122.26,37.47]}},{"properties":{"city":"Palm Desert","latitude":34.3,"website":"www.guthy-renker.com","longitude":118.15,"id":"a64nl5qkzgcv","state":"CA"},"type":"Feature","geometry":{"type":"Point","coordinates":[118.15,34.3]}},{"properties":{"city":"New York","latitude":40.47,"website":"www.havas.com","longitude":73.58,"id":"a64nl5w34zbl","state":"NY"},"type":"Feature","geometry":{"type":"Point","coordinates":[73.58,40.47]}},{"properties":{"city":"Los Angeles","latitude":34.3,"website":"www.hulu.com","longitude":118.15,"id":"a64nl5qupl2n","state":"CA"},"type":"Feature","geometry":{"type":"Point","coordinates":[118.15,34.3]}},{"properties":{"city":"Boston","latitude":42.21,"website":"www.idg.com","longitude":71.5,"id":"a64nl5rezwoz","state":"MA"},"type":"Feature","geometry":{"type":"Point","coordinates":[71.5,42.21]}},{"properties":{"city":"Bellevue","latitude":47.37,"website":"www.infospace.com","longitude":122.2,"id":"a64nl5nw7vy3","state":"WA"},"type":"Feature","geometry":{"type":"Point","coordinates":[122.2,47.37]}},{"properties":{"city":"Mountain View","latitude":37.47,"website":"www.linkedin.com","longitude":122.26,"id":"a64nl5iyrmq9","state":"CA"},"type":"Feature","geometry":{"type":"Point","coordinates":[122.26,37.47]}},{"properties":{"city":"Santa Monica","latitude":34.3,"website":"www.lionsgate.com","longitude":118.15,"id":"a64nl5n8jj9g","state":"CA"},"type":"Feature","geometry":{"type":"Point","coordinates":[118.15,34.3]}},{"properties":{"city":"New York","latitude":40.47,"website":"www.mcgraw-hill.com","longitude":73.58,"id":"a64nl5m73c1l","state":"NY"},"type":"Feature","geometry":{"type":"Point","coordinates":[73.58,40.47]}},{"properties":{"city":"New York","latitude":40.47,"website":"www.mrmworldwide.com","longitude":73.58,"id":"a64nl5qlf6uu","state":"NY"},"type":"Feature","geometry":{"type":"Point","coordinates":[73.58,40.47]}},{"properties":{"city":"Redmond","latitude":47.37,"website":"www.nintendo.com","longitude":122.2,"id":"a64nl5ipobpe","state":"WA"},"type":"Feature","geometry":{"type":"Point","coordinates":[122.2,47.37]}},{"properties":{"city":"San Jose","latitude":37.47,"website":"www.paypal.com","longitude":122.26,"id":"a64nl5rvdaig","state":"CA"},"type":"Feature","geometry":{"type":"Point","coordinates":[122.26,37.47]}},{"properties":{"city":"Chicago","latitude":41.5,"website":"www.qinteractive.com","longitude":87.37,"id":"a64nl5x2fx5c","state":"IL"},"type":"Feature","geometry":{"type":"Point","coordinates":[87.37,41.5]}},{"properties":{"city":"New York","latitude":40.47,"website":"www.rapp.com","longitude":73.58,"id":"a64nl5ibql1n","state":"NY"},"type":"Feature","geometry":{"type":"Point","coordinates":[73.58,40.47]}},{"properties":{"city":"Seattle","latitude":47.37,"website":"www.realnetworks.com","longitude":122.2,"id":"a64nl5l7zqug","state":"WA"},"type":"Feature","geometry":{"type":"Point","coordinates":[122.2,47.37]}},{"properties":{"city":"Seattle","latitude":47.37,"website":"www.redfin.com","longitude":122.2,"id":"a64nl5wl8190","state":"WA"},"type":"Feature","geometry":{"type":"Point","coordinates":[122.2,47.37]}},{"properties":{"city":"New York","latitude":40.47,"website":"www.reed-elsevier.com","longitude":73.58,"id":"a64nl5u8053s","state":"NY"},"type":"Feature","geometry":{"type":"Point","coordinates":[73.58,40.47]}},{"properties":{"city":"Los Angeles","latitude":34.3,"website":"www.reunion.com","longitude":118.15,"id":"a64nl5rdw8h5","state":"CA"},"type":"Feature","geometry":{"type":"Point","coordinates":[118.15,34.3]}},{"properties":{"city":"San Francisco","latitude":37.47,"website":"www.sega.com","longitude":122.26,"id":"a64nl5i1t9br","state":"CA"},"type":"Feature","geometry":{"type":"Point","coordinates":[122.26,37.47]}},{"properties":{"city":"Redwood City","latitude":37.47,"website":"www.shutterfly.com","longitude":122.26,"id":"a64nl5upahsg","state":"CA"},"type":"Feature","geometry":{"type":"Point","coordinates":[122.26,37.47]}},{"properties":{"city":"San Francisco","latitude":37.47,"website":"www.stubhub.com","longitude":122.26,"id":"a64nl5lx6jzr","state":"CA"},"type":"Feature","geometry":{"type":"Point","coordinates":[122.26,37.47]}},{"properties":{"city":"Chicago","latitude":41.5,"website":"www.synovate.com","longitude":87.37,"id":"a64nl5q9yucw","state":"IL"},"type":"Feature","geometry":{"type":"Point","coordinates":[87.37,41.5]}},{"properties":{"city":"Agoura Hills","latitude":34.3,"website":"www.thq.com","longitude":118.15,"id":"a64nl5sl1dto","state":"CA"},"type":"Feature","geometry":{"type":"Point","coordinates":[118.15,34.3]}},{"properties":{"city":"New York","latitude":40.47,"website":"www.timeinc.com","longitude":73.58,"id":"a64nl5p44cn9","state":"NY"},"type":"Feature","geometry":{"type":"Point","coordinates":[73.58,40.47]}},{"properties":{"city":"Washington","latitude":38.53,"website":"www.washpostco.com","longitude":77.2,"id":"a64nl5oet5ra","state":"DC"},"type":"Feature","geometry":{"type":"Point","coordinates":[77.2,38.53]}},{"properties":{"city":"Bellevue","latitude":47.37,"website":"www.webcrawler.com","longitude":122.2,"id":"a64nl5razcwr","state":"WA"},"type":"Feature","geometry":{"type":"Point","coordinates":[122.2,47.37]}}],"is_temporal":false,"author":{"url":"","metadata":"","contact_name":"","contact_address":"","source":"","contact_phone":""},"source":"","pagination":{"sort":null,"start":0,"total":150,"limit":1000000},"state":"complete","tags":"","published":"2009-05-21T12:00:00Z","id":12791}