{"type":"FeatureCollection","data_type":"Dataset","url_type":null,"permissions":[{"permissions":{"download":true,"view":true},"group_id":"everyone"}],"classification":null,"title":"Submissions from GR cities","count":27,"stream_id":128344,"contributor":{"url":"http://geocommons.com/users/19194","name":"KCorax"},"data_attributes":null,"calculation_params":null,"icon_link":null,"link":"http://geocommons.com/overlays/128344.json","extent":[20.8508,35.1558,28.2225,41.2],"geometry_types":["point"],"unique_name":null,"name":"Submissions from GR cities","feature_count":27,"description":"","next_feature":null,"is_raster":false,"short_classification":"Y","stats":{"percentage":{"max":69.13,"mean":3.70259259259259,"variance":176.927227635327,"stdev":13.3013994615351,"min":0.22,"median":0.45}},"features":[{"properties":{"city":"Athens","geo_score":1.0,"percentage":69.13,"id":"a6gelt9nv60r","geo_precision":"zip"},"type":"Feature","geometry":{"type":"Point","coordinates":[23.7333333,37.9833333]}},{"properties":{"city":"Thessaloniki","geo_score":1.0,"percentage":11.41,"id":"a6gelteobubp","geo_precision":"zip"},"type":"Feature","geometry":{"type":"Point","coordinates":[22.9438889,40.6402778]}},{"properties":{"city":"Patras","geo_score":0.921,"percentage":7.16,"id":"a6gelt9ximm9","geo_precision":"zip"},"type":"Feature","geometry":{"type":"Point","coordinates":[24.0166667,41.2]}},{"properties":{"city":"Heraklion","geo_score":0.938,"percentage":1.57,"id":"a6geltf697lh","geo_precision":"zip"},"type":"Feature","geometry":{"type":"Point","coordinates":[25.180297,35.339719]}},{"properties":{"city":"Lamia","geo_score":1.0,"percentage":1.34,"id":"a6gelt7w6myl","geo_precision":"zip"},"type":"Feature","geometry":{"type":"Point","coordinates":[22.4333333,38.9]}},{"properties":{"city":"Trikala","geo_score":1.0,"percentage":1.34,"id":"a6geltddnj2l","geo_precision":"zip"},"type":"Feature","geometry":{"type":"Point","coordinates":[21.7675,39.5552778]}},{"properties":{"city":"Ioannina","geo_score":1.0,"percentage":0.67,"id":"a6gelt7c2hl9","geo_precision":"zip"},"type":"Feature","geometry":{"type":"Point","coordinates":[20.8508333,39.6675]}},{"properties":{"city":"Crete","geo_score":1.0,"percentage":0.67,"id":"a6gelt9ma5tk","geo_precision":"zip"},"type":"Feature","geometry":{"type":"Point","coordinates":[24.89501953125,35.1558457022654]}},{"properties":{"city":"Megara","geo_score":1.0,"percentage":0.67,"id":"a6geltdb4oql","geo_precision":"zip"},"type":"Feature","geometry":{"type":"Point","coordinates":[23.3455556,38.0]}},{"properties":{"city":"Larissa","geo_score":0.98,"percentage":0.67,"id":"a6gelt6ibzsy","geo_precision":"zip"},"type":"Feature","geometry":{"type":"Point","coordinates":[22.4202778,39.6372222]}},{"properties":{"city":"Kefalonia","geo_score":0.889,"percentage":0.67,"id":"a6geltjph1ko","geo_precision":"zip"},"type":"Feature","geometry":{"type":"Point","coordinates":[21.2158333,39.3444444]}},{"properties":{"city":"Myconos","geo_score":0.98,"percentage":0.45,"id":"a6gelt9q8fcn","geo_precision":"zip"},"type":"Feature","geometry":{"type":"Point","coordinates":[25.3287220001221,37.4452894672352]}},{"properties":{"city":"Komotini","geo_score":1.0,"percentage":0.45,"id":"a6geltjg38os","geo_precision":"zip"},"type":"Feature","geometry":{"type":"Point","coordinates":[25.3963889,41.1227778]}},{"properties":{"city":"Corfu","geo_score":0.929,"percentage":0.45,"id":"a6geltlrk0ke","geo_precision":"zip"},"type":"Feature","geometry":{"type":"Point","coordinates":[22.5,40.6]}},{"properties":{"city":"Corinth","geo_score":1.0,"percentage":0.45,"id":"a6geltcohv3o","geo_precision":"zip"},"type":"Feature","geometry":{"type":"Point","coordinates":[22.9322222,37.9377778]}},{"properties":{"city":"Katerini","geo_score":1.0,"percentage":0.45,"id":"a6geltexvl71","geo_precision":"zip"},"type":"Feature","geometry":{"type":"Point","coordinates":[22.5025,40.2719444]}},{"properties":{"city":"Rodos","geo_score":1.0,"percentage":0.22,"id":"a6gelt7296ee","geo_precision":"zip"},"type":"Feature","geometry":{"type":"Point","coordinates":[28.2225,36.4408333]}},{"properties":{"city":"Ios","geo_score":1.0,"percentage":0.22,"id":"a6gelt9swzok","geo_precision":"zip"},"type":"Feature","geometry":{"type":"Point","coordinates":[25.2833333,36.7333333]}},{"properties":{"city":"Serres","geo_score":1.0,"percentage":0.22,"id":"a6geltjvlspw","geo_precision":"zip"},"type":"Feature","geometry":{"type":"Point","coordinates":[23.5497222,41.0855556]}},{"properties":{"city":"Gianitsa","geo_score":0.984,"percentage":0.22,"id":"a6geltfrimio","geo_precision":"zip"},"type":"Feature","geometry":{"type":"Point","coordinates":[22.4075,40.7919444]}},{"properties":{"city":"Rhodes","geo_score":1.0,"percentage":0.22,"id":"a6geltlgl38r","geo_precision":"zip"},"type":"Feature","geometry":{"type":"Point","coordinates":[28.0,36.1666667]}},{"properties":{"city":"Xanthi","geo_score":1.0,"percentage":0.22,"id":"a6geltdvddec","geo_precision":"zip"},"type":"Feature","geometry":{"type":"Point","coordinates":[24.8836111,41.1413889]}},{"properties":{"city":"Kalimnos","geo_score":0.982,"percentage":0.22,"id":"a6geltavgcm3","geo_precision":"zip"},"type":"Feature","geometry":{"type":"Point","coordinates":[26.9833333,36.95]}},{"properties":{"city":"Karditsa","geo_score":1.0,"percentage":0.22,"id":"a6gelthzb8ux","geo_precision":"zip"},"type":"Feature","geometry":{"type":"Point","coordinates":[21.9216667,39.3655556]}},{"properties":{"city":"Edesa","geo_score":0.976,"percentage":0.22,"id":"a6gelt84jg36","geo_precision":"zip"},"type":"Feature","geometry":{"type":"Point","coordinates":[22.0472222,40.8005556]}},{"properties":{"city":"Volos","geo_score":1.0,"percentage":0.22,"id":"a6geltda9qi1","geo_precision":"zip"},"type":"Feature","geometry":{"type":"Point","coordinates":[22.9458333,39.3666667]}},{"properties":{"city":"Kozani","geo_score":1.0,"percentage":0.22,"id":"a6geltkrfq63","geo_precision":"zip"},"type":"Feature","geometry":{"type":"Point","coordinates":[21.7863889,40.3011111]}}],"is_temporal":false,"author":{"url":"","metadata":"","contact_name":"","contact_address":"","source":"","contact_phone":""},"source":"","pagination":{"sort":null,"start":0,"total":27,"limit":1000000},"state":"complete","tags":"","published":"2014-08-13T10:25:43-04:00","id":128344}