{"type":"FeatureCollection","data_type":"Dataset","url_type":null,"permissions":[{"permissions":{"download":true,"view":true},"group_id":"everyone"}],"classification":null,"title":"ADA Accredited Dental Labs","count":24,"stream_id":128851,"contributor":{"url":"http://geocommons.com/users/3995","name":"amazon"},"data_attributes":null,"calculation_params":null,"icon_link":null,"link":"http://geocommons.com/overlays/128851.json","extent":[-122.728,26.0864,-71.2757,47.2525],"geometry_types":["point"],"unique_name":null,"name":"ADA Accredited Dental Labs","feature_count":24,"description":"","next_feature":null,"is_raster":false,"short_classification":"Y","stats":{"ipeds unitid":{"max":235671,"mean":168438.130434783,"variance":1823146426.75494,"stdev":42698.3187813635,"min":102313,"median":156392}},"features":[{"properties":{"periods":"05/01/1978 - 01/01/2006","city":"Montgomery","name":"H Councill Trenholm State Technical College","zip":"36108","geo_score":0.82,"last action":"Resigned","url":"www.trenholmstate.edu","accreditation_status":"Accredited","ipeds unitid":102313,"id":"a6oyd1rom4ob","geo_precision":"street","opeid":"00573400","address":"1225 Air Base Blvd","accreditation_date_type":"Estimated","review_date":null,"state":"AL"},"type":"Feature","geometry":{"type":"Point","coordinates":[-86.344557,32.349665]}},{"properties":{"periods":"12/08/1977 - Current","city":"Tucson","name":"Pima Community College","zip":"85709-0001","geo_score":0.805,"last action":null,"url":"www.pima.edu","accreditation_status":"Accredited","ipeds unitid":105525,"id":"a6oyd1ttmjnb","geo_precision":"range","opeid":"00726600","address":"2202 W Anklam Rd","accreditation_date_type":"Actual","review_date":"(review: 12/31/2011)","state":"AZ"},"type":"Feature","geometry":{"type":"Point","coordinates":[-111.011841,32.224974]}},{"properties":{"periods":"05/26/1967 - Current","city":"Los Angeles","name":"Los Angeles City College","zip":"90029","geo_score":1.0,"last action":null,"url":"www.lacitycollege.edu/","accreditation_status":"Accredited","ipeds unitid":117788,"id":"a6oyd218fi2y","geo_precision":"range","opeid":"00122300","address":"855 N Vermont Ave","accreditation_date_type":"Actual","review_date":null,"state":"CA"},"type":"Feature","geometry":{"type":"Point","coordinates":[-118.291721,34.086756]}},{"properties":{"periods":"05/14/1970 - Current","city":"Pasadena","name":"Pasadena City College","zip":"91106-2003","geo_score":0.878,"last action":null,"url":"www.pasadena.edu","accreditation_status":"Accredited","ipeds unitid":121044,"id":"a6oyd1ogrj1k","geo_precision":"range","opeid":"00126100","address":"1570 E Colorado Blvd","accreditation_date_type":"Actual","review_date":"(review: 12/31/2009)","state":"CA"},"type":"Feature","geometry":{"type":"Point","coordinates":[-118.118946,34.145984]}},{"properties":{"periods":"05/03/1979 - Current","city":"Fort Pierce","name":"Indian River Community College","zip":"34981-5596","geo_score":1.0,"last action":null,"url":"www.irsc.edu","accreditation_status":"Accredited","ipeds unitid":134608,"id":"a6oyd1p6pkxu","geo_precision":"range","opeid":"00149300","address":"3209 Virginia Ave","accreditation_date_type":"Actual","review_date":"(review: 12/31/2011)","state":"FL"},"type":"Feature","geometry":{"type":"Point","coordinates":[-80.35744,27.425539]}},{"properties":{"periods":"12/06/1990 - Current","city":"Davie","name":"McFatter Technical Center","zip":"33317","geo_score":0.922,"last action":null,"url":"www.mcfattertech.com","accreditation_status":"Accredited","ipeds unitid":138479,"id":"a6oyd1ua0zjb","geo_precision":"range","opeid":"03003600","address":"6500 Nova Drive","accreditation_date_type":"Actual","review_date":"(review: 12/31/2013)","state":"FL"},"type":"Feature","geometry":{"type":"Point","coordinates":[-80.231362,26.086355]}},{"properties":{"periods":"05/27/1966 - Current","city":"Atlanta","name":"Atlanta Technical College","zip":"30310","geo_score":0.452,"last action":null,"url":"www.atlantatech.edu","accreditation_status":"Accredited","ipeds unitid":138840,"id":"a6oyd1xk0epw","geo_precision":"street","opeid":"00854300","address":"1560 Metropolitan Pkwy, S.W.","accreditation_date_type":"Actual","review_date":"(review: 12/31/2013)","state":"GA"},"type":"Feature","geometry":{"type":"Point","coordinates":[-84.408177,33.740309]}},{"properties":{"periods":"05/15/1969 - Current","city":"Cedar Rapids","name":"Kirkwood Community College","zip":"52406-2068","geo_score":0.805,"last action":null,"url":"www.kirkwood.edu","accreditation_status":"Accredited","ipeds unitid":153737,"id":"a6oyd1zp29tr","geo_precision":"range","opeid":"00407600","address":"6301 Kirkwood Blvd SW","accreditation_date_type":"Actual","review_date":"(review: 12/31/2014)","state":"IA"},"type":"Feature","geometry":{"type":"Point","coordinates":[-91.656662,41.917251]}},{"properties":{"periods":"12/06/1990 - Current","city":"Pocatello","name":"Idaho State University","zip":"83209","geo_score":0.527,"last action":null,"url":"www.isu.edu","accreditation_status":"Accredited","ipeds unitid":142276,"id":"a6oyd1no434p","geo_precision":"street","opeid":"00162000","address":"921 S 7th Ave","accreditation_date_type":"Actual","review_date":"(review: 12/31/2013)","state":"ID"},"type":"Feature","geometry":{"type":"Point","coordinates":[-112.436302,42.863279]}},{"properties":{"periods":"07/01/1960 - 07/01/2005","city":"Carbondale","name":"Southern Illinois University Carbondale","zip":"62901","geo_score":0.568,"last action":"Resigned","url":"www.siuc.edu","accreditation_status":"Accredited","ipeds unitid":149222,"id":"a6oyd2048zif","geo_precision":"street","opeid":"00175800","address":"Anthony Hall 116","accreditation_date_type":"Estimated","review_date":null,"state":"IL"},"type":"Feature","geometry":{"type":"Point","coordinates":[-89.230691,37.71666]}},{"properties":{"periods":"05/12/1972 - Current","city":"Fort Wayne","name":"Indiana University-Purdue University Fort Wayne","zip":"46805-1499","geo_score":0.504,"last action":null,"url":"www.ipfw.edu","accreditation_status":"Accredited","ipeds unitid":151102,"id":"a6oyd1xir2a2","geo_precision":"street","opeid":"00182800","address":"2101 E. Coliseum Blvd.","accreditation_date_type":"Actual","review_date":"(review: 12/31/2011)","state":"IN"},"type":"Feature","geometry":{"type":"Point","coordinates":[-85.135252,41.118252]}},{"properties":{"periods":"05/26/1967 - Current","city":"Lexington","name":"Bluegrass Community and Technical College","zip":"40506","geo_score":0.805,"last action":null,"url":"www.bluegrass.kctcs.edu","accreditation_status":"Accredited","ipeds unitid":156392,"id":"a6oyd1srz2jg","geo_precision":"range","opeid":"00524400","address":"470 Cooper Drive","accreditation_date_type":"Actual","review_date":"(review: 12/31/2010)","state":"KY"},"type":"Feature","geometry":{"type":"Point","coordinates":[-84.50093,38.025415]}},{"properties":{"periods":"05/01/1971 - Current","city":"New Orleans","name":"Louisiana State University Health Sciences Center at New Orleans","zip":"70112-2223","geo_score":0.902,"last action":null,"url":"www.lsuhsc.edu","accreditation_status":"Accredited","ipeds unitid":159373,"id":"a6oyd1y3d9ea","geo_precision":"range","opeid":"00201400","address":"433 Bolivar St","accreditation_date_type":"Estimated","review_date":"(review: 12/31/2009)","state":"LA"},"type":"Feature","geometry":{"type":"Point","coordinates":[-90.082798,29.957696]}},{"properties":{"periods":"05/06/1976 - Current","city":"Bedford","name":"Middlesex Community College - Bedford","zip":"01730-9124","geo_score":0.965,"last action":null,"url":"www.middlesex.mass.edu","accreditation_status":"Accredited","ipeds unitid":166887,"id":"a6oyd1m8znts","geo_precision":"range","opeid":"00993600","address":"591 Springs Road","accreditation_date_type":"Actual","review_date":"(review: 12/31/2009)","state":"MA"},"type":"Feature","geometry":{"type":"Point","coordinates":[-71.275685,42.520816]}},{"properties":{"periods":"01/24/1964 - Current","city":"Durham","name":"Durham Technical Community College","zip":"27703-5023","geo_score":0.882,"last action":null,"url":"www.durhamtech.edu","accreditation_status":"Accredited","ipeds unitid":198455,"id":"a6oyd1ojrggi","geo_precision":"range","opeid":"00544800","address":"1637 Lawson St","accreditation_date_type":"Actual","review_date":"(review: 12/31/2015)","state":"NC"},"type":"Feature","geometry":{"type":"Point","coordinates":[-78.881394,35.974333]}},{"properties":{"periods":"02/03/1954 - Current","city":"Brooklyn","name":"CUNY New York City College of Technology","zip":"11201-2983","geo_score":1.0,"last action":null,"url":"www.citytech.cuny.edu","accreditation_status":"Accredited","ipeds unitid":190655,"id":"a6oyd21141c5","geo_precision":"range","opeid":"00269600","address":"300 Jay St","accreditation_date_type":"Actual","review_date":"(review: 12/31/2010)","state":"NY"},"type":"Feature","geometry":{"type":"Point","coordinates":[-73.987124,40.69563]}},{"properties":{"periods":"05/10/1984 - Current","city":"Orchard Park","name":"Erie Community College - South Campus","zip":"14127","geo_score":0.915,"last action":null,"url":null,"accreditation_status":"Accredited","ipeds unitid":191074,"id":"a6oyd1tofne3","geo_precision":"range","opeid":null,"address":"4041 Southwestern Boulevard","accreditation_date_type":"Actual","review_date":null,"state":"NY"},"type":"Feature","geometry":{"type":"Point","coordinates":[-78.802962,42.773244]}},{"properties":{"periods":"05/26/1967 - Current","city":"Portland","name":"Portland Community College","zip":"97219-7132","geo_score":0.848,"last action":null,"url":"www.pcc.edu","accreditation_status":"Accredited","ipeds unitid":209746,"id":"a6oyd1nayv0w","geo_precision":"range","opeid":"00321300","address":"12000 SW 49th Avenue","accreditation_date_type":"Actual","review_date":"(review: 12/31/2010)","state":"OR"},"type":"Feature","geometry":{"type":"Point","coordinates":[-122.727726,45.439416]}},{"properties":{"periods":"12/01/1979 - 07/01/2004","city":"Blountville","name":"Northeast State Technical Community College","zip":"37617-0246","geo_score":0.911,"last action":"Resigned","url":"www.northeaststate.edu","accreditation_status":"Accredited","ipeds unitid":221908,"id":"a6oyd1nak98v","geo_precision":"range","opeid":"00537800","address":"2425 Hwy 75","accreditation_date_type":"Estimated","review_date":null,"state":"TN"},"type":"Feature","geometry":{"type":"Point","coordinates":[-82.410354,36.484887]}},{"properties":{"periods":"09/01/2005 - Current","city":"San Antonio","name":"San Antonio College","zip":"78212-4299","geo_score":0.902,"last action":null,"url":"www.alamo.edu/sac/sacmain/sac.htm","accreditation_status":"Accredited","ipeds unitid":227924,"id":"a6oyd1tpgt8g","geo_precision":"range","opeid":"00916300","address":"1300 San Pedro Ave","accreditation_date_type":"Actual","review_date":"(review: 12/31/2012)","state":"TX"},"type":"Feature","geometry":{"type":"Point","coordinates":[-98.499346,29.445557]}},{"properties":{"periods":"12/05/1975 - Current","city":"San Antonio","name":"The University of Texas Health Science - San Antonio","zip":"78229-3900","geo_score":0.878,"last action":null,"url":"www.uthscsa.edu","accreditation_status":"Accredited","ipeds unitid":228644,"id":"a6oyd221qxtu","geo_precision":"street","opeid":"00365900","address":"7703 Floyd Curl Dr","accreditation_date_type":"Actual","review_date":null,"state":"TX"},"type":"Feature","geometry":{"type":"Point","coordinates":[-98.573527,29.507377]}},{"properties":{"periods":"05/24/1968 - Current","city":"Sheppard AFB","name":"School of Health Care Sciences - Air Force","zip":"76311","geo_score":0.61,"last action":null,"url":null,"accreditation_status":"Accredited","ipeds unitid":null,"id":"a6oyd1p0maf8","geo_precision":"street","opeid":null,"address":"917 Missile Road","accreditation_date_type":"Actual","review_date":"(review: 12/31/2013)","state":"TX"},"type":"Feature","geometry":{"type":"Point","coordinates":[-98.519358,33.982486]}},{"properties":{"periods":"12/07/1973 - Current","city":"Richmond","name":"J Sargeant Reynolds Community College","zip":"23228","geo_score":1.0,"last action":null,"url":"www.reynolds.edu","accreditation_status":"Accredited","ipeds unitid":232414,"id":"a6oyd1q9r7bp","geo_precision":"range","opeid":"00375900","address":"1651 E Parham Road","accreditation_date_type":"Actual","review_date":"(review: 12/31/2015)","state":"VA"},"type":"Feature","geometry":{"type":"Point","coordinates":[-77.473613,37.63872]}},{"properties":{"periods":"05/16/1969 - Current","city":"Tacoma","name":"Bates Technical College","zip":"98405","geo_score":1.0,"last action":null,"url":"www.bates.ctc.edu/","accreditation_status":"Accredited","ipeds unitid":235671,"id":"a6oyd1v53sg7","geo_precision":"range","opeid":"00530600","address":"1101 S Yakima Ave","accreditation_date_type":"Actual","review_date":"(review: 12/31/2014)","state":"WA"},"type":"Feature","geometry":{"type":"Point","coordinates":[-122.447379,47.252455]}}],"is_temporal":false,"author":{"url":"","metadata":"","contact_name":"","contact_address":"","source":"","contact_phone":""},"source":"","pagination":{"sort":null,"start":0,"total":24,"limit":1000000},"state":"complete","tags":"","published":"2014-08-13T11:17:44-04:00","id":128851}