{"type":"FeatureCollection","data_type":"Dataset","url_type":null,"permissions":[{"permissions":{"download":true,"view":true},"group_id":"everyone"}],"classification":null,"title":"bghb","count":9,"stream_id":129125,"contributor":{"url":"http://geocommons.com/users/25679","name":"eelkejager"},"data_attributes":null,"calculation_params":null,"icon_link":null,"link":"http://geocommons.com/overlays/129125.json","extent":[4.84982,52.3607,4.8829,52.393],"geometry_types":["point"],"unique_name":null,"name":"bghb","feature_count":9,"description":"","next_feature":null,"is_raster":false,"short_classification":"Y","stats":{"latitude":{"max":52.393018,"mean":52.3752013333333,"variance":0.00010636308325001,"stdev":0.0103132479486343,"min":52.360744,"median":52.373338},"soort":{},"categorie":{},"vergunning":{},"longitude":{"max":4.882903,"mean":4.86766966666667,"variance":0.000117722400249999,"stdev":0.0108499954032248,"min":4.849824,"median":4.86939}},"features":[{"properties":{"city":"Amsterdam","zip":null,"latitude":52.373338,"soort":"Onbekend","country":null,"categorie":"Additionele horeca","vergunning":"Dagzaak","longitude":4.873487,"id":"a6ctjh7kk65v","address":"Hugo De Grootkade 20","naam":"De Poort","state":null},"type":"Feature","geometry":{"type":"Point","coordinates":[4.873487,52.373338]}},{"properties":{"city":"Amsterdam","zip":null,"latitude":52.3658,"soort":"Clubgebouw","country":null,"categorie":"Additionele horeca","vergunning":"Dagzaak","longitude":4.85497,"id":"a6ctjhc9f69t","address":"Columbusplein 253","naam":"Speeltuinvereniging Jacob Maris","state":null},"type":"Feature","geometry":{"type":"Point","coordinates":[4.85497,52.3658]}},{"properties":{"city":"Amsterdam","zip":null,"latitude":52.374237,"soort":"Onbekend","country":null,"categorie":"Additionele horeca","vergunning":"Dagzaak","longitude":4.87489,"id":"a6ctjhkrr0hg","address":"2e Hugo De Grootstraat 2","naam":"Shape","state":null},"type":"Feature","geometry":{"type":"Point","coordinates":[4.87489,52.374237]}},{"properties":{"city":"Amsterdam","zip":null,"latitude":52.386246,"soort":"Buurtcentrum","country":null,"categorie":"Additionele horeca","vergunning":"Dagzaak","longitude":4.882903,"id":"a6ctjhdgw02b","address":"Houtmankade 334","naam":"Volta","state":null},"type":"Feature","geometry":{"type":"Point","coordinates":[4.882903,52.386246]}},{"properties":{"city":"Amsterdam","zip":null,"latitude":52.360744,"soort":"Buurtcentrum","country":null,"categorie":"Additionele horeca","vergunning":"Dagzaak","longitude":4.849824,"id":"a6ctjhg5d45k","address":"Postjeskade 200","naam":"Buurthuis De Tulp","state":null},"type":"Feature","geometry":{"type":"Point","coordinates":[4.849824,52.360744]}},{"properties":{"city":"Amsterdam","zip":null,"latitude":52.393018,"soort":"Clubgebouw","country":null,"categorie":"Additionele horeca","vergunning":"Dagzaak","longitude":4.860894,"id":"a6ctjhlz7ryk","address":"Transformatorweg 10","naam":"S.D.Z.","state":null},"type":"Feature","geometry":{"type":"Point","coordinates":[4.860894,52.393018]}},{"properties":{"city":"Amsterdam","zip":null,"latitude":52.382879,"soort":"Buurtcentrum","country":null,"categorie":"Additionele horeca","vergunning":"Dagzaak","longitude":4.877177,"id":"a6ctjh9ajslt","address":"De Wittenkade 111","naam":"Kroatie-huis","state":null},"type":"Feature","geometry":{"type":"Point","coordinates":[4.877177,52.382879]}},{"properties":{"city":"Amsterdam","zip":null,"latitude":52.371324,"soort":"Jongerencentrum","country":null,"categorie":"Additionele horeca","vergunning":"Dagzaak","longitude":4.86939,"id":"a6ctjh5ttv6c","address":"Bilderdijkpark 10","naam":"A.S.V. BILDERDIJKPARK","state":null},"type":"Feature","geometry":{"type":"Point","coordinates":[4.86939,52.371324]}},{"properties":{"city":"Amsterdam","zip":null,"latitude":52.369226,"soort":"Onbekend","country":null,"categorie":"Additionele horeca","vergunning":"Dagzaak","longitude":4.865492,"id":"a6ctjhhqntdb","address":"Douwes Dekkerstraat 2","naam":"BUURTCENTRUM DE HAVELAAR","state":null},"type":"Feature","geometry":{"type":"Point","coordinates":[4.865492,52.369226]}}],"is_temporal":false,"author":{"url":"","metadata":"","contact_name":"","contact_address":"","source":"","contact_phone":""},"source":"","pagination":{"sort":null,"start":0,"total":9,"limit":1000000},"state":"complete","tags":"","published":"2014-08-13T11:36:34-04:00","id":129125}