{"type":"FeatureCollection","data_type":"Dataset","url_type":null,"permissions":[{"permissions":{"download":true,"view":true},"group_id":"everyone"}],"classification":null,"title":"Wow","count":52,"stream_id":129259,"contributor":{"url":"http://geocommons.com/users/29036","name":"Chagan"},"data_attributes":null,"calculation_params":null,"icon_link":null,"link":"http://geocommons.com/overlays/129259.json","extent":[-157.922,21.3794,-71.0887,43.198],"geometry_types":["point"],"unique_name":null,"name":"Wow","feature_count":52,"description":"","next_feature":null,"is_raster":false,"short_classification":"Y","stats":{"increase":{"max":10.95454545,"mean":2.88771173526923,"variance":2.52114568885974,"stdev":1.58781160370484,"min":2.0,"median":2.381374723}},"features":[{"properties":{"city":"Baton Rouge","increase":10.95454545,"geo_score":0.857,"id":"a66mtekv1mqz","geo_precision":"city","state":"LA"},"type":"Feature","geometry":{"type":"Point","coordinates":[-91.154551,30.450746]}},{"properties":{"city":"Normal","increase":8.583333333,"geo_score":0.857,"id":"a66mter34omn","geo_precision":"city","state":"IL"},"type":"Feature","geometry":{"type":"Point","coordinates":[-88.7989,40.530375]}},{"properties":{"city":"Haleiwa","increase":5.153846154,"geo_score":0.816,"id":"a66mtekek9ah","geo_precision":"city","state":"HI"},"type":"Feature","geometry":{"type":"Point","coordinates":[-157.921667,21.379444]}},{"properties":{"city":"State College","increase":4.966731898,"geo_score":0.738,"id":"a66mtepfjvaq","geo_precision":"city","state":"PA"},"type":"Feature","geometry":{"type":"Point","coordinates":[-80.446733,40.303681]}},{"properties":{"city":"Athens","increase":4.125,"geo_score":0.857,"id":"a66mtejnkcv5","geo_precision":"city","state":"OH"},"type":"Feature","geometry":{"type":"Point","coordinates":[-82.013803,39.339279]}},{"properties":{"city":"Cortland","increase":4.1,"geo_score":0.796,"id":"a66mtefxgg8z","geo_precision":"city","state":"NY"},"type":"Feature","geometry":{"type":"Point","coordinates":[-73.893116,41.284044]}},{"properties":{"city":"Oxford","increase":4.007352941,"geo_score":0.857,"id":"a66mtekk5gbf","geo_precision":"city","state":"OH"},"type":"Feature","geometry":{"type":"Point","coordinates":[-84.68575,39.479227]}},{"properties":{"city":"Blacksburg","increase":3.428571429,"geo_score":0.857,"id":"a66mterp6ky1","geo_precision":"city","state":"VA"},"type":"Feature","geometry":{"type":"Point","coordinates":[-81.820401,36.75428]}},{"properties":{"city":"Lewisburg","increase":3.251655629,"geo_score":0.814,"id":"a66mteq8rskn","geo_precision":"city","state":"PA"},"type":"Feature","geometry":{"type":"Point","coordinates":[-76.889249,39.995219]}},{"properties":{"city":"Carmel","increase":3.173913043,"geo_score":0.857,"id":"a66mterexrou","geo_precision":"city","state":"IN"},"type":"Feature","geometry":{"type":"Point","coordinates":[-86.117215,40.071102]}},{"properties":{"city":"Harrisonburg","increase":3.135888502,"geo_score":0.857,"id":"a66mtepym7uz","geo_precision":"city","state":"VA"},"type":"Feature","geometry":{"type":"Point","coordinates":[-78.877137,38.422777]}},{"properties":{"city":"Washington","increase":3.123188406,"geo_score":0.857,"id":"a66mterrzl2p","geo_precision":"city","state":"DC"},"type":"Feature","geometry":{"type":"Point","coordinates":[-77.036366,38.895112]}},{"properties":{"city":"Charlottesville","increase":3.060518732,"geo_score":0.857,"id":"a66mtepf0d9x","geo_precision":"city","state":"VA"},"type":"Feature","geometry":{"type":"Point","coordinates":[-78.476678,38.029306]}},{"properties":{"city":"Lenexa","increase":2.887323944,"geo_score":0.857,"id":"a66mtecj65dj","geo_precision":"city","state":"KS"},"type":"Feature","geometry":{"type":"Point","coordinates":[-94.733571,38.953617]}},{"properties":{"city":"Dayton","increase":2.835616438,"geo_score":0.857,"id":"a66mtenrckus","geo_precision":"city","state":"OH"},"type":"Feature","geometry":{"type":"Point","coordinates":[-84.191607,39.758948]}},{"properties":{"city":"Peoria","increase":2.787878788,"geo_score":0.857,"id":"a66mteflx12q","geo_precision":"city","state":"IL"},"type":"Feature","geometry":{"type":"Point","coordinates":[-89.588986,40.693649]}},{"properties":{"city":"East Lansing","increase":2.717277487,"geo_score":0.805,"id":"a66mtes0ma1x","geo_precision":"city","state":"MI"},"type":"Feature","geometry":{"type":"Point","coordinates":[-84.555535,42.732535]}},{"properties":{"city":"Radford","increase":2.703363914,"geo_score":0.857,"id":"a66mten2fr5u","geo_precision":"city","state":"VA"},"type":"Feature","geometry":{"type":"Point","coordinates":[-80.556541,37.119732]}},{"properties":{"city":"Bloomington","increase":2.674666667,"geo_score":0.813,"id":"a66mtecvg16l","geo_precision":"city","state":"IN"},"type":"Feature","geometry":{"type":"Point","coordinates":[-85.064684,39.502272]}},{"properties":{"city":"Amherst","increase":2.546195652,"geo_score":0.857,"id":"a66mtemomfwp","geo_precision":"city","state":"MA"},"type":"Feature","geometry":{"type":"Point","coordinates":[-72.464571,42.367092]}},{"properties":{"city":"Providence","increase":2.447368421,"geo_score":0.857,"id":"a66mteo1v0sv","geo_precision":"city","state":"RI"},"type":"Feature","geometry":{"type":"Point","coordinates":[-71.412834,41.823989]}},{"properties":{"city":"Williamsburg","increase":2.44,"geo_score":0.857,"id":"a66mteiacz1d","geo_precision":"city","state":"VA"},"type":"Feature","geometry":{"type":"Point","coordinates":[-76.746769,37.310451]}},{"properties":{"city":"College Park","increase":2.424802111,"geo_score":0.812,"id":"a66mteemc8v3","geo_precision":"city","state":"MD"},"type":"Feature","geometry":{"type":"Point","coordinates":[-76.951086,39.008721]}},{"properties":{"city":"Brookline","increase":2.410654828,"geo_score":0.857,"id":"a66mtejsa7el","geo_precision":"city","state":"MA"},"type":"Feature","geometry":{"type":"Point","coordinates":[-71.088745,42.308198]}},{"properties":{"city":"Storrs Mansfield","increase":2.401746725,"geo_score":0.743,"id":"a66mtekwbefq","geo_precision":"city","state":"CT"},"type":"Feature","geometry":{"type":"Point","coordinates":[-72.185911,41.757599]}},{"properties":{"city":"Nashville","increase":2.381374723,"geo_score":0.857,"id":"a66mtegefwj7","geo_precision":"city","state":"TN"},"type":"Feature","geometry":{"type":"Point","coordinates":[-86.784443,36.16589]}},{"properties":{"city":"Amherst","increase":2.348837209,"geo_score":0.857,"id":"a66mtefvjrff","geo_precision":"city","state":"MA"},"type":"Feature","geometry":{"type":"Point","coordinates":[-72.464571,42.367092]}},{"properties":{"city":"Iowa City","increase":2.329809725,"geo_score":0.732,"id":"a66mtee9igxt","geo_precision":"city","state":"IA"},"type":"Feature","geometry":{"type":"Point","coordinates":[-92.161281,43.198027]}},{"properties":{"city":"Muncie","increase":2.303030303,"geo_score":0.857,"id":"a66mtedi0kao","geo_precision":"city","state":"IN"},"type":"Feature","geometry":{"type":"Point","coordinates":[-85.389874,40.142124]}},{"properties":{"city":"Baltimore","increase":2.288288288,"geo_score":0.857,"id":"a66mtehmplzv","geo_precision":"city","state":"MD"},"type":"Feature","geometry":{"type":"Point","coordinates":[-76.612189,39.290385]}},{"properties":{"city":"Charleston","increase":2.233183857,"geo_score":0.798,"id":"a66mtenvxatj","geo_precision":"city","state":"SC"},"type":"Feature","geometry":{"type":"Point","coordinates":[-79.970643,32.85712]}},{"properties":{"city":"Lubbock","increase":2.231746032,"geo_score":0.857,"id":"a66mtenupx7v","geo_precision":"city","state":"TX"},"type":"Feature","geometry":{"type":"Point","coordinates":[-101.855167,33.577863]}},{"properties":{"city":"Harrisonburg","increase":2.21369863,"geo_score":0.857,"id":"a66mteg141mq","geo_precision":"city","state":"VA"},"type":"Feature","geometry":{"type":"Point","coordinates":[-78.877137,38.422777]}},{"properties":{"city":"Edinboro","increase":2.18404908,"geo_score":0.821,"id":"a66mtep2a3zl","geo_precision":"city","state":"PA"},"type":"Feature","geometry":{"type":"Point","coordinates":[-79.881718,39.884243]}},{"properties":{"city":"Pittsburgh","increase":2.17877095,"geo_score":0.857,"id":"a66mtedfoe0v","geo_precision":"city","state":"PA"},"type":"Feature","geometry":{"type":"Point","coordinates":[-79.995886,40.440625]}},{"properties":{"city":"Gainesville","increase":2.162790698,"geo_score":0.818,"id":"a66mtenkq13w","geo_precision":"city","state":"FL"},"type":"Feature","geometry":{"type":"Point","coordinates":[-85.354651,30.731305]}},{"properties":{"city":"Providence","increase":2.151260504,"geo_score":0.857,"id":"a66mtesbbub3","geo_precision":"city","state":"RI"},"type":"Feature","geometry":{"type":"Point","coordinates":[-71.412834,41.823989]}},{"properties":{"city":"Bloomington","increase":2.143631436,"geo_score":0.813,"id":"a66mteirqd6r","geo_precision":"city","state":"IN"},"type":"Feature","geometry":{"type":"Point","coordinates":[-85.064684,39.502272]}},{"properties":{"city":"Monteagle","increase":2.129032258,"geo_score":0.857,"id":"a66mteoletyr","geo_precision":"city","state":"TN"},"type":"Feature","geometry":{"type":"Point","coordinates":[-85.822933,35.264698]}},{"properties":{"city":"Bethlehem","increase":2.114678899,"geo_score":0.857,"id":"a66mteegl98q","geo_precision":"city","state":"PA"},"type":"Feature","geometry":{"type":"Point","coordinates":[-78.730307,40.86173]}},{"properties":{"city":"Nacogdoches","increase":2.093023256,"geo_score":0.857,"id":"a66mtefan1cj","geo_precision":"city","state":"TX"},"type":"Feature","geometry":{"type":"Point","coordinates":[-94.65055,31.615186]}},{"properties":{"city":"Bloomington","increase":2.068273092,"geo_score":0.813,"id":"a66mtengxdgc","geo_precision":"city","state":"IN"},"type":"Feature","geometry":{"type":"Point","coordinates":[-85.064684,39.502272]}},{"properties":{"city":"Tallahassee","increase":2.051115242,"geo_score":0.857,"id":"a66mtelzyz89","geo_precision":"city","state":"FL"},"type":"Feature","geometry":{"type":"Point","coordinates":[-84.280733,30.438256]}},{"properties":{"city":"Granville","increase":2.045685279,"geo_score":0.805,"id":"a66mteevuywi","geo_precision":"city","state":"OH"},"type":"Feature","geometry":{"type":"Point","coordinates":[-82.578223,40.425062]}},{"properties":{"city":"Pittsburgh","increase":2.037366548,"geo_score":0.857,"id":"a66mteebd117","geo_precision":"city","state":"PA"},"type":"Feature","geometry":{"type":"Point","coordinates":[-79.995886,40.440625]}},{"properties":{"city":"Farmville","increase":2.034220532,"geo_score":0.857,"id":"a66mtekb36ws","geo_precision":"city","state":"VA"},"type":"Feature","geometry":{"type":"Point","coordinates":[-78.421284,37.280694]}},{"properties":{"city":"Wellesley","increase":2.032258065,"geo_score":0.857,"id":"a66mtejx9g0u","geo_precision":"city","state":"MA"},"type":"Feature","geometry":{"type":"Point","coordinates":[-71.27875,42.300596]}},{"properties":{"city":"West Haven","increase":2.03125,"geo_score":0.857,"id":"a66mteehwyta","geo_precision":"city","state":"CT"},"type":"Feature","geometry":{"type":"Point","coordinates":[-72.940335,41.272452]}},{"properties":{"city":"Manchester","increase":2.016666667,"geo_score":0.857,"id":"a66mtejxxwy7","geo_precision":"city","state":"NH"},"type":"Feature","geometry":{"type":"Point","coordinates":[-71.454789,42.99564]}},{"properties":{"city":"Washington","increase":2.012578616,"geo_score":0.857,"id":"a66mtehtfotd","geo_precision":"city","state":"DC"},"type":"Feature","geometry":{"type":"Point","coordinates":[-77.036366,38.895112]}},{"properties":{"city":"Chicago","increase":2.002949853,"geo_score":0.857,"id":"a66mtenzp3pq","geo_precision":"city","state":"IL"},"type":"Feature","geometry":{"type":"Point","coordinates":[-87.650052,41.850033]}},{"properties":{"city":"Greenville","increase":2.0,"geo_score":0.831,"id":"a66mtej4jeaw","geo_precision":"city","state":"NC"},"type":"Feature","geometry":{"type":"Point","coordinates":[-81.703445,36.408734]}}],"is_temporal":false,"author":{"url":"","metadata":"","contact_name":"","contact_address":"","source":"","contact_phone":""},"source":"","pagination":{"sort":null,"start":0,"total":52,"limit":1000000},"state":"complete","tags":"","published":"2014-08-13T11:43:52-04:00","id":129259}