{"type":"FeatureCollection","data_type":"Dataset","url_type":null,"permissions":[{"permissions":{"download":true,"view":true},"group_id":"everyone"}],"classification":null,"title":"Geo Data","count":536,"stream_id":129507,"contributor":{"url":"http://geocommons.com/users/28889","name":"cagrossman"},"data_attributes":null,"calculation_params":null,"icon_link":null,"link":"http://geocommons.com/overlays/129507.json","extent":[-157.999,18.3381,-65.9892,48.0915],"geometry_types":["point"],"unique_name":null,"name":"Geo Data","feature_count":536,"description":"","next_feature":null,"is_raster":false,"short_classification":"Y","stats":{"revenue":{"max":3299,"mean":346.210820895522,"variance":134474.207807923,"stdev":366.7072508254,"min":30,"median":217}},"features":[{"properties":{"zip":"60477","geo_score":0.714,"id":"a672ruzuf8rg","geo_precision":"zip","revenue":3299},"type":"Feature","geometry":{"type":"Point","coordinates":[-87.843108,41.585311]}},{"properties":{"zip":"60657","geo_score":0.714,"id":"a672rv40f8wg","geo_precision":"zip","revenue":3169},"type":"Feature","geometry":{"type":"Point","coordinates":[-87.68732,41.811929]}},{"properties":{"zip":"60067","geo_score":0.714,"id":"a672rv832zt7","geo_precision":"zip","revenue":2196},"type":"Feature","geometry":{"type":"Point","coordinates":[-88.096187,42.118082]}},{"properties":{"zip":"60643","geo_score":0.714,"id":"a672rv8x763i","geo_precision":"zip","revenue":1924},"type":"Feature","geometry":{"type":"Point","coordinates":[-87.660604,41.662812]}},{"properties":{"zip":"60640","geo_score":0.714,"id":"a672rv40j94g","geo_precision":"zip","revenue":1868},"type":"Feature","geometry":{"type":"Point","coordinates":[-87.68732,41.811929]}},{"properties":{"zip":"60441","geo_score":0.714,"id":"a672rv3ynmrc","geo_precision":"zip","revenue":1794},"type":"Feature","geometry":{"type":"Point","coordinates":[-88.054503,41.573087]}},{"properties":{"zip":"60464","geo_score":0.714,"id":"a672rv4c3u4g","geo_precision":"zip","revenue":1710},"type":"Feature","geometry":{"type":"Point","coordinates":[-87.68732,41.811929]}},{"properties":{"zip":"61081","geo_score":0.714,"id":"a672rvawljmo","geo_precision":"zip","revenue":1487},"type":"Feature","geometry":{"type":"Point","coordinates":[-89.667888,41.88753]}},{"properties":{"zip":"60190","geo_score":0.714,"id":"a672rv5no04l","geo_precision":"zip","revenue":1482},"type":"Feature","geometry":{"type":"Point","coordinates":[-88.088716,41.839679]}},{"properties":{"zip":"60626","geo_score":0.714,"id":"a672ruxzi7b6","geo_precision":"zip","revenue":1458},"type":"Feature","geometry":{"type":"Point","coordinates":[-87.68732,41.811929]}},{"properties":{"zip":"60654","geo_score":0.714,"id":"a672ruz2wyyk","geo_precision":"zip","revenue":1398},"type":"Feature","geometry":{"type":"Point","coordinates":[-87.68732,41.811929]}},{"properties":{"zip":"48363","geo_score":0.714,"id":"a672rv1peslr","geo_precision":"zip","revenue":1337},"type":"Feature","geometry":{"type":"Point","coordinates":[-83.157643,42.766093]}},{"properties":{"zip":"60660","geo_score":0.714,"id":"a672ruvuta00","geo_precision":"zip","revenue":1289},"type":"Feature","geometry":{"type":"Point","coordinates":[-87.68732,41.811929]}},{"properties":{"zip":"60615","geo_score":0.714,"id":"a672ruxix7q5","geo_precision":"zip","revenue":1280},"type":"Feature","geometry":{"type":"Point","coordinates":[-87.68732,41.811929]}},{"properties":{"zip":"55420","geo_score":0.714,"id":"a672ruzt6xfl","geo_precision":"zip","revenue":1240},"type":"Feature","geometry":{"type":"Point","coordinates":[-93.29828,44.840798]}},{"properties":{"zip":"63341","geo_score":0.714,"id":"a672rv4gcasx","geo_precision":"zip","revenue":1239},"type":"Feature","geometry":{"type":"Point","coordinates":[-90.797076,38.608108]}},{"properties":{"zip":"60543","geo_score":0.714,"id":"a672rv9a8o4q","geo_precision":"zip","revenue":1233},"type":"Feature","geometry":{"type":"Point","coordinates":[-88.420476,41.631012]}},{"properties":{"zip":"60053","geo_score":0.714,"id":"a672rv5lhwnz","geo_precision":"zip","revenue":1230},"type":"Feature","geometry":{"type":"Point","coordinates":[-87.793815,42.039329]}},{"properties":{"zip":"60630","geo_score":0.714,"id":"a672ruylp6ca","geo_precision":"zip","revenue":1214},"type":"Feature","geometry":{"type":"Point","coordinates":[-87.68732,41.811929]}},{"properties":{"zip":"60647","geo_score":0.714,"id":"a672rv5fnkrv","geo_precision":"zip","revenue":1210},"type":"Feature","geometry":{"type":"Point","coordinates":[-87.68732,41.811929]}},{"properties":{"zip":"60605","geo_score":0.714,"id":"a672rv25n0kz","geo_precision":"zip","revenue":1183},"type":"Feature","geometry":{"type":"Point","coordinates":[-87.68732,41.811929]}},{"properties":{"zip":"47906","geo_score":0.714,"id":"a672ruwbsen6","geo_precision":"zip","revenue":1177},"type":"Feature","geometry":{"type":"Point","coordinates":[-86.910844,40.449202]}},{"properties":{"zip":"60610","geo_score":0.714,"id":"a672rv1u9hfw","geo_precision":"zip","revenue":1177},"type":"Feature","geometry":{"type":"Point","coordinates":[-87.68732,41.811929]}},{"properties":{"zip":"60517","geo_score":0.714,"id":"a672rv4k59b2","geo_precision":"zip","revenue":1176},"type":"Feature","geometry":{"type":"Point","coordinates":[-88.041731,41.736788]}},{"properties":{"zip":"46368","geo_score":0.714,"id":"a672rv6p585f","geo_precision":"zip","revenue":1113},"type":"Feature","geometry":{"type":"Point","coordinates":[-87.159201,41.61976]}},{"properties":{"zip":"60451","geo_score":0.714,"id":"a672rv49eam2","geo_precision":"zip","revenue":1077},"type":"Feature","geometry":{"type":"Point","coordinates":[-87.94172,41.498088]}},{"properties":{"zip":"60611","geo_score":0.714,"id":"a672rvb7hat3","geo_precision":"zip","revenue":1071},"type":"Feature","geometry":{"type":"Point","coordinates":[-87.68732,41.811929]}},{"properties":{"zip":"60629","geo_score":0.714,"id":"a672rv13xu8g","geo_precision":"zip","revenue":1058},"type":"Feature","geometry":{"type":"Point","coordinates":[-87.68732,41.811929]}},{"properties":{"zip":"60202","geo_score":0.714,"id":"a672rv4hc87t","geo_precision":"zip","revenue":1025},"type":"Feature","geometry":{"type":"Point","coordinates":[-87.687969,42.044529]}},{"properties":{"zip":"60532","geo_score":0.714,"id":"a672rv0wtph1","geo_precision":"zip","revenue":1004},"type":"Feature","geometry":{"type":"Point","coordinates":[-88.037714,41.79818]}},{"properties":{"zip":"60157","geo_score":0.714,"id":"a672rv3ivyfm","geo_precision":"zip","revenue":999},"type":"Feature","geometry":{"type":"Point","coordinates":[-88.088716,41.839679]}},{"properties":{"zip":"60107","geo_score":0.714,"id":"a672rv29wzpy","geo_precision":"zip","revenue":997},"type":"Feature","geometry":{"type":"Point","coordinates":[-88.178475,42.019093]}},{"properties":{"zip":"60510","geo_score":0.714,"id":"a672ruy2u357","geo_precision":"zip","revenue":991},"type":"Feature","geometry":{"type":"Point","coordinates":[-88.281462,41.849473]}},{"properties":{"zip":"60564","geo_score":0.714,"id":"a672rv5ko8kg","geo_precision":"zip","revenue":975},"type":"Feature","geometry":{"type":"Point","coordinates":[-88.201424,41.681479]}},{"properties":{"zip":"60453","geo_score":0.714,"id":"a672rv117l4w","geo_precision":"zip","revenue":961},"type":"Feature","geometry":{"type":"Point","coordinates":[-87.68732,41.811929]}},{"properties":{"zip":"60035","geo_score":0.714,"id":"a672rv6b8kq1","geo_precision":"zip","revenue":956},"type":"Feature","geometry":{"type":"Point","coordinates":[-87.772286,42.152526]}},{"properties":{"zip":"60540","geo_score":0.714,"id":"a672rvb2bcl0","geo_precision":"zip","revenue":953},"type":"Feature","geometry":{"type":"Point","coordinates":[-88.232846,41.744752]}},{"properties":{"zip":"61517","geo_score":0.714,"id":"a672ruy6esrn","geo_precision":"zip","revenue":951},"type":"Feature","geometry":{"type":"Point","coordinates":[-89.898721,40.792537]}},{"properties":{"zip":"60622","geo_score":0.714,"id":"a672rv9kvy3q","geo_precision":"zip","revenue":950},"type":"Feature","geometry":{"type":"Point","coordinates":[-87.68732,41.811929]}},{"properties":{"zip":"60143","geo_score":0.714,"id":"a672ruvb8ife","geo_precision":"zip","revenue":936},"type":"Feature","geometry":{"type":"Point","coordinates":[-88.088716,41.839679]}},{"properties":{"zip":"60618","geo_score":0.714,"id":"a672rvazrso8","geo_precision":"zip","revenue":924},"type":"Feature","geometry":{"type":"Point","coordinates":[-87.68732,41.811929]}},{"properties":{"zip":"27539","geo_score":0.714,"id":"a672ruvr56t1","geo_precision":"zip","revenue":909},"type":"Feature","geometry":{"type":"Point","coordinates":[-78.837427,35.655322]}},{"properties":{"zip":"60417","geo_score":0.714,"id":"a672rv0dba7j","geo_precision":"zip","revenue":894},"type":"Feature","geometry":{"type":"Point","coordinates":[-87.621223,41.426684]}},{"properties":{"zip":"46383","geo_score":0.714,"id":"a672ruxgmo5f","geo_precision":"zip","revenue":883},"type":"Feature","geometry":{"type":"Point","coordinates":[-87.097253,41.464761]}},{"properties":{"zip":"60607","geo_score":0.714,"id":"a672rv3eoqyc","geo_precision":"zip","revenue":882},"type":"Feature","geometry":{"type":"Point","coordinates":[-87.81381,41.928881]}},{"properties":{"zip":"60448","geo_score":0.714,"id":"a672rv8q8nnt","geo_precision":"zip","revenue":873},"type":"Feature","geometry":{"type":"Point","coordinates":[-87.92561,41.548643]}},{"properties":{"zip":"60061","geo_score":0.714,"id":"a672rvbbz8sm","geo_precision":"zip","revenue":849},"type":"Feature","geometry":{"type":"Point","coordinates":[-87.962973,42.231183]}},{"properties":{"zip":"60471","geo_score":0.714,"id":"a672rv8mn1uc","geo_precision":"zip","revenue":846},"type":"Feature","geometry":{"type":"Point","coordinates":[-87.68732,41.811929]}},{"properties":{"zip":"02717","geo_score":0.714,"id":"a672rv48f3xz","geo_precision":"zip","revenue":829},"type":"Feature","geometry":{"type":"Point","coordinates":[-70.94254,41.766769]}},{"properties":{"zip":"80920","geo_score":0.714,"id":"a672ruzahjgj","geo_precision":"zip","revenue":829},"type":"Feature","geometry":{"type":"Point","coordinates":[-104.755956,38.965298]}},{"properties":{"zip":"60192","geo_score":0.714,"id":"a672rv11c4kt","geo_precision":"zip","revenue":828},"type":"Feature","geometry":{"type":"Point","coordinates":[-88.116129,42.092487]}},{"properties":{"zip":"60614","geo_score":0.714,"id":"a672rv8e48c4","geo_precision":"zip","revenue":799},"type":"Feature","geometry":{"type":"Point","coordinates":[-87.68732,41.811929]}},{"properties":{"zip":"60617","geo_score":0.714,"id":"a672ruwekn7a","geo_precision":"zip","revenue":789},"type":"Feature","geometry":{"type":"Point","coordinates":[-87.536434,41.722813]}},{"properties":{"zip":"60016","geo_score":0.714,"id":"a672ruwtd9k1","geo_precision":"zip","revenue":773},"type":"Feature","geometry":{"type":"Point","coordinates":[-87.890466,42.048278]}},{"properties":{"zip":"60560","geo_score":0.714,"id":"a672rux4ckv6","geo_precision":"zip","revenue":767},"type":"Feature","geometry":{"type":"Point","coordinates":[-88.381458,41.531697]}},{"properties":{"zip":"60047","geo_score":0.714,"id":"a672ruwb69y9","geo_precision":"zip","revenue":760},"type":"Feature","geometry":{"type":"Point","coordinates":[-88.047853,42.170581]}},{"properties":{"zip":"60527","geo_score":0.714,"id":"a672rv82kl5p","geo_precision":"zip","revenue":753},"type":"Feature","geometry":{"type":"Point","coordinates":[-88.088716,41.839679]}},{"properties":{"zip":"60130","geo_score":0.714,"id":"a672rvafz2zs","geo_precision":"zip","revenue":751},"type":"Feature","geometry":{"type":"Point","coordinates":[-87.68732,41.811929]}},{"properties":{"zip":"60013","geo_score":0.714,"id":"a672rv5srti3","geo_precision":"zip","revenue":731},"type":"Feature","geometry":{"type":"Point","coordinates":[-88.253416,42.19808]}},{"properties":{"zip":"60563","geo_score":0.714,"id":"a672rv9bbug3","geo_precision":"zip","revenue":725},"type":"Feature","geometry":{"type":"Point","coordinates":[-88.149884,41.782455]}},{"properties":{"zip":"62521","geo_score":0.714,"id":"a672rv04y6qq","geo_precision":"zip","revenue":722},"type":"Feature","geometry":{"type":"Point","coordinates":[-88.855908,39.866703]}},{"properties":{"zip":"60187","geo_score":0.714,"id":"a672rv4jrsqf","geo_precision":"zip","revenue":719},"type":"Feature","geometry":{"type":"Point","coordinates":[-88.088716,41.839679]}},{"properties":{"zip":"60123","geo_score":0.714,"id":"a672rv141591","geo_precision":"zip","revenue":713},"type":"Feature","geometry":{"type":"Point","coordinates":[-88.371044,42.036325]}},{"properties":{"zip":"60616","geo_score":0.714,"id":"a672ruz5773w","geo_precision":"zip","revenue":701},"type":"Feature","geometry":{"type":"Point","coordinates":[-87.68732,41.811929]}},{"properties":{"zip":"61073","geo_score":0.714,"id":"a672ruvm18j4","geo_precision":"zip","revenue":691},"type":"Feature","geometry":{"type":"Point","coordinates":[-89.029553,42.420017]}},{"properties":{"zip":"60091","geo_score":0.714,"id":"a672rv4bsyo6","geo_precision":"zip","revenue":690},"type":"Feature","geometry":{"type":"Point","coordinates":[-87.72836,42.079228]}},{"properties":{"zip":"60148","geo_score":0.714,"id":"a672rv9c5z86","geo_precision":"zip","revenue":673},"type":"Feature","geometry":{"type":"Point","coordinates":[-87.987842,41.856974]}},{"properties":{"zip":"60625","geo_score":0.714,"id":"a672rv05bb6b","geo_precision":"zip","revenue":672},"type":"Feature","geometry":{"type":"Point","coordinates":[-87.68732,41.811929]}},{"properties":{"zip":"60565","geo_score":0.714,"id":"a672rv1dp1yt","geo_precision":"zip","revenue":656},"type":"Feature","geometry":{"type":"Point","coordinates":[-88.112714,41.737929]}},{"properties":{"zip":"60601","geo_score":0.714,"id":"a672ruxos05j","geo_precision":"zip","revenue":639},"type":"Feature","geometry":{"type":"Point","coordinates":[-87.68732,41.811929]}},{"properties":{"zip":"50701","geo_score":0.714,"id":"a672rv531hi3","geo_precision":"zip","revenue":631},"type":"Feature","geometry":{"type":"Point","coordinates":[-92.356575,42.425821]}},{"properties":{"zip":"55337","geo_score":0.714,"id":"a672ruzya0jd","geo_precision":"zip","revenue":626},"type":"Feature","geometry":{"type":"Point","coordinates":[-93.226258,44.771547]}},{"properties":{"zip":"60534","geo_score":0.714,"id":"a672rv1fuqpn","geo_precision":"zip","revenue":625},"type":"Feature","geometry":{"type":"Point","coordinates":[-87.68732,41.811929]}},{"properties":{"zip":"60134","geo_score":0.714,"id":"a672rv32vwk0","geo_precision":"zip","revenue":612},"type":"Feature","geometry":{"type":"Point","coordinates":[-88.406165,41.97974]}},{"properties":{"zip":"61832","geo_score":0.714,"id":"a672ruv7pm3e","geo_precision":"zip","revenue":609},"type":"Feature","geometry":{"type":"Point","coordinates":[-87.653355,40.123648]}},{"properties":{"zip":"60171","geo_score":0.714,"id":"a672rv00nosj","geo_precision":"zip","revenue":609},"type":"Feature","geometry":{"type":"Point","coordinates":[-87.83931,41.923168]}},{"properties":{"zip":"60068","geo_score":0.714,"id":"a672rv7jkp08","geo_precision":"zip","revenue":600},"type":"Feature","geometry":{"type":"Point","coordinates":[-87.843714,42.037228]}},{"properties":{"zip":"60922","geo_score":0.714,"id":"a672rv40rd1j","geo_precision":"zip","revenue":599},"type":"Feature","geometry":{"type":"Point","coordinates":[-87.82365,41.006422]}},{"properties":{"zip":"75061","geo_score":0.714,"id":"a672ruvx8vm3","geo_precision":"zip","revenue":597},"type":"Feature","geometry":{"type":"Point","coordinates":[-96.587847,32.921476]}},{"properties":{"zip":"60056","geo_score":0.714,"id":"a672rv2tmiq6","geo_precision":"zip","revenue":593},"type":"Feature","geometry":{"type":"Point","coordinates":[-87.895067,42.076695]}},{"properties":{"zip":"60115","geo_score":0.714,"id":"a672rv0j340l","geo_precision":"zip","revenue":591},"type":"Feature","geometry":{"type":"Point","coordinates":[-88.776197,41.864196]}},{"properties":{"zip":"60191","geo_score":0.714,"id":"a672rv5p1gpe","geo_precision":"zip","revenue":589},"type":"Feature","geometry":{"type":"Point","coordinates":[-88.088716,41.839679]}},{"properties":{"zip":"68801","geo_score":0.714,"id":"a672ruvu3eki","geo_precision":"zip","revenue":585},"type":"Feature","geometry":{"type":"Point","coordinates":[-98.347562,40.90279]}},{"properties":{"zip":"60554","geo_score":0.714,"id":"a672rv3m7rwt","geo_precision":"zip","revenue":583},"type":"Feature","geometry":{"type":"Point","coordinates":[-88.451655,41.776787]}},{"properties":{"zip":"60154","geo_score":0.714,"id":"a672rv9jwxs7","geo_precision":"zip","revenue":579},"type":"Feature","geometry":{"type":"Point","coordinates":[-87.68732,41.811929]}},{"properties":{"zip":"60089","geo_score":0.714,"id":"a672rvaz310n","geo_precision":"zip","revenue":574},"type":"Feature","geometry":{"type":"Point","coordinates":[-87.960771,42.180411]}},{"properties":{"zip":"60606","geo_score":0.714,"id":"a672rv2yq0nc","geo_precision":"zip","revenue":571},"type":"Feature","geometry":{"type":"Point","coordinates":[-87.68732,41.811929]}},{"properties":{"zip":"63043","geo_score":0.714,"id":"a672rv7ritn1","geo_precision":"zip","revenue":569},"type":"Feature","geometry":{"type":"Point","coordinates":[-90.447418,38.723951]}},{"properties":{"zip":"60707","geo_score":0.714,"id":"a672rv8daj0g","geo_precision":"zip","revenue":566},"type":"Feature","geometry":{"type":"Point","coordinates":[-87.818509,41.923181]}},{"properties":{"zip":"18002","geo_score":0.714,"id":"a672ruv9uz3k","geo_precision":"zip","revenue":563},"type":"Feature","geometry":{"type":"Point","coordinates":[-75.426247,40.665597]}},{"properties":{"zip":"60613","geo_score":0.714,"id":"a672rv6f7g6q","geo_precision":"zip","revenue":553},"type":"Feature","geometry":{"type":"Point","coordinates":[-87.68732,41.811929]}},{"properties":{"zip":"60620","geo_score":0.714,"id":"a672ruzsh5pf","geo_precision":"zip","revenue":551},"type":"Feature","geometry":{"type":"Point","coordinates":[-87.68732,41.811929]}},{"properties":{"zip":"60073","geo_score":0.714,"id":"a672ruw5lw9k","geo_precision":"zip","revenue":548},"type":"Feature","geometry":{"type":"Point","coordinates":[-88.167861,42.326133]}},{"properties":{"zip":"50703","geo_score":0.714,"id":"a672rv0qzdi6","geo_precision":"zip","revenue":539},"type":"Feature","geometry":{"type":"Point","coordinates":[-92.258493,42.549802]}},{"properties":{"zip":"60090","geo_score":0.714,"id":"a672rv3f7bo6","geo_precision":"zip","revenue":535},"type":"Feature","geometry":{"type":"Point","coordinates":[-87.933819,42.124176]}},{"properties":{"zip":"60504","geo_score":0.714,"id":"a672rva8ty6g","geo_precision":"zip","revenue":525},"type":"Feature","geometry":{"type":"Point","coordinates":[-88.136616,41.768399]}},{"properties":{"zip":"46322","geo_score":0.714,"id":"a672rv86bmoc","geo_precision":"zip","revenue":525},"type":"Feature","geometry":{"type":"Point","coordinates":[-87.47744,41.577699]}},{"properties":{"zip":"53202","geo_score":0.714,"id":"a672ruwzqyvf","geo_precision":"zip","revenue":517},"type":"Feature","geometry":{"type":"Point","coordinates":[-87.894734,43.043213]}},{"properties":{"zip":"60619","geo_score":0.714,"id":"a672rv0uvwx5","geo_precision":"zip","revenue":517},"type":"Feature","geometry":{"type":"Point","coordinates":[-87.68732,41.811929]}},{"properties":{"zip":"52317","geo_score":0.714,"id":"a672rv72ine6","geo_precision":"zip","revenue":516},"type":"Feature","geometry":{"type":"Point","coordinates":[-91.604798,41.763944]}},{"properties":{"zip":"22202","geo_score":0.714,"id":"a672rv3flimf","geo_precision":"zip","revenue":504},"type":"Feature","geometry":{"type":"Point","coordinates":[-77.059721,38.854462]}},{"properties":{"zip":"60612","geo_score":0.714,"id":"a672rux6yb37","geo_precision":"zip","revenue":501},"type":"Feature","geometry":{"type":"Point","coordinates":[-87.68732,41.811929]}},{"properties":{"zip":"50010","geo_score":0.714,"id":"a672ruzqh8pg","geo_precision":"zip","revenue":497},"type":"Feature","geometry":{"type":"Point","coordinates":[-93.681609,42.035819]}},{"properties":{"zip":"60305","geo_score":0.714,"id":"a672rvas4ioh","geo_precision":"zip","revenue":496},"type":"Feature","geometry":{"type":"Point","coordinates":[-87.68732,41.811929]}},{"properties":{"zip":"46402","geo_score":0.714,"id":"a672rv3bf6ck","geo_precision":"zip","revenue":492},"type":"Feature","geometry":{"type":"Point","coordinates":[-87.336338,41.599336]}},{"properties":{"zip":"60099","geo_score":0.714,"id":"a672rv29uywd","geo_precision":"zip","revenue":491},"type":"Feature","geometry":{"type":"Point","coordinates":[-87.857296,42.422244]}},{"properties":{"zip":"60446","geo_score":0.714,"id":"a672ruxdk5ll","geo_precision":"zip","revenue":486},"type":"Feature","geometry":{"type":"Point","coordinates":[-88.069621,41.64038]}},{"properties":{"zip":"60177","geo_score":0.714,"id":"a672ruzya3l9","geo_precision":"zip","revenue":485},"type":"Feature","geometry":{"type":"Point","coordinates":[-88.309799,41.971694]}},{"properties":{"zip":"46324","geo_score":0.714,"id":"a672rv9aefs9","geo_precision":"zip","revenue":482},"type":"Feature","geometry":{"type":"Point","coordinates":[-87.496665,41.585185]}},{"properties":{"zip":"60439","geo_score":0.714,"id":"a672ruxlbixd","geo_precision":"zip","revenue":480},"type":"Feature","geometry":{"type":"Point","coordinates":[-87.933113,41.688365]}},{"properties":{"zip":"98052","geo_score":0.714,"id":"a672ruwufjlc","geo_precision":"zip","revenue":479},"type":"Feature","geometry":{"type":"Point","coordinates":[-122.150402,47.693432]}},{"properties":{"zip":"60651","geo_score":0.714,"id":"a672rv45qx04","geo_precision":"zip","revenue":479},"type":"Feature","geometry":{"type":"Point","coordinates":[-87.68732,41.811929]}},{"properties":{"zip":"48128","geo_score":0.714,"id":"a672rv6hvloq","geo_precision":"zip","revenue":468},"type":"Feature","geometry":{"type":"Point","coordinates":[-83.251428,42.31927]}},{"properties":{"zip":"49103","geo_score":0.714,"id":"a672ruyp79qc","geo_precision":"zip","revenue":468},"type":"Feature","geometry":{"type":"Point","coordinates":[-86.334738,41.925879]}},{"properties":{"zip":"60010","geo_score":0.714,"id":"a672ruwb46nr","geo_precision":"zip","revenue":465},"type":"Feature","geometry":{"type":"Point","coordinates":[-88.152025,42.231968]}},{"properties":{"zip":"60026","geo_score":0.714,"id":"a672rv1ckgxy","geo_precision":"zip","revenue":464},"type":"Feature","geometry":{"type":"Point","coordinates":[-87.68732,41.811929]}},{"properties":{"zip":"60014","geo_score":0.714,"id":"a672rv02vsuy","geo_precision":"zip","revenue":446},"type":"Feature","geometry":{"type":"Point","coordinates":[-88.300642,42.281689]}},{"properties":{"zip":"46410","geo_score":0.714,"id":"a672rux85jw6","geo_precision":"zip","revenue":442},"type":"Feature","geometry":{"type":"Point","coordinates":[-87.34337,41.495314]}},{"properties":{"zip":"60452","geo_score":0.714,"id":"a672rv880kr0","geo_precision":"zip","revenue":437},"type":"Feature","geometry":{"type":"Point","coordinates":[-87.68732,41.811929]}},{"properties":{"zip":"60544","geo_score":0.714,"id":"a672rv0xsma6","geo_precision":"zip","revenue":432},"type":"Feature","geometry":{"type":"Point","coordinates":[-88.181452,41.590308]}},{"properties":{"zip":"60438","geo_score":0.714,"id":"a672rv2y0du0","geo_precision":"zip","revenue":429},"type":"Feature","geometry":{"type":"Point","coordinates":[-87.558376,41.563091]}},{"properties":{"zip":"07306","geo_score":0.714,"id":"a672rv91tzys","geo_precision":"zip","revenue":429},"type":"Feature","geometry":{"type":"Point","coordinates":[-74.068685,40.734951]}},{"properties":{"zip":"90045","geo_score":0.714,"id":"a672rv6rnwtr","geo_precision":"zip","revenue":428},"type":"Feature","geometry":{"type":"Point","coordinates":[-118.375354,33.994179]}},{"properties":{"zip":"47948","geo_score":0.714,"id":"a672rvaf2ti2","geo_precision":"zip","revenue":427},"type":"Feature","geometry":{"type":"Point","coordinates":[-87.324812,40.794039]}},{"properties":{"zip":"60653","geo_score":0.714,"id":"a672rv34bare","geo_precision":"zip","revenue":420},"type":"Feature","geometry":{"type":"Point","coordinates":[-87.68732,41.811929]}},{"properties":{"zip":"60422","geo_score":0.714,"id":"a672ruw6xkyp","geo_precision":"zip","revenue":416},"type":"Feature","geometry":{"type":"Point","coordinates":[-87.713381,41.546145]}},{"properties":{"zip":"20181","geo_score":0.714,"id":"a672rv65vyvw","geo_precision":"zip","revenue":416},"type":"Feature","geometry":{"type":"Point","coordinates":[-77.548271,38.700017]}},{"properties":{"zip":"46375","geo_score":0.714,"id":"a672ruzl8htc","geo_precision":"zip","revenue":413},"type":"Feature","geometry":{"type":"Point","coordinates":[-87.446149,41.464203]}},{"properties":{"zip":"89110","geo_score":0.714,"id":"a672ruyf73ll","geo_precision":"zip","revenue":412},"type":"Feature","geometry":{"type":"Point","coordinates":[-115.073056,36.211082]}},{"properties":{"zip":"60435","geo_score":0.714,"id":"a672rv14itu5","geo_precision":"zip","revenue":411},"type":"Feature","geometry":{"type":"Point","coordinates":[-88.090337,41.554753]}},{"properties":{"zip":"48879","geo_score":0.714,"id":"a672rv4zufvl","geo_precision":"zip","revenue":410},"type":"Feature","geometry":{"type":"Point","coordinates":[-84.592771,43.135865]}},{"properties":{"zip":"60641","geo_score":0.714,"id":"a672rv5jcyah","geo_precision":"zip","revenue":410},"type":"Feature","geometry":{"type":"Point","coordinates":[-87.68732,41.811929]}},{"properties":{"zip":"60050","geo_score":0.714,"id":"a672ruzyhszd","geo_precision":"zip","revenue":410},"type":"Feature","geometry":{"type":"Point","coordinates":[-88.226198,42.389465]}},{"properties":{"zip":"60914","geo_score":0.714,"id":"a672rv743qvp","geo_precision":"zip","revenue":404},"type":"Feature","geometry":{"type":"Point","coordinates":[-87.775596,41.192533]}},{"properties":{"zip":"60133","geo_score":0.714,"id":"a672rv30j7vq","geo_precision":"zip","revenue":404},"type":"Feature","geometry":{"type":"Point","coordinates":[-88.083959,42.030261]}},{"properties":{"zip":"60162","geo_score":0.714,"id":"a672rv8oki32","geo_precision":"zip","revenue":402},"type":"Feature","geometry":{"type":"Point","coordinates":[-87.68732,41.811929]}},{"properties":{"zip":"37027","geo_score":0.714,"id":"a672ruwqhtfj","geo_precision":"zip","revenue":401},"type":"Feature","geometry":{"type":"Point","coordinates":[-86.816058,35.982981]}},{"properties":{"zip":"46222","geo_score":0.714,"id":"a672ruyi1f54","geo_precision":"zip","revenue":401},"type":"Feature","geometry":{"type":"Point","coordinates":[-86.206655,39.765321]}},{"properties":{"zip":"46356","geo_score":0.714,"id":"a672rvbgrnns","geo_precision":"zip","revenue":399},"type":"Feature","geometry":{"type":"Point","coordinates":[-87.458369,41.290035]}},{"properties":{"zip":"61114","geo_score":0.714,"id":"a672rv0hcybt","geo_precision":"zip","revenue":396},"type":"Feature","geometry":{"type":"Point","coordinates":[-88.997248,42.318492]}},{"properties":{"zip":"50266","geo_score":0.714,"id":"a672rv7zxo3h","geo_precision":"zip","revenue":395},"type":"Feature","geometry":{"type":"Point","coordinates":[-93.747073,41.653027]}},{"properties":{"zip":"45828","geo_score":0.714,"id":"a672rv6ocdvw","geo_precision":"zip","revenue":391},"type":"Feature","geometry":{"type":"Point","coordinates":[-84.65357,40.450602]}},{"properties":{"zip":"62803","geo_score":0.714,"id":"a672ruvyzti2","geo_precision":"zip","revenue":389},"type":"Feature","geometry":{"type":"Point","coordinates":[-89.318414,38.405605]}},{"properties":{"zip":"53086","geo_score":0.714,"id":"a672ruz9in6e","geo_precision":"zip","revenue":389},"type":"Feature","geometry":{"type":"Point","coordinates":[-88.260651,43.353613]}},{"properties":{"zip":"40962","geo_score":0.714,"id":"a672ruvx6bl4","geo_precision":"zip","revenue":388},"type":"Feature","geometry":{"type":"Point","coordinates":[-83.824922,37.19259]}},{"properties":{"zip":"53562","geo_score":0.714,"id":"a672ruwhpyox","geo_precision":"zip","revenue":388},"type":"Feature","geometry":{"type":"Point","coordinates":[-89.484009,43.104162]}},{"properties":{"zip":"65084","geo_score":0.714,"id":"a672rv3807ty","geo_precision":"zip","revenue":383},"type":"Feature","geometry":{"type":"Point","coordinates":[-92.855473,38.515579]}},{"properties":{"zip":"60178","geo_score":0.714,"id":"a672ruy8jzv7","geo_precision":"zip","revenue":376},"type":"Feature","geometry":{"type":"Point","coordinates":[-88.631477,42.066415]}},{"properties":{"zip":"67601","geo_score":0.714,"id":"a672ruyi0cwu","geo_precision":"zip","revenue":371},"type":"Feature","geometry":{"type":"Point","coordinates":[-99.423996,38.907234]}},{"properties":{"zip":"46563","geo_score":0.714,"id":"a672ruyjk4x8","geo_precision":"zip","revenue":364},"type":"Feature","geometry":{"type":"Point","coordinates":[-86.357229,41.30421]}},{"properties":{"zip":"60523","geo_score":0.714,"id":"a672ruxiv7xy","geo_precision":"zip","revenue":363},"type":"Feature","geometry":{"type":"Point","coordinates":[-87.963759,41.83713]}},{"properties":{"zip":"60624","geo_score":0.714,"id":"a672rv6fbu0v","geo_precision":"zip","revenue":361},"type":"Feature","geometry":{"type":"Point","coordinates":[-87.68732,41.811929]}},{"properties":{"zip":"46321","geo_score":0.714,"id":"a672rv58dpp6","geo_precision":"zip","revenue":357},"type":"Feature","geometry":{"type":"Point","coordinates":[-87.508652,41.541424]}},{"properties":{"zip":"60634","geo_score":0.714,"id":"a672rvb4xiey","geo_precision":"zip","revenue":357},"type":"Feature","geometry":{"type":"Point","coordinates":[-87.796449,41.952809]}},{"properties":{"zip":"60136","geo_score":0.714,"id":"a672ruwabp8q","geo_precision":"zip","revenue":356},"type":"Feature","geometry":{"type":"Point","coordinates":[-88.379932,42.102524]}},{"properties":{"zip":"60661","geo_score":0.714,"id":"a672rv3rm89n","geo_precision":"zip","revenue":354},"type":"Feature","geometry":{"type":"Point","coordinates":[-87.68732,41.811929]}},{"properties":{"zip":"61704","geo_score":0.714,"id":"a672rv9y9dcv","geo_precision":"zip","revenue":353},"type":"Feature","geometry":{"type":"Point","coordinates":[-88.982373,40.491715]}},{"properties":{"zip":"53098","geo_score":0.714,"id":"a672rv6phxc7","geo_precision":"zip","revenue":351},"type":"Feature","geometry":{"type":"Point","coordinates":[-88.715408,43.276444]}},{"properties":{"zip":"53597","geo_score":0.714,"id":"a672rv26ezol","geo_precision":"zip","revenue":350},"type":"Feature","geometry":{"type":"Point","coordinates":[-89.322655,43.183972]}},{"properties":{"zip":"32216","geo_score":0.714,"id":"a672ruxyq56l","geo_precision":"zip","revenue":348},"type":"Feature","geometry":{"type":"Point","coordinates":[-81.558146,30.298296]}},{"properties":{"zip":"53097","geo_score":0.714,"id":"a672rv8ljwf9","geo_precision":"zip","revenue":346},"type":"Feature","geometry":{"type":"Point","coordinates":[-87.980914,43.247112]}},{"properties":{"zip":"60041","geo_score":0.714,"id":"a672rv7ww6ry","geo_precision":"zip","revenue":345},"type":"Feature","geometry":{"type":"Point","coordinates":[-88.127583,42.370855]}},{"properties":{"zip":"53901","geo_score":0.714,"id":"a672ruyjbwip","geo_precision":"zip","revenue":344},"type":"Feature","geometry":{"type":"Point","coordinates":[-89.443732,43.625536]}},{"properties":{"zip":"60467","geo_score":0.714,"id":"a672rv5ke1wr","geo_precision":"zip","revenue":343},"type":"Feature","geometry":{"type":"Point","coordinates":[-87.68732,41.811929]}},{"properties":{"zip":"61953","geo_score":0.714,"id":"a672rv4egw2c","geo_precision":"zip","revenue":341},"type":"Feature","geometry":{"type":"Point","coordinates":[-88.21699,39.825865]}},{"properties":{"zip":"92024","geo_score":0.714,"id":"a672rvaf6gut","geo_precision":"zip","revenue":340},"type":"Feature","geometry":{"type":"Point","coordinates":[-117.234758,33.046153]}},{"properties":{"zip":"60051","geo_score":0.714,"id":"a672rv17tgid","geo_precision":"zip","revenue":337},"type":"Feature","geometry":{"type":"Point","coordinates":[-88.452481,42.324761]}},{"properties":{"zip":"60538","geo_score":0.714,"id":"a672rv2dcxv9","geo_precision":"zip","revenue":335},"type":"Feature","geometry":{"type":"Point","coordinates":[-88.336182,41.71253]}},{"properties":{"zip":"60101","geo_score":0.714,"id":"a672ruwlwko5","geo_precision":"zip","revenue":330},"type":"Feature","geometry":{"type":"Point","coordinates":[-88.022516,41.887579]}},{"properties":{"zip":"02129","geo_score":0.714,"id":"a672rv2fee51","geo_precision":"zip","revenue":329},"type":"Feature","geometry":{"type":"Point","coordinates":[-71.065287,42.382588]}},{"properties":{"zip":"30523","geo_score":0.714,"id":"a672rv6dn84n","geo_precision":"zip","revenue":328},"type":"Feature","geometry":{"type":"Point","coordinates":[-83.516282,34.600098]}},{"properties":{"zip":"60031","geo_score":0.714,"id":"a672rv6j9q86","geo_precision":"zip","revenue":328},"type":"Feature","geometry":{"type":"Point","coordinates":[-87.903406,42.290023]}},{"properties":{"zip":"23430","geo_score":0.714,"id":"a672rv3kxen8","geo_precision":"zip","revenue":327},"type":"Feature","geometry":{"type":"Point","coordinates":[-76.581897,36.880705]}},{"properties":{"zip":"60633","geo_score":0.714,"id":"a672rv0gpsd4","geo_precision":"zip","revenue":325},"type":"Feature","geometry":{"type":"Point","coordinates":[-87.556711,41.638924]}},{"properties":{"zip":"60188","geo_score":0.714,"id":"a672rv8nck0i","geo_precision":"zip","revenue":323},"type":"Feature","geometry":{"type":"Point","coordinates":[-88.088716,41.839679]}},{"properties":{"zip":"45648","geo_score":0.714,"id":"a672rv2t04ul","geo_precision":"zip","revenue":323},"type":"Feature","geometry":{"type":"Point","coordinates":[-82.973786,38.885907]}},{"properties":{"zip":"60005","geo_score":0.714,"id":"a672rv70dpb4","geo_precision":"zip","revenue":318},"type":"Feature","geometry":{"type":"Point","coordinates":[-87.883073,42.060928]}},{"properties":{"zip":"45150","geo_score":0.714,"id":"a672ruvw3njc","geo_precision":"zip","revenue":316},"type":"Feature","geometry":{"type":"Point","coordinates":[-84.288271,39.154783]}},{"properties":{"zip":"27253","geo_score":0.714,"id":"a672rv8x8ubp","geo_precision":"zip","revenue":314},"type":"Feature","geometry":{"type":"Point","coordinates":[-79.347527,35.972114]}},{"properties":{"zip":"60139","geo_score":0.714,"id":"a672rv45xcru","geo_precision":"zip","revenue":314},"type":"Feature","geometry":{"type":"Point","coordinates":[-88.088716,41.839679]}},{"properties":{"zip":"53589","geo_score":0.714,"id":"a672rux1uwkn","geo_precision":"zip","revenue":312},"type":"Feature","geometry":{"type":"Point","coordinates":[-89.122058,42.965557]}},{"properties":{"zip":"15001","geo_score":0.714,"id":"a672rv3b5t27","geo_precision":"zip","revenue":312},"type":"Feature","geometry":{"type":"Point","coordinates":[-80.246172,40.617845]}},{"properties":{"zip":"70127","geo_score":0.714,"id":"a672rv1r80kx","geo_precision":"zip","revenue":311},"type":"Feature","geometry":{"type":"Point","coordinates":[-89.975819,30.031251]}},{"properties":{"zip":"61801","geo_score":0.714,"id":"a672rv5j8qvg","geo_precision":"zip","revenue":310},"type":"Feature","geometry":{"type":"Point","coordinates":[-88.11032,40.113367]}},{"properties":{"zip":"58504","geo_score":0.714,"id":"a672rv1qqdz1","geo_precision":"zip","revenue":308},"type":"Feature","geometry":{"type":"Point","coordinates":[-100.700403,46.762494]}},{"properties":{"zip":"60137","geo_score":0.714,"id":"a672ruyn79mm","geo_precision":"zip","revenue":308},"type":"Feature","geometry":{"type":"Point","coordinates":[-88.067844,41.830308]}},{"properties":{"zip":"63127","geo_score":0.714,"id":"a672ruwsg1lg","geo_precision":"zip","revenue":308},"type":"Feature","geometry":{"type":"Point","coordinates":[-90.407341,38.538942]}},{"properties":{"zip":"60104","geo_score":0.714,"id":"a672rv7pmgps","geo_precision":"zip","revenue":306},"type":"Feature","geometry":{"type":"Point","coordinates":[-87.68732,41.811929]}},{"properties":{"zip":"53132","geo_score":0.714,"id":"a672ruv6zvqa","geo_precision":"zip","revenue":304},"type":"Feature","geometry":{"type":"Point","coordinates":[-88.056476,42.902238]}},{"properties":{"zip":"62561","geo_score":0.714,"id":"a672rv1xv5ps","geo_precision":"zip","revenue":302},"type":"Feature","geometry":{"type":"Point","coordinates":[-89.540376,39.866161]}},{"properties":{"zip":"60120","geo_score":0.714,"id":"a672rvass7pt","geo_precision":"zip","revenue":301},"type":"Feature","geometry":{"type":"Point","coordinates":[-88.235354,42.002805]}},{"properties":{"zip":"60103","geo_score":0.714,"id":"a672rv6heu7e","geo_precision":"zip","revenue":301},"type":"Feature","geometry":{"type":"Point","coordinates":[-88.145074,41.999472]}},{"properties":{"zip":"78240","geo_score":0.714,"id":"a672ruw2gqz7","geo_precision":"zip","revenue":300},"type":"Feature","geometry":{"type":"Point","coordinates":[-98.461582,29.437532]}},{"properties":{"zip":"54729","geo_score":0.714,"id":"a672ruzkf2c9","geo_precision":"zip","revenue":298},"type":"Feature","geometry":{"type":"Point","coordinates":[-91.437659,45.006628]}},{"properties":{"zip":"80210","geo_score":0.714,"id":"a672rv8e7pwc","geo_precision":"zip","revenue":298},"type":"Feature","geometry":{"type":"Point","coordinates":[-104.964186,39.701677]}},{"properties":{"zip":"31409","geo_score":0.714,"id":"a672rv3xwke0","geo_precision":"zip","revenue":298},"type":"Feature","geometry":{"type":"Point","coordinates":[-81.07156,31.971394]}},{"properties":{"zip":"60559","geo_score":0.714,"id":"a672ruzar5xd","geo_precision":"zip","revenue":297},"type":"Feature","geometry":{"type":"Point","coordinates":[-87.970713,41.799876]}},{"properties":{"zip":"37716","geo_score":0.714,"id":"a672rvb0a3ls","geo_precision":"zip","revenue":294},"type":"Feature","geometry":{"type":"Point","coordinates":[-84.148529,36.028135]}},{"properties":{"zip":"60473","geo_score":0.714,"id":"a672rv8zchiy","geo_precision":"zip","revenue":294},"type":"Feature","geometry":{"type":"Point","coordinates":[-87.606989,41.589202]}},{"properties":{"zip":"48089","geo_score":0.714,"id":"a672rv7gpzip","geo_precision":"zip","revenue":294},"type":"Feature","geometry":{"type":"Point","coordinates":[-82.995121,42.474786]}},{"properties":{"zip":"48864","geo_score":0.714,"id":"a672rv5q04p8","geo_precision":"zip","revenue":291},"type":"Feature","geometry":{"type":"Point","coordinates":[-84.425136,42.719534]}},{"properties":{"zip":"49125","geo_score":0.714,"id":"a672ruxf7l3k","geo_precision":"zip","revenue":290},"type":"Feature","geometry":{"type":"Point","coordinates":[-86.615856,41.895876]}},{"properties":{"zip":"47408","geo_score":0.714,"id":"a672rv6h2ejn","geo_precision":"zip","revenue":290},"type":"Feature","geometry":{"type":"Point","coordinates":[-86.469187,39.230326]}},{"properties":{"zip":"53215","geo_score":0.714,"id":"a672rv2t9zg9","geo_precision":"zip","revenue":290},"type":"Feature","geometry":{"type":"Point","coordinates":[-87.942935,43.006014]}},{"properties":{"zip":"60193","geo_score":0.714,"id":"a672rv7cludi","geo_precision":"zip","revenue":286},"type":"Feature","geometry":{"type":"Point","coordinates":[-88.117844,42.016827]}},{"properties":{"zip":"60644","geo_score":0.714,"id":"a672rv5j85f2","geo_precision":"zip","revenue":286},"type":"Feature","geometry":{"type":"Point","coordinates":[-87.68732,41.811929]}},{"properties":{"zip":"62269","geo_score":0.714,"id":"a672ruz2dutd","geo_precision":"zip","revenue":284},"type":"Feature","geometry":{"type":"Point","coordinates":[-89.897323,38.561438]}},{"properties":{"zip":"67206","geo_score":0.714,"id":"a672rv8avydt","geo_precision":"zip","revenue":284},"type":"Feature","geometry":{"type":"Point","coordinates":[-97.263655,37.68807]}},{"properties":{"zip":"68104","geo_score":0.714,"id":"a672rv880608","geo_precision":"zip","revenue":284},"type":"Feature","geometry":{"type":"Point","coordinates":[-95.99895,41.295396]}},{"properties":{"zip":"77092","geo_score":0.714,"id":"a672rv5uqh9q","geo_precision":"zip","revenue":284},"type":"Feature","geometry":{"type":"Point","coordinates":[-95.434241,29.83399]}},{"properties":{"zip":"48307","geo_score":0.714,"id":"a672rv3a98xn","geo_precision":"zip","revenue":284},"type":"Feature","geometry":{"type":"Point","coordinates":[-83.122482,42.659283]}},{"properties":{"zip":"22030","geo_score":0.714,"id":"a672ruvr6qb8","geo_precision":"zip","revenue":284},"type":"Feature","geometry":{"type":"Point","coordinates":[-77.40471,38.839835]}},{"properties":{"zip":"55327","geo_score":0.714,"id":"a672rv70x5s0","geo_precision":"zip","revenue":284},"type":"Feature","geometry":{"type":"Point","coordinates":[-93.482833,45.201514]}},{"properties":{"zip":"33803","geo_score":0.714,"id":"a672ruy7kj0w","geo_precision":"zip","revenue":284},"type":"Feature","geometry":{"type":"Point","coordinates":[-82.014806,28.031688]}},{"properties":{"zip":"48103","geo_score":0.714,"id":"a672ruvlrtb8","geo_precision":"zip","revenue":280},"type":"Feature","geometry":{"type":"Point","coordinates":[-83.849042,42.266638]}},{"properties":{"zip":"11232","geo_score":0.714,"id":"a672rv22k5u0","geo_precision":"zip","revenue":280},"type":"Feature","geometry":{"type":"Point","coordinates":[-73.971708,40.671186]}},{"properties":{"zip":"60628","geo_score":0.714,"id":"a672ruvbntqu","geo_precision":"zip","revenue":277},"type":"Feature","geometry":{"type":"Point","coordinates":[-87.68732,41.811929]}},{"properties":{"zip":"91724","geo_score":0.714,"id":"a672rv4g5a83","geo_precision":"zip","revenue":276},"type":"Feature","geometry":{"type":"Point","coordinates":[-117.845894,34.103065]}},{"properties":{"zip":"60302","geo_score":0.714,"id":"a672rv7uafqr","geo_precision":"zip","revenue":275},"type":"Feature","geometry":{"type":"Point","coordinates":[-87.68732,41.811929]}},{"properties":{"zip":"45371","geo_score":0.714,"id":"a672rvbnz170","geo_precision":"zip","revenue":274},"type":"Feature","geometry":{"type":"Point","coordinates":[-84.133551,39.923113]}},{"properties":{"zip":"40515","geo_score":0.714,"id":"a672ruxx47z7","geo_precision":"zip","revenue":272},"type":"Feature","geometry":{"type":"Point","coordinates":[-84.437207,37.924774]}},{"properties":{"zip":"60714","geo_score":0.714,"id":"a672rux7sdzi","geo_precision":"zip","revenue":270},"type":"Feature","geometry":{"type":"Point","coordinates":[-87.811163,42.031179]}},{"properties":{"zip":"60608","geo_score":0.714,"id":"a672rv9yrgj0","geo_precision":"zip","revenue":268},"type":"Feature","geometry":{"type":"Point","coordinates":[-87.68732,41.811929]}},{"properties":{"zip":"60514","geo_score":0.714,"id":"a672rv4uxo5j","geo_precision":"zip","revenue":266},"type":"Feature","geometry":{"type":"Point","coordinates":[-87.966094,41.774295]}},{"properties":{"zip":"60459","geo_score":0.714,"id":"a672rv38ldaa","geo_precision":"zip","revenue":264},"type":"Feature","geometry":{"type":"Point","coordinates":[-87.68732,41.811929]}},{"properties":{"zip":"60655","geo_score":0.714,"id":"a672rvb8315e","geo_precision":"zip","revenue":264},"type":"Feature","geometry":{"type":"Point","coordinates":[-87.700328,41.6842]}},{"properties":{"zip":"53925","geo_score":0.714,"id":"a672ruzuzh2o","geo_precision":"zip","revenue":262},"type":"Feature","geometry":{"type":"Point","coordinates":[-89.166225,43.40221]}},{"properties":{"zip":"46307","geo_score":0.714,"id":"a672rva10vog","geo_precision":"zip","revenue":260},"type":"Feature","geometry":{"type":"Point","coordinates":[-87.275312,41.405315]}},{"properties":{"zip":"32819","geo_score":0.714,"id":"a672rv11t10d","geo_precision":"zip","revenue":260},"type":"Feature","geometry":{"type":"Point","coordinates":[-81.46784,28.452157]}},{"properties":{"zip":"46311","geo_score":0.714,"id":"a672rv5rdfnj","geo_precision":"zip","revenue":260},"type":"Feature","geometry":{"type":"Point","coordinates":[-87.52115,41.435869]}},{"properties":{"zip":"70802","geo_score":0.714,"id":"a672rv4l8hst","geo_precision":"zip","revenue":257},"type":"Feature","geometry":{"type":"Point","coordinates":[-91.155956,30.44304]}},{"properties":{"zip":"48009","geo_score":0.714,"id":"a672ruw6eqpn","geo_precision":"zip","revenue":257},"type":"Feature","geometry":{"type":"Point","coordinates":[-83.22416,42.534834]}},{"properties":{"zip":"00976","geo_score":0.714,"id":"a672rv8tflhx","geo_precision":"zip","revenue":257},"type":"Feature","geometry":{"type":"Point","coordinates":[-65.989229,18.338133]}},{"properties":{"zip":"60423","geo_score":0.714,"id":"a672rv85xu1m","geo_precision":"zip","revenue":254},"type":"Feature","geometry":{"type":"Point","coordinates":[-87.806994,41.502534]}},{"properties":{"zip":"60521","geo_score":0.714,"id":"a672rux3am8x","geo_precision":"zip","revenue":253},"type":"Feature","geometry":{"type":"Point","coordinates":[-87.935893,41.769753]}},{"properties":{"zip":"66062","geo_score":0.714,"id":"a672rv0k2nfs","geo_precision":"zip","revenue":253},"type":"Feature","geometry":{"type":"Point","coordinates":[-94.778714,38.847391]}},{"properties":{"zip":"42102","geo_score":0.714,"id":"a672rv92u19u","geo_precision":"zip","revenue":252},"type":"Feature","geometry":{"type":"Point","coordinates":[-86.387046,36.922292]}},{"properties":{"zip":"46628","geo_score":0.714,"id":"a672ruv7ed25","geo_precision":"zip","revenue":252},"type":"Feature","geometry":{"type":"Point","coordinates":[-86.380012,41.69338]}},{"properties":{"zip":"52803","geo_score":0.714,"id":"a672ruxof3cm","geo_precision":"zip","revenue":251},"type":"Feature","geometry":{"type":"Point","coordinates":[-90.556985,41.538332]}},{"properties":{"zip":"08830","geo_score":0.714,"id":"a672rv2i5juw","geo_precision":"zip","revenue":248},"type":"Feature","geometry":{"type":"Point","coordinates":[-74.333482,40.582604]}},{"properties":{"zip":"62920","geo_score":0.714,"id":"a672ruv7my7m","geo_precision":"zip","revenue":248},"type":"Feature","geometry":{"type":"Point","coordinates":[-89.175359,37.558661]}},{"properties":{"zip":"47342","geo_score":0.714,"id":"a672rv0nskoz","geo_precision":"zip","revenue":248},"type":"Feature","geometry":{"type":"Point","coordinates":[-85.464139,40.363653]}},{"properties":{"zip":"48176","geo_score":0.714,"id":"a672rv7ivf9r","geo_precision":"zip","revenue":248},"type":"Feature","geometry":{"type":"Point","coordinates":[-83.862164,42.12893]}},{"properties":{"zip":"35173","geo_score":0.714,"id":"a672rv1edxql","geo_precision":"zip","revenue":248},"type":"Feature","geometry":{"type":"Point","coordinates":[-86.580264,33.606492]}},{"properties":{"zip":"60915","geo_score":0.714,"id":"a672rv89zttm","geo_precision":"zip","revenue":242},"type":"Feature","geometry":{"type":"Point","coordinates":[-87.842583,41.207762]}},{"properties":{"zip":"60131","geo_score":0.714,"id":"a672rv5f6gvl","geo_precision":"zip","revenue":240},"type":"Feature","geometry":{"type":"Point","coordinates":[-87.884962,41.93598]}},{"properties":{"zip":"29609","geo_score":0.714,"id":"a672ruvlykvp","geo_precision":"zip","revenue":238},"type":"Feature","geometry":{"type":"Point","coordinates":[-82.386943,34.902126]}},{"properties":{"zip":"54913","geo_score":0.714,"id":"a672rv16u5q8","geo_precision":"zip","revenue":236},"type":"Feature","geometry":{"type":"Point","coordinates":[-88.434297,44.345553]}},{"properties":{"zip":"13603","geo_score":0.714,"id":"a672ruz2l88x","geo_precision":"zip","revenue":234},"type":"Feature","geometry":{"type":"Point","coordinates":[-75.896719,43.908739]}},{"properties":{"zip":"60598","geo_score":0.714,"id":"a672ruxpod09","geo_precision":"zip","revenue":234},"type":"Feature","geometry":{"type":"Point","coordinates":[-88.088716,41.839679]}},{"properties":{"zip":"60084","geo_score":0.714,"id":"a672ruze3837","geo_precision":"zip","revenue":234},"type":"Feature","geometry":{"type":"Point","coordinates":[-88.183415,42.25419]}},{"properties":{"zip":"48335","geo_score":0.714,"id":"a672rva9w7h0","geo_precision":"zip","revenue":234},"type":"Feature","geometry":{"type":"Point","coordinates":[-83.405333,42.461669]}},{"properties":{"zip":"61264","geo_score":0.714,"id":"a672rv439r7k","geo_precision":"zip","revenue":234},"type":"Feature","geometry":{"type":"Point","coordinates":[-90.570691,41.410589]}},{"properties":{"zip":"46226","geo_score":0.714,"id":"a672rv495mf3","geo_precision":"zip","revenue":234},"type":"Feature","geometry":{"type":"Point","coordinates":[-86.091652,39.853096]}},{"properties":{"zip":"60458","geo_score":0.714,"id":"a672ruyt3fxd","geo_precision":"zip","revenue":234},"type":"Feature","geometry":{"type":"Point","coordinates":[-87.68732,41.811929]}},{"properties":{"zip":"60505","geo_score":0.714,"id":"a672rv8hvnpy","geo_precision":"zip","revenue":234},"type":"Feature","geometry":{"type":"Point","coordinates":[-88.405446,41.765478]}},{"properties":{"zip":"52401","geo_score":0.714,"id":"a672rv63as9a","geo_precision":"zip","revenue":234},"type":"Feature","geometry":{"type":"Point","coordinates":[-91.643232,41.865285]}},{"properties":{"zip":"27519","geo_score":0.714,"id":"a672rux8p12a","geo_precision":"zip","revenue":230},"type":"Feature","geometry":{"type":"Point","coordinates":[-78.829548,35.76812]}},{"properties":{"zip":"60556","geo_score":0.714,"id":"a672ruybad53","geo_precision":"zip","revenue":228},"type":"Feature","geometry":{"type":"Point","coordinates":[-88.802308,41.817529]}},{"properties":{"zip":"46545","geo_score":0.714,"id":"a672rva6ftpc","geo_precision":"zip","revenue":223},"type":"Feature","geometry":{"type":"Point","coordinates":[-86.304735,41.696407]}},{"properties":{"zip":"48044","geo_score":0.714,"id":"a672rv7smnhk","geo_precision":"zip","revenue":222},"type":"Feature","geometry":{"type":"Point","coordinates":[-82.898513,42.644211]}},{"properties":{"zip":"46385","geo_score":0.714,"id":"a672ruvfw15q","geo_precision":"zip","revenue":222},"type":"Feature","geometry":{"type":"Point","coordinates":[-87.078309,41.470567]}},{"properties":{"zip":"60466","geo_score":0.714,"id":"a672rv9ct4fs","geo_precision":"zip","revenue":222},"type":"Feature","geometry":{"type":"Point","coordinates":[-87.685325,41.592257]}},{"properties":{"zip":"23188","geo_score":0.714,"id":"a672rv1bgbk2","geo_precision":"zip","revenue":220},"type":"Feature","geometry":{"type":"Point","coordinates":[-76.773832,37.34822]}},{"properties":{"zip":"60638","geo_score":0.714,"id":"a672rv5wp30b","geo_precision":"zip","revenue":220},"type":"Feature","geometry":{"type":"Point","coordinates":[-87.800055,41.76281]}},{"properties":{"zip":"61065","geo_score":0.714,"id":"a672rv2cf3tb","geo_precision":"zip","revenue":219},"type":"Feature","geometry":{"type":"Point","coordinates":[-88.80316,42.446962]}},{"properties":{"zip":"74133","geo_score":0.714,"id":"a672ruvkrp7b","geo_precision":"zip","revenue":218},"type":"Feature","geometry":{"type":"Point","coordinates":[-95.873067,36.062203]}},{"properties":{"zip":"48911","geo_score":0.714,"id":"a672rv038x83","geo_precision":"zip","revenue":217},"type":"Feature","geometry":{"type":"Point","coordinates":[-84.543494,42.680335]}},{"properties":{"zip":"61244","geo_score":0.714,"id":"a672ruxigg20","geo_precision":"zip","revenue":216},"type":"Feature","geometry":{"type":"Point","coordinates":[-90.45652,41.457812]}},{"properties":{"zip":"48048","geo_score":0.714,"id":"a672rvbccz9l","geo_precision":"zip","revenue":216},"type":"Feature","geometry":{"type":"Point","coordinates":[-82.901316,42.761698]}},{"properties":{"zip":"41073","geo_score":0.714,"id":"a672ruwpmi6h","geo_precision":"zip","revenue":216},"type":"Feature","geometry":{"type":"Point","coordinates":[-84.473642,39.10441]}},{"properties":{"zip":"60142","geo_score":0.714,"id":"a672rv9atedl","geo_precision":"zip","revenue":214},"type":"Feature","geometry":{"type":"Point","coordinates":[-88.450815,42.197379]}},{"properties":{"zip":"46815","geo_score":0.714,"id":"a672rvbo7zig","geo_precision":"zip","revenue":214},"type":"Feature","geometry":{"type":"Point","coordinates":[-85.095248,41.13116]}},{"properties":{"zip":"62040","geo_score":0.714,"id":"a672rv75a070","geo_precision":"zip","revenue":214},"type":"Feature","geometry":{"type":"Point","coordinates":[-90.080384,38.731716]}},{"properties":{"zip":"68135","geo_score":0.714,"id":"a672ruzn73ty","geo_precision":"zip","revenue":213},"type":"Feature","geometry":{"type":"Point","coordinates":[-96.193498,41.205998]}},{"properties":{"zip":"60076","geo_score":0.714,"id":"a672ruw5ulmu","geo_precision":"zip","revenue":213},"type":"Feature","geometry":{"type":"Point","coordinates":[-87.883566,42.057878]}},{"properties":{"zip":"95366","geo_score":0.714,"id":"a672rvbnksa8","geo_precision":"zip","revenue":210},"type":"Feature","geometry":{"type":"Point","coordinates":[-121.095217,37.797983]}},{"properties":{"zip":"60542","geo_score":0.714,"id":"a672rv6im6ux","geo_precision":"zip","revenue":210},"type":"Feature","geometry":{"type":"Point","coordinates":[-88.335182,41.807369]}},{"properties":{"zip":"34711","geo_score":0.714,"id":"a672rv4e74hg","geo_precision":"zip","revenue":210},"type":"Feature","geometry":{"type":"Point","coordinates":[-81.779423,28.584025]}},{"properties":{"zip":"46260","geo_score":0.714,"id":"a672ruyxbzg1","geo_precision":"zip","revenue":209},"type":"Feature","geometry":{"type":"Point","coordinates":[-86.166933,39.875596]}},{"properties":{"zip":"60415","geo_score":0.714,"id":"a672ruw9e1vg","geo_precision":"zip","revenue":209},"type":"Feature","geometry":{"type":"Point","coordinates":[-87.68732,41.811929]}},{"properties":{"zip":"44126","geo_score":0.714,"id":"a672rvb5y46o","geo_precision":"zip","revenue":208},"type":"Feature","geometry":{"type":"Point","coordinates":[-81.869304,41.428659]}},{"properties":{"zip":"60516","geo_score":0.714,"id":"a672rv13f8fh","geo_precision":"zip","revenue":208},"type":"Feature","geometry":{"type":"Point","coordinates":[-88.021797,41.75231]}},{"properties":{"zip":"44017","geo_score":0.714,"id":"a672rv4eo2av","geo_precision":"zip","revenue":208},"type":"Feature","geometry":{"type":"Point","coordinates":[-81.693019,41.456905]}},{"properties":{"zip":"19526","geo_score":0.714,"id":"a672ruw8oena","geo_precision":"zip","revenue":208},"type":"Feature","geometry":{"type":"Point","coordinates":[-75.933263,40.53926]}},{"properties":{"zip":"84119","geo_score":0.714,"id":"a672ruydqde3","geo_precision":"zip","revenue":206},"type":"Feature","geometry":{"type":"Point","coordinates":[-111.939104,40.71328]}},{"properties":{"zip":"60499","geo_score":0.714,"id":"a672rv53t5ap","geo_precision":"zip","revenue":204},"type":"Feature","geometry":{"type":"Point","coordinates":[-87.68732,41.811929]}},{"properties":{"zip":"53511","geo_score":0.714,"id":"a672rvb70vjf","geo_precision":"zip","revenue":203},"type":"Feature","geometry":{"type":"Point","coordinates":[-89.227614,42.542234]}},{"properties":{"zip":"90034","geo_score":0.714,"id":"a672ruz319zy","geo_precision":"zip","revenue":201},"type":"Feature","geometry":{"type":"Point","coordinates":[-118.405633,34.022789]}},{"properties":{"zip":"32259","geo_score":0.714,"id":"a672rv4mqyqr","geo_precision":"zip","revenue":200},"type":"Feature","geometry":{"type":"Point","coordinates":[-81.582558,30.076654]}},{"properties":{"zip":"60085","geo_score":0.714,"id":"a672rv19kpla","geo_precision":"zip","revenue":200},"type":"Feature","geometry":{"type":"Point","coordinates":[-87.88424,42.348355]}},{"properties":{"zip":"30066","geo_score":0.714,"id":"a672ruyo70kk","geo_precision":"zip","revenue":200},"type":"Feature","geometry":{"type":"Point","coordinates":[-84.498365,34.024849]}},{"properties":{"zip":"48837","geo_score":0.714,"id":"a672rv5ywldm","geo_precision":"zip","revenue":200},"type":"Feature","geometry":{"type":"Point","coordinates":[-84.70082,42.827812]}},{"properties":{"zip":"75007","geo_score":0.714,"id":"a672rv7e7knx","geo_precision":"zip","revenue":200},"type":"Feature","geometry":{"type":"Point","coordinates":[-96.895893,33.007436]}},{"properties":{"zip":"57106","geo_score":0.714,"id":"a672rv3m4ag0","geo_precision":"zip","revenue":200},"type":"Feature","geometry":{"type":"Point","coordinates":[-96.648658,43.474976]}},{"properties":{"zip":"60030","geo_score":0.714,"id":"a672rv11wcqv","geo_precision":"zip","revenue":200},"type":"Feature","geometry":{"type":"Point","coordinates":[-87.998133,42.3428]}},{"properties":{"zip":"26241","geo_score":0.714,"id":"a672rv9c7s7d","geo_precision":"zip","revenue":200},"type":"Feature","geometry":{"type":"Point","coordinates":[-79.869791,38.907329]}},{"properties":{"zip":"60118","geo_score":0.714,"id":"a672ruzttpxm","geo_precision":"zip","revenue":200},"type":"Feature","geometry":{"type":"Point","coordinates":[-88.282858,42.098081]}},{"properties":{"zip":"60805","geo_score":0.714,"id":"a672rv03g1k7","geo_precision":"zip","revenue":200},"type":"Feature","geometry":{"type":"Point","coordinates":[-87.68732,41.811929]}},{"properties":{"zip":"50310","geo_score":0.714,"id":"a672rv5pi07d","geo_precision":"zip","revenue":200},"type":"Feature","geometry":{"type":"Point","coordinates":[-93.680954,41.623438]}},{"properties":{"zip":"60623","geo_score":0.714,"id":"a672rv618hri","geo_precision":"zip","revenue":200},"type":"Feature","geometry":{"type":"Point","coordinates":[-87.68732,41.811929]}},{"properties":{"zip":"50317","geo_score":0.714,"id":"a672rv9yp17s","geo_precision":"zip","revenue":200},"type":"Feature","geometry":{"type":"Point","coordinates":[-93.481602,41.593323]}},{"properties":{"zip":"22027","geo_score":0.714,"id":"a672ruwpmzg6","geo_precision":"zip","revenue":200},"type":"Feature","geometry":{"type":"Point","coordinates":[-77.221453,38.895078]}},{"properties":{"zip":"63303","geo_score":0.714,"id":"a672rvbgx60o","geo_precision":"zip","revenue":199},"type":"Feature","geometry":{"type":"Point","coordinates":[-90.580678,38.745885]}},{"properties":{"zip":"60827","geo_score":0.714,"id":"a672rv3z9gnl","geo_precision":"zip","revenue":199},"type":"Feature","geometry":{"type":"Point","coordinates":[-87.68732,41.811929]}},{"properties":{"zip":"32135","geo_score":0.714,"id":"a672rv9clyrb","geo_precision":"zip","revenue":198},"type":"Feature","geometry":{"type":"Point","coordinates":[-81.282815,29.466085]}},{"properties":{"zip":"60093","geo_score":0.714,"id":"a672rv1fj84l","geo_precision":"zip","revenue":197},"type":"Feature","geometry":{"type":"Point","coordinates":[-87.647822,41.501702]}},{"properties":{"zip":"63128","geo_score":0.714,"id":"a672ruz9soy7","geo_precision":"zip","revenue":196},"type":"Feature","geometry":{"type":"Point","coordinates":[-90.35734,38.524498]}},{"properties":{"zip":"76063","geo_score":0.714,"id":"a672rux16t83","geo_precision":"zip","revenue":196},"type":"Feature","geometry":{"type":"Point","coordinates":[-97.13251,32.614857]}},{"properties":{"zip":"61606","geo_score":0.714,"id":"a672rv836ljh","geo_precision":"zip","revenue":196},"type":"Feature","geometry":{"type":"Point","coordinates":[-89.608697,40.698087]}},{"properties":{"zip":"60004","geo_score":0.714,"id":"a672rvb1keyb","geo_precision":"zip","revenue":196},"type":"Feature","geometry":{"type":"Point","coordinates":[-87.99822,42.085626]}},{"properties":{"zip":"49504","geo_score":0.714,"id":"a672ruv66vdi","geo_precision":"zip","revenue":196},"type":"Feature","geometry":{"type":"Point","coordinates":[-85.834205,42.992524]}},{"properties":{"zip":"97035","geo_score":0.714,"id":"a672rv952pux","geo_precision":"zip","revenue":196},"type":"Feature","geometry":{"type":"Point","coordinates":[-122.723058,45.408077]}},{"properties":{"zip":"42701","geo_score":0.714,"id":"a672rv4ueu0g","geo_precision":"zip","revenue":196},"type":"Feature","geometry":{"type":"Point","coordinates":[-85.966352,37.698397]}},{"properties":{"zip":"60561","geo_score":0.714,"id":"a672ruw0hs0q","geo_precision":"zip","revenue":196},"type":"Feature","geometry":{"type":"Point","coordinates":[-87.98046,41.743437]}},{"properties":{"zip":"60602","geo_score":0.714,"id":"a672rv0n8j9k","geo_precision":"zip","revenue":196},"type":"Feature","geometry":{"type":"Point","coordinates":[-87.68732,41.811929]}},{"properties":{"zip":"60007","geo_score":0.714,"id":"a672ruv80xc2","geo_precision":"zip","revenue":196},"type":"Feature","geometry":{"type":"Point","coordinates":[-87.905866,42.020278]}},{"properties":{"zip":"60025","geo_score":0.714,"id":"a672rv8atgkl","geo_precision":"zip","revenue":195},"type":"Feature","geometry":{"type":"Point","coordinates":[-87.875345,42.086694]}},{"properties":{"zip":"63139","geo_score":0.714,"id":"a672ruv7im0y","geo_precision":"zip","revenue":195},"type":"Feature","geometry":{"type":"Point","coordinates":[-90.291814,38.613501]}},{"properties":{"zip":"28214","geo_score":0.714,"id":"a672rv5wl538","geo_precision":"zip","revenue":195},"type":"Feature","geometry":{"type":"Point","coordinates":[-80.894795,35.301807]}},{"properties":{"zip":"49047","geo_score":0.714,"id":"a672rv1hbjfe","geo_precision":"zip","revenue":194},"type":"Feature","geometry":{"type":"Point","coordinates":[-86.199739,42.072265]}},{"properties":{"zip":"67060","geo_score":0.714,"id":"a672rv6aqnxc","geo_precision":"zip","revenue":194},"type":"Feature","geometry":{"type":"Point","coordinates":[-97.36324,37.542404]}},{"properties":{"zip":"46350","geo_score":0.714,"id":"a672rv0f3ruv","geo_precision":"zip","revenue":194},"type":"Feature","geometry":{"type":"Point","coordinates":[-86.690024,41.716987]}},{"properties":{"zip":"60443","geo_score":0.714,"id":"a672ruw3116v","geo_precision":"zip","revenue":194},"type":"Feature","geometry":{"type":"Point","coordinates":[-87.71338,41.520868]}},{"properties":{"zip":"45212","geo_score":0.714,"id":"a672ruxzqphv","geo_precision":"zip","revenue":194},"type":"Feature","geometry":{"type":"Point","coordinates":[-84.454342,39.187659]}},{"properties":{"zip":"45431","geo_score":0.714,"id":"a672rv9ev03d","geo_precision":"zip","revenue":194},"type":"Feature","geometry":{"type":"Point","coordinates":[-84.057435,39.727837]}},{"properties":{"zip":"94062","geo_score":0.714,"id":"a672rv2futug","geo_precision":"zip","revenue":190},"type":"Feature","geometry":{"type":"Point","coordinates":[-122.262745,37.383551]}},{"properties":{"zip":"60525","geo_score":0.714,"id":"a672rv6rg17h","geo_precision":"zip","revenue":188},"type":"Feature","geometry":{"type":"Point","coordinates":[-87.902281,41.770309]}},{"properties":{"zip":"80126","geo_score":0.714,"id":"a672rv5eic4g","geo_precision":"zip","revenue":188},"type":"Feature","geometry":{"type":"Point","coordinates":[-104.969426,39.553877]}},{"properties":{"zip":"60506","geo_score":0.714,"id":"a672rv1r5q1j","geo_precision":"zip","revenue":188},"type":"Feature","geometry":{"type":"Point","coordinates":[-88.416837,41.79083]}},{"properties":{"zip":"46384","geo_score":0.714,"id":"a672rv5kaqig","geo_precision":"zip","revenue":188},"type":"Feature","geometry":{"type":"Point","coordinates":[-87.076094,41.490545]}},{"properties":{"zip":"60153","geo_score":0.714,"id":"a672rv8bc1xk","geo_precision":"zip","revenue":188},"type":"Feature","geometry":{"type":"Point","coordinates":[-87.853393,41.86392]}},{"properties":{"zip":"46060","geo_score":0.714,"id":"a672rv5enzk2","geo_precision":"zip","revenue":188},"type":"Feature","geometry":{"type":"Point","coordinates":[-86.020818,40.048092]}},{"properties":{"zip":"60645","geo_score":0.714,"id":"a672rv4bsty7","geo_precision":"zip","revenue":188},"type":"Feature","geometry":{"type":"Point","coordinates":[-87.730059,42.004476]}},{"properties":{"zip":"48473","geo_score":0.714,"id":"a672rvazhslj","geo_precision":"zip","revenue":187},"type":"Feature","geometry":{"type":"Point","coordinates":[-83.750511,42.914472]}},{"properties":{"zip":"84070","geo_score":0.714,"id":"a672rv12iz7g","geo_precision":"zip","revenue":186},"type":"Feature","geometry":{"type":"Point","coordinates":[-111.864378,40.565782]}},{"properties":{"zip":"48169","geo_score":0.714,"id":"a672rvb3axkt","geo_precision":"zip","revenue":186},"type":"Feature","geometry":{"type":"Point","coordinates":[-83.869389,42.475312]}},{"properties":{"zip":"78216","geo_score":0.714,"id":"a672rv2c4zfz","geo_precision":"zip","revenue":180},"type":"Feature","geometry":{"type":"Point","coordinates":[-98.478975,29.173285]}},{"properties":{"zip":"02421","geo_score":0.714,"id":"a672rv9f39bx","geo_precision":"zip","revenue":180},"type":"Feature","geometry":{"type":"Point","coordinates":[-71.226453,42.442567]}},{"properties":{"zip":"47201","geo_score":0.714,"id":"a672rv0lr88j","geo_precision":"zip","revenue":180},"type":"Feature","geometry":{"type":"Point","coordinates":[-85.891338,39.191447]}},{"properties":{"zip":"94565","geo_score":0.714,"id":"a672ruwz41r3","geo_precision":"zip","revenue":180},"type":"Feature","geometry":{"type":"Point","coordinates":[-121.937182,38.026865]}},{"properties":{"zip":"10029","geo_score":0.714,"id":"a672ruvji2zt","geo_precision":"zip","revenue":178},"type":"Feature","geometry":{"type":"Point","coordinates":[-73.943517,40.791884]}},{"properties":{"zip":"48186","geo_score":0.714,"id":"a672rvbfn3py","geo_precision":"zip","revenue":178},"type":"Feature","geometry":{"type":"Point","coordinates":[-83.368582,42.28902]}},{"properties":{"zip":"60462","geo_score":0.714,"id":"a672rv9v31dl","geo_precision":"zip","revenue":177},"type":"Feature","geometry":{"type":"Point","coordinates":[-87.823385,41.570033]}},{"properties":{"zip":"48104","geo_score":0.714,"id":"a672rv7jsyw4","geo_precision":"zip","revenue":177},"type":"Feature","geometry":{"type":"Point","coordinates":[-83.727826,42.270903]}},{"properties":{"zip":"02038","geo_score":0.714,"id":"a672rv6bzn4c","geo_precision":"zip","revenue":173},"type":"Feature","geometry":{"type":"Point","coordinates":[-71.424504,42.090931]}},{"properties":{"zip":"87121","geo_score":0.714,"id":"a672rv08hkpe","geo_precision":"zip","revenue":172},"type":"Feature","geometry":{"type":"Point","coordinates":[-106.666692,35.066158]}},{"properties":{"zip":"42262","geo_score":0.714,"id":"a672rv6whgq2","geo_precision":"zip","revenue":172},"type":"Feature","geometry":{"type":"Point","coordinates":[-87.415009,36.64838]}},{"properties":{"zip":"62417","geo_score":0.714,"id":"a672ruzbuh8p","geo_precision":"zip","revenue":172},"type":"Feature","geometry":{"type":"Point","coordinates":[-87.778918,38.760603]}},{"properties":{"zip":"63033","geo_score":0.714,"id":"a672ruyyfbt4","geo_precision":"zip","revenue":172},"type":"Feature","geometry":{"type":"Point","coordinates":[-90.267335,38.793383]}},{"properties":{"zip":"60901","geo_score":0.714,"id":"a672rv9wbw15","geo_precision":"zip","revenue":172},"type":"Feature","geometry":{"type":"Point","coordinates":[-87.888099,41.118644]}},{"properties":{"zip":"40165","geo_score":0.714,"id":"a672rv2u82w0","geo_precision":"zip","revenue":170},"type":"Feature","geometry":{"type":"Point","coordinates":[-85.670514,38.0634]}},{"properties":{"zip":"85233","geo_score":0.714,"id":"a672rvbc3vu2","geo_precision":"zip","revenue":170},"type":"Feature","geometry":{"type":"Point","coordinates":[-111.337072,33.259499]}},{"properties":{"zip":"64112","geo_score":0.714,"id":"a672ruzq3tb8","geo_precision":"zip","revenue":169},"type":"Feature","geometry":{"type":"Point","coordinates":[-94.594981,39.035705]}},{"properties":{"zip":"60012","geo_score":0.714,"id":"a672rv7q78qs","geo_precision":"zip","revenue":168},"type":"Feature","geometry":{"type":"Point","coordinates":[-88.361476,42.268356]}},{"properties":{"zip":"29621","geo_score":0.714,"id":"a672rv4ngvin","geo_precision":"zip","revenue":168},"type":"Feature","geometry":{"type":"Point","coordinates":[-82.638297,34.492718]}},{"properties":{"zip":"92679","geo_score":0.714,"id":"a672ruz7kgmp","geo_precision":"zip","revenue":168},"type":"Feature","geometry":{"type":"Point","coordinates":[-117.631161,33.679187]}},{"properties":{"zip":"48034","geo_score":0.714,"id":"a672rv6hypqf","geo_precision":"zip","revenue":168},"type":"Feature","geometry":{"type":"Point","coordinates":[-83.424938,42.600032]}},{"properties":{"zip":"97124","geo_score":0.714,"id":"a672rv74qgl2","geo_precision":"zip","revenue":168},"type":"Feature","geometry":{"type":"Point","coordinates":[-122.953316,45.62337]}},{"properties":{"zip":"49015","geo_score":0.714,"id":"a672ruvsg6wo","geo_precision":"zip","revenue":166},"type":"Feature","geometry":{"type":"Point","coordinates":[-85.173602,42.298653]}},{"properties":{"zip":"49201","geo_score":0.714,"id":"a672rv8ga2lk","geo_precision":"zip","revenue":166},"type":"Feature","geometry":{"type":"Point","coordinates":[-84.483571,42.258647]}},{"properties":{"zip":"60656","geo_score":0.714,"id":"a672rv7p38k5","geo_precision":"zip","revenue":166},"type":"Feature","geometry":{"type":"Point","coordinates":[-87.827284,41.963364]}},{"properties":{"zip":"60609","geo_score":0.714,"id":"a672rv0xoobr","geo_precision":"zip","revenue":166},"type":"Feature","geometry":{"type":"Point","coordinates":[-87.68732,41.811929]}},{"properties":{"zip":"66046","geo_score":0.714,"id":"a672rv17f3e5","geo_precision":"zip","revenue":166},"type":"Feature","geometry":{"type":"Point","coordinates":[-95.315453,38.878682]}},{"properties":{"zip":"48173","geo_score":0.714,"id":"a672rv3ablu2","geo_precision":"zip","revenue":166},"type":"Feature","geometry":{"type":"Point","coordinates":[-83.186871,42.049488]}},{"properties":{"zip":"60173","geo_score":0.714,"id":"a672ruz0bjad","geo_precision":"zip","revenue":165},"type":"Feature","geometry":{"type":"Point","coordinates":[-88.046403,42.079837]}},{"properties":{"zip":"35824","geo_score":0.714,"id":"a672ruwpw6bp","geo_precision":"zip","revenue":165},"type":"Feature","geometry":{"type":"Point","coordinates":[-86.752294,34.645603]}},{"properties":{"zip":"60110","geo_score":0.714,"id":"a672rv4g2k86","geo_precision":"zip","revenue":165},"type":"Feature","geometry":{"type":"Point","coordinates":[-88.297238,42.125008]}},{"properties":{"zip":"60008","geo_score":0.714,"id":"a672rv5drr3k","geo_precision":"zip","revenue":165},"type":"Feature","geometry":{"type":"Point","coordinates":[-88.026871,42.074226]}},{"properties":{"zip":"60018","geo_score":0.714,"id":"a672rv1dkt3m","geo_precision":"zip","revenue":164},"type":"Feature","geometry":{"type":"Point","coordinates":[-87.884509,41.995308]}},{"properties":{"zip":"56073","geo_score":0.714,"id":"a672rv221sy2","geo_precision":"zip","revenue":164},"type":"Feature","geometry":{"type":"Point","coordinates":[-94.532478,44.389407]}},{"properties":{"zip":"43125","geo_score":0.714,"id":"a672ruxh013z","geo_precision":"zip","revenue":162},"type":"Feature","geometry":{"type":"Point","coordinates":[-82.88487,39.84692]}},{"properties":{"zip":"92506","geo_score":0.714,"id":"a672ruznsl0e","geo_precision":"zip","revenue":162},"type":"Feature","geometry":{"type":"Point","coordinates":[-116.055617,33.752886]}},{"properties":{"zip":"46725","geo_score":0.714,"id":"a672rv02ws8a","geo_precision":"zip","revenue":160},"type":"Feature","geometry":{"type":"Point","coordinates":[-85.509423,41.048379]}},{"properties":{"zip":"10011","geo_score":0.714,"id":"a672rv7vkcm6","geo_precision":"zip","revenue":160},"type":"Feature","geometry":{"type":"Point","coordinates":[-73.999769,40.740916]}},{"properties":{"zip":"29710","geo_score":0.714,"id":"a672rv8fr972","geo_precision":"zip","revenue":160},"type":"Feature","geometry":{"type":"Point","coordinates":[-81.042854,35.108476]}},{"properties":{"zip":"78681","geo_score":0.714,"id":"a672rv5en5p3","geo_precision":"zip","revenue":160},"type":"Feature","geometry":{"type":"Point","coordinates":[-97.718672,30.52398]}},{"properties":{"zip":"60126","geo_score":0.714,"id":"a672rv5kiv30","geo_precision":"zip","revenue":160},"type":"Feature","geometry":{"type":"Point","coordinates":[-87.948396,41.863364]}},{"properties":{"zip":"60411","geo_score":0.714,"id":"a672ruvf8ce8","geo_precision":"zip","revenue":158},"type":"Feature","geometry":{"type":"Point","coordinates":[-87.637821,41.480868]}},{"properties":{"zip":"46304","geo_score":0.714,"id":"a672rv6hitu1","geo_precision":"zip","revenue":156},"type":"Feature","geometry":{"type":"Point","coordinates":[-87.04142,41.562817]}},{"properties":{"zip":"91789","geo_score":0.714,"id":"a672ruxq9t8d","geo_precision":"zip","revenue":156},"type":"Feature","geometry":{"type":"Point","coordinates":[-118.298662,33.786594]}},{"properties":{"zip":"60637","geo_score":0.714,"id":"a672rv30hqcn","geo_precision":"zip","revenue":156},"type":"Feature","geometry":{"type":"Point","coordinates":[-87.68732,41.811929]}},{"properties":{"zip":"33859","geo_score":0.714,"id":"a672ruxrf1o6","geo_precision":"zip","revenue":156},"type":"Feature","geometry":{"type":"Point","coordinates":[-81.522998,27.885359]}},{"properties":{"zip":"66047","geo_score":0.714,"id":"a672ruzb9mhm","geo_precision":"zip","revenue":156},"type":"Feature","geometry":{"type":"Point","coordinates":[-95.338066,38.88437]}},{"properties":{"zip":"54956","geo_score":0.714,"id":"a672rv7fkzqo","geo_precision":"zip","revenue":156},"type":"Feature","geometry":{"type":"Point","coordinates":[-88.658087,44.170785]}},{"properties":{"zip":"53151","geo_score":0.714,"id":"a672ruvxtrt8","geo_precision":"zip","revenue":150},"type":"Feature","geometry":{"type":"Point","coordinates":[-88.158979,42.944458]}},{"properties":{"zip":"87120","geo_score":0.714,"id":"a672ruye7eqr","geo_precision":"zip","revenue":150},"type":"Feature","geometry":{"type":"Point","coordinates":[-106.704983,35.119742]}},{"properties":{"zip":"60475","geo_score":0.714,"id":"a672rv48srxy","geo_precision":"zip","revenue":150},"type":"Feature","geometry":{"type":"Point","coordinates":[-87.68732,41.811929]}},{"properties":{"zip":"60603","geo_score":0.714,"id":"a672ruw8cjch","geo_precision":"zip","revenue":150},"type":"Feature","geometry":{"type":"Point","coordinates":[-87.72596,42.055179]}},{"properties":{"zip":"81657","geo_score":0.714,"id":"a672rvaqzyys","geo_precision":"zip","revenue":148},"type":"Feature","geometry":{"type":"Point","coordinates":[-106.414752,39.630264]}},{"properties":{"zip":"96797","geo_score":0.714,"id":"a672rv4pcknp","geo_precision":"zip","revenue":148},"type":"Feature","geometry":{"type":"Point","coordinates":[-157.999444,21.408889]}},{"properties":{"zip":"48126","geo_score":0.714,"id":"a672rvae2de8","geo_precision":"zip","revenue":148},"type":"Feature","geometry":{"type":"Point","coordinates":[-83.225877,42.271811]}},{"properties":{"zip":"46033","geo_score":0.714,"id":"a672rv4s3mho","geo_precision":"zip","revenue":146},"type":"Feature","geometry":{"type":"Point","coordinates":[-86.082936,39.974404]}},{"properties":{"zip":"61866","geo_score":0.714,"id":"a672ruy5zqyo","geo_precision":"zip","revenue":145},"type":"Feature","geometry":{"type":"Point","coordinates":[-88.233105,40.318922]}},{"properties":{"zip":"33166","geo_score":0.714,"id":"a672rv4pcl6j","geo_precision":"zip","revenue":144},"type":"Feature","geometry":{"type":"Point","coordinates":[-80.193659,25.774266]}},{"properties":{"zip":"63130","geo_score":0.714,"id":"a672rv26cmce","geo_precision":"zip","revenue":143},"type":"Feature","geometry":{"type":"Point","coordinates":[-90.309281,38.655885]}},{"properties":{"zip":"53226","geo_score":0.714,"id":"a672ruxxiwea","geo_precision":"zip","revenue":141},"type":"Feature","geometry":{"type":"Point","coordinates":[-88.041387,43.049312]}},{"properties":{"zip":"77042","geo_score":0.714,"id":"a672rv48cvi7","geo_precision":"zip","revenue":140},"type":"Feature","geometry":{"type":"Point","coordinates":[-95.434241,29.83399]}},{"properties":{"zip":"47203","geo_score":0.714,"id":"a672rv4byveo","geo_precision":"zip","revenue":138},"type":"Feature","geometry":{"type":"Point","coordinates":[-85.827439,39.241129]}},{"properties":{"zip":"61101","geo_score":0.714,"id":"a672rvb15rq0","geo_precision":"zip","revenue":136},"type":"Feature","geometry":{"type":"Point","coordinates":[-89.157198,42.33342]}},{"properties":{"zip":"72211","geo_score":0.714,"id":"a672rv3vvldr","geo_precision":"zip","revenue":134},"type":"Feature","geometry":{"type":"Point","coordinates":[-92.430851,34.783664]}},{"properties":{"zip":"77346","geo_score":0.714,"id":"a672rv3ekyy7","geo_precision":"zip","revenue":134},"type":"Feature","geometry":{"type":"Point","coordinates":[-95.176598,29.998831]}},{"properties":{"zip":"70121","geo_score":0.714,"id":"a672ruz3iovn","geo_precision":"zip","revenue":134},"type":"Feature","geometry":{"type":"Point","coordinates":[-90.142852,29.962426]}},{"properties":{"zip":"92316","geo_score":0.714,"id":"a672rv2akox2","geo_precision":"zip","revenue":132},"type":"Feature","geometry":{"type":"Point","coordinates":[-117.396157,34.044458]}},{"properties":{"zip":"47546","geo_score":0.714,"id":"a672ruxuzbqf","geo_precision":"zip","revenue":132},"type":"Feature","geometry":{"type":"Point","coordinates":[-86.978335,38.499496]}},{"properties":{"zip":"60172","geo_score":0.714,"id":"a672rv265tny","geo_precision":"zip","revenue":132},"type":"Feature","geometry":{"type":"Point","coordinates":[-88.12035,41.967528]}},{"properties":{"zip":"60426","geo_score":0.714,"id":"a672rv64s05t","geo_precision":"zip","revenue":130},"type":"Feature","geometry":{"type":"Point","coordinates":[-87.634768,41.611146]}},{"properties":{"zip":"68116","geo_score":0.714,"id":"a672ruwmmoxu","geo_precision":"zip","revenue":128},"type":"Feature","geometry":{"type":"Point","coordinates":[-96.167398,41.293997]}},{"properties":{"zip":"46241","geo_score":0.714,"id":"a672ruxlirym","geo_precision":"zip","revenue":126},"type":"Feature","geometry":{"type":"Point","coordinates":[-86.261378,39.747544]}},{"properties":{"zip":"30189","geo_score":0.714,"id":"a672rv2xkuea","geo_precision":"zip","revenue":126},"type":"Feature","geometry":{"type":"Point","coordinates":[-84.47725,34.147985]}},{"properties":{"zip":"11003","geo_score":0.714,"id":"a672ruzem8zr","geo_precision":"zip","revenue":123},"type":"Feature","geometry":{"type":"Point","coordinates":[-73.700131,40.714269]}},{"properties":{"zip":"60002","geo_score":0.714,"id":"a672rv5qfd8f","geo_precision":"zip","revenue":121},"type":"Feature","geometry":{"type":"Point","coordinates":[-89.146751,41.498089]}},{"properties":{"zip":"42086","geo_score":0.714,"id":"a672rvax2otc","geo_precision":"zip","revenue":120},"type":"Feature","geometry":{"type":"Point","coordinates":[-88.715608,37.114221]}},{"properties":{"zip":"52655","geo_score":0.714,"id":"a672ruvk1de5","geo_precision":"zip","revenue":120},"type":"Feature","geometry":{"type":"Point","coordinates":[-91.252372,40.879204]}},{"properties":{"zip":"80002","geo_score":0.714,"id":"a672ruwo4ztj","geo_precision":"zip","revenue":120},"type":"Feature","geometry":{"type":"Point","coordinates":[-105.109236,39.827818]}},{"properties":{"zip":"21093","geo_score":0.714,"id":"a672rv8i8t80","geo_precision":"zip","revenue":120},"type":"Feature","geometry":{"type":"Point","coordinates":[-76.601635,39.436495]}},{"properties":{"zip":"37220","geo_score":0.714,"id":"a672ruye9wbn","geo_precision":"zip","revenue":120},"type":"Feature","geometry":{"type":"Point","coordinates":[-86.783055,36.087837]}},{"properties":{"zip":"60201","geo_score":0.714,"id":"a672rv42iqx5","geo_precision":"zip","revenue":120},"type":"Feature","geometry":{"type":"Point","coordinates":[-87.702155,42.049148]}},{"properties":{"zip":"60062","geo_score":0.714,"id":"a672ruwxi3sa","geo_precision":"zip","revenue":120},"type":"Feature","geometry":{"type":"Point","coordinates":[-87.838815,42.120176]}},{"properties":{"zip":"60431","geo_score":0.714,"id":"a672rv171xwe","geo_precision":"zip","revenue":119},"type":"Feature","geometry":{"type":"Point","coordinates":[-88.081724,41.491698]}},{"properties":{"zip":"47305","geo_score":0.714,"id":"a672rv6hm9i5","geo_precision":"zip","revenue":118},"type":"Feature","geometry":{"type":"Point","coordinates":[-85.433223,40.247979]}},{"properties":{"zip":"53144","geo_score":0.714,"id":"a672rv9zma7h","geo_precision":"zip","revenue":118},"type":"Feature","geometry":{"type":"Point","coordinates":[-87.948079,42.618427]}},{"properties":{"zip":"19064","geo_score":0.714,"id":"a672rv68jbsw","geo_precision":"zip","revenue":118},"type":"Feature","geometry":{"type":"Point","coordinates":[-75.341583,39.931858]}},{"properties":{"zip":"60706","geo_score":0.714,"id":"a672rv0jo05p","geo_precision":"zip","revenue":118},"type":"Feature","geometry":{"type":"Point","coordinates":[-87.68732,41.811929]}},{"properties":{"zip":"78759","geo_score":0.714,"id":"a672rv4iodwr","geo_precision":"zip","revenue":118},"type":"Feature","geometry":{"type":"Point","coordinates":[-97.849453,30.339093]}},{"properties":{"zip":"46069","geo_score":0.714,"id":"a672ruw7i4e4","geo_precision":"zip","revenue":118},"type":"Feature","geometry":{"type":"Point","coordinates":[-86.280273,40.165315]}},{"properties":{"zip":"60430","geo_score":0.714,"id":"a672rvavjx1u","geo_precision":"zip","revenue":118},"type":"Feature","geometry":{"type":"Point","coordinates":[-87.693935,41.535868]}},{"properties":{"zip":"60639","geo_score":0.714,"id":"a672ruvy4kiu","geo_precision":"zip","revenue":117},"type":"Feature","geometry":{"type":"Point","coordinates":[-87.68732,41.811929]}},{"properties":{"zip":"53528","geo_score":0.714,"id":"a672rv315oqy","geo_precision":"zip","revenue":116},"type":"Feature","geometry":{"type":"Point","coordinates":[-89.655678,43.060829]}},{"properties":{"zip":"60481","geo_score":0.714,"id":"a672rva3ld9w","geo_precision":"zip","revenue":116},"type":"Feature","geometry":{"type":"Point","coordinates":[-88.052554,41.328643]}},{"properties":{"zip":"61820","geo_score":0.714,"id":"a672rv1xdgnc","geo_precision":"zip","revenue":116},"type":"Feature","geometry":{"type":"Point","coordinates":[-88.235605,40.142532]}},{"properties":{"zip":"79424","geo_score":0.714,"id":"a672ruz4g8es","geo_precision":"zip","revenue":115},"type":"Feature","geometry":{"type":"Point","coordinates":[-101.983125,33.492483]}},{"properties":{"zip":"46107","geo_score":0.714,"id":"a672rv55vznh","geo_precision":"zip","revenue":115},"type":"Feature","geometry":{"type":"Point","coordinates":[-86.093293,39.713893]}},{"properties":{"zip":"40214","geo_score":0.714,"id":"a672rv7tjkik","geo_precision":"zip","revenue":112},"type":"Feature","geometry":{"type":"Point","coordinates":[-85.788862,38.163269]}},{"properties":{"zip":"45044","geo_score":0.714,"id":"a672ruwautn0","geo_precision":"zip","revenue":112},"type":"Feature","geometry":{"type":"Point","coordinates":[-84.418832,39.480891]}},{"properties":{"zip":"60440","geo_score":0.714,"id":"a672rv5yvn8s","geo_precision":"zip","revenue":112},"type":"Feature","geometry":{"type":"Point","coordinates":[-88.022464,41.623336]}},{"properties":{"zip":"44281","geo_score":0.714,"id":"a672rv5xs4kr","geo_precision":"zip","revenue":112},"type":"Feature","geometry":{"type":"Point","coordinates":[-81.751008,41.071841]}},{"properties":{"zip":"46808","geo_score":0.714,"id":"a672ruvb06ly","geo_precision":"zip","revenue":112},"type":"Feature","geometry":{"type":"Point","coordinates":[-85.184121,41.093898]}},{"properties":{"zip":"60425","geo_score":0.714,"id":"a672rv1eo82j","geo_precision":"zip","revenue":112},"type":"Feature","geometry":{"type":"Point","coordinates":[-87.68732,41.811929]}},{"properties":{"zip":"62294","geo_score":0.714,"id":"a672rux1ossm","geo_precision":"zip","revenue":112},"type":"Feature","geometry":{"type":"Point","coordinates":[-89.895817,38.721612]}},{"properties":{"zip":"60432","geo_score":0.714,"id":"a672ruwlwemp","geo_precision":"zip","revenue":112},"type":"Feature","geometry":{"type":"Point","coordinates":[-87.777556,41.804754]}},{"properties":{"zip":"70810","geo_score":0.714,"id":"a672rv568546","geo_precision":"zip","revenue":112},"type":"Feature","geometry":{"type":"Point","coordinates":[-91.072118,30.355342]}},{"properties":{"zip":"10471","geo_score":0.714,"id":"a672rv320fu7","geo_precision":"zip","revenue":109},"type":"Feature","geometry":{"type":"Point","coordinates":[-73.90639,40.90056]}},{"properties":{"zip":"53154","geo_score":0.714,"id":"a672rv79e6bh","geo_precision":"zip","revenue":107},"type":"Feature","geometry":{"type":"Point","coordinates":[-87.924527,42.858073]}},{"properties":{"zip":"63034","geo_score":0.714,"id":"a672rv0oup4y","geo_precision":"zip","revenue":106},"type":"Feature","geometry":{"type":"Point","coordinates":[-90.338448,38.861438]}},{"properties":{"zip":"43119","geo_score":0.714,"id":"a672rv5176qj","geo_precision":"zip","revenue":106},"type":"Feature","geometry":{"type":"Point","coordinates":[-83.174634,39.95034]}},{"properties":{"zip":"48118","geo_score":0.714,"id":"a672rv7y791z","geo_precision":"zip","revenue":104},"type":"Feature","geometry":{"type":"Point","coordinates":[-84.013999,42.31375]}},{"properties":{"zip":"60160","geo_score":0.714,"id":"a672rv7zcj7o","geo_precision":"zip","revenue":102},"type":"Feature","geometry":{"type":"Point","coordinates":[-87.858707,41.91488]}},{"properties":{"zip":"60649","geo_score":0.714,"id":"a672rv6r1uj2","geo_precision":"zip","revenue":102},"type":"Feature","geometry":{"type":"Point","coordinates":[-87.68732,41.811929]}},{"properties":{"zip":"60406","geo_score":0.714,"id":"a672rv2qwckc","geo_precision":"zip","revenue":101},"type":"Feature","geometry":{"type":"Point","coordinates":[-87.68732,41.811929]}},{"properties":{"zip":"60482","geo_score":0.714,"id":"a672rvblld8z","geo_precision":"zip","revenue":100},"type":"Feature","geometry":{"type":"Point","coordinates":[-87.740051,41.683367]}},{"properties":{"zip":"28078","geo_score":0.714,"id":"a672ruwzo8cr","geo_precision":"zip","revenue":100},"type":"Feature","geometry":{"type":"Point","coordinates":[-78.498332,36.428755]}},{"properties":{"zip":"34787","geo_score":0.714,"id":"a672rv9vxifc","geo_precision":"zip","revenue":100},"type":"Feature","geometry":{"type":"Point","coordinates":[-81.512343,28.468581]}},{"properties":{"zip":"48509","geo_score":0.714,"id":"a672rv3xw8y6","geo_precision":"zip","revenue":98},"type":"Feature","geometry":{"type":"Point","coordinates":[-83.604053,43.025934]}},{"properties":{"zip":"78602","geo_score":0.714,"id":"a672ruxpdomz","geo_precision":"zip","revenue":96},"type":"Feature","geometry":{"type":"Point","coordinates":[-97.420829,30.181881]}},{"properties":{"zip":"20832","geo_score":0.714,"id":"a672ruwg9f5v","geo_precision":"zip","revenue":96},"type":"Feature","geometry":{"type":"Point","coordinates":[-77.077651,39.150364]}},{"properties":{"zip":"63112","geo_score":0.714,"id":"a672rv2i3hwt","geo_precision":"zip","revenue":96},"type":"Feature","geometry":{"type":"Point","coordinates":[-90.299281,38.672829]}},{"properties":{"zip":"77429","geo_score":0.714,"id":"a672rv880kcu","geo_precision":"zip","revenue":94},"type":"Feature","geometry":{"type":"Point","coordinates":[-95.434241,29.83399]}},{"properties":{"zip":"87544","geo_score":0.714,"id":"a672rv1y1k2p","geo_precision":"zip","revenue":94},"type":"Feature","geometry":{"type":"Point","coordinates":[-106.175303,35.875581]}},{"properties":{"zip":"55426","geo_score":0.714,"id":"a672rv2ptfxb","geo_precision":"zip","revenue":94},"type":"Feature","geometry":{"type":"Point","coordinates":[-93.382928,44.955014]}},{"properties":{"zip":"76008","geo_score":0.714,"id":"a672ruz1j0ms","geo_precision":"zip","revenue":94},"type":"Feature","geometry":{"type":"Point","coordinates":[-97.676138,32.709297]}},{"properties":{"zip":"46408","geo_score":0.714,"id":"a672rv27a4cj","geo_precision":"zip","revenue":94},"type":"Feature","geometry":{"type":"Point","coordinates":[-87.294759,41.552537]}},{"properties":{"zip":"99352","geo_score":0.714,"id":"a672rv8spbaq","geo_precision":"zip","revenue":92},"type":"Feature","geometry":{"type":"Point","coordinates":[-119.361409,46.304302]}},{"properties":{"zip":"95138","geo_score":0.714,"id":"a672rvagxik6","geo_precision":"zip","revenue":90},"type":"Feature","geometry":{"type":"Point","coordinates":[-121.745159,37.258733]}},{"properties":{"zip":"55443","geo_score":0.714,"id":"a672rvb7y9wr","geo_precision":"zip","revenue":90},"type":"Feature","geometry":{"type":"Point","coordinates":[-93.356341,45.094132]}},{"properties":{"zip":"06511","geo_score":0.714,"id":"a672ruvqwzww","geo_precision":"zip","revenue":90},"type":"Feature","geometry":{"type":"Point","coordinates":[-72.926046,41.310547]}},{"properties":{"zip":"35242","geo_score":0.714,"id":"a672ruwx1b4x","geo_precision":"zip","revenue":90},"type":"Feature","geometry":{"type":"Point","coordinates":[-86.704571,33.381339]}},{"properties":{"zip":"94544","geo_score":0.714,"id":"a672rv7jmmz8","geo_precision":"zip","revenue":90},"type":"Feature","geometry":{"type":"Point","coordinates":[-122.061673,37.613883]}},{"properties":{"zip":"64153","geo_score":0.714,"id":"a672rv5aewqr","geo_precision":"zip","revenue":90},"type":"Feature","geometry":{"type":"Point","coordinates":[-94.741617,39.270474]}},{"properties":{"zip":"32724","geo_score":0.714,"id":"a672rv1c5kka","geo_precision":"zip","revenue":90},"type":"Feature","geometry":{"type":"Point","coordinates":[-81.096461,29.056227]}},{"properties":{"zip":"55124","geo_score":0.714,"id":"a672rv2zyd00","geo_precision":"zip","revenue":90},"type":"Feature","geometry":{"type":"Point","coordinates":[-93.093274,44.94441]}},{"properties":{"zip":"52246","geo_score":0.714,"id":"a672ruzb8eq2","geo_precision":"zip","revenue":90},"type":"Feature","geometry":{"type":"Point","coordinates":[-91.556835,41.655016]}},{"properties":{"zip":"10022","geo_score":0.714,"id":"a672rv2m4jtq","geo_precision":"zip","revenue":90},"type":"Feature","geometry":{"type":"Point","coordinates":[-73.967842,40.758775]}},{"properties":{"zip":"55454","geo_score":0.714,"id":"a672rv3ii7mh","geo_precision":"zip","revenue":86},"type":"Feature","geometry":{"type":"Point","coordinates":[-93.252524,44.980859]}},{"properties":{"zip":"46534","geo_score":0.714,"id":"a672rv6rq4m3","geo_precision":"zip","revenue":86},"type":"Feature","geometry":{"type":"Point","coordinates":[-86.569456,41.236153]}},{"properties":{"zip":"14624","geo_score":0.714,"id":"a672ruzb5xbr","geo_precision":"zip","revenue":86},"type":"Feature","geometry":{"type":"Point","coordinates":[-77.735283,43.135895]}},{"properties":{"zip":"47150","geo_score":0.714,"id":"a672rvalieth","geo_precision":"zip","revenue":86},"type":"Feature","geometry":{"type":"Point","coordinates":[-85.845243,38.282569]}},{"properties":{"zip":"90008","geo_score":0.714,"id":"a672rv1a4lcc","geo_precision":"zip","revenue":86},"type":"Feature","geometry":{"type":"Point","coordinates":[-118.298662,33.786594]}},{"properties":{"zip":"37087","geo_score":0.714,"id":"a672rv1nisq0","geo_precision":"zip","revenue":86},"type":"Feature","geometry":{"type":"Point","coordinates":[-86.357769,36.031172]}},{"properties":{"zip":"83616","geo_score":0.714,"id":"a672rv1mj3jb","geo_precision":"zip","revenue":84},"type":"Feature","geometry":{"type":"Point","coordinates":[-116.31735,43.855722]}},{"properties":{"zip":"46237","geo_score":0.714,"id":"a672rv3rigdp","geo_precision":"zip","revenue":84},"type":"Feature","geometry":{"type":"Point","coordinates":[-86.171117,39.742726]}},{"properties":{"zip":"97060","geo_score":0.714,"id":"a672ruxu7m1i","geo_precision":"zip","revenue":84},"type":"Feature","geometry":{"type":"Point","coordinates":[-122.418702,45.534286]}},{"properties":{"zip":"60652","geo_score":0.714,"id":"a672rv9xrc6l","geo_precision":"zip","revenue":82},"type":"Feature","geometry":{"type":"Point","coordinates":[-87.68732,41.811929]}},{"properties":{"zip":"08343","geo_score":0.714,"id":"a672rv74n0wt","geo_precision":"zip","revenue":82},"type":"Feature","geometry":{"type":"Point","coordinates":[-75.176014,39.684836]}},{"properties":{"zip":"47304","geo_score":0.714,"id":"a672ruxs0sty","geo_precision":"zip","revenue":82},"type":"Feature","geometry":{"type":"Point","coordinates":[-85.492473,40.209765]}},{"properties":{"zip":"85546","geo_score":0.714,"id":"a672rv4vqjj9","geo_precision":"zip","revenue":82},"type":"Feature","geometry":{"type":"Point","coordinates":[-109.821188,32.630901]}},{"properties":{"zip":"61880","geo_score":0.714,"id":"a672rv9ozcrk","geo_precision":"zip","revenue":82},"type":"Feature","geometry":{"type":"Point","coordinates":[-88.174757,40.03821]}},{"properties":{"zip":"60632","geo_score":0.714,"id":"a672rv7gl5ww","geo_precision":"zip","revenue":80},"type":"Feature","geometry":{"type":"Point","coordinates":[-87.72172,41.793644]}},{"properties":{"zip":"98105","geo_score":0.714,"id":"a672rvb199ro","geo_precision":"zip","revenue":80},"type":"Feature","geometry":{"type":"Point","coordinates":[-122.309849,47.666487]}},{"properties":{"zip":"60181","geo_score":0.714,"id":"a672rux20ey8","geo_precision":"zip","revenue":78},"type":"Feature","geometry":{"type":"Point","coordinates":[-87.988677,41.90503]}},{"properties":{"zip":"49464","geo_score":0.714,"id":"a672rv5jacq5","geo_precision":"zip","revenue":78},"type":"Feature","geometry":{"type":"Point","coordinates":[-85.940315,42.81197]}},{"properties":{"zip":"60419","geo_score":0.714,"id":"a672ruvxu4s4","geo_precision":"zip","revenue":78},"type":"Feature","geometry":{"type":"Point","coordinates":[-87.68732,41.811929]}},{"properties":{"zip":"46514","geo_score":0.714,"id":"a672rv7vjirl","geo_precision":"zip","revenue":78},"type":"Feature","geometry":{"type":"Point","coordinates":[-85.975001,41.754216]}},{"properties":{"zip":"46235","geo_score":0.714,"id":"a672rv81ld3s","geo_precision":"zip","revenue":78},"type":"Feature","geometry":{"type":"Point","coordinates":[-85.974081,39.84709]}},{"properties":{"zip":"64701","geo_score":0.714,"id":"a672ruxy2ykp","geo_precision":"zip","revenue":78},"type":"Feature","geometry":{"type":"Point","coordinates":[-94.36106,38.572235]}},{"properties":{"zip":"60964","geo_score":0.714,"id":"a672rv13i48v","geo_precision":"zip","revenue":78},"type":"Feature","geometry":{"type":"Point","coordinates":[-87.687329,41.068206]}},{"properties":{"zip":"53220","geo_score":0.714,"id":"a672rvaangde","geo_precision":"zip","revenue":74},"type":"Feature","geometry":{"type":"Point","coordinates":[-88.012587,42.961404]}},{"properties":{"zip":"60098","geo_score":0.714,"id":"a672rv55guwg","geo_precision":"zip","revenue":74},"type":"Feature","geometry":{"type":"Point","coordinates":[-88.507317,42.363632]}},{"properties":{"zip":"53157","geo_score":0.714,"id":"a672rux2zz86","geo_precision":"zip","revenue":74},"type":"Feature","geometry":{"type":"Point","coordinates":[-88.358167,42.540048]}},{"properties":{"zip":"60083","geo_score":0.714,"id":"a672ruwwcrop","geo_precision":"zip","revenue":74},"type":"Feature","geometry":{"type":"Point","coordinates":[-87.952578,42.465298]}},{"properties":{"zip":"61032","geo_score":0.714,"id":"a672ruzaq1kz","geo_precision":"zip","revenue":74},"type":"Feature","geometry":{"type":"Point","coordinates":[-89.527338,42.344462]}},{"properties":{"zip":"80138","geo_score":0.714,"id":"a672rv2441eg","geo_precision":"zip","revenue":66},"type":"Feature","geometry":{"type":"Point","coordinates":[-104.721607,39.510214]}},{"properties":{"zip":"20707","geo_score":0.714,"id":"a672rv99fvur","geo_precision":"zip","revenue":66},"type":"Feature","geometry":{"type":"Point","coordinates":[-76.495517,39.15372]}},{"properties":{"zip":"85739","geo_score":0.714,"id":"a672rv32n001","geo_precision":"zip","revenue":66},"type":"Feature","geometry":{"type":"Point","coordinates":[-110.892213,32.465013]}},{"properties":{"zip":"60074","geo_score":0.714,"id":"a672ruzwpios","geo_precision":"zip","revenue":66},"type":"Feature","geometry":{"type":"Point","coordinates":[-88.049424,42.129875]}},{"properties":{"zip":"63304","geo_score":0.714,"id":"a672rv88ksuz","geo_precision":"zip","revenue":64},"type":"Feature","geometry":{"type":"Point","coordinates":[-90.687348,38.705053]}},{"properties":{"zip":"61109","geo_score":0.714,"id":"a672rv8luenw","geo_precision":"zip","revenue":64},"type":"Feature","geometry":{"type":"Point","coordinates":[-89.067881,42.186967]}},{"properties":{"zip":"98270","geo_score":0.714,"id":"a672rv576k7o","geo_precision":"zip","revenue":64},"type":"Feature","geometry":{"type":"Point","coordinates":[-122.323201,48.091485]}},{"properties":{"zip":"74075","geo_score":0.714,"id":"a672rv66se82","geo_precision":"zip","revenue":64},"type":"Feature","geometry":{"type":"Point","coordinates":[-97.068895,36.167933]}},{"properties":{"zip":"07307","geo_score":0.714,"id":"a672ruyw933v","geo_precision":"zip","revenue":60},"type":"Feature","geometry":{"type":"Point","coordinates":[-74.054285,40.749801]}},{"properties":{"zip":"11385","geo_score":0.714,"id":"a672rv4ofzwn","geo_precision":"zip","revenue":60},"type":"Feature","geometry":{"type":"Point","coordinates":[-73.886803,40.701492]}},{"properties":{"zip":"76130","geo_score":0.714,"id":"a672rv3wn24b","geo_precision":"zip","revenue":60},"type":"Feature","geometry":{"type":"Point","coordinates":[-97.291484,32.771419]}},{"properties":{"zip":"46123","geo_score":0.714,"id":"a672rvb7ra6g","geo_precision":"zip","revenue":60},"type":"Feature","geometry":{"type":"Point","coordinates":[-86.488881,39.721434]}},{"properties":{"zip":"91776","geo_score":0.714,"id":"a672rux8z9l3","geo_precision":"zip","revenue":60},"type":"Feature","geometry":{"type":"Point","coordinates":[-118.298662,33.786594]}},{"properties":{"zip":"48867","geo_score":0.714,"id":"a672rv9fa37z","geo_precision":"zip","revenue":60},"type":"Feature","geometry":{"type":"Point","coordinates":[-84.221914,42.89253]}},{"properties":{"zip":"61602","geo_score":0.714,"id":"a672ruwxztol","geo_precision":"zip","revenue":60},"type":"Feature","geometry":{"type":"Point","coordinates":[-89.604898,40.683283]}},{"properties":{"zip":"61273","geo_score":0.714,"id":"a672rvbkjbxw","geo_precision":"zip","revenue":60},"type":"Feature","geometry":{"type":"Point","coordinates":[-90.375961,41.410313]}},{"properties":{"zip":"08854","geo_score":0.714,"id":"a672rvaxtj51","geo_precision":"zip","revenue":60},"type":"Feature","geometry":{"type":"Point","coordinates":[-74.474598,40.515382]}},{"properties":{"zip":"48360","geo_score":0.714,"id":"a672rv02gpzm","geo_precision":"zip","revenue":60},"type":"Feature","geometry":{"type":"Point","coordinates":[-83.264106,42.770309]}},{"properties":{"zip":"46970","geo_score":0.714,"id":"a672rv3pmunj","geo_precision":"zip","revenue":60},"type":"Feature","geometry":{"type":"Point","coordinates":[-86.111104,40.732263]}},{"properties":{"zip":"55414","geo_score":0.714,"id":"a672rv2nwmty","geo_precision":"zip","revenue":60},"type":"Feature","geometry":{"type":"Point","coordinates":[-93.234173,44.974515]}},{"properties":{"zip":"75050","geo_score":0.714,"id":"a672rv9dkkhp","geo_precision":"zip","revenue":60},"type":"Feature","geometry":{"type":"Point","coordinates":[-97.020285,32.803185]}},{"properties":{"zip":"02790","geo_score":0.714,"id":"a672ruza870g","geo_precision":"zip","revenue":60},"type":"Feature","geometry":{"type":"Point","coordinates":[-71.049486,41.638992]}},{"properties":{"zip":"92037","geo_score":0.714,"id":"a672rv0xhsr3","geo_precision":"zip","revenue":60},"type":"Feature","geometry":{"type":"Point","coordinates":[-117.225744,32.898511]}},{"properties":{"zip":"94947","geo_score":0.714,"id":"a672ruxawpo4","geo_precision":"zip","revenue":60},"type":"Feature","geometry":{"type":"Point","coordinates":[-122.53859,38.070199]}},{"properties":{"zip":"66216","geo_score":0.714,"id":"a672ruzx8gig","geo_precision":"zip","revenue":60},"type":"Feature","geometry":{"type":"Point","coordinates":[-94.741448,39.014655]}},{"properties":{"zip":"23059","geo_score":0.714,"id":"a672ruzz8ly0","geo_precision":"zip","revenue":49},"type":"Feature","geometry":{"type":"Point","coordinates":[-77.554393,37.728404]}},{"properties":{"zip":"78006","geo_score":0.714,"id":"a672rv3wg3vy","geo_precision":"zip","revenue":48},"type":"Feature","geometry":{"type":"Point","coordinates":[-98.655856,29.729667]}},{"properties":{"zip":"48441","geo_score":0.714,"id":"a672ruxc28y8","geo_precision":"zip","revenue":46},"type":"Feature","geometry":{"type":"Point","coordinates":[-82.800293,43.867295]}},{"properties":{"zip":"40207","geo_score":0.714,"id":"a672rv4p3l6d","geo_precision":"zip","revenue":46},"type":"Feature","geometry":{"type":"Point","coordinates":[-85.629128,38.26146]}},{"properties":{"zip":"61822","geo_score":0.714,"id":"a672rv9c9wsw","geo_precision":"zip","revenue":40},"type":"Feature","geometry":{"type":"Point","coordinates":[-88.28541,40.131682]}},{"properties":{"zip":"60555","geo_score":0.714,"id":"a672rv2a2kqf","geo_precision":"zip","revenue":40},"type":"Feature","geometry":{"type":"Point","coordinates":[-88.214237,41.822807]}},{"properties":{"zip":"93455","geo_score":0.714,"id":"a672rv7im8qi","geo_precision":"zip","revenue":40},"type":"Feature","geometry":{"type":"Point","coordinates":[-120.435997,34.865257]}},{"properties":{"zip":"46394","geo_score":0.714,"id":"a672rv6fpesk","geo_precision":"zip","revenue":39},"type":"Feature","geometry":{"type":"Point","coordinates":[-87.508099,41.683091]}},{"properties":{"zip":"27376","geo_score":0.714,"id":"a672rv3gjxyp","geo_precision":"zip","revenue":30},"type":"Feature","geometry":{"type":"Point","coordinates":[-79.564476,35.278485]}},{"properties":{"zip":"11590","geo_score":0.714,"id":"a672ruwisyxn","geo_precision":"zip","revenue":30},"type":"Feature","geometry":{"type":"Point","coordinates":[-73.560127,40.745656]}}],"is_temporal":false,"author":{"url":"","metadata":"","contact_name":"","contact_address":"","source":"","contact_phone":""},"source":"","pagination":{"sort":null,"start":0,"total":536,"limit":1000000},"state":"complete","tags":"","published":"2014-08-13T12:00:44-04:00","id":129507}