{"type":"FeatureCollection","data_type":"Dataset","url_type":null,"permissions":[{"permissions":{"download":true,"view":true},"group_id":"everyone"}],"classification":null,"title":"Covered establishments employment and wages: 335 largest counties: third quarter 2008, United States, 4/8/2008","count":336,"stream_id":12978,"contributor":{"url":"http://geocommons.com/users/140","name":"Brendan"},"data_attributes":null,"calculation_params":null,"icon_link":null,"link":"http://geocommons.com/overlays/12978.json","extent":[-157.858,0.0,0.0,61.1088],"geometry_types":["point"],"unique_name":null,"name":"Covered establishments employment and wages: 335 largest counties: third quarter 2008, United States, 4/8/2008","feature_count":336,"description":"Covered(1) establishments, employment, and wages in the 335 largest counties,\nthird quarter 2008(2)\n\n(1) Includes workers covered by Unemployment Insurance (UI) and Unemployment Compensation for Federal\nEmployees (UCFE) programs. These 334 U.S. counties comprise 71.2 percent of the total covered workers\nin the U.S.\n(2) Data are preliminary.\n(3) Includes areas not officially designated as counties. See Technical Note.\n(4) Average weekly wages were calculated using unrounded data.\n(5) Percent changes were computed from quarterly employment and pay data adjusted for noneconomic\ncounty reclassifications. See Technical Note.\n(6) Totals for the United States do not include data for Puerto Rico or the Virgin Islands.\n(7) Data do not meet BLS or State agency disclosure standards.\n(8) This county was not included in the U.S. rankings.\n\nPlease note that these points were geocoded according to county ans state.\n\nFrom September 2007 to September 2008, employment declined in more \nthan half of the largest U.S. counties, according to preliminary data \nreleased today by the Bureau of Labor Statistics of the U.S. \nDepartment of Labor. Elkhart County, Ind., located about 100 miles \neast of Chicago, posted the largest percentage decline, with a loss \nof 10.8 percent over the year, compared with a national job decrease \nof 0.8 percent. Manufacturing sustained the largest employment losses \nin Elkhart. Yakima, Wash., in the south-central part of the State, \nexperienced the largest over-the-year percentage increase in \nemployment among the largest counties in the U.S., with a gain of 3.2 \npercent, led by growth in agriculture.  \n","next_feature":null,"is_raster":false,"short_classification":"Y","stats":{"a":{"max":428.8,"mean":18.1136904761905,"variance":837.929722459132,"stdev":28.947015778127,"min":0.0,"median":10.6},"b":{"max":4141.1,"mean":287.402678571429,"variance":137646.142888326,"stdev":371.006931051599,"min":0.0,"median":175.1},"c":{"max":3.2,"mean":-0.969642857142857,"variance":4.42032942430703,"stdev":2.10245794828506,"min":-10.8,"median":-0.6},"d":{"max":327.0,"mean":154.800595238095,"variance":10311.0257906894,"stdev":101.543221293641,"min":-99.0,"median":153.0},"Longitude":{"max":0.0,"mean":-89.9832857142857,"variance":277.248808044094,"stdev":16.6507900126118,"min":-157.8576,"median":-85.6604},"e":{"max":1552.0,"mean":815.047619047619,"variance":26507.3171286425,"stdev":162.810678791787,"min":0.0,"median":780.0},"Latitude":{"max":61.1088,"mean":37.973955952381,"variance":31.586230855845,"stdev":5.62016288517024,"min":0.0,"median":39.3311},"f":{"max":17.3,"mean":2.4610119047619,"variance":6.74596792821606,"stdev":2.59730012286144,"min":-14.6,"median":2.7},"g":{"max":328.0,"mean":155.922619047619,"variance":10153.9342928216,"stdev":100.766732073743,"min":-99.0,"median":161.0}},"features":[{"properties":{"a":0.0,"b":0.0,"County":"","c":0.0,"d":0.0,"Longitude":0.0,"e":0.0,"Latitude":0.0,"State":"","f":0.0,"g":0.0,"id":"a63cr1ch50mc"},"type":"Feature","geometry":{"type":"Point","coordinates":[3.24695241429242e-274,3.32285867379565e-308]}},{"properties":{"a":15.0,"b":210.4,"County":"Ada","c":-1.5,"d":226.0,"Longitude":-115.609,"e":746.0,"Latitude":47.3419,"State":"ID","f":-0.5,"g":310.0,"id":"a63cr1n6pdq7"},"type":"Feature","geometry":{"type":"Point","coordinates":[-115.609,47.3419]}},{"properties":{"a":9.4,"b":155.8,"County":"Adams","c":1.0,"d":39.0,"Longitude":-104.9285,"e":792.0,"Latitude":39.8263,"State":"CO","f":3.1,"g":123.0,"id":"a63cr1kv691v"},"type":"Feature","geometry":{"type":"Point","coordinates":[-104.9285,39.8263]}},{"properties":{"a":6.8,"b":123.2,"County":"Alachua","c":-0.6,"d":162.0,"Longitude":-82.4943,"e":723.0,"Latitude":29.7931,"State":"FL","f":2.0,"g":221.0,"id":"a63cr1nbduod"},"type":"Feature","geometry":{"type":"Point","coordinates":[-82.4943,29.7931]}},{"properties":{"a":54.3,"b":684.0,"County":"Alameda","c":-1.5,"d":226.0,"Longitude":-122.2447,"e":1115.0,"Latitude":37.7666,"State":"CA","f":3.6,"g":76.0,"id":"a63cr1pr5ojv"},"type":"Feature","geometry":{"type":"Point","coordinates":[-122.2447,37.7666]}},{"properties":{"a":10.0,"b":227.7,"County":"Albany","c":0.0,"d":110.0,"Longitude":-73.7553,"e":878.0,"Latitude":42.6515,"State":"NY","f":5.3,"g":21.0,"id":"a63cr1i1402u"},"type":"Feature","geometry":{"type":"Point","coordinates":[-73.7553,42.6515]}},{"properties":{"a":6.2,"b":100.9,"County":"Alexandria City","c":0.9,"d":45.0,"Longitude":-77.0902,"e":1160.0,"Latitude":38.8171,"State":"VA","f":2.4,"g":183.0,"id":"a63cr1psrhfm"},"type":"Feature","geometry":{"type":"Point","coordinates":[-77.0902,38.8171]}},{"properties":{"a":35.4,"b":686.8,"County":"Allegheny","c":-0.1,"d":121.0,"Longitude":-80.0161,"e":886.0,"Latitude":40.4508,"State":"PA","f":2.7,"g":161.0,"id":"a63cr1eq3xni"},"type":"Feature","geometry":{"type":"Point","coordinates":[-80.0161,40.4508]}},{"properties":{"a":9.1,"b":183.1,"County":"Allen","c":-1.0,"d":192.0,"Longitude":-87.3975,"e":702.0,"Latitude":39.3928,"State":"IN","f":1.6,"g":250.0,"id":"a63cr1nx0n0f"},"type":"Feature","geometry":{"type":"Point","coordinates":[-87.3975,39.3928]}},{"properties":{"a":8.3,"b":152.0,"County":"Anchorage Borough","c":2.0,"d":15.0,"Longitude":-149.2677,"e":922.0,"Latitude":61.1088,"State":"AK","f":3.1,"g":123.0,"id":"a63cr1feh164"},"type":"Feature","geometry":{"type":"Point","coordinates":[-149.2677,61.1088]}},{"properties":{"a":14.5,"b":234.0,"County":"Anne Arundel","c":-0.4,"d":145.0,"Longitude":-76.679,"e":891.0,"Latitude":39.0703,"State":"MD","f":1.8,"g":234.0,"id":"a63cr1f9buqm"},"type":"Feature","geometry":{"type":"Point","coordinates":[-76.679,39.0703]}},{"properties":{"a":7.8,"b":114.8,"County":"Anoka","c":-1.6,"d":233.0,"Longitude":-93.39,"e":769.0,"Latitude":45.1983,"State":"MN","f":0.3,"g":302.0,"id":"a63cr1pds4if"},"type":"Feature","geometry":{"type":"Point","coordinates":[-93.39,45.1983]}},{"properties":{"a":19.6,"b":282.9,"County":"Arapahoe","c":-0.3,"d":141.0,"Longitude":-102.1748,"e":1002.0,"Latitude":38.8496,"State":"CO","f":4.6,"g":40.0,"id":"a63cr1kgzc5m"},"type":"Feature","geometry":{"type":"Point","coordinates":[-102.1748,38.8496]}},{"properties":{"a":7.8,"b":156.2,"County":"Arlington","c":0.8,"d":50.0,"Longitude":-77.0863,"e":1348.0,"Latitude":38.8905,"State":"VA","f":-1.3,"g":315.0,"id":"a63cr1gisub4"},"type":"Feature","geometry":{"type":"Point","coordinates":[-77.0863,38.8905]}},{"properties":{"a":7.1,"b":147.0,"County":"Atlantic","c":0.0,"d":110.0,"Longitude":-74.4265,"e":740.0,"Latitude":39.3628,"State":"NJ","f":2.2,"g":201.0,"id":"a63cr1p3drsj"},"type":"Feature","geometry":{"type":"Point","coordinates":[-74.4265,39.3628]}},{"properties":{"a":21.5,"b":373.0,"County":"Baltimore","c":-1.3,"d":212.0,"Longitude":-76.6096,"e":858.0,"Latitude":39.2906,"State":"MD","f":3.1,"g":123.0,"id":"a63cr1d4zj5f"},"type":"Feature","geometry":{"type":"Point","coordinates":[-76.6096,39.2906]}},{"properties":{"a":13.9,"b":340.8,"County":"Baltimore City","c":-1.0,"d":192.0,"Longitude":-76.7918,"e":988.0,"Latitude":39.1235,"State":"MD","f":5.2,"g":22.0,"id":"a63cr1h4jhz4"},"type":"Feature","geometry":{"type":"Point","coordinates":[-76.7918,39.1235]}},{"properties":{"a":9.2,"b":96.9,"County":"Barnstable","c":-1.6,"d":233.0,"Longitude":-70.3044,"e":709.0,"Latitude":41.7019,"State":"MA","f":3.1,"g":123.0,"id":"a63cr1hiw5tc"},"type":"Feature","geometry":{"type":"Point","coordinates":[-70.3044,41.7019]}},{"properties":{"a":4.6,"b":103.0,"County":"Bell","c":1.9,"d":17.0,"Longitude":-96.4104,"e":663.0,"Latitude":33.6114,"State":"TX","f":2.5,"g":176.0,"id":"a63cr1dne7th"},"type":"Feature","geometry":{"type":"Point","coordinates":[-96.4104,33.6114]}},{"properties":{"a":5.6,"b":95.9,"County":"Benton","c":-0.8,"d":179.0,"Longitude":-92.5869,"e":760.0,"Latitude":34.564,"State":"AR","f":6.7,"g":10.0,"id":"a63cr1dbm9cv"},"type":"Feature","geometry":{"type":"Point","coordinates":[-92.5869,34.564]}},{"properties":{"a":35.0,"b":445.7,"County":"Bergen","c":-1.3,"d":212.0,"Longitude":-74.0662,"e":1031.0,"Latitude":40.7292,"State":"NJ","f":2.3,"g":192.0,"id":"a63cr1n38bjn"},"type":"Feature","geometry":{"type":"Point","coordinates":[-74.0662,40.7292]}},{"properties":{"a":9.3,"b":168.3,"County":"Berks","c":-0.2,"d":132.0,"Longitude":-75.985,"e":770.0,"Latitude":40.4071,"State":"PA","f":0.8,"g":281.0,"id":"a63cr1q8s7ot"},"type":"Feature","geometry":{"type":"Point","coordinates":[-75.985,40.4071]}},{"properties":{"a":17.6,"b":335.6,"County":"Bernalillo","c":0.2,"d":97.0,"Longitude":-106.5492,"e":763.0,"Latitude":35.3045,"State":"NM","f":3.8,"g":66.0,"id":"a63cr1j7tfy1"},"type":"Feature","geometry":{"type":"Point","coordinates":[-106.5492,35.3045]}},{"properties":{"a":32.5,"b":729.1,"County":"Bexar","c":1.2,"d":30.0,"Longitude":-98.4618,"e":734.0,"Latitude":29.4375,"State":"TX","f":2.1,"g":211.0,"id":"a63cr1ct8j07"},"type":"Feature","geometry":{"type":"Point","coordinates":[-98.4618,29.4375]}},{"properties":{"a":4.7,"b":84.8,"County":"Bibb","c":0.8,"d":50.0,"Longitude":-83.6913,"e":669.0,"Latitude":32.8067,"State":"GA","f":2.0,"g":221.0,"id":"a63cr1inqtxh"},"type":"Feature","geometry":{"type":"Point","coordinates":[-83.6913,32.8067]}},{"properties":{"a":4.6,"b":83.5,"County":"Boone","c":0.0,"d":110.0,"Longitude":-92.3374,"e":660.0,"Latitude":38.946,"State":"MO","f":3.6,"g":76.0,"id":"a63cr1icvk5m"},"type":"Feature","geometry":{"type":"Point","coordinates":[-92.3374,38.946]}},{"properties":{"a":3.5,"b":75.2,"County":"Boone","c":1.7,"d":20.0,"Longitude":-84.3203,"e":724.0,"Latitude":37.5122,"State":"KY","f":-1.4,"g":316.0,"id":"a63cr1qhmskd"},"type":"Feature","geometry":{"type":"Point","coordinates":[-84.3203,37.5122]}},{"properties":{"a":13.1,"b":162.3,"County":"Boulder","c":0.9,"d":45.0,"Longitude":-105.2792,"e":1020.0,"Latitude":40.0157,"State":"CO","f":3.1,"g":123.0,"id":"a63cr1jrxdbe"},"type":"Feature","geometry":{"type":"Point","coordinates":[-105.2792,40.0157]}},{"properties":{"a":4.6,"b":86.0,"County":"Brazoria","c":0.1,"d":101.0,"Longitude":-95.562,"e":800.0,"Latitude":29.0497,"State":"TX","f":0.8,"g":281.0,"id":"a63cr1ofmee6"},"type":"Feature","geometry":{"type":"Point","coordinates":[-95.562,29.0497]}},{"properties":{"a":3.8,"b":85.2,"County":"Brazos","c":1.0,"d":39.0,"Longitude":-98.1236,"e":646.0,"Latitude":32.6643,"State":"TX","f":3.2,"g":110.0,"id":"a63cr1h9qtb2"},"type":"Feature","geometry":{"type":"Point","coordinates":[-98.1236,32.6643]}},{"properties":{"a":15.0,"b":196.9,"County":"Brevard","c":-4.2,"d":308.0,"Longitude":-80.7174,"e":793.0,"Latitude":28.3067,"State":"FL","f":3.5,"g":82.0,"id":"a63cr1fb8e6n"},"type":"Feature","geometry":{"type":"Point","coordinates":[-80.7174,28.3067]}},{"properties":{"a":15.4,"b":216.6,"County":"Bristol","c":-2.0,"d":258.0,"Longitude":-71.1119,"e":751.0,"Latitude":41.7881,"State":"MA","f":3.9,"g":62.0,"id":"a63cr1jgfslk"},"type":"Feature","geometry":{"type":"Point","coordinates":[-71.1119,41.7881]}},{"properties":{"a":16.0,"b":227.5,"County":"Bronx","c":2.3,"d":9.0,"Longitude":-73.9232,"e":836.0,"Latitude":40.8257,"State":"NY","f":-7.0,"g":-99.0,"id":"a63cr1noo024"},"type":"Feature","geometry":{"type":"Point","coordinates":[-73.9232,40.8257]}},{"properties":{"a":4.5,"b":95.3,"County":"Broome","c":-0.6,"d":162.0,"Longitude":-74.2779,"e":696.0,"Latitude":42.4879,"State":"NY","f":4.8,"g":33.0,"id":"a63cr1dod95s"},"type":"Feature","geometry":{"type":"Point","coordinates":[-74.2779,42.4879]}},{"properties":{"a":65.9,"b":728.6,"County":"Broward","c":-4.1,"d":307.0,"Longitude":-80.1925,"e":792.0,"Latitude":26.1281,"State":"FL","f":2.2,"g":201.0,"id":"a63cr1fz5te0"},"type":"Feature","geometry":{"type":"Point","coordinates":[-80.1925,26.1281]}},{"properties":{"a":6.8,"b":148.7,"County":"Brown","c":-1.0,"d":192.0,"Longitude":-89.794,"e":754.0,"Latitude":42.5798,"State":"WI","f":4.7,"g":36.0,"id":"a63cr1r1ri3b"},"type":"Feature","geometry":{"type":"Point","coordinates":[-89.794,42.5798]}},{"properties":{"a":20.2,"b":260.8,"County":"Bucks","c":-1.8,"d":250.0,"Longitude":-76.2286,"e":819.0,"Latitude":39.8722,"State":"PA","f":3.9,"g":62.0,"id":"a63cr1peo6xu"},"type":"Feature","geometry":{"type":"Point","coordinates":[-76.2286,39.8722]}},{"properties":{"a":8.2,"b":115.8,"County":"Buncombe","c":-1.4,"d":221.0,"Longitude":-82.5286,"e":666.0,"Latitude":35.6203,"State":"NC","f":3.1,"g":123.0,"id":"a63cr1ffkbwa"},"type":"Feature","geometry":{"type":"Point","coordinates":[-82.5286,35.6203]}},{"properties":{"a":11.6,"b":198.9,"County":"Burlington","c":-2.6,"d":277.0,"Longitude":-74.8575,"e":890.0,"Latitude":40.0762,"State":"NJ","f":1.8,"g":234.0,"id":"a63cr1ow0k1v"},"type":"Feature","geometry":{"type":"Point","coordinates":[-74.8575,40.0762]}},{"properties":{"a":4.9,"b":81.1,"County":"Butler","c":1.1,"d":37.0,"Longitude":-79.8953,"e":747.0,"Latitude":40.8602,"State":"PA","f":4.2,"g":46.0,"id":"a63cr1od04yg"},"type":"Feature","geometry":{"type":"Point","coordinates":[-79.8953,40.8602]}},{"properties":{"a":7.5,"b":147.3,"County":"Butler","c":-1.2,"d":205.0,"Longitude":-82.4238,"e":743.0,"Latitude":40.5877,"State":"OH","f":-1.6,"g":317.0,"id":"a63cr1po08yp"},"type":"Feature","geometry":{"type":"Point","coordinates":[-82.4238,40.5877]}},{"properties":{"a":8.0,"b":77.0,"County":"Butte","c":-1.8,"d":250.0,"Longitude":-121.9899,"e":660.0,"Latitude":39.4644,"State":"CA","f":3.3,"g":103.0,"id":"a63cr1eqx9w0"},"type":"Feature","geometry":{"type":"Point","coordinates":[-121.9899,39.4644]}},{"properties":{"a":7.4,"b":125.3,"County":"Caddo","c":-0.7,"d":174.0,"Longitude":-93.9738,"e":717.0,"Latitude":32.7563,"State":"LA","f":5.8,"g":15.0,"id":"a63cr1snzb71"},"type":"Feature","geometry":{"type":"Point","coordinates":[-93.9738,32.7563]}},{"properties":{"a":4.9,"b":85.8,"County":"Calcasieu","c":-0.5,"d":153.0,"Longitude":-92.7112,"e":750.0,"Latitude":31.0895,"State":"LA","f":7.8,"g":5.0,"id":"a63cr1l3x0rj"},"type":"Feature","geometry":{"type":"Point","coordinates":[-92.7112,31.0895]}},{"properties":{"a":13.3,"b":207.7,"County":"Camden","c":-0.5,"d":153.0,"Longitude":-75.1191,"e":858.0,"Latitude":39.9453,"State":"NJ","f":2.8,"g":156.0,"id":"a63cr1dpzyu4"},"type":"Feature","geometry":{"type":"Point","coordinates":[-75.1191,39.9453]}},{"properties":{"a":6.4,"b":122.4,"County":"Cameron","c":-0.1,"d":121.0,"Longitude":-96.9768,"e":538.0,"Latitude":30.8532,"State":"TX","f":4.1,"g":52.0,"id":"a63cr1g9tn68"},"type":"Feature","geometry":{"type":"Point","coordinates":[-96.9768,30.8532]}},{"properties":{"a":5.9,"b":101.1,"County":"Cass","c":2.6,"d":5.0,"Longitude":-97.2295,"e":723.0,"Latitude":46.9346,"State":"ND","f":5.1,"g":24.0,"id":"a63cr1n71q3x"},"type":"Feature","geometry":{"type":"Point","coordinates":[-97.2295,46.9346]}},{"properties":{"a":4.7,"b":85.2,"County":"Catawba","c":-3.6,"d":298.0,"Longitude":-81.0766,"e":637.0,"Latitude":35.7107,"State":"NC","f":0.5,"g":293.0,"id":"a63cr1ql5d1q"},"type":"Feature","geometry":{"type":"Point","coordinates":[-81.0766,35.7107]}},{"properties":{"a":4.1,"b":93.2,"County":"Champaign","c":0.7,"d":59.0,"Longitude":-88.2435,"e":728.0,"Latitude":40.1142,"State":"IL","f":3.3,"g":103.0,"id":"a63cr1gv0g1n"},"type":"Feature","geometry":{"type":"Point","coordinates":[-88.2435,40.1142]}},{"properties":{"a":12.7,"b":212.6,"County":"Charleston","c":-0.6,"d":162.0,"Longitude":-79.9316,"e":723.0,"Latitude":32.7812,"State":"SC","f":3.1,"g":123.0,"id":"a63cr1el667x"},"type":"Feature","geometry":{"type":"Point","coordinates":[-79.9316,32.7812]}},{"properties":{"a":7.6,"b":134.6,"County":"Chatham","c":-2.6,"d":277.0,"Longitude":-81.1489,"e":728.0,"Latitude":32.1032,"State":"GA","f":3.4,"g":94.0,"id":"a63cr1l3zqs6"},"type":"Feature","geometry":{"type":"Point","coordinates":[-81.1489,32.1032]}},{"properties":{"a":5.8,"b":99.3,"County":"Chesapeake City","c":-1.6,"d":233.0,"Longitude":-76.2783,"e":678.0,"Latitude":36.7085,"State":"VA","f":2.3,"g":192.0,"id":"a63cr1ewh6is"},"type":"Feature","geometry":{"type":"Point","coordinates":[-76.2783,36.7085]}},{"properties":{"a":15.2,"b":244.2,"County":"Chester","c":0.9,"d":45.0,"Longitude":-75.3594,"e":1024.0,"Latitude":39.8484,"State":"PA","f":-1.9,"g":320.0,"id":"a63cr1ii6ay3"},"type":"Feature","geometry":{"type":"Point","coordinates":[-75.3594,39.8484]}},{"properties":{"a":7.6,"b":118.9,"County":"Chesterfield","c":-2.5,"d":272.0,"Longitude":-77.5082,"e":774.0,"Latitude":37.3769,"State":"VA","f":3.6,"g":76.0,"id":"a63cr1o1oie1"},"type":"Feature","geometry":{"type":"Point","coordinates":[-77.5082,37.3769]}},{"properties":{"a":6.0,"b":95.6,"County":"Chittenden","c":-0.3,"d":141.0,"Longitude":-72.9408,"e":838.0,"Latitude":43.7088,"State":"VT","f":3.2,"g":110.0,"id":"a63cr1pqqn9n"},"type":"Feature","geometry":{"type":"Point","coordinates":[-72.9408,43.7088]}},{"properties":{"a":12.8,"b":151.7,"County":"Clackamas","c":0.3,"d":84.0,"Longitude":-122.5691,"e":772.0,"Latitude":45.4121,"State":"OR","f":0.8,"g":281.0,"id":"a63cr1lagiyh"},"type":"Feature","geometry":{"type":"Point","coordinates":[-122.5691,45.4121]}},{"properties":{"a":50.9,"b":903.7,"County":"Clark","c":-2.0,"d":258.0,"Longitude":-119.4815,"e":812.0,"Latitude":39.5623,"State":"NV","f":2.0,"g":221.0,"id":"a63cr1n1ll8f"},"type":"Feature","geometry":{"type":"Point","coordinates":[-119.4815,39.5623]}},{"properties":{"a":12.5,"b":134.4,"County":"Clark","c":0.5,"d":69.0,"Longitude":-117.0456,"e":777.0,"Latitude":46.4136,"State":"WA","f":3.7,"g":73.0,"id":"a63cr1j6l5fe"},"type":"Feature","geometry":{"type":"Point","coordinates":[-117.0456,46.4136]}},{"properties":{"a":5.1,"b":90.2,"County":"Clay","c":-1.3,"d":212.0,"Longitude":-92.4513,"e":765.0,"Latitude":40.2278,"State":"MO","f":-1.7,"g":319.0,"id":"a63cr1ho6uuc"},"type":"Feature","geometry":{"type":"Point","coordinates":[-92.4513,40.2278]}},{"properties":{"a":4.4,"b":111.8,"County":"Clayton","c":-2.6,"d":277.0,"Longitude":-83.3969,"e":787.0,"Latitude":34.8786,"State":"GA","f":-14.6,"g":328.0,"id":"a63cr1p4gde6"},"type":"Feature","geometry":{"type":"Point","coordinates":[-83.3969,34.8786]}},{"properties":{"a":20.7,"b":310.3,"County":"Cobb","c":-2.8,"d":283.0,"Longitude":-83.9815,"e":906.0,"Latitude":31.9578,"State":"GA","f":3.2,"g":110.0,"id":"a63cr1cvh8o0"},"type":"Feature","geometry":{"type":"Point","coordinates":[-83.9815,31.9578]}},{"properties":{"a":12.5,"b":116.5,"County":"Collier","c":-7.4,"d":325.0,"Longitude":-80.1594,"e":749.0,"Latitude":26.2337,"State":"FL","f":-7.0,"g":-99.0,"id":"a63cr1oycr7i"},"type":"Feature","geometry":{"type":"Point","coordinates":[-80.1594,26.2337]}},{"properties":{"a":17.2,"b":294.8,"County":"Collin","c":2.0,"d":15.0,"Longitude":-96.8101,"e":997.0,"Latitude":33.1966,"State":"TX","f":1.1,"g":266.0,"id":"a63cr1jtceby"},"type":"Feature","geometry":{"type":"Point","coordinates":[-96.8101,33.1966]}},{"properties":{"a":30.1,"b":339.9,"County":"Contra Costa","c":-2.0,"d":258.0,"Longitude":-121.982,"e":1034.0,"Latitude":37.9115,"State":"CA","f":3.1,"g":123.0,"id":"a63cr1j6toqp"},"type":"Feature","geometry":{"type":"Point","coordinates":[-121.982,37.9115]}},{"properties":{"a":140.4,"b":2504.2,"County":"Cook","c":-1.3,"d":212.0,"Longitude":-87.8939,"e":988.0,"Latitude":41.8119,"State":"IL","f":2.8,"g":156.0,"id":"a63cr1egqfv4"},"type":"Feature","geometry":{"type":"Point","coordinates":[-87.8939,41.8119]}},{"properties":{"a":12.0,"b":174.0,"County":"Cumberland","c":-0.1,"d":121.0,"Longitude":-70.2461,"e":768.0,"Latitude":43.7903,"State":"ME","f":3.4,"g":94.0,"id":"a63cr1izyj7z"},"type":"Feature","geometry":{"type":"Point","coordinates":[-70.2461,43.7903]}},{"properties":{"a":6.3,"b":120.8,"County":"Cumberland","c":2.3,"d":9.0,"Longitude":-78.9739,"e":654.0,"Latitude":35.002,"State":"NC","f":0.3,"g":302.0,"id":"a63cr1s8hplz"},"type":"Feature","geometry":{"type":"Point","coordinates":[-78.9739,35.002]}},{"properties":{"a":6.0,"b":125.8,"County":"Cumberland","c":-0.9,"d":189.0,"Longitude":-77.2711,"e":774.0,"Latitude":39.7673,"State":"PA","f":1.7,"g":244.0,"id":"a63cr1fwi154"},"type":"Feature","geometry":{"type":"Point","coordinates":[-77.2711,39.7673]}},{"properties":{"a":38.1,"b":732.3,"County":"Cuyahoga","c":-1.7,"d":245.0,"Longitude":-81.4837,"e":853.0,"Latitude":41.1384,"State":"OH","f":2.4,"g":183.0,"id":"a63cr1j9hgqe"},"type":"Feature","geometry":{"type":"Point","coordinates":[-81.4837,41.1384]}},{"properties":{"a":10.6,"b":175.1,"County":"Dakota","c":-1.2,"d":205.0,"Longitude":-91.3596,"e":801.0,"Latitude":43.9134,"State":"MN","f":3.4,"g":94.0,"id":"a63cr1kzgjof"},"type":"Feature","geometry":{"type":"Point","coordinates":[-91.3596,43.9134]}},{"properties":{"a":68.2,"b":1489.1,"County":"Dallas","c":0.5,"d":69.0,"Longitude":-96.7954,"e":1025.0,"Latitude":32.7782,"State":"TX","f":2.4,"g":183.0,"id":"a63cr1n8al7w"},"type":"Feature","geometry":{"type":"Point","coordinates":[-96.7954,32.7782]}},{"properties":{"a":14.3,"b":304.1,"County":"Dane","c":-7.0,"d":-99.0,"Longitude":-89.5005,"e":823.0,"Latitude":43.2504,"State":"WI","f":-7.0,"g":-99.0,"id":"a63cr1jba46s"},"type":"Feature","geometry":{"type":"Point","coordinates":[-89.5005,43.2504]}},{"properties":{"a":7.4,"b":183.1,"County":"Dauphin","c":0.1,"d":101.0,"Longitude":-76.9329,"e":820.0,"Latitude":40.3672,"State":"PA","f":2.1,"g":211.0,"id":"a63cr1jh37kv"},"type":"Feature","geometry":{"type":"Point","coordinates":[-76.9329,40.3672]}},{"properties":{"a":18.7,"b":437.4,"County":"Davidson","c":-2.1,"d":264.0,"Longitude":-85.1001,"e":861.0,"Latitude":36.2705,"State":"TN","f":2.4,"g":183.0,"id":"a63cr1ha961r"},"type":"Feature","geometry":{"type":"Point","coordinates":[-85.1001,36.2705]}},{"properties":{"a":7.3,"b":103.5,"County":"Davis","c":-1.5,"d":226.0,"Longitude":-112.116,"e":659.0,"Latitude":40.9635,"State":"UT","f":-1.1,"g":314.0,"id":"a63cr1cxnemx"},"type":"Feature","geometry":{"type":"Point","coordinates":[-112.116,40.9635]}},{"properties":{"a":16.7,"b":293.9,"County":"De Kalb","c":-1.9,"d":255.0,"Longitude":-84.1868,"e":888.0,"Latitude":33.7928,"State":"GA","f":1.6,"g":250.0,"id":"a63cr1e515vq"},"type":"Feature","geometry":{"type":"Point","coordinates":[-84.1868,33.7928]}},{"properties":{"a":13.7,"b":210.7,"County":"Delaware","c":0.1,"d":101.0,"Longitude":-77.2125,"e":878.0,"Latitude":40.6111,"State":"PA","f":3.7,"g":73.0,"id":"a63cr1pf69jq"},"type":"Feature","geometry":{"type":"Point","coordinates":[-77.2125,40.6111]}},{"properties":{"a":10.6,"b":168.8,"County":"Denton","c":1.4,"d":24.0,"Longitude":-97.131,"e":738.0,"Latitude":33.2166,"State":"TX","f":3.1,"g":123.0,"id":"a63cr1ojhz97"},"type":"Feature","geometry":{"type":"Point","coordinates":[-97.131,33.2166]}},{"properties":{"a":26.0,"b":453.3,"County":"Denver","c":0.5,"d":69.0,"Longitude":-104.9923,"e":1031.0,"Latitude":39.74,"State":"CO","f":3.6,"g":76.0,"id":"a63cr1httog9"},"type":"Feature","geometry":{"type":"Point","coordinates":[-104.9923,39.74]}},{"properties":{"a":9.7,"b":94.2,"County":"Douglas","c":2.9,"d":4.0,"Longitude":-104.9948,"e":864.0,"Latitude":39.3475,"State":"CO","f":3.1,"g":123.0,"id":"a63cr1rzeang"},"type":"Feature","geometry":{"type":"Point","coordinates":[-104.9948,39.3475]}},{"properties":{"a":16.0,"b":321.4,"County":"Douglas","c":0.9,"d":45.0,"Longitude":-96.3877,"e":820.0,"Latitude":40.592,"State":"NE","f":4.9,"g":31.0,"id":"a63cr1pge674"},"type":"Feature","geometry":{"type":"Point","coordinates":[-96.3877,40.592]}},{"properties":{"a":36.0,"b":590.9,"County":"Du Page","c":-1.9,"d":255.0,"Longitude":-88.256,"e":990.0,"Latitude":41.9064,"State":"IL","f":0.9,"g":275.0,"id":"a63cr1qycys7"},"type":"Feature","geometry":{"type":"Point","coordinates":[-88.256,41.9064]}},{"properties":{"a":7.1,"b":184.3,"County":"Durham","c":-0.8,"d":179.0,"Longitude":-78.896,"e":1115.0,"Latitude":35.9953,"State":"NC","f":0.9,"g":275.0,"id":"a63cr1npc1o9"},"type":"Feature","geometry":{"type":"Point","coordinates":[-78.896,35.9953]}},{"properties":{"a":8.4,"b":115.4,"County":"Dutchess","c":-1.3,"d":212.0,"Longitude":-73.7439,"e":860.0,"Latitude":41.7599,"State":"NY","f":1.7,"g":244.0,"id":"a63cr1fwqle5"},"type":"Feature","geometry":{"type":"Point","coordinates":[-73.7439,41.7599]}},{"properties":{"a":27.6,"b":456.0,"County":"Duval","c":-3.4,"d":295.0,"Longitude":-81.6216,"e":797.0,"Latitude":30.4847,"State":"FL","f":-3.4,"g":326.0,"id":"a63cr1fqwfs1"},"type":"Feature","geometry":{"type":"Point","coordinates":[-81.6216,30.4847]}},{"properties":{"a":14.4,"b":261.4,"County":"East Baton Rouge","c":-0.1,"d":121.0,"Longitude":-91.1943,"e":790.0,"Latitude":30.5391,"State":"LA","f":6.6,"g":12.0,"id":"a63cr1djj89o"},"type":"Feature","geometry":{"type":"Point","coordinates":[-91.1943,30.5391]}},{"properties":{"a":13.5,"b":271.4,"County":"El Paso","c":1.2,"d":30.0,"Longitude":-106.4875,"e":601.0,"Latitude":31.7592,"State":"TX","f":0.8,"g":281.0,"id":"a63cr1i62ctn"},"type":"Feature","geometry":{"type":"Point","coordinates":[-106.4875,31.7592]}},{"properties":{"a":17.6,"b":245.3,"County":"El Paso","c":-1.6,"d":233.0,"Longitude":-104.562,"e":780.0,"Latitude":38.8247,"State":"CO","f":2.1,"g":211.0,"id":"a63cr1qiaerv"},"type":"Feature","geometry":{"type":"Point","coordinates":[-104.562,38.8247]}},{"properties":{"a":5.0,"b":112.3,"County":"Elkhart","c":-10.8,"d":327.0,"Longitude":-85.9757,"e":667.0,"Latitude":41.6868,"State":"IN","f":-2.2,"g":322.0,"id":"a63cr1lhzhcd"},"type":"Feature","geometry":{"type":"Point","coordinates":[-85.9757,41.6868]}},{"properties":{"a":7.4,"b":128.5,"County":"Erie","c":-0.5,"d":153.0,"Longitude":-80.0852,"e":680.0,"Latitude":42.1294,"State":"PA","f":3.3,"g":103.0,"id":"a63cr1hu86zz"},"type":"Feature","geometry":{"type":"Point","coordinates":[-80.0852,42.1294]}},{"properties":{"a":23.7,"b":463.8,"County":"Erie","c":1.2,"d":30.0,"Longitude":-78.7996,"e":736.0,"Latitude":42.7683,"State":"NY","f":3.1,"g":123.0,"id":"a63cr1pwhvz3"},"type":"Feature","geometry":{"type":"Point","coordinates":[-78.7996,42.7683]}},{"properties":{"a":8.2,"b":125.0,"County":"Escambia","c":-4.9,"d":315.0,"Longitude":-86.6324,"e":667.0,"Latitude":30.9617,"State":"FL","f":2.9,"g":148.0,"id":"a63cr1eqkydp"},"type":"Feature","geometry":{"type":"Point","coordinates":[-86.6324,30.9617]}},{"properties":{"a":21.7,"b":357.2,"County":"Essex","c":-0.5,"d":153.0,"Longitude":-74.2449,"e":1038.0,"Latitude":40.7917,"State":"NJ","f":1.8,"g":234.0,"id":"a63cr1rf5gea"},"type":"Feature","geometry":{"type":"Point","coordinates":[-74.2449,40.7917]}},{"properties":{"a":20.9,"b":301.4,"County":"Essex","c":-0.2,"d":132.0,"Longitude":-70.7831,"e":888.0,"Latitude":42.6319,"State":"MA","f":0.9,"g":275.0,"id":"a63cr1f5eva6"},"type":"Feature","geometry":{"type":"Point","coordinates":[-70.7831,42.6319]}},{"properties":{"a":34.0,"b":587.0,"County":"Fairfax","c":0.3,"d":84.0,"Longitude":-77.3081,"e":1295.0,"Latitude":38.8416,"State":"VA","f":4.2,"g":46.0,"id":"a63cr1i04lfq"},"type":"Feature","geometry":{"type":"Point","coordinates":[-77.3081,38.8416]}},{"properties":{"a":33.1,"b":418.8,"County":"Fairfield","c":-0.5,"d":153.0,"Longitude":-73.2512,"e":1310.0,"Latitude":41.1419,"State":"CT","f":0.5,"g":293.0,"id":"a63cr1fteyut"},"type":"Feature","geometry":{"type":"Point","coordinates":[-73.2512,41.1419]}},{"properties":{"a":9.1,"b":176.2,"County":"Fayette","c":-7.0,"d":-99.0,"Longitude":-84.4715,"e":754.0,"Latitude":38.0284,"State":"KY","f":2.7,"g":161.0,"id":"a63cr1p5ymzq"},"type":"Feature","geometry":{"type":"Point","coordinates":[-84.4715,38.0284]}},{"properties":{"a":9.3,"b":184.1,"County":"Forsyth","c":-1.0,"d":192.0,"Longitude":-80.2758,"e":764.0,"Latitude":36.1171,"State":"NC","f":1.2,"g":264.0,"id":"a63cr1sjxy2z"},"type":"Feature","geometry":{"type":"Point","coordinates":[-80.2758,36.1171]}},{"properties":{"a":8.4,"b":128.9,"County":"Fort Bend","c":2.5,"d":6.0,"Longitude":-98.5121,"e":865.0,"Latitude":31.0993,"State":"TX","f":2.1,"g":211.0,"id":"a63cr1ij22l1"},"type":"Feature","geometry":{"type":"Point","coordinates":[-98.5121,31.0993]}},{"properties":{"a":30.3,"b":678.7,"County":"Franklin","c":-0.8,"d":179.0,"Longitude":-84.2901,"e":851.0,"Latitude":39.5398,"State":"OH","f":2.3,"g":192.0,"id":"a63cr1ibnips"},"type":"Feature","geometry":{"type":"Point","coordinates":[-84.2901,39.5398]}},{"properties":{"a":6.0,"b":94.3,"County":"Frederick","c":-1.7,"d":245.0,"Longitude":-77.412,"e":819.0,"Latitude":39.4157,"State":"MD","f":2.4,"g":183.0,"id":"a63cr1opblww"},"type":"Feature","geometry":{"type":"Point","coordinates":[-77.412,39.4157]}},{"properties":{"a":30.5,"b":372.4,"County":"Fresno","c":-0.4,"d":145.0,"Longitude":-119.7857,"e":658.0,"Latitude":36.7406,"State":"CA","f":2.2,"g":201.0,"id":"a63cr1j8c2bb"},"type":"Feature","geometry":{"type":"Point","coordinates":[-119.7857,36.7406]}},{"properties":{"a":39.1,"b":741.7,"County":"Fulton","c":-1.0,"d":192.0,"Longitude":-84.4038,"e":1078.0,"Latitude":33.8445,"State":"GA","f":1.9,"g":230.0,"id":"a63cr1cyn14i"},"type":"Feature","geometry":{"type":"Point","coordinates":[-84.4038,33.8445]}},{"properties":{"a":5.2,"b":95.7,"County":"Galveston","c":0.4,"d":76.0,"Longitude":-94.8079,"e":803.0,"Latitude":29.2953,"State":"TX","f":3.5,"g":82.0,"id":"a63cr1mzbjth"},"type":"Feature","geometry":{"type":"Point","coordinates":[-94.8079,29.2953]}},{"properties":{"a":7.9,"b":135.5,"County":"Genesee","c":-5.1,"d":317.0,"Longitude":-83.6176,"e":738.0,"Latitude":43.1155,"State":"MI","f":0.3,"g":302.0,"id":"a63cr1hfma1y"},"type":"Feature","geometry":{"type":"Point","coordinates":[-83.6176,43.1155]}},{"properties":{"a":6.4,"b":103.9,"County":"Gloucester","c":0.4,"d":76.0,"Longitude":-75.1207,"e":763.0,"Latitude":39.8966,"State":"NJ","f":2.7,"g":161.0,"id":"a63cr1g2saqr"},"type":"Feature","geometry":{"type":"Point","coordinates":[-75.1207,39.8966]}},{"properties":{"a":8.2,"b":156.2,"County":"Greene","c":-1.6,"d":233.0,"Longitude":-93.3437,"e":653.0,"Latitude":37.258,"State":"MO","f":2.5,"g":176.0,"id":"a63cr1m6mbdi"},"type":"Feature","geometry":{"type":"Point","coordinates":[-93.3437,37.258]}},{"properties":{"a":12.9,"b":241.1,"County":"Greenville","c":0.8,"d":50.0,"Longitude":-82.4002,"e":728.0,"Latitude":34.848,"State":"SC","f":2.2,"g":201.0,"id":"a63cr1frankb"},"type":"Feature","geometry":{"type":"Point","coordinates":[-82.4002,34.848]}},{"properties":{"a":14.8,"b":278.9,"County":"Guilford","c":-1.1,"d":200.0,"Longitude":-79.8973,"e":758.0,"Latitude":36.0772,"State":"NC","f":5.0,"g":28.0,"id":"a63cr1m4htaj"},"type":"Feature","geometry":{"type":"Point","coordinates":[-79.8973,36.0772]}},{"properties":{"a":23.4,"b":315.1,"County":"Gwinnett","c":-3.6,"d":298.0,"Longitude":-84.0378,"e":842.0,"Latitude":33.9606,"State":"GA","f":-3.1,"g":325.0,"id":"a63cr1ouxbd7"},"type":"Feature","geometry":{"type":"Point","coordinates":[-84.0378,33.9606]}},{"properties":{"a":7.7,"b":113.6,"County":"Hamilton","c":1.0,"d":39.0,"Longitude":-84.9123,"e":809.0,"Latitude":41.5333,"State":"IN","f":0.5,"g":293.0,"id":"a63cr1lc9udg"},"type":"Feature","geometry":{"type":"Point","coordinates":[-84.9123,41.5333]}},{"properties":{"a":8.6,"b":193.4,"County":"Hamilton","c":-0.5,"d":153.0,"Longitude":-86.782,"e":718.0,"Latitude":35.118,"State":"TN","f":1.0,"g":270.0,"id":"a63cr1h52xbg"},"type":"Feature","geometry":{"type":"Point","coordinates":[-86.782,35.118]}},{"properties":{"a":24.3,"b":515.4,"County":"Hamilton","c":-0.6,"d":162.0,"Longitude":-84.5626,"e":933.0,"Latitude":39.4001,"State":"OH","f":4.9,"g":31.0,"id":"a63cr1h081v5"},"type":"Feature","geometry":{"type":"Point","coordinates":[-84.5626,39.4001]}},{"properties":{"a":14.4,"b":200.2,"County":"Hampden","c":-0.4,"d":145.0,"Longitude":-72.4145,"e":785.0,"Latitude":42.0639,"State":"MA","f":3.2,"g":110.0,"id":"a63cr1nt7n6f"},"type":"Feature","geometry":{"type":"Point","coordinates":[-72.4145,42.0639]}},{"properties":{"a":5.6,"b":83.5,"County":"Harford","c":-7.0,"d":-99.0,"Longitude":-76.554,"e":785.0,"Latitude":39.3769,"State":"MD","f":-7.0,"g":-99.0,"id":"a63cr1ebswq7"},"type":"Feature","geometry":{"type":"Point","coordinates":[-76.554,39.3769]}},{"properties":{"a":97.3,"b":2047.2,"County":"Harris","c":1.3,"d":29.0,"Longitude":-96.9883,"e":1050.0,"Latitude":31.5214,"State":"TX","f":3.0,"g":139.0,"id":"a63cr1dbjnuf"},"type":"Feature","geometry":{"type":"Point","coordinates":[-96.9883,31.5214]}},{"properties":{"a":4.6,"b":86.1,"County":"Harrison","c":-2.0,"d":258.0,"Longitude":-89.0993,"e":664.0,"Latitude":30.4903,"State":"MS","f":3.4,"g":94.0,"id":"a63cr1m5qcv5"},"type":"Feature","geometry":{"type":"Point","coordinates":[-89.0993,30.4903]}},{"properties":{"a":25.6,"b":506.7,"County":"Hartford","c":0.3,"d":84.0,"Longitude":-72.6741,"e":1012.0,"Latitude":41.7633,"State":"CT","f":0.9,"g":275.0,"id":"a63cr1o19cvc"},"type":"Feature","geometry":{"type":"Point","coordinates":[-72.6741,41.7633]}},{"properties":{"a":42.2,"b":840.7,"County":"Hennepin","c":-0.8,"d":179.0,"Longitude":-93.4724,"e":1102.0,"Latitude":45.0159,"State":"MN","f":5.4,"g":20.0,"id":"a63cr1jrrnis"},"type":"Feature","geometry":{"type":"Point","coordinates":[-93.4724,45.0159]}},{"properties":{"a":9.7,"b":177.2,"County":"Henrico","c":-1.5,"d":226.0,"Longitude":-78.6064,"e":852.0,"Latitude":36.6149,"State":"VA","f":2.3,"g":192.0,"id":"a63cr1kv1s8o"},"type":"Feature","geometry":{"type":"Point","coordinates":[-78.6064,36.6149]}},{"properties":{"a":10.6,"b":214.8,"County":"Hidalgo","c":1.2,"d":30.0,"Longitude":-98.2699,"e":549.0,"Latitude":26.0983,"State":"TX","f":3.8,"g":66.0,"id":"a63cr1f9ktrw"},"type":"Feature","geometry":{"type":"Point","coordinates":[-98.2699,26.0983]}},{"properties":{"a":38.1,"b":604.0,"County":"Hillsborough","c":-4.9,"d":315.0,"Longitude":-82.3527,"e":807.0,"Latitude":27.9094,"State":"FL","f":3.5,"g":82.0,"id":"a63cr1rzntuj"},"type":"Feature","geometry":{"type":"Point","coordinates":[-82.3527,27.9094]}},{"properties":{"a":12.4,"b":196.5,"County":"Hillsborough","c":-0.6,"d":162.0,"Longitude":-71.9327,"e":924.0,"Latitude":43.1443,"State":"NH","f":2.7,"g":161.0,"id":"a63cr1oqvnlm"},"type":"Feature","geometry":{"type":"Point","coordinates":[-71.9327,43.1443]}},{"properties":{"a":6.4,"b":126.6,"County":"Hinds","c":-0.6,"d":162.0,"Longitude":-90.3972,"e":745.0,"Latitude":32.3113,"State":"MS","f":4.3,"g":44.0,"id":"a63cr1j6sjs8"},"type":"Feature","geometry":{"type":"Point","coordinates":[-90.3972,32.3113]}},{"properties":{"a":24.7,"b":444.6,"County":"Honolulu","c":-1.6,"d":233.0,"Longitude":-157.8576,"e":800.0,"Latitude":21.3047,"State":"HI","f":1.8,"g":234.0,"id":"a63cr1hfc2s1"},"type":"Feature","geometry":{"type":"Point","coordinates":[-157.8576,21.3047]}},{"properties":{"a":8.5,"b":116.9,"County":"Horry","c":-3.8,"d":303.0,"Longitude":-79.1449,"e":537.0,"Latitude":33.9295,"State":"SC","f":0.4,"g":297.0,"id":"a63cr1f3jy38"},"type":"Feature","geometry":{"type":"Point","coordinates":[-79.1449,33.9295]}},{"properties":{"a":8.7,"b":148.4,"County":"Howard","c":-7.0,"d":-99.0,"Longitude":-76.6949,"e":979.0,"Latitude":39.3311,"State":"MD","f":3.4,"g":94.0,"id":"a63cr1s8hwoa"},"type":"Feature","geometry":{"type":"Point","coordinates":[-76.6949,39.3311]}},{"properties":{"a":14.2,"b":236.2,"County":"Hudson","c":-0.8,"d":179.0,"Longitude":-74.0753,"e":1162.0,"Latitude":40.7336,"State":"NJ","f":4.1,"g":52.0,"id":"a63cr1fr3z75"},"type":"Feature","geometry":{"type":"Point","coordinates":[-74.0753,40.7336]}},{"properties":{"a":6.8,"b":159.5,"County":"Ingham","c":-2.1,"d":264.0,"Longitude":-84.3028,"e":806.0,"Latitude":42.5426,"State":"MI","f":3.2,"g":110.0,"id":"a63cr1f0b976"},"type":"Feature","geometry":{"type":"Point","coordinates":[-84.3028,42.5426]}},{"properties":{"a":6.7,"b":83.7,"County":"Jackson","c":-2.9,"d":286.0,"Longitude":-122.9706,"e":634.0,"Latitude":42.3151,"State":"OR","f":1.1,"g":266.0,"id":"a63cr1ki9hi2"},"type":"Feature","geometry":{"type":"Point","coordinates":[-122.9706,42.3151]}},{"properties":{"a":18.7,"b":370.0,"County":"Jackson","c":-0.1,"d":121.0,"Longitude":-89.6673,"e":851.0,"Latitude":37.3835,"State":"MO","f":3.0,"g":139.0,"id":"a63cr1rhky5p"},"type":"Feature","geometry":{"type":"Point","coordinates":[-89.6673,37.3835]}},{"properties":{"a":22.3,"b":426.4,"County":"Jefferson","c":-2.3,"d":269.0,"Longitude":-85.566,"e":799.0,"Latitude":38.194,"State":"KY","f":1.1,"g":266.0,"id":"a63cr1pzbnu3"},"type":"Feature","geometry":{"type":"Point","coordinates":[-85.566,38.194]}},{"properties":{"a":14.0,"b":195.0,"County":"Jefferson","c":-1.1,"d":200.0,"Longitude":-90.1718,"e":777.0,"Latitude":29.9597,"State":"LA","f":3.3,"g":103.0,"id":"a63cr1cjecy4"},"type":"Feature","geometry":{"type":"Point","coordinates":[-90.1718,29.9597]}},{"properties":{"a":19.0,"b":357.9,"County":"Jefferson","c":-1.6,"d":233.0,"Longitude":-87.8989,"e":863.0,"Latitude":32.3858,"State":"AL","f":3.1,"g":123.0,"id":"a63cr1jc5vfm"},"type":"Feature","geometry":{"type":"Point","coordinates":[-87.8989,32.3858]}},{"properties":{"a":18.9,"b":212.4,"County":"Jefferson","c":0.2,"d":97.0,"Longitude":-105.8016,"e":883.0,"Latitude":39.3763,"State":"CO","f":5.2,"g":22.0,"id":"a63cr1chqeia"},"type":"Feature","geometry":{"type":"Point","coordinates":[-105.8016,39.3763]}},{"properties":{"a":5.9,"b":123.3,"County":"Jefferson","c":-1.3,"d":212.0,"Longitude":-94.355,"e":820.0,"Latitude":32.762,"State":"TX","f":3.8,"g":66.0,"id":"a63cr1qmoihv"},"type":"Feature","geometry":{"type":"Point","coordinates":[-94.355,32.762]}},{"properties":{"a":20.6,"b":318.1,"County":"Johnson","c":0.1,"d":101.0,"Longitude":-101.7488,"e":867.0,"Latitude":37.5774,"State":"KS","f":4.0,"g":57.0,"id":"a63cr1dxfoor"},"type":"Feature","geometry":{"type":"Point","coordinates":[-101.7488,37.5774]}},{"properties":{"a":5.6,"b":113.4,"County":"Kalamazoo","c":-2.3,"d":269.0,"Longitude":-85.6011,"e":784.0,"Latitude":42.2924,"State":"MI","f":6.4,"g":14.0,"id":"a63cr1p65r66"},"type":"Feature","geometry":{"type":"Point","coordinates":[-85.6011,42.2924]}},{"properties":{"a":6.1,"b":108.5,"County":"Kanawha","c":-0.5,"d":153.0,"Longitude":-81.4566,"e":738.0,"Latitude":39.1986,"State":"WV","f":4.8,"g":33.0,"id":"a63cr1mmqp2e"},"type":"Feature","geometry":{"type":"Point","coordinates":[-81.4566,39.1986]}},{"properties":{"a":12.8,"b":208.2,"County":"Kane","c":-2.9,"d":286.0,"Longitude":-90.3527,"e":765.0,"Latitude":39.1889,"State":"IL","f":3.1,"g":123.0,"id":"a63cr1s8s1a6"},"type":"Feature","geometry":{"type":"Point","coordinates":[-90.3527,39.1889]}},{"properties":{"a":5.7,"b":78.5,"County":"Kent","c":-4.7,"d":314.0,"Longitude":-71.5727,"e":732.0,"Latitude":41.6826,"State":"RI","f":0.7,"g":287.0,"id":"a63cr1eiz98n"},"type":"Feature","geometry":{"type":"Point","coordinates":[-71.5727,41.6826]}},{"properties":{"a":14.3,"b":329.8,"County":"Kent","c":-3.5,"d":296.0,"Longitude":-88.9135,"e":757.0,"Latitude":46.4872,"State":"MI","f":3.0,"g":139.0,"id":"a63cr1e1m1gl"},"type":"Feature","geometry":{"type":"Point","coordinates":[-88.9135,46.4872]}},{"properties":{"a":18.3,"b":297.4,"County":"Kern","c":0.7,"d":59.0,"Longitude":-119.3414,"e":737.0,"Latitude":35.7503,"State":"CA","f":2.9,"g":148.0,"id":"a63cr1lxnpn8"},"type":"Feature","geometry":{"type":"Point","coordinates":[-119.3414,35.7503]}},{"properties":{"a":78.5,"b":1198.7,"County":"King","c":1.4,"d":24.0,"Longitude":-121.7515,"e":1162.0,"Latitude":47.4323,"State":"WA","f":2.9,"g":148.0,"id":"a63cr1i8edkt"},"type":"Feature","geometry":{"type":"Point","coordinates":[-121.7515,47.4323]}},{"properties":{"a":46.4,"b":478.2,"County":"Kings","c":1.4,"d":24.0,"Longitude":-73.8557,"e":735.0,"Latitude":43.1537,"State":"NY","f":2.1,"g":211.0,"id":"a63cr1lzy814"},"type":"Feature","geometry":{"type":"Point","coordinates":[-73.8557,43.1537]}},{"properties":{"a":6.8,"b":83.8,"County":"Kitsap","c":-0.1,"d":121.0,"Longitude":-122.7074,"e":766.0,"Latitude":47.5837,"State":"WA","f":-0.5,"g":310.0,"id":"a63cr1sfx3uv"},"type":"Feature","geometry":{"type":"Point","coordinates":[-122.7074,47.5837]}},{"properties":{"a":11.3,"b":230.1,"County":"Knox","c":0.0,"d":110.0,"Longitude":-83.9622,"e":711.0,"Latitude":35.9902,"State":"TN","f":2.0,"g":221.0,"id":"a63cr1gxliea"},"type":"Feature","geometry":{"type":"Point","coordinates":[-83.9622,35.9902]}},{"properties":{"a":5.9,"b":101.2,"County":"Lackawanna","c":-1.0,"d":192.0,"Longitude":-75.6376,"e":651.0,"Latitude":41.4018,"State":"PA","f":3.5,"g":82.0,"id":"a63cr1dkabgl"},"type":"Feature","geometry":{"type":"Point","coordinates":[-75.6376,41.4018]}},{"properties":{"a":8.8,"b":135.0,"County":"Lafayette","c":-0.2,"d":132.0,"Longitude":-92.0171,"e":826.0,"Latitude":30.2203,"State":"LA","f":6.7,"g":10.0,"id":"a63cr1n5trwg"},"type":"Feature","geometry":{"type":"Point","coordinates":[-92.0171,30.2203]}},{"properties":{"a":21.1,"b":335.8,"County":"Lake","c":-1.2,"d":205.0,"Longitude":-87.9795,"e":1037.0,"Latitude":42.324,"State":"IL","f":6.5,"g":13.0,"id":"a63cr1jsrwn4"},"type":"Feature","geometry":{"type":"Point","coordinates":[-87.9795,42.324]}},{"properties":{"a":10.3,"b":195.9,"County":"Lake","c":0.1,"d":101.0,"Longitude":-87.3728,"e":771.0,"Latitude":41.4361,"State":"IN","f":5.0,"g":28.0,"id":"a63cr1scd6fy"},"type":"Feature","geometry":{"type":"Point","coordinates":[-87.3728,41.4361]}},{"properties":{"a":7.4,"b":83.6,"County":"Lake","c":-4.5,"d":312.0,"Longitude":-81.6532,"e":606.0,"Latitude":28.8113,"State":"FL","f":1.7,"g":244.0,"id":"a63cr1n2n73o"},"type":"Feature","geometry":{"type":"Point","coordinates":[-81.6532,28.8113]}},{"properties":{"a":6.8,"b":100.5,"County":"Lake","c":-0.7,"d":174.0,"Longitude":-81.2455,"e":685.0,"Latitude":41.7115,"State":"OH","f":2.7,"g":161.0,"id":"a63cr1i9p0hs"},"type":"Feature","geometry":{"type":"Point","coordinates":[-81.2455,41.7115]}},{"properties":{"a":8.1,"b":158.2,"County":"Lancaster","c":0.3,"d":84.0,"Longitude":-96.6882,"e":687.0,"Latitude":40.7845,"State":"NE","f":3.2,"g":110.0,"id":"a63cr1nxkmcn"},"type":"Feature","geometry":{"type":"Point","coordinates":[-96.6882,40.7845]}},{"properties":{"a":12.5,"b":229.4,"County":"Lancaster","c":-0.8,"d":179.0,"Longitude":-76.3013,"e":720.0,"Latitude":40.038,"State":"PA","f":2.7,"g":161.0,"id":"a63cr1minliz"},"type":"Feature","geometry":{"type":"Point","coordinates":[-76.3013,40.038]}},{"properties":{"a":11.0,"b":147.1,"County":"Lane","c":-3.0,"d":288.0,"Longitude":-122.9633,"e":684.0,"Latitude":43.8638,"State":"OR","f":3.5,"g":82.0,"id":"a63cr1rrqrul"},"type":"Feature","geometry":{"type":"Point","coordinates":[-122.9633,43.8638]}},{"properties":{"a":10.5,"b":133.6,"County":"Larimer","c":0.1,"d":101.0,"Longitude":-105.569,"e":771.0,"Latitude":40.6281,"State":"CO","f":2.4,"g":183.0,"id":"a63cr1iilkou"},"type":"Feature","geometry":{"type":"Point","coordinates":[-105.569,40.6281]}},{"properties":{"a":20.2,"b":201.1,"County":"Lee","c":-8.1,"d":326.0,"Longitude":-83.2999,"e":706.0,"Latitude":30.4198,"State":"FL","f":1.0,"g":270.0,"id":"a63cr1qt8s3c"},"type":"Feature","geometry":{"type":"Point","coordinates":[-83.2999,30.4198]}},{"properties":{"a":8.8,"b":178.9,"County":"Lehigh","c":-0.2,"d":132.0,"Longitude":-75.4965,"e":829.0,"Latitude":41.3055,"State":"PA","f":-0.6,"g":312.0,"id":"a63cr1f1vnkc"},"type":"Feature","geometry":{"type":"Point","coordinates":[-75.4965,41.3055]}},{"properties":{"a":8.3,"b":142.3,"County":"Leon","c":-2.6,"d":277.0,"Longitude":-86.0158,"e":750.0,"Latitude":30.9089,"State":"FL","f":4.2,"g":46.0,"id":"a63cr1inoluj"},"type":"Feature","geometry":{"type":"Point","coordinates":[-86.0158,30.9089]}},{"properties":{"a":5.8,"b":98.4,"County":"Lexington","c":-0.6,"d":162.0,"Longitude":-81.2362,"e":652.0,"Latitude":33.9806,"State":"SC","f":2.2,"g":201.0,"id":"a63cr1lzgjvm"},"type":"Feature","geometry":{"type":"Point","coordinates":[-81.2362,33.9806]}},{"properties":{"a":6.3,"b":126.4,"County":"Linn","c":1.9,"d":17.0,"Longitude":-91.5992,"e":826.0,"Latitude":42.0792,"State":"IA","f":4.7,"g":36.0,"id":"a63cr1s1b6vi"},"type":"Feature","geometry":{"type":"Point","coordinates":[-91.5992,42.0792]}},{"properties":{"a":6.3,"b":99.1,"County":"Lorain","c":-1.4,"d":221.0,"Longitude":-82.1781,"e":710.0,"Latitude":41.4682,"State":"OH","f":1.3,"g":260.0,"id":"a63cr1pb6fg5"},"type":"Feature","geometry":{"type":"Point","coordinates":[-82.1781,41.4682]}},{"properties":{"a":428.8,"b":4141.1,"County":"Los Angeles","c":-1.5,"d":226.0,"Longitude":-118.245,"e":951.0,"Latitude":34.0533,"State":"CA","f":3.1,"g":123.0,"id":"a63cr1ow6c1s"},"type":"Feature","geometry":{"type":"Point","coordinates":[-118.245,34.0533]}},{"properties":{"a":9.1,"b":133.3,"County":"Loudoun","c":2.3,"d":9.0,"Longitude":-77.6457,"e":1006.0,"Latitude":39.0853,"State":"VA","f":-0.3,"g":309.0,"id":"a63cr1s0g8w1"},"type":"Feature","geometry":{"type":"Point","coordinates":[-77.6457,39.0853]}},{"properties":{"a":6.8,"b":124.7,"County":"Lubbock","c":1.9,"d":17.0,"Longitude":-101.8559,"e":641.0,"Latitude":33.5923,"State":"TX","f":4.2,"g":46.0,"id":"a63cr1m4n4on"},"type":"Feature","geometry":{"type":"Point","coordinates":[-101.8559,33.5923]}},{"properties":{"a":10.8,"b":212.2,"County":"Lucas","c":-3.8,"d":303.0,"Longitude":-82.4188,"e":737.0,"Latitude":40.7033,"State":"OH","f":0.4,"g":297.0,"id":"a63cr1fd7j09"},"type":"Feature","geometry":{"type":"Point","coordinates":[-82.4188,40.7033]}},{"properties":{"a":7.9,"b":143.6,"County":"Luzerne","c":0.0,"d":110.0,"Longitude":-75.9018,"e":663.0,"Latitude":41.2859,"State":"PA","f":1.8,"g":234.0,"id":"a63cr1rslx07"},"type":"Feature","geometry":{"type":"Point","coordinates":[-75.9018,41.2859]}},{"properties":{"a":17.7,"b":298.8,"County":"Macomb","c":-5.8,"d":320.0,"Longitude":-82.9217,"e":853.0,"Latitude":42.6957,"State":"MI","f":-2.4,"g":323.0,"id":"a63cr1fwngvf"},"type":"Feature","geometry":{"type":"Point","coordinates":[-82.9217,42.6957]}},{"properties":{"a":6.0,"b":96.6,"County":"Madison","c":0.3,"d":84.0,"Longitude":-90.1572,"e":723.0,"Latitude":38.6796,"State":"IL","f":9.2,"g":3.0,"id":"a63cr1oa5gu0"},"type":"Feature","geometry":{"type":"Point","coordinates":[-90.1572,38.6796]}},{"properties":{"a":9.0,"b":183.1,"County":"Madison","c":2.2,"d":13.0,"Longitude":-86.7509,"e":913.0,"Latitude":34.7059,"State":"AL","f":2.0,"g":221.0,"id":"a63cr1p7axw5"},"type":"Feature","geometry":{"type":"Point","coordinates":[-86.7509,34.7059]}},{"properties":{"a":6.5,"b":103.0,"County":"Mahoning","c":-1.9,"d":255.0,"Longitude":-81.0505,"e":616.0,"Latitude":41.2644,"State":"OH","f":3.5,"g":82.0,"id":"a63cr1kyqcwh"},"type":"Feature","geometry":{"type":"Point","coordinates":[-81.0505,41.2644]}},{"properties":{"a":9.4,"b":109.6,"County":"Manatee","c":-1.8,"d":250.0,"Longitude":-82.4003,"e":663.0,"Latitude":27.4271,"State":"FL","f":0.8,"g":281.0,"id":"a63cr1l0l9yy"},"type":"Feature","geometry":{"type":"Point","coordinates":[-82.4003,27.4271]}},{"properties":{"a":103.0,"b":1761.0,"County":"Maricopa","c":-3.7,"d":300.0,"Longitude":-112.048,"e":836.0,"Latitude":33.0585,"State":"AZ","f":1.8,"g":234.0,"id":"a63cr1gz4bds"},"type":"Feature","geometry":{"type":"Point","coordinates":[-112.048,33.0585]}},{"properties":{"a":12.1,"b":109.5,"County":"Marin","c":0.3,"d":84.0,"Longitude":-121.8023,"e":1029.0,"Latitude":36.6816,"State":"CA","f":0.7,"g":287.0,"id":"a63cr1kygh4i"},"type":"Feature","geometry":{"type":"Point","coordinates":[-121.8023,36.6816]}},{"properties":{"a":8.7,"b":98.9,"County":"Marion","c":-6.4,"d":323.0,"Longitude":-82.9477,"e":606.0,"Latitude":30.4414,"State":"FL","f":2.5,"g":176.0,"id":"a63cr1op6dj4"},"type":"Feature","geometry":{"type":"Point","coordinates":[-82.9477,30.4414]}},{"properties":{"a":24.2,"b":580.5,"County":"Marion","c":-0.7,"d":174.0,"Longitude":-85.6604,"e":852.0,"Latitude":40.5588,"State":"IN","f":2.7,"g":161.0,"id":"a63cr1m5fade"},"type":"Feature","geometry":{"type":"Point","coordinates":[-85.6604,40.5588]}},{"properties":{"a":9.5,"b":145.1,"County":"Marion","c":0.6,"d":64.0,"Longitude":-122.9405,"e":673.0,"Latitude":44.7505,"State":"OR","f":2.0,"g":221.0,"id":"a63cr1eu9fjl"},"type":"Feature","geometry":{"type":"Point","coordinates":[-122.9405,44.7505]}},{"properties":{"a":8.5,"b":103.6,"County":"McHenry","c":-1.3,"d":212.0,"Longitude":-88.2673,"e":729.0,"Latitude":42.3262,"State":"IL","f":1.8,"g":234.0,"id":"a63cr1lkgqc4"},"type":"Feature","geometry":{"type":"Point","coordinates":[-88.2673,42.3262]}},{"properties":{"a":3.7,"b":86.9,"County":"McLean","c":0.6,"d":64.0,"Longitude":-89.1719,"e":818.0,"Latitude":40.3116,"State":"IL","f":4.3,"g":44.0,"id":"a63cr1p5xl6k"},"type":"Feature","geometry":{"type":"Point","coordinates":[-89.1719,40.3116]}},{"properties":{"a":4.9,"b":103.2,"County":"McLennan","c":-7.0,"d":-99.0,"Longitude":-97.2032,"e":685.0,"Latitude":31.5536,"State":"TX","f":4.1,"g":52.0,"id":"a63cr1i6n1h1"},"type":"Feature","geometry":{"type":"Point","coordinates":[-97.2032,31.5536]}},{"properties":{"a":33.3,"b":570.0,"County":"Mecklenburg","c":0.0,"d":110.0,"Longitude":-80.8043,"e":956.0,"Latitude":35.2597,"State":"NC","f":3.5,"g":82.0,"id":"a63cr1gb58ya"},"type":"Feature","geometry":{"type":"Point","coordinates":[-80.8043,35.2597]}},{"properties":{"a":11.4,"b":229.5,"County":"Mercer","c":0.3,"d":84.0,"Longitude":-74.6872,"e":1063.0,"Latitude":40.2369,"State":"NJ","f":3.2,"g":110.0,"id":"a63cr1r1cvpw"},"type":"Feature","geometry":{"type":"Point","coordinates":[-74.6872,40.2369]}},{"properties":{"a":87.8,"b":993.1,"County":"Miami-Dade","c":-3.2,"d":291.0,"Longitude":-80.4959,"e":842.0,"Latitude":25.5584,"State":"FL","f":2.2,"g":201.0,"id":"a63cr1s0qs32"},"type":"Feature","geometry":{"type":"Point","coordinates":[-80.4959,25.5584]}},{"properties":{"a":47.6,"b":825.1,"County":"Middlesex","c":0.8,"d":50.0,"Longitude":-71.3474,"e":1200.0,"Latitude":42.6355,"State":"MA","f":1.8,"g":234.0,"id":"a63cr1kkoehy"},"type":"Feature","geometry":{"type":"Point","coordinates":[-71.3474,42.6355]}},{"properties":{"a":22.3,"b":399.0,"County":"Middlesex","c":-2.1,"d":264.0,"Longitude":-74.5002,"e":1033.0,"Latitude":40.5786,"State":"NJ","f":4.1,"g":52.0,"id":"a63cr1ni0g88"},"type":"Feature","geometry":{"type":"Point","coordinates":[-74.5002,40.5786]}},{"properties":{"a":21.5,"b":498.3,"County":"Milwaukee","c":-0.1,"d":121.0,"Longitude":-87.9068,"e":839.0,"Latitude":43.0418,"State":"WI","f":4.7,"g":36.0,"id":"a63cr1j3hfjf"},"type":"Feature","geometry":{"type":"Point","coordinates":[-87.9068,43.0418]}},{"properties":{"a":6.4,"b":116.7,"County":"Minnehaha","c":1.4,"d":24.0,"Longitude":-96.7913,"e":717.0,"Latitude":43.6746,"State":"SD","f":3.2,"g":110.0,"id":"a63cr1j0f6y7"},"type":"Feature","geometry":{"type":"Point","coordinates":[-96.7913,43.6746]}},{"properties":{"a":10.1,"b":175.4,"County":"Mobile","c":0.5,"d":69.0,"Longitude":-88.0532,"e":715.0,"Latitude":30.6864,"State":"AL","f":2.9,"g":148.0,"id":"a63cr1hjx08d"},"type":"Feature","geometry":{"type":"Point","coordinates":[-88.0532,30.6864]}},{"properties":{"a":21.1,"b":257.2,"County":"Monmouth","c":-0.6,"d":162.0,"Longitude":-73.9794,"e":888.0,"Latitude":40.3314,"State":"NJ","f":1.3,"g":260.0,"id":"a63cr1kqlhqw"},"type":"Feature","geometry":{"type":"Point","coordinates":[-73.9794,40.3314]}},{"properties":{"a":18.1,"b":381.1,"County":"Monroe","c":0.3,"d":84.0,"Longitude":-74.1871,"e":817.0,"Latitude":41.3281,"State":"NY","f":1.5,"g":255.0,"id":"a63cr1f4mtjm"},"type":"Feature","geometry":{"type":"Point","coordinates":[-74.1871,41.3281]}},{"properties":{"a":12.9,"b":182.8,"County":"Monterey","c":-0.1,"d":121.0,"Longitude":-121.8967,"e":747.0,"Latitude":36.5976,"State":"CA","f":1.5,"g":255.0,"id":"a63cr1d9bcec"},"type":"Feature","geometry":{"type":"Point","coordinates":[-121.8967,36.5976]}},{"properties":{"a":8.2,"b":125.8,"County":"Montgomery","c":3.0,"d":3.0,"Longitude":-95.6939,"e":785.0,"Latitude":30.3892,"State":"TX","f":5.5,"g":18.0,"id":"a63cr1q1u4an"},"type":"Feature","geometry":{"type":"Point","coordinates":[-95.6939,30.3892]}},{"properties":{"a":6.7,"b":138.5,"County":"Montgomery","c":0.0,"d":110.0,"Longitude":-86.3006,"e":725.0,"Latitude":32.3801,"State":"AL","f":4.8,"g":33.0,"id":"a63cr1defxne"},"type":"Feature","geometry":{"type":"Point","coordinates":[-86.3006,32.3801]}},{"properties":{"a":27.6,"b":487.7,"County":"Montgomery","c":0.3,"d":84.0,"Longitude":-76.8751,"e":1012.0,"Latitude":41.1702,"State":"PA","f":1.5,"g":255.0,"id":"a63cr1fvnark"},"type":"Feature","geometry":{"type":"Point","coordinates":[-76.8751,41.1702]}},{"properties":{"a":13.0,"b":261.1,"County":"Montgomery","c":-3.0,"d":288.0,"Longitude":-84.3527,"e":787.0,"Latitude":39.2486,"State":"OH","f":4.5,"g":42.0,"id":"a63cr1kmdhdt"},"type":"Feature","geometry":{"type":"Point","coordinates":[-84.3527,39.2486]}},{"properties":{"a":32.8,"b":459.0,"County":"Montgomery","c":-0.4,"d":145.0,"Longitude":-77.2082,"e":1122.0,"Latitude":39.1704,"State":"MD","f":2.9,"g":148.0,"id":"a63cr1gbj2m9"},"type":"Feature","geometry":{"type":"Point","coordinates":[-77.2082,39.1704]}},{"properties":{"a":18.4,"b":285.6,"County":"Morris","c":-0.7,"d":174.0,"Longitude":-75.0331,"e":1178.0,"Latitude":39.994,"State":"NJ","f":2.7,"g":161.0,"id":"a63cr1o2gtnr"},"type":"Feature","geometry":{"type":"Point","coordinates":[-75.0331,39.994]}},{"properties":{"a":28.2,"b":451.7,"County":"Multnomah","c":0.4,"d":76.0,"Longitude":-122.7056,"e":858.0,"Latitude":45.4698,"State":"OR","f":2.1,"g":211.0,"id":"a63cr1nt03xt"},"type":"Feature","geometry":{"type":"Point","coordinates":[-122.7056,45.4698]}},{"properties":{"a":4.8,"b":94.5,"County":"Muscogee","c":-2.7,"d":282.0,"Longitude":-84.8741,"e":676.0,"Latitude":32.4909,"State":"GA","f":-2.0,"g":321.0,"id":"a63cr1hinsul"},"type":"Feature","geometry":{"type":"Point","coordinates":[-84.8741,32.4909]}},{"properties":{"a":52.7,"b":601.7,"County":"Nassau","c":-0.5,"d":153.0,"Longitude":-73.6109,"e":915.0,"Latitude":42.5164,"State":"NY","f":0.2,"g":305.0,"id":"a63cr1sp85e9"},"type":"Feature","geometry":{"type":"Point","coordinates":[-73.6109,42.5164]}},{"properties":{"a":18.5,"b":278.0,"County":"New Castle","c":-1.5,"d":226.0,"Longitude":-75.5639,"e":981.0,"Latitude":39.6598,"State":"DE","f":2.6,"g":174.0,"id":"a63cr1k9dz4g"},"type":"Feature","geometry":{"type":"Point","coordinates":[-75.5639,39.6598]}},{"properties":{"a":7.5,"b":103.3,"County":"New Hanover","c":-3.3,"d":293.0,"Longitude":-77.8724,"e":696.0,"Latitude":34.1587,"State":"NC","f":3.1,"g":123.0,"id":"a63cr1eia2fy"},"type":"Feature","geometry":{"type":"Point","coordinates":[-77.8724,34.1587]}},{"properties":{"a":22.7,"b":364.0,"County":"New Haven","c":-1.1,"d":200.0,"Longitude":-72.925,"e":909.0,"Latitude":41.3071,"State":"CT","f":2.9,"g":148.0,"id":"a63cr1khh22x"},"type":"Feature","geometry":{"type":"Point","coordinates":[-72.925,41.3071]}},{"properties":{"a":7.0,"b":131.8,"County":"New London","c":0.4,"d":76.0,"Longitude":-72.0965,"e":864.0,"Latitude":41.3564,"State":"CT","f":1.1,"g":266.0,"id":"a63cr1eq95by"},"type":"Feature","geometry":{"type":"Point","coordinates":[-72.0965,41.3564]}},{"properties":{"a":118.9,"b":2363.8,"County":"New York","c":0.6,"d":64.0,"Longitude":-74.0071,"e":1552.0,"Latitude":40.7146,"State":"NY","f":0.5,"g":293.0,"id":"a63cr1m3hkmr"},"type":"Feature","geometry":{"type":"Point","coordinates":[-74.0071,40.7146]}},{"properties":{"a":4.0,"b":98.6,"County":"Newport News City","c":-1.2,"d":205.0,"Longitude":-76.5078,"e":769.0,"Latitude":37.0906,"State":"VA","f":2.1,"g":211.0,"id":"a63cr1kw6n0d"},"type":"Feature","geometry":{"type":"Point","coordinates":[-76.5078,37.0906]}},{"properties":{"a":23.7,"b":327.0,"County":"Norfolk","c":0.4,"d":76.0,"Longitude":-71.3188,"e":971.0,"Latitude":42.1206,"State":"MA","f":0.7,"g":287.0,"id":"a63cr1htr6xy"},"type":"Feature","geometry":{"type":"Point","coordinates":[-71.3188,42.1206]}},{"properties":{"a":5.9,"b":144.1,"County":"Norfolk City","c":0.0,"d":110.0,"Longitude":-76.2579,"e":815.0,"Latitude":36.8949,"State":"VA","f":-1.6,"g":317.0,"id":"a63cr1l9k0p8"},"type":"Feature","geometry":{"type":"Point","coordinates":[-76.2579,36.8949]}},{"properties":{"a":6.5,"b":99.0,"County":"Northampton","c":-1.6,"d":233.0,"Longitude":-75.4911,"e":743.0,"Latitude":40.6836,"State":"PA","f":3.2,"g":110.0,"id":"a63cr1cw7uc5"},"type":"Feature","geometry":{"type":"Point","coordinates":[-75.4911,40.6836]}},{"properties":{"a":8.1,"b":155.0,"County":"Nueces","c":2.5,"d":6.0,"Longitude":-97.5928,"e":728.0,"Latitude":27.7769,"State":"TX","f":2.5,"g":176.0,"id":"a63cr1hvfuyb"},"type":"Feature","geometry":{"type":"Point","coordinates":[-97.5928,27.7769]}},{"properties":{"a":39.2,"b":671.0,"County":"Oakland","c":-3.5,"d":296.0,"Longitude":-83.1615,"e":966.0,"Latitude":42.7338,"State":"MI","f":0.9,"g":275.0,"id":"a63cr1r0ufsp"},"type":"Feature","geometry":{"type":"Point","coordinates":[-83.1615,42.7338]}},{"properties":{"a":12.7,"b":152.8,"County":"Ocean","c":-0.9,"d":189.0,"Longitude":-74.0113,"e":689.0,"Latitude":40.378,"State":"NJ","f":1.6,"g":250.0,"id":"a63cr1qwp7lr"},"type":"Feature","geometry":{"type":"Point","coordinates":[-74.0113,40.378]}},{"properties":{"a":6.2,"b":78.4,"County":"Okaloosa","c":-4.3,"d":310.0,"Longitude":-86.5939,"e":688.0,"Latitude":30.699,"State":"FL","f":1.8,"g":234.0,"id":"a63cr1d6bv1c"},"type":"Feature","geometry":{"type":"Point","coordinates":[-86.5939,30.699]}},{"properties":{"a":24.0,"b":427.1,"County":"Oklahoma","c":1.2,"d":30.0,"Longitude":-97.5203,"e":784.0,"Latitude":35.472,"State":"OK","f":4.7,"g":36.0,"id":"a63cr1cdc49k"},"type":"Feature","geometry":{"type":"Point","coordinates":[-97.5203,35.472]}},{"properties":{"a":3.5,"b":90.6,"County":"Olmsted","c":-1.0,"d":192.0,"Longitude":-92.3845,"e":949.0,"Latitude":44.0146,"State":"MN","f":5.1,"g":24.0,"id":"a63cr1ojcrl0"},"type":"Feature","geometry":{"type":"Point","coordinates":[-92.3845,44.0146]}},{"properties":{"a":5.3,"b":109.7,"County":"Oneida","c":-0.2,"d":132.0,"Longitude":-75.6549,"e":671.0,"Latitude":43.0987,"State":"NY","f":3.2,"g":110.0,"id":"a63cr1ozn87e"},"type":"Feature","geometry":{"type":"Point","coordinates":[-75.6549,43.0987]}},{"properties":{"a":12.8,"b":254.3,"County":"Onondaga","c":-0.3,"d":141.0,"Longitude":-76.1836,"e":774.0,"Latitude":43.0049,"State":"NY","f":2.2,"g":201.0,"id":"a63cr1qi9wra"},"type":"Feature","geometry":{"type":"Point","coordinates":[-76.1836,43.0049]}},{"properties":{"a":36.4,"b":680.9,"County":"Orange","c":-2.5,"d":272.0,"Longitude":-85.0077,"e":764.0,"Latitude":30.2439,"State":"FL","f":1.3,"g":260.0,"id":"a63cr1rnb307"},"type":"Feature","geometry":{"type":"Point","coordinates":[-85.0077,30.2439]}},{"properties":{"a":10.0,"b":132.0,"County":"Orange","c":-0.2,"d":132.0,"Longitude":-77.0487,"e":711.0,"Latitude":42.3056,"State":"NY","f":3.3,"g":103.0,"id":"a63cr1iqm3rx"},"type":"Feature","geometry":{"type":"Point","coordinates":[-77.0487,42.3056]}},{"properties":{"a":102.5,"b":1469.5,"County":"Orange","c":-2.8,"d":283.0,"Longitude":-117.8504,"e":955.0,"Latitude":33.7879,"State":"CA","f":3.0,"g":139.0,"id":"a63cr1e8ryan"},"type":"Feature","geometry":{"type":"Point","coordinates":[-117.8504,33.7879]}},{"properties":{"a":10.6,"b":170.7,"County":"Orleans","c":-7.0,"d":-99.0,"Longitude":-90.0777,"e":901.0,"Latitude":29.9537,"State":"LA","f":1.5,"g":255.0,"id":"a63cr1dqfwgz"},"type":"Feature","geometry":{"type":"Point","coordinates":[-90.0777,29.9537]}},{"properties":{"a":5.7,"b":109.8,"County":"Ottawa","c":-2.6,"d":277.0,"Longitude":-83.5145,"e":730.0,"Latitude":41.7646,"State":"MI","f":3.0,"g":139.0,"id":"a63cr1o3lop7"},"type":"Feature","geometry":{"type":"Point","coordinates":[-83.5145,41.7646]}},{"properties":{"a":5.1,"b":104.2,"County":"Outagamie","c":0.0,"d":110.0,"Longitude":-88.465,"e":719.0,"Latitude":44.4162,"State":"WI","f":1.6,"g":250.0,"id":"a63cr1lmvyyf"},"type":"Feature","geometry":{"type":"Point","coordinates":[-88.465,44.4162]}},{"properties":{"a":51.5,"b":519.2,"County":"Palm Beach","c":-4.6,"d":313.0,"Longitude":-80.0366,"e":811.0,"Latitude":26.7029,"State":"FL","f":0.9,"g":275.0,"id":"a63cr1iagw2x"},"type":"Feature","geometry":{"type":"Point","coordinates":[-80.0366,26.7029]}},{"properties":{"a":10.3,"b":99.4,"County":"Pasco","c":-2.8,"d":283.0,"Longitude":-82.3365,"e":595.0,"Latitude":28.3245,"State":"FL","f":1.9,"g":230.0,"id":"a63cr1m26y2f"},"type":"Feature","geometry":{"type":"Point","coordinates":[-82.3365,28.3245]}},{"properties":{"a":12.9,"b":174.5,"County":"Passaic","c":-1.4,"d":221.0,"Longitude":-74.1237,"e":873.0,"Latitude":40.8603,"State":"NJ","f":2.5,"g":176.0,"id":"a63cr1nct1d2"},"type":"Feature","geometry":{"type":"Point","coordinates":[-74.1237,40.8603]}},{"properties":{"a":4.8,"b":105.7,"County":"Peoria","c":1.0,"d":39.0,"Longitude":-89.5878,"e":806.0,"Latitude":40.6921,"State":"IL","f":4.0,"g":57.0,"id":"a63cr1sceg82"},"type":"Feature","geometry":{"type":"Point","coordinates":[-89.5878,40.6921]}},{"properties":{"a":31.0,"b":634.8,"County":"Philadelphia","c":0.7,"d":59.0,"Longitude":-75.1624,"e":1021.0,"Latitude":39.9523,"State":"PA","f":4.6,"g":40.0,"id":"a63cr1mva5ry"},"type":"Feature","geometry":{"type":"Point","coordinates":[-75.1624,39.9523]}},{"properties":{"a":21.1,"b":278.4,"County":"Pierce","c":-0.1,"d":121.0,"Longitude":-119.4499,"e":774.0,"Latitude":46.6343,"State":"WA","f":2.7,"g":161.0,"id":"a63cr1e0ranz"},"type":"Feature","geometry":{"type":"Point","coordinates":[-119.4499,46.6343]}},{"properties":{"a":21.3,"b":370.5,"County":"Pima","c":-1.5,"d":226.0,"Longitude":-109.8283,"e":747.0,"Latitude":32.8962,"State":"AZ","f":2.2,"g":201.0,"id":"a63cr1exyg1g"},"type":"Feature","geometry":{"type":"Point","coordinates":[-109.8283,32.8962]}},{"properties":{"a":31.9,"b":414.8,"County":"Pinellas","c":-4.4,"d":311.0,"Longitude":-82.7025,"e":737.0,"Latitude":27.8429,"State":"FL","f":3.4,"g":94.0,"id":"a63cr1f5k748"},"type":"Feature","geometry":{"type":"Point","coordinates":[-82.7025,27.8429]}},{"properties":{"a":11.0,"b":135.0,"County":"Placer","c":-3.8,"d":303.0,"Longitude":-120.8036,"e":815.0,"Latitude":38.7278,"State":"CA","f":-0.1,"g":308.0,"id":"a63cr1ojn2uh"},"type":"Feature","geometry":{"type":"Point","coordinates":[-120.8036,38.7278]}},{"properties":{"a":13.7,"b":177.3,"County":"Plymouth","c":-1.3,"d":212.0,"Longitude":-70.6589,"e":786.0,"Latitude":41.954,"State":"MA","f":3.4,"g":94.0,"id":"a63cr1g92169"},"type":"Feature","geometry":{"type":"Point","coordinates":[-70.6589,41.954]}},{"properties":{"a":12.9,"b":197.1,"County":"Polk","c":-3.3,"d":293.0,"Longitude":-81.6184,"e":699.0,"Latitude":28.0026,"State":"FL","f":7.0,"g":9.0,"id":"a63cr1cf2ikc"},"type":"Feature","geometry":{"type":"Point","coordinates":[-81.6184,28.0026]}},{"properties":{"a":14.9,"b":276.3,"County":"Polk","c":0.6,"d":64.0,"Longitude":-93.5725,"e":831.0,"Latitude":41.6726,"State":"IA","f":3.5,"g":82.0,"id":"a63cr1nw1jl5"},"type":"Feature","geometry":{"type":"Point","coordinates":[-93.5725,41.6726]}},{"properties":{"a":3.8,"b":77.2,"County":"Potter","c":3.1,"d":2.0,"Longitude":-101.8951,"e":729.0,"Latitude":35.4015,"State":"TX","f":-7.0,"g":-99.0,"id":"a63cr1ea7m90"},"type":"Feature","geometry":{"type":"Point","coordinates":[-101.8951,35.4015]}},{"properties":{"a":15.7,"b":312.7,"County":"Prince Georges","c":-1.4,"d":221.0,"Longitude":-78.853,"e":933.0,"Latitude":39.6957,"State":"MD","f":3.6,"g":76.0,"id":"a63cr1i8ggoq"},"type":"Feature","geometry":{"type":"Point","coordinates":[-78.853,39.6957]}},{"properties":{"a":7.3,"b":103.3,"County":"Prince William","c":-0.8,"d":179.0,"Longitude":-76.7396,"e":775.0,"Latitude":37.3625,"State":"VA","f":2.8,"g":156.0,"id":"a63cr1imb54s"},"type":"Feature","geometry":{"type":"Point","coordinates":[-76.7396,37.3625]}},{"properties":{"a":18.1,"b":281.9,"County":"Providence","c":-2.2,"d":268.0,"Longitude":-71.412,"e":805.0,"Latitude":41.8239,"State":"RI","f":3.5,"g":82.0,"id":"a63cr1e5w62r"},"type":"Feature","geometry":{"type":"Point","coordinates":[-71.412,41.8239]}},{"properties":{"a":15.1,"b":252.2,"County":"Pulaski","c":0.3,"d":84.0,"Longitude":-92.3104,"e":765.0,"Latitude":34.7685,"State":"AR","f":2.0,"g":221.0,"id":"a63cr1qg5r9l"},"type":"Feature","geometry":{"type":"Point","coordinates":[-92.3104,34.7685]}},{"properties":{"a":43.7,"b":506.9,"County":"Queens","c":1.2,"d":30.0,"Longitude":-73.8299,"e":836.0,"Latitude":40.714,"State":"NY","f":3.0,"g":139.0,"id":"a63cr1q2wpvj"},"type":"Feature","geometry":{"type":"Point","coordinates":[-73.8299,40.714]}},{"properties":{"a":4.2,"b":76.4,"County":"Racine","c":-0.7,"d":174.0,"Longitude":-87.7904,"e":756.0,"Latitude":42.7252,"State":"WI","f":2.7,"g":161.0,"id":"a63cr1ck31j8"},"type":"Feature","geometry":{"type":"Point","coordinates":[-87.7904,42.7252]}},{"properties":{"a":15.2,"b":335.2,"County":"Ramsey","c":-0.2,"d":132.0,"Longitude":-93.4156,"e":933.0,"Latitude":45.2472,"State":"MN","f":3.7,"g":73.0,"id":"a63cr1d3jupv"},"type":"Feature","geometry":{"type":"Point","coordinates":[-93.4156,45.2472]}},{"properties":{"a":9.6,"b":215.2,"County":"Richland","c":-1.1,"d":200.0,"Longitude":-81.694,"e":749.0,"Latitude":33.9529,"State":"SC","f":2.7,"g":161.0,"id":"a63cr1p3xgsk"},"type":"Feature","geometry":{"type":"Point","coordinates":[-81.694,33.9529]}},{"properties":{"a":8.8,"b":93.3,"County":"Richmond","c":0.8,"d":50.0,"Longitude":-77.5393,"e":769.0,"Latitude":42.7895,"State":"NY","f":2.5,"g":176.0,"id":"a63cr1ggvyjf"},"type":"Feature","geometry":{"type":"Point","coordinates":[-77.5393,42.7895]}},{"properties":{"a":4.8,"b":101.1,"County":"Richmond","c":0.2,"d":97.0,"Longitude":-81.3114,"e":733.0,"Latitude":31.9488,"State":"GA","f":3.2,"g":110.0,"id":"a63cr1hrvuh8"},"type":"Feature","geometry":{"type":"Point","coordinates":[-81.3114,31.9488]}},{"properties":{"a":7.5,"b":159.0,"County":"Richmond City","c":-7.0,"d":-99.0,"Longitude":-82.5908,"e":954.0,"Latitude":36.6357,"State":"VA","f":-7.0,"g":-99.0,"id":"a63cr1i5845v"},"type":"Feature","geometry":{"type":"Point","coordinates":[-82.5908,36.6357]}},{"properties":{"a":47.1,"b":598.5,"County":"Riverside","c":-5.6,"d":319.0,"Longitude":-117.3739,"e":716.0,"Latitude":33.9816,"State":"CA","f":2.1,"g":211.0,"id":"a63cr1jjhlvh"},"type":"Feature","geometry":{"type":"Point","coordinates":[-117.3739,33.9816]}},{"properties":{"a":3.5,"b":79.9,"County":"Rock Island","c":0.4,"d":76.0,"Longitude":-90.576,"e":823.0,"Latitude":41.5116,"State":"IL","f":-2.6,"g":324.0,"id":"a63cr1dsqs4b"},"type":"Feature","geometry":{"type":"Point","coordinates":[-90.576,41.5116]}},{"properties":{"a":11.0,"b":138.6,"County":"Rockingham","c":-1.8,"d":250.0,"Longitude":-70.9322,"e":796.0,"Latitude":43.0495,"State":"NH","f":1.7,"g":244.0,"id":"a63cr1i2jmyl"},"type":"Feature","geometry":{"type":"Point","coordinates":[-70.9322,43.0495]}},{"properties":{"a":9.9,"b":116.0,"County":"Rockland","c":-0.1,"d":121.0,"Longitude":-74.9134,"e":918.0,"Latitude":41.9455,"State":"NY","f":5.8,"g":15.0,"id":"a63cr1p5u3ub"},"type":"Feature","geometry":{"type":"Point","coordinates":[-74.9134,41.9455]}},{"properties":{"a":4.4,"b":97.7,"County":"Rutherford","c":-3.7,"d":300.0,"Longitude":-88.9854,"e":840.0,"Latitude":36.1275,"State":"TN","f":17.3,"g":1.0,"id":"a63cr1g6bn93"},"type":"Feature","geometry":{"type":"Point","coordinates":[-88.9854,36.1275]}},{"properties":{"a":54.4,"b":623.6,"County":"Sacramento","c":-2.5,"d":272.0,"Longitude":-121.491,"e":952.0,"Latitude":38.5791,"State":"CA","f":5.1,"g":24.0,"id":"a63cr1faes25"},"type":"Feature","geometry":{"type":"Point","coordinates":[-121.491,38.5791]}},{"properties":{"a":4.3,"b":83.7,"County":"Saginaw","c":-3.7,"d":300.0,"Longitude":-83.9467,"e":703.0,"Latitude":43.4192,"State":"MI","f":0.1,"g":306.0,"id":"a63cr1hcgty1"},"type":"Feature","geometry":{"type":"Point","coordinates":[-83.9467,43.4192]}},{"properties":{"a":38.5,"b":591.7,"County":"Salt Lake","c":0.5,"d":69.0,"Longitude":-111.8882,"e":796.0,"Latitude":40.7595,"State":"UT","f":3.0,"g":139.0,"id":"a63cr1m7kmge"},"type":"Feature","geometry":{"type":"Point","coordinates":[-111.8882,40.7595]}},{"properties":{"a":49.1,"b":642.8,"County":"San Bernardino","c":-3.8,"d":303.0,"Longitude":-117.2941,"e":740.0,"Latitude":34.1052,"State":"CA","f":2.2,"g":201.0,"id":"a63cr1oxv09w"},"type":"Feature","geometry":{"type":"Point","coordinates":[-117.2941,34.1052]}},{"properties":{"a":99.6,"b":1318.0,"County":"San Diego","c":-1.2,"d":205.0,"Longitude":-117.1617,"e":921.0,"Latitude":32.7157,"State":"CA","f":3.8,"g":66.0,"id":"a63cr1fa6su7"},"type":"Feature","geometry":{"type":"Point","coordinates":[-117.1617,32.7157]}},{"properties":{"a":52.3,"b":575.4,"County":"San Francisco","c":0.8,"d":50.0,"Longitude":-122.42,"e":1350.0,"Latitude":37.7792,"State":"CA","f":5.1,"g":24.0,"id":"a63cr1j5scl6"},"type":"Feature","geometry":{"type":"Point","coordinates":[-122.42,37.7792]}},{"properties":{"a":18.0,"b":224.5,"County":"San Joaquin","c":-3.1,"d":290.0,"Longitude":-120.1883,"e":744.0,"Latitude":36.6073,"State":"CA","f":4.1,"g":52.0,"id":"a63cr1k3ylmb"},"type":"Feature","geometry":{"type":"Point","coordinates":[-120.1883,36.6073]}},{"properties":{"a":13.1,"b":283.5,"County":"San Juan","c":-1.2,"d":-8.0,"Longitude":-66.1067,"e":569.0,"Latitude":18.4662,"State":"PR","f":6.0,"g":-8.0,"id":"a63cr1f5168e"},"type":"Feature","geometry":{"type":"Point","coordinates":[-66.1067,18.4662]}},{"properties":{"a":9.9,"b":105.3,"County":"San Luis Obispo","c":-2.0,"d":258.0,"Longitude":-120.6626,"e":714.0,"Latitude":35.2855,"State":"CA","f":3.9,"g":62.0,"id":"a63cr1g1ko7h"},"type":"Feature","geometry":{"type":"Point","coordinates":[-120.6626,35.2855]}},{"properties":{"a":24.2,"b":343.8,"County":"San Mateo","c":0.1,"d":101.0,"Longitude":-122.3148,"e":1374.0,"Latitude":37.547,"State":"CA","f":3.5,"g":82.0,"id":"a63cr1cwfrid"},"type":"Feature","geometry":{"type":"Point","coordinates":[-122.3148,37.547]}},{"properties":{"a":5.2,"b":129.4,"County":"Sangamon","c":-0.5,"d":153.0,"Longitude":-88.8558,"e":850.0,"Latitude":39.8662,"State":"IL","f":3.8,"g":66.0,"id":"a63cr1lkh684"},"type":"Feature","geometry":{"type":"Point","coordinates":[-88.8558,39.8662]}},{"properties":{"a":14.4,"b":189.8,"County":"Santa Barbara","c":0.0,"d":110.0,"Longitude":-119.6988,"e":788.0,"Latitude":34.4193,"State":"CA","f":1.2,"g":264.0,"id":"a63cr1jja3tx"},"type":"Feature","geometry":{"type":"Point","coordinates":[-119.6988,34.4193]}},{"properties":{"a":60.7,"b":910.5,"County":"Santa Clara","c":0.5,"d":69.0,"Longitude":-121.9543,"e":1530.0,"Latitude":37.3555,"State":"CA","f":-3.4,"g":326.0,"id":"a63cr1jq5crw"},"type":"Feature","geometry":{"type":"Point","coordinates":[-121.9543,37.3555]}},{"properties":{"a":9.1,"b":102.1,"County":"Santa Cruz","c":-1.7,"d":245.0,"Longitude":-122.0309,"e":798.0,"Latitude":36.974,"State":"CA","f":7.5,"g":7.0,"id":"a63cr1l9geh0"},"type":"Feature","geometry":{"type":"Point","coordinates":[-122.0309,36.974]}},{"properties":{"a":15.4,"b":143.5,"County":"Sarasota","c":-7.1,"d":324.0,"Longitude":-82.5396,"e":709.0,"Latitude":27.3389,"State":"FL","f":1.0,"g":270.0,"id":"a63cr1hchvti"},"type":"Feature","geometry":{"type":"Point","coordinates":[-82.5396,27.3389]}},{"properties":{"a":5.4,"b":76.2,"County":"Saratoga","c":-0.8,"d":179.0,"Longitude":-73.6426,"e":708.0,"Latitude":43.0607,"State":"NY","f":1.7,"g":244.0,"id":"a63cr1hpdulg"},"type":"Feature","geometry":{"type":"Point","coordinates":[-73.6426,43.0607]}},{"properties":{"a":5.3,"b":90.1,"County":"Scott","c":0.9,"d":45.0,"Longitude":-90.6063,"e":697.0,"Latitude":41.6129,"State":"IA","f":2.3,"g":192.0,"id":"a63cr1j4n69b"},"type":"Feature","geometry":{"type":"Point","coordinates":[-90.6063,41.6129]}},{"properties":{"a":12.2,"b":258.0,"County":"Sedgwick","c":-0.2,"d":132.0,"Longitude":-97.4271,"e":763.0,"Latitude":37.9165,"State":"KS","f":3.8,"g":66.0,"id":"a63cr1n443zh"},"type":"Feature","geometry":{"type":"Point","coordinates":[-97.4271,37.9165]}},{"properties":{"a":14.9,"b":171.0,"County":"Seminole","c":-5.8,"d":320.0,"Longitude":-82.7993,"e":712.0,"Latitude":27.8403,"State":"FL","f":0.8,"g":281.0,"id":"a63cr1gk77yg"},"type":"Feature","geometry":{"type":"Point","coordinates":[-82.7993,27.8403]}},{"properties":{"a":4.8,"b":96.8,"County":"Shawnee","c":1.1,"d":37.0,"Longitude":-94.7154,"e":710.0,"Latitude":39.0229,"State":"KS","f":3.5,"g":82.0,"id":"a63cr1i9wmi6"},"type":"Feature","geometry":{"type":"Point","coordinates":[-94.7154,39.0229]}},{"properties":{"a":5.0,"b":75.7,"County":"Shelby","c":-0.6,"d":162.0,"Longitude":-86.5836,"e":806.0,"Latitude":33.113,"State":"AL","f":0.4,"g":297.0,"id":"a63cr1iw64h1"},"type":"Feature","geometry":{"type":"Point","coordinates":[-86.5836,33.113]}},{"properties":{"a":20.0,"b":500.6,"County":"Shelby","c":-1.7,"d":245.0,"Longitude":-86.46,"e":855.0,"Latitude":35.483,"State":"TN","f":0.6,"g":290.0,"id":"a63cr1iqig6z"},"type":"Feature","geometry":{"type":"Point","coordinates":[-86.46,35.483]}},{"properties":{"a":5.3,"b":94.4,"County":"Smith","c":2.4,"d":8.0,"Longitude":-97.3752,"e":743.0,"Latitude":31.0546,"State":"TX","f":4.2,"g":46.0,"id":"a63cr1k3ovba"},"type":"Feature","geometry":{"type":"Point","coordinates":[-97.3752,31.0546]}},{"properties":{"a":18.2,"b":256.0,"County":"Snohomish","c":0.3,"d":84.0,"Longitude":-122.0931,"e":856.0,"Latitude":47.9124,"State":"WA","f":1.7,"g":244.0,"id":"a63cr1jvskog"},"type":"Feature","geometry":{"type":"Point","coordinates":[-122.0931,47.9124]}},{"properties":{"a":10.2,"b":126.4,"County":"Solano","c":-2.5,"d":272.0,"Longitude":-121.9997,"e":853.0,"Latitude":38.2861,"State":"CA","f":7.7,"g":6.0,"id":"a63cr1ghbsar"},"type":"Feature","geometry":{"type":"Point","coordinates":[-121.9997,38.2861]}},{"properties":{"a":10.4,"b":172.9,"County":"Somerset","c":-0.8,"d":179.0,"Longitude":-74.5241,"e":1233.0,"Latitude":40.4975,"State":"NJ","f":2.6,"g":174.0,"id":"a63cr1kna2zj"},"type":"Feature","geometry":{"type":"Point","coordinates":[-74.5241,40.4975]}},{"properties":{"a":18.9,"b":193.0,"County":"Sonoma","c":-2.4,"d":271.0,"Longitude":-122.4572,"e":828.0,"Latitude":38.2919,"State":"CA","f":2.1,"g":211.0,"id":"a63cr1evyjo9"},"type":"Feature","geometry":{"type":"Point","coordinates":[-122.4572,38.2919]}},{"properties":{"a":6.2,"b":119.2,"County":"Spartanburg","c":-3.2,"d":291.0,"Longitude":-81.9348,"e":734.0,"Latitude":34.9483,"State":"SC","f":4.0,"g":57.0,"id":"a63cr1g04imy"},"type":"Feature","geometry":{"type":"Point","coordinates":[-81.9348,34.9483]}},{"properties":{"a":15.6,"b":211.5,"County":"Spokane","c":0.1,"d":101.0,"Longitude":-117.4123,"e":700.0,"Latitude":47.6573,"State":"WA","f":2.9,"g":148.0,"id":"a63cr1e6cvzv"},"type":"Feature","geometry":{"type":"Point","coordinates":[-117.4123,47.6573]}},{"properties":{"a":8.2,"b":123.2,"County":"St. Charles","c":-2.1,"d":264.0,"Longitude":-90.4821,"e":695.0,"Latitude":38.7824,"State":"MO","f":0.4,"g":297.0,"id":"a63cr1n05u27"},"type":"Feature","geometry":{"type":"Point","coordinates":[-90.4821,38.7824]}},{"properties":{"a":5.5,"b":98.4,"County":"St. Clair","c":1.2,"d":30.0,"Longitude":-89.9835,"e":694.0,"Latitude":38.4399,"State":"IL","f":2.8,"g":156.0,"id":"a63cr1d0svek"},"type":"Feature","geometry":{"type":"Point","coordinates":[-89.9835,38.4399]}},{"properties":{"a":6.1,"b":123.3,"County":"St. Joseph","c":-2.0,"d":258.0,"Longitude":-87.6429,"e":715.0,"Latitude":38.0675,"State":"IN","f":5.0,"g":28.0,"id":"a63cr1d5fvbh"},"type":"Feature","geometry":{"type":"Point","coordinates":[-87.6429,38.0675]}},{"properties":{"a":5.9,"b":98.3,"County":"St. Louis","c":0.4,"d":76.0,"Longitude":-93.3434,"e":696.0,"Latitude":44.9485,"State":"MN","f":3.9,"g":62.0,"id":"a63cr1h7vtmt"},"type":"Feature","geometry":{"type":"Point","coordinates":[-93.3434,44.9485]}},{"properties":{"a":32.9,"b":605.6,"County":"St. Louis","c":-1.0,"d":192.0,"Longitude":-90.1995,"e":890.0,"Latitude":38.6277,"State":"MO","f":1.8,"g":234.0,"id":"a63cr1l633hl"},"type":"Feature","geometry":{"type":"Point","coordinates":[-90.1995,38.6277]}},{"properties":{"a":8.5,"b":237.9,"County":"St. Louis City","c":1.6,"d":21.0,"Longitude":-94.4935,"e":937.0,"Latitude":37.1245,"State":"MO","f":5.5,"g":18.0,"id":"a63cr1fsz1zd"},"type":"Feature","geometry":{"type":"Point","coordinates":[-94.4935,37.1245]}},{"properties":{"a":7.2,"b":74.0,"County":"St. Tammany","c":-0.6,"d":162.0,"Longitude":-89.8953,"e":699.0,"Latitude":30.3963,"State":"LA","f":4.2,"g":46.0,"id":"a63cr1pm4qtv"},"type":"Feature","geometry":{"type":"Point","coordinates":[-89.8953,30.3963]}},{"properties":{"a":14.9,"b":177.1,"County":"Stanislaus","c":-1.6,"d":233.0,"Longitude":-120.3749,"e":723.0,"Latitude":38.1355,"State":"CA","f":4.0,"g":57.0,"id":"a63cr1hzzxgh"},"type":"Feature","geometry":{"type":"Point","coordinates":[-120.3749,38.1355]}},{"properties":{"a":9.1,"b":160.9,"County":"Stark","c":-1.6,"d":233.0,"Longitude":-81.3682,"e":658.0,"Latitude":40.8118,"State":"OH","f":2.3,"g":192.0,"id":"a63cr1f8n673"},"type":"Feature","geometry":{"type":"Point","coordinates":[-81.3682,40.8118]}},{"properties":{"a":4.5,"b":83.0,"County":"Stearns","c":0.3,"d":84.0,"Longitude":-94.5935,"e":679.0,"Latitude":45.5288,"State":"MN","f":3.2,"g":110.0,"id":"a63cr1fl5cva"},"type":"Feature","geometry":{"type":"Point","coordinates":[-94.5935,45.5288]}},{"properties":{"a":50.7,"b":626.3,"County":"Suffolk","c":-0.4,"d":145.0,"Longitude":-72.4762,"e":969.0,"Latitude":40.9991,"State":"NY","f":8.6,"g":4.0,"id":"a63cr1rnocmy"},"type":"Feature","geometry":{"type":"Point","coordinates":[-72.4762,40.9991]}},{"properties":{"a":21.7,"b":591.8,"County":"Suffolk","c":0.4,"d":76.0,"Longitude":-71.0721,"e":1321.0,"Latitude":42.3389,"State":"MA","f":2.2,"g":201.0,"id":"a63cr1kp4xlv"},"type":"Feature","geometry":{"type":"Point","coordinates":[-71.0721,42.3389]}},{"properties":{"a":15.1,"b":273.9,"County":"Summit","c":-0.4,"d":145.0,"Longitude":-84.6207,"e":756.0,"Latitude":39.1266,"State":"OH","f":2.3,"g":192.0,"id":"a63cr1f4f0dn"},"type":"Feature","geometry":{"type":"Point","coordinates":[-84.6207,39.1266]}},{"properties":{"a":37.4,"b":769.5,"County":"Tarrant","c":0.8,"d":50.0,"Longitude":-97.0766,"e":843.0,"Latitude":32.8173,"State":"TX","f":1.0,"g":270.0,"id":"a63cr1m4x3un"},"type":"Feature","geometry":{"type":"Point","coordinates":[-97.0766,32.8173]}},{"properties":{"a":7.1,"b":102.0,"County":"Thurston","c":2.1,"d":14.0,"Longitude":-122.7025,"e":786.0,"Latitude":46.978,"State":"WA","f":0.6,"g":290.0,"id":"a63cr1ni9wfu"},"type":"Feature","geometry":{"type":"Point","coordinates":[-122.7025,46.978]}},{"properties":{"a":3.3,"b":77.3,"County":"Tippecanoe","c":-0.3,"d":141.0,"Longitude":-86.1149,"e":725.0,"Latitude":41.2083,"State":"IN","f":2.7,"g":161.0,"id":"a63cr1qmz2u8"},"type":"Feature","geometry":{"type":"Point","coordinates":[-86.1149,41.2083]}},{"properties":{"a":29.0,"b":581.5,"County":"Travis","c":1.6,"d":21.0,"Longitude":-97.0034,"e":924.0,"Latitude":31.1364,"State":"TX","f":1.3,"g":260.0,"id":"a63cr1q6raxp"},"type":"Feature","geometry":{"type":"Point","coordinates":[-97.0034,31.1364]}},{"properties":{"a":4.7,"b":76.3,"County":"Trumbull","c":-1.8,"d":250.0,"Longitude":-80.9539,"e":713.0,"Latitude":41.6726,"State":"OH","f":2.9,"g":148.0,"id":"a63cr1k4asi3"},"type":"Feature","geometry":{"type":"Point","coordinates":[-80.9539,41.6726]}},{"properties":{"a":9.6,"b":154.1,"County":"Tulare","c":0.8,"d":50.0,"Longitude":-119.343,"e":606.0,"Latitude":36.2065,"State":"CA","f":3.4,"g":94.0,"id":"a63cr1l154sl"},"type":"Feature","geometry":{"type":"Point","coordinates":[-119.343,36.2065]}},{"properties":{"a":19.4,"b":351.8,"County":"Tulsa","c":1.0,"d":39.0,"Longitude":-95.9934,"e":767.0,"Latitude":36.1498,"State":"OK","f":3.0,"g":139.0,"id":"a63cr1snsfft"},"type":"Feature","geometry":{"type":"Point","coordinates":[-95.9934,36.1498]}},{"properties":{"a":4.5,"b":87.2,"County":"Tuscaloosa","c":0.1,"d":101.0,"Longitude":-87.5662,"e":730.0,"Latitude":33.2104,"State":"AL","f":4.4,"g":43.0,"id":"a63cr1jrit5h"},"type":"Feature","geometry":{"type":"Point","coordinates":[-87.5662,33.2104]}},{"properties":{"a":15.3,"b":232.1,"County":"Union","c":-1.1,"d":200.0,"Longitude":-74.2685,"e":1057.0,"Latitude":40.6961,"State":"NJ","f":0.4,"g":297.0,"id":"a63cr1psgvq2"},"type":"Feature","geometry":{"type":"Point","coordinates":[-74.2685,40.6961]}},{"properties":{"a":13.1,"b":175.8,"County":"Utah","c":-1.3,"d":212.0,"Longitude":-110.4294,"e":665.0,"Latitude":40.2709,"State":"UT","f":3.3,"g":103.0,"id":"a63cr1sifcsh"},"type":"Feature","geometry":{"type":"Point","coordinates":[-110.4294,40.2709]}},{"properties":{"a":4.8,"b":108.2,"County":"Vanderburgh","c":0.6,"d":64.0,"Longitude":-87.5752,"e":702.0,"Latitude":37.9971,"State":"IN","f":3.8,"g":66.0,"id":"a63cr1q3ej1n"},"type":"Feature","geometry":{"type":"Point","coordinates":[-87.5752,37.9971]}},{"properties":{"a":23.7,"b":314.3,"County":"Ventura","c":-1.6,"d":233.0,"Longitude":-119.2923,"e":858.0,"Latitude":34.2808,"State":"CA","f":2.4,"g":183.0,"id":"a63cr1n4oinp"},"type":"Feature","geometry":{"type":"Point","coordinates":[-119.2923,34.2808]}},{"properties":{"a":11.7,"b":174.7,"County":"Virginia Beach City","c":-0.9,"d":189.0,"Longitude":-78.4619,"e":656.0,"Latitude":36.7969,"State":"VA","f":2.0,"g":221.0,"id":"a63cr1juwsac"},"type":"Feature","geometry":{"type":"Point","coordinates":[-78.4619,36.7969]}},{"properties":{"a":14.2,"b":159.4,"County":"Volusia","c":-5.9,"d":322.0,"Longitude":-81.5225,"e":615.0,"Latitude":29.1693,"State":"FL","f":2.8,"g":156.0,"id":"a63cr1czz46a"},"type":"Feature","geometry":{"type":"Point","coordinates":[-81.5225,29.1693]}},{"properties":{"a":28.9,"b":453.6,"County":"Wake","c":0.7,"d":59.0,"Longitude":-76.8422,"e":836.0,"Latitude":36.1586,"State":"NC","f":2.7,"g":161.0,"id":"a63cr1ot94u5"},"type":"Feature","geometry":{"type":"Point","coordinates":[-76.8422,36.1586]}},{"properties":{"a":4.3,"b":76.9,"County":"Warren","c":-1.7,"d":245.0,"Longitude":-80.8128,"e":719.0,"Latitude":41.2362,"State":"OH","f":3.3,"g":103.0,"id":"a63cr1e155ac"},"type":"Feature","geometry":{"type":"Point","coordinates":[-80.8128,41.2362]}},{"properties":{"a":5.4,"b":81.3,"County":"Washington","c":2.3,"d":9.0,"Longitude":-80.2465,"e":739.0,"Latitude":40.1675,"State":"PA","f":2.4,"g":183.0,"id":"a63cr1e941cc"},"type":"Feature","geometry":{"type":"Point","coordinates":[-80.2465,40.1675]}},{"properties":{"a":5.8,"b":92.1,"County":"Washington","c":-1.2,"d":205.0,"Longitude":-93.6834,"e":679.0,"Latitude":33.7747,"State":"AR","f":2.3,"g":192.0,"id":"a63cr1py3dm0"},"type":"Feature","geometry":{"type":"Point","coordinates":[-93.6834,33.7747]}},{"properties":{"a":33.8,"b":688.2,"County":"Washington","c":1.4,"d":24.0,"Longitude":-77.032,"e":1391.0,"Latitude":38.8904,"State":"DC","f":1.0,"g":270.0,"id":"a63cr1kown6n"},"type":"Feature","geometry":{"type":"Point","coordinates":[-77.032,38.8904]}},{"properties":{"a":16.2,"b":248.1,"County":"Washington","c":-1.6,"d":233.0,"Longitude":-123.1145,"e":985.0,"Latitude":45.5486,"State":"OR","f":1.9,"g":230.0,"id":"a63cr1rm8mr5"},"type":"Feature","geometry":{"type":"Point","coordinates":[-123.1145,45.5486]}},{"properties":{"a":14.6,"b":208.5,"County":"Washoe","c":-5.4,"d":318.0,"Longitude":-119.587,"e":796.0,"Latitude":40.5807,"State":"NV","f":2.3,"g":192.0,"id":"a63cr1ex88tp"},"type":"Feature","geometry":{"type":"Point","coordinates":[-119.587,40.5807]}},{"properties":{"a":8.1,"b":187.3,"County":"Washtenaw","c":-2.5,"d":272.0,"Longitude":-83.8367,"e":944.0,"Latitude":42.2533,"State":"MI","f":-0.9,"g":313.0,"id":"a63cr1j9rh4p"},"type":"Feature","geometry":{"type":"Point","coordinates":[-83.8367,42.2533]}},{"properties":{"a":13.4,"b":233.7,"County":"Waukesha","c":-1.2,"d":205.0,"Longitude":-88.2355,"e":836.0,"Latitude":43.0144,"State":"WI","f":2.5,"g":176.0,"id":"a63cr1qv0bj9"},"type":"Feature","geometry":{"type":"Point","coordinates":[-88.2355,43.0144]}},{"properties":{"a":32.1,"b":717.9,"County":"Wayne","c":-4.2,"d":308.0,"Longitude":-83.3835,"e":942.0,"Latitude":42.2847,"State":"MI","f":1.4,"g":259.0,"id":"a63cr1l0cn16"},"type":"Feature","geometry":{"type":"Point","coordinates":[-83.3835,42.2847]}},{"properties":{"a":4.8,"b":88.5,"County":"Webb","c":-0.4,"d":145.0,"Longitude":-99.4215,"e":559.0,"Latitude":27.796,"State":"TX","f":2.0,"g":221.0,"id":"a63cr1kyt0y1"},"type":"Feature","geometry":{"type":"Point","coordinates":[-99.4215,27.796]}},{"properties":{"a":5.7,"b":94.4,"County":"Weber","c":-0.8,"d":179.0,"Longitude":-111.9567,"e":637.0,"Latitude":41.2553,"State":"UT","f":3.6,"g":76.0,"id":"a63cr1k89hyv"},"type":"Feature","geometry":{"type":"Point","coordinates":[-111.9567,41.2553]}},{"properties":{"a":6.1,"b":84.4,"County":"Weld","c":0.0,"d":110.0,"Longitude":-103.969,"e":731.0,"Latitude":40.3469,"State":"CO","f":0.6,"g":290.0,"id":"a63cr1hwglu9"},"type":"Feature","geometry":{"type":"Point","coordinates":[-103.969,40.3469]}},{"properties":{"a":36.6,"b":420.7,"County":"Westchester","c":-0.1,"d":121.0,"Longitude":-73.8558,"e":1086.0,"Latitude":40.8474,"State":"NY","f":1.6,"g":250.0,"id":"a63cr1l3uv7e"},"type":"Feature","geometry":{"type":"Point","coordinates":[-73.8558,40.8474]}},{"properties":{"a":9.5,"b":137.6,"County":"Westmoreland","c":0.3,"d":84.0,"Longitude":-79.676,"e":684.0,"Latitude":40.3315,"State":"PA","f":4.0,"g":57.0,"id":"a63cr1n8k8tw"},"type":"Feature","geometry":{"type":"Point","coordinates":[-79.676,40.3315]}},{"properties":{"a":7.0,"b":83.3,"County":"Whatcom","c":0.8,"d":50.0,"Longitude":-121.7401,"e":679.0,"Latitude":48.8217,"State":"WA","f":3.0,"g":139.0,"id":"a63cr1dvjif3"},"type":"Feature","geometry":{"type":"Point","coordinates":[-121.7401,48.8217]}},{"properties":{"a":13.8,"b":199.0,"County":"Will","c":1.0,"d":39.0,"Longitude":-89.9478,"e":751.0,"Latitude":42.2808,"State":"IL","f":3.2,"g":110.0,"id":"a63cr1p3fnm2"},"type":"Feature","geometry":{"type":"Point","coordinates":[-89.9478,42.2808]}},{"properties":{"a":6.0,"b":87.1,"County":"Williamson","c":-0.4,"d":145.0,"Longitude":-86.9076,"e":915.0,"Latitude":35.8746,"State":"TN","f":5.8,"g":15.0,"id":"a63cr1rhelyj"},"type":"Feature","geometry":{"type":"Point","coordinates":[-86.9076,35.8746]}},{"properties":{"a":7.2,"b":120.8,"County":"Williamson","c":1.6,"d":21.0,"Longitude":-97.6026,"e":800.0,"Latitude":30.6567,"State":"TX","f":3.1,"g":123.0,"id":"a63cr1fxxden"},"type":"Feature","geometry":{"type":"Point","coordinates":[-97.6026,30.6567]}},{"properties":{"a":3.8,"b":91.1,"County":"Winnebago","c":0.5,"d":69.0,"Longitude":-88.5252,"e":768.0,"Latitude":44.0752,"State":"WI","f":0.0,"g":307.0,"id":"a63cr1i0uiqx"},"type":"Feature","geometry":{"type":"Point","coordinates":[-88.5252,44.0752]}},{"properties":{"a":7.0,"b":136.1,"County":"Winnebago","c":-1.4,"d":221.0,"Longitude":-89.2414,"e":739.0,"Latitude":42.2657,"State":"IL","f":3.5,"g":82.0,"id":"a63cr1lynr9z"},"type":"Feature","geometry":{"type":"Point","coordinates":[-89.2414,42.2657]}},{"properties":{"a":20.6,"b":320.8,"County":"Worcester","c":-0.6,"d":162.0,"Longitude":-71.8024,"e":859.0,"Latitude":42.263,"State":"MA","f":3.4,"g":94.0,"id":"a63cr1ljgyfu"},"type":"Feature","geometry":{"type":"Point","coordinates":[-71.8024,42.263]}},{"properties":{"a":3.2,"b":81.7,"County":"Wyandotte","c":-0.2,"d":132.0,"Longitude":-94.7487,"e":830.0,"Latitude":39.0966,"State":"KS","f":7.5,"g":7.0,"id":"a63cr1p0ovn8"},"type":"Feature","geometry":{"type":"Point","coordinates":[-94.7487,39.0966]}},{"properties":{"a":8.3,"b":111.2,"County":"Yakima","c":3.2,"d":1.0,"Longitude":-120.507,"e":580.0,"Latitude":46.6041,"State":"WA","f":2.1,"g":211.0,"id":"a63cr1fgityb"},"type":"Feature","geometry":{"type":"Point","coordinates":[-120.507,46.6041]}},{"properties":{"a":5.8,"b":78.5,"County":"Yellowstone","c":0.7,"d":59.0,"Longitude":-111.1011,"e":688.0,"Latitude":44.6622,"State":"MT","f":2.4,"g":183.0,"id":"a63cr1qfg1vu"},"type":"Feature","geometry":{"type":"Point","coordinates":[-111.1011,44.6622]}},{"properties":{"a":5.9,"b":104.0,"County":"Yolo","c":-0.6,"d":162.0,"Longitude":-121.8128,"e":829.0,"Latitude":38.7343,"State":"CA","f":9.7,"g":2.0,"id":"a63cr1nupu1x"},"type":"Feature","geometry":{"type":"Point","coordinates":[-121.8128,38.7343]}},{"properties":{"a":9.2,"b":178.7,"County":"York","c":0.2,"d":97.0,"Longitude":-76.7243,"e":741.0,"Latitude":39.9645,"State":"PA","f":1.9,"g":230.0,"id":"a63cr1o3og8b"},"type":"Feature","geometry":{"type":"Point","coordinates":[-76.7243,39.9645]}}],"is_temporal":false,"author":{"url":"http://www.bls.gov/news.release/cewqtr.t01.htm","metadata":"","contact_name":"","contact_address":"","source":"Bureau of Labor Statistics","contact_phone":"(202) 691-6567"},"source":"http://www.bls.gov/news.release/cewqtr.t01.htm","pagination":{"sort":null,"start":0,"total":336,"limit":1000000},"state":"complete","tags":"civilian,employment,job,labor","published":"2009-04-08T12:00:00Z","id":12978}