{"type":"FeatureCollection","data_type":"Dataset","url_type":null,"permissions":[{"permissions":{"download":true,"view":true},"group_id":"everyone"}],"classification":null,"title":"GL_Properties_for_map","count":13,"stream_id":130839,"contributor":{"url":"http://geocommons.com/users/25515","name":"agoodyear"},"data_attributes":null,"calculation_params":null,"icon_link":null,"link":"http://geocommons.com/overlays/130839.json","extent":[-91.3685,39.1914,-83.8366,43.8586],"geometry_types":["point"],"unique_name":null,"name":"GL_Properties_for_map","feature_count":13,"description":"","next_feature":null,"is_raster":false,"short_classification":"Y","stats":{},"features":[{"properties":{"city":"Milwaukee","zip":"53203","geo_score":0.857,"id":"a6ow9w4cmgbv","geo_precision":"zip","state":"WI"},"type":"Feature","geometry":{"type":"Point","coordinates":[-87.916534,43.038313]}},{"properties":{"city":"West Allis","zip":"53214","geo_score":0.769,"id":"a6ow9vzld2ng","geo_precision":"zip","state":"WI"},"type":"Feature","geometry":{"type":"Point","coordinates":[-87.972586,43.012514]}},{"properties":{"city":"Ripon","zip":"54971","geo_score":0.727,"id":"a6ow9w23el5y","geo_precision":"zip","state":"WI"},"type":"Feature","geometry":{"type":"Point","coordinates":[-88.870945,43.858593]}},{"properties":{"city":"Gurnee","zip":"60031","geo_score":0.746,"id":"a6ow9w54gdtb","geo_precision":"zip","state":"IL"},"type":"Feature","geometry":{"type":"Point","coordinates":[-87.903406,42.290023]}},{"properties":{"city":"Kokomo","zip":"46901","geo_score":0.73,"id":"a6ow9w2ma6p2","geo_precision":"zip","state":"IN"},"type":"Feature","geometry":{"type":"Point","coordinates":[-86.042212,40.578373]}},{"properties":{"city":"Columbus","zip":"47201","geo_score":0.73,"id":"a6ow9w6qagb1","geo_precision":"zip","state":"IN"},"type":"Feature","geometry":{"type":"Point","coordinates":[-85.891338,39.191447]}},{"properties":{"city":"Bridgeport","zip":"48601","geo_score":0.729,"id":"a6ow9vu4gnpd","geo_precision":"zip","state":"MI"},"type":"Feature","geometry":{"type":"Point","coordinates":[-83.836637,43.472246]}},{"properties":{"city":"Kalamazoo","zip":"49002","geo_score":0.762,"id":"a6ow9w2nr38u","geo_precision":"zip","state":"MI"},"type":"Feature","geometry":{"type":"Point","coordinates":[-85.540838,42.278652]}},{"properties":{"city":"Freeport","zip":"61032","geo_score":0.729,"id":"a6ow9w2qifkt","geo_precision":"zip","state":"IL"},"type":"Feature","geometry":{"type":"Point","coordinates":[-89.527338,42.344462]}},{"properties":{"city":"Rockford","zip":"61104","geo_score":0.857,"id":"a6ow9w7xzrpv","geo_precision":"zip","state":"IL"},"type":"Feature","geometry":{"type":"Point","coordinates":[-89.080254,42.25012]}},{"properties":{"city":"Quincy","zip":"62301","geo_score":0.714,"id":"a6ow9w18yhyl","geo_precision":"zip","state":"IL"},"type":"Feature","geometry":{"type":"Point","coordinates":[-91.368482,39.839768]}},{"properties":{"city":"South Bend","zip":"46601","geo_score":0.857,"id":"a6ow9w3f8gjr","geo_precision":"zip","state":"IN"},"type":"Feature","geometry":{"type":"Point","coordinates":[-86.251654,41.673383]}},{"properties":{"city":"Indianapolis","zip":"46204","geo_score":0.857,"id":"a6ow9vy0iz4g","geo_precision":"zip","state":"IN"},"type":"Feature","geometry":{"type":"Point","coordinates":[-86.158038,39.772692]}}],"is_temporal":false,"author":{"url":null,"metadata":null,"contact_name":null,"contact_address":null,"source":null,"contact_phone":null},"source":null,"pagination":{"sort":null,"start":0,"total":13,"limit":1000000},"state":"complete","tags":"","published":"2014-08-12T22:11:11-04:00","id":130839}