{"type":"FeatureCollection","data_type":"Dataset","url_type":null,"permissions":[{"permissions":{"download":true,"view":true},"group_id":"everyone"}],"classification":null,"title":"Branch ClassB Your NOT Crazy","count":12,"stream_id":131128,"contributor":{"url":"http://geocommons.com/users/21850","name":"kellerj3"},"data_attributes":null,"calculation_params":null,"icon_link":null,"link":"http://geocommons.com/overlays/131128.json","extent":[-121.494,32.5252,-72.5354,42.445],"geometry_types":["point"],"unique_name":null,"name":"Branch ClassB Your NOT Crazy","feature_count":12,"description":"","next_feature":null,"is_raster":false,"short_classification":"Y","stats":{},"features":[{"properties":{"city":"RICHMOND","zip":"23228","class":"B","geo_score":0.857,"id":"a6kx87uxbb2g","geo_precision":"city","state":"VA"},"type":"Feature","geometry":{"type":"Point","coordinates":[-77.460262,37.553758]}},{"properties":{"city":"YORK","zip":"17402","class":"B","geo_score":0.857,"id":"a6kx87s7vkjx","geo_precision":"city","state":"PA"},"type":"Feature","geometry":{"type":"Point","coordinates":[-76.727139,39.962998]}},{"properties":{"city":"MILLBROOK","zip":"36054","class":"B","geo_score":0.857,"id":"a6kx87sw8ii5","geo_precision":"city","state":"AL"},"type":"Feature","geometry":{"type":"Point","coordinates":[-86.225602,32.584717]}},{"properties":{"city":"CRANBERRY TWP","zip":"16066","class":"B","geo_score":0.762,"id":"a6kx87wkavgd","geo_precision":"city","state":"PA"},"type":"Feature","geometry":{"type":"Point","coordinates":[-77.354423,41.005903]}},{"properties":{"city":"SHREVEPORT","zip":"71109","class":"B","geo_score":0.857,"id":"a6kx87vk28mr","geo_precision":"city","state":"LA"},"type":"Feature","geometry":{"type":"Point","coordinates":[-93.750179,32.525152]}},{"properties":{"city":"WINDSOR","zip":"06095","class":"B","geo_score":0.798,"id":"a6kx87ic5dry","geo_precision":"city","state":"CT"},"type":"Feature","geometry":{"type":"Point","coordinates":[-72.535365,41.890931]}},{"properties":{"city":"LENEXA","zip":"66215","class":"B","geo_score":0.857,"id":"a6kx87oi263p","geo_precision":"city","state":"KS"},"type":"Feature","geometry":{"type":"Point","coordinates":[-94.733571,38.953617]}},{"properties":{"city":"HANOVER","zip":"21076","class":"B","geo_score":0.857,"id":"a6kx87l4eab4","geo_precision":"city","state":"MD"},"type":"Feature","geometry":{"type":"Point","coordinates":[-76.724137,39.192885]}},{"properties":{"city":"COLUMBIA","zip":"29229","class":"B","geo_score":0.857,"id":"a6kx87svkdnt","geo_precision":"city","state":"SC"},"type":"Feature","geometry":{"type":"Point","coordinates":[-81.024864,33.987454]}},{"properties":{"city":"RALEIGH","zip":"27612","class":"B","geo_score":0.857,"id":"a6kx87r60kg5","geo_precision":"city","state":"NC"},"type":"Feature","geometry":{"type":"Point","coordinates":[-78.638615,35.772096]}},{"properties":{"city":"WEST SACRAMENTO","zip":"95691","class":"B","geo_score":0.816,"id":"a6kx87j0hycm","geo_precision":"city","state":"CA"},"type":"Feature","geometry":{"type":"Point","coordinates":[-121.4944,38.581572]}},{"properties":{"city":"FARMINGTON","zip":"48335","class":"B","geo_score":0.81,"id":"a6kx87n5achd","geo_precision":"city","state":"MI"},"type":"Feature","geometry":{"type":"Point","coordinates":[-83.385489,42.445035]}}],"is_temporal":false,"author":{"url":"","metadata":"","contact_name":"","contact_address":"","source":"","contact_phone":""},"source":"","pagination":{"sort":null,"start":0,"total":12,"limit":1000000},"state":"complete","tags":"","published":"2014-08-12T22:33:08-04:00","id":131128}