{"type":"FeatureCollection","data_type":"Dataset","url_type":null,"permissions":[{"permissions":{"download":true,"view":true},"group_id":"everyone"}],"classification":null,"title":"addresses","count":215,"stream_id":131706,"contributor":{"url":"http://geocommons.com/users/29343","name":"felixmc"},"data_attributes":null,"calculation_params":null,"icon_link":null,"link":"http://geocommons.com/overlays/131706.json","extent":[-92.6309,26.0531,-80.1455,42.4959],"geometry_types":["point"],"unique_name":null,"name":"addresses","feature_count":215,"description":"","next_feature":null,"is_raster":false,"short_classification":"Y","stats":{},"features":[{"properties":{"city":"Forest","zip":"24551-3320","geo_score":0.442,"id":"a7bf7u6t6s5o","geo_precision":"city","address":"5072 Perrowville Rd","state":"VA"},"type":"Feature","geometry":{"type":"Point","coordinates":[-87.114161,32.616798]}},{"properties":{"city":"Forest","zip":"24551-1055","geo_score":0.532,"id":"a7bf7tzjwsju","geo_precision":"street","address":"1193 Ivy Woods Dr","state":"VA"},"type":"Feature","geometry":{"type":"Point","coordinates":[-92.630927,33.196266]}},{"properties":{"city":"Forest","zip":"24551-3704","geo_score":0.683,"id":"a7bf7ttuj0qw","geo_precision":"range","address":"2731 Groveland Dr","state":"VA"},"type":"Feature","geometry":{"type":"Point","coordinates":[-81.750207,32.22573]}},{"properties":{"city":"Forest","zip":"24551-3304","geo_score":0.442,"id":"a7bf7u1dyvg4","geo_precision":"city","address":"3755 Perrowville Rd","state":"VA"},"type":"Feature","geometry":{"type":"Point","coordinates":[-87.114161,32.616798]}},{"properties":{"city":"Forest","zip":"24551-1057","geo_score":0.0,"id":"a7bf7u4d9c66","geo_precision":"unmatched","address":"1007 Oak Leaf Ct","state":"VA"},"type":"Feature","geometry":null},{"properties":{"city":"Forest","zip":"24551-4264","geo_score":0.0,"id":"a7bf7u6c008y","geo_precision":"unmatched","address":"1031 Maple Leaf Ct","state":"VA"},"type":"Feature","geometry":null},{"properties":{"city":"Forest","zip":"24551-3317","geo_score":0.442,"id":"a7bf7tvrsmcq","geo_precision":"city","address":"4105 Perrowville Rd","state":"VA"},"type":"Feature","geometry":{"type":"Point","coordinates":[-87.114161,32.616798]}},{"properties":{"city":"Forest","zip":"24551-3397","geo_score":0.0,"id":"a7bf7twq15ns","geo_precision":"unmatched","address":"1119 Stonegate Ct","state":"VA"},"type":"Feature","geometry":null},{"properties":{"city":"Forest","zip":"24551-3397","geo_score":0.0,"id":"a7bf7tre1tre","geo_precision":"unmatched","address":"1157 Stonegate Ct","state":"VA"},"type":"Feature","geometry":null},{"properties":{"city":"Forest","zip":"24551-1057","geo_score":0.0,"id":"a7bf7u466njk","geo_precision":"unmatched","address":"1037 Oak Leaf Ct","state":"VA"},"type":"Feature","geometry":null},{"properties":{"city":"Forest","zip":"24551-4331","geo_score":0.442,"id":"a7bf7u12vb2n","geo_precision":"city","address":"2493 Perrowville Rd","state":"VA"},"type":"Feature","geometry":{"type":"Point","coordinates":[-87.114161,32.616798]}},{"properties":{"city":"Forest","zip":"24551-3397","geo_score":0.0,"id":"a7bf7u4j789y","geo_precision":"unmatched","address":"1119 Stonegate Ct","state":"VA"},"type":"Feature","geometry":null},{"properties":{"city":"Forest","zip":"24551-3315","geo_score":0.442,"id":"a7bf7u56rm51","geo_precision":"city","address":"3995 Perrowville Rd","state":"VA"},"type":"Feature","geometry":{"type":"Point","coordinates":[-87.114161,32.616798]}},{"properties":{"city":"Forest","zip":"24551-3307","geo_score":0.625,"id":"a7bf7twiijxb","geo_precision":"range","address":"189 Burning Lamp Ln","state":"VA"},"type":"Feature","geometry":{"type":"Point","coordinates":[-85.210784,34.926915]}},{"properties":{"city":"Forest","zip":"24551-0417","geo_score":0.143,"id":"a7bf7u5ozree","geo_precision":"street","address":"PO Box 417","state":"VA"},"type":"Feature","geometry":{"type":"Point","coordinates":[-87.743938,31.939605]}},{"properties":{"city":"Forest","zip":"24551-2227","geo_score":0.442,"id":"a7bf7ty8djyt","geo_precision":"city","address":"1820 Perrowville Rd","state":"VA"},"type":"Feature","geometry":{"type":"Point","coordinates":[-87.114161,32.616798]}},{"properties":{"city":"Forest","zip":"24551-1057","geo_score":0.0,"id":"a7bf7tzsa4bh","geo_precision":"unmatched","address":"1037 Oak Leaf Ct","state":"VA"},"type":"Feature","geometry":null},{"properties":{"city":"Forest","zip":"24551-4513","geo_score":0.545,"id":"a7bf7tw01344","geo_precision":"street","address":"1482 Ivy Hill Dr","state":"VA"},"type":"Feature","geometry":{"type":"Point","coordinates":[-80.145476,26.053117]}},{"properties":{"city":"Forest","zip":"24551-3704","geo_score":0.683,"id":"a7bf7u0k08l9","geo_precision":"range","address":"2731 Groveland Dr","state":"VA"},"type":"Feature","geometry":{"type":"Point","coordinates":[-81.750207,32.22573]}},{"properties":{"city":"Forest","zip":"24551-3317","geo_score":0.442,"id":"a7bf7tsgemnf","geo_precision":"city","address":"4105 Perrowville Rd","state":"VA"},"type":"Feature","geometry":{"type":"Point","coordinates":[-87.114161,32.616798]}},{"properties":{"city":"Forest","zip":"24551-3307","geo_score":0.625,"id":"a7bf7tzn2fc2","geo_precision":"range","address":"189 Burning Lamp Ln","state":"VA"},"type":"Feature","geometry":{"type":"Point","coordinates":[-85.210784,34.926915]}},{"properties":{"city":"Forest","zip":"24551-1054","geo_score":0.532,"id":"a7bf7u4307qp","geo_precision":"street","address":"1039 Ivy Woods Dr","state":"VA"},"type":"Feature","geometry":{"type":"Point","coordinates":[-92.630927,33.196266]}},{"properties":{"city":"Forest","zip":"24551","geo_score":0.445,"id":"a7bf7tt5o0ig","geo_precision":"city","address":"663 Perrowville Rd","state":"VA"},"type":"Feature","geometry":{"type":"Point","coordinates":[-87.114161,32.616798]}},{"properties":{"city":"Forest","zip":"24551-4264","geo_score":0.0,"id":"a7bf7u0ddvqw","geo_precision":"unmatched","address":"1031 Maple Leaf Ct","state":"VA"},"type":"Feature","geometry":null},{"properties":{"city":"Forest","zip":"24551-4513","geo_score":0.545,"id":"a7bf7u6kx4ze","geo_precision":"street","address":"1480 Ivy Hill Dr","state":"VA"},"type":"Feature","geometry":{"type":"Point","coordinates":[-80.145476,26.053117]}},{"properties":{"city":"Forest","zip":"24551-1860","geo_score":0.442,"id":"a7bf7u4wzhx4","geo_precision":"city","address":"2438 Perrowville Rd","state":"VA"},"type":"Feature","geometry":{"type":"Point","coordinates":[-87.114161,32.616798]}},{"properties":{"city":"Forest","zip":"24551","geo_score":0.442,"id":"a7bf7tu1qmkg","geo_precision":"city","address":"2379 Perrowville Rd","state":"VA"},"type":"Feature","geometry":{"type":"Point","coordinates":[-87.114161,32.616798]}},{"properties":{"city":"Forest","zip":"24551-1055","geo_score":0.532,"id":"a7bf7tsi7p8e","geo_precision":"street","address":"1175 Ivy Woods Dr","state":"VA"},"type":"Feature","geometry":{"type":"Point","coordinates":[-92.630927,33.196266]}},{"properties":{"city":"Forest","zip":"24551-3315","geo_score":0.442,"id":"a7bf7u62uz2h","geo_precision":"city","address":"3947 Perrowville Rd","state":"VA"},"type":"Feature","geometry":{"type":"Point","coordinates":[-87.114161,32.616798]}},{"properties":{"city":"Forest","zip":"24551-3314","geo_score":0.442,"id":"a7bf7tv6la5z","geo_precision":"city","address":"3881 Perrowville Rd","state":"VA"},"type":"Feature","geometry":{"type":"Point","coordinates":[-87.114161,32.616798]}},{"properties":{"city":"Forest","zip":"24551-3316","geo_score":0.442,"id":"a7bf7tssmbtr","geo_precision":"city","address":"4017 Perrowville Rd","state":"VA"},"type":"Feature","geometry":{"type":"Point","coordinates":[-87.114161,32.616798]}},{"properties":{"city":"Forest","zip":"24551-3315","geo_score":0.442,"id":"a7bf7tvc6b98","geo_precision":"city","address":"3947 Perrowville Rd","state":"VA"},"type":"Feature","geometry":{"type":"Point","coordinates":[-87.114161,32.616798]}},{"properties":{"city":"Forest","zip":"24551-3304","geo_score":0.442,"id":"a7bf7twcm2gg","geo_precision":"city","address":"3755 Perrowville Rd","state":"VA"},"type":"Feature","geometry":{"type":"Point","coordinates":[-87.114161,32.616798]}},{"properties":{"city":"Forest","zip":"24551-1860","geo_score":0.442,"id":"a7bf7ttypp7m","geo_precision":"city","address":"2442 Perrowville Rd","state":"VA"},"type":"Feature","geometry":{"type":"Point","coordinates":[-87.114161,32.616798]}},{"properties":{"city":"Forest","zip":"24551-4513","geo_score":0.545,"id":"a7bf7tubtd3u","geo_precision":"street","address":"1480 Ivy Hill Dr","state":"VA"},"type":"Feature","geometry":{"type":"Point","coordinates":[-80.145476,26.053117]}},{"properties":{"city":"Forest","zip":"24551-2227","geo_score":0.442,"id":"a7bf7u491tls","geo_precision":"city","address":"1820 Perrowville Rd","state":"VA"},"type":"Feature","geometry":{"type":"Point","coordinates":[-87.114161,32.616798]}},{"properties":{"city":"Forest","zip":"24551-2249","geo_score":0.442,"id":"a7bf7tx371lh","geo_precision":"city","address":"2065 Perrowville Rd","state":"VA"},"type":"Feature","geometry":{"type":"Point","coordinates":[-87.114161,32.616798]}},{"properties":{"city":"Forest","zip":"24551-4264","geo_score":0.0,"id":"a7bf7u7jedmh","geo_precision":"unmatched","address":"1045 Maple Leaf Ct","state":"VA"},"type":"Feature","geometry":null},{"properties":{"city":"Forest","zip":"24551-1055","geo_score":0.532,"id":"a7bf7u3t70z0","geo_precision":"street","address":"1193 Ivy Woods Dr","state":"VA"},"type":"Feature","geometry":{"type":"Point","coordinates":[-92.630927,33.196266]}},{"properties":{"city":"Forest","zip":"24551-4331","geo_score":0.442,"id":"a7bf7txew0s9","geo_precision":"city","address":"2493 Perrowville Rd","state":"VA"},"type":"Feature","geometry":{"type":"Point","coordinates":[-87.114161,32.616798]}},{"properties":{"city":"Forest","zip":"24551-1175","geo_score":0.442,"id":"a7bf7u2lywtb","geo_precision":"city","address":"3424 Perrowville Rd","state":"VA"},"type":"Feature","geometry":{"type":"Point","coordinates":[-87.114161,32.616798]}},{"properties":{"city":"Forest","zip":"24551-1054","geo_score":0.532,"id":"a7bf7u4ckpvg","geo_precision":"street","address":"1085 Ivy Woods Dr","state":"VA"},"type":"Feature","geometry":{"type":"Point","coordinates":[-92.630927,33.196266]}},{"properties":{"city":"Forest","zip":"24551-1055","geo_score":0.532,"id":"a7bf7u6ra6id","geo_precision":"street","address":"1193 Ivy Woods Dr","state":"VA"},"type":"Feature","geometry":{"type":"Point","coordinates":[-92.630927,33.196266]}},{"properties":{"city":"Forest","zip":"24551-1055","geo_score":0.532,"id":"a7bf7u6241ik","geo_precision":"street","address":"1175 Ivy Woods Dr","state":"VA"},"type":"Feature","geometry":{"type":"Point","coordinates":[-92.630927,33.196266]}},{"properties":{"city":"Forest","zip":"24551-1054","geo_score":0.532,"id":"a7bf7u3h2u5x","geo_precision":"street","address":"1039 Ivy Woods Dr","state":"VA"},"type":"Feature","geometry":{"type":"Point","coordinates":[-92.630927,33.196266]}},{"properties":{"city":"Forest","zip":"24551-0064","geo_score":0.143,"id":"a7bf7u0v8upp","geo_precision":"street","address":"PO Box 64","state":"VA"},"type":"Feature","geometry":{"type":"Point","coordinates":[-87.743938,31.939605]}},{"properties":{"city":"Forest","zip":"24551-3318","geo_score":0.442,"id":"a7bf7txied95","geo_precision":"city","address":"4525 Perrowville Rd","state":"VA"},"type":"Feature","geometry":{"type":"Point","coordinates":[-87.114161,32.616798]}},{"properties":{"city":"Forest","zip":"24551-3318","geo_score":0.442,"id":"a7bf7u0c4edz","geo_precision":"city","address":"4525 Perrowville Rd","state":"VA"},"type":"Feature","geometry":{"type":"Point","coordinates":[-87.114161,32.616798]}},{"properties":{"city":"Forest","zip":"24551-3390","geo_score":0.442,"id":"a7bf7u57cn2n","geo_precision":"city","address":"4457 Perrowville Rd","state":"VA"},"type":"Feature","geometry":{"type":"Point","coordinates":[-87.114161,32.616798]}},{"properties":{"city":"Forest","zip":"24551-1860","geo_score":0.442,"id":"a7bf7u1hgw8r","geo_precision":"city","address":"2442 Perrowville Rd","state":"VA"},"type":"Feature","geometry":{"type":"Point","coordinates":[-87.114161,32.616798]}},{"properties":{"city":"Forest","zip":"24551-1057","geo_score":0.0,"id":"a7bf7twped9t","geo_precision":"unmatched","address":"1039 Oak Leaf Ct","state":"VA"},"type":"Feature","geometry":null},{"properties":{"city":"Forest","zip":"24551-2266","geo_score":0.442,"id":"a7bf7tznm026","geo_precision":"city","address":"3382 Perrowville Rd","state":"VA"},"type":"Feature","geometry":{"type":"Point","coordinates":[-87.114161,32.616798]}},{"properties":{"city":"Forest","zip":"24551-3739","geo_score":0.488,"id":"a7bf7ttw2c3u","geo_precision":"street","address":"1114 Groveland Dr","state":"VA"},"type":"Feature","geometry":{"type":"Point","coordinates":[-81.760041,32.205945]}},{"properties":{"city":"Forest","zip":"24551-2254","geo_score":0.442,"id":"a7bf7u5em5ez","geo_precision":"city","address":"2274 Perrowville Rd","state":"VA"},"type":"Feature","geometry":{"type":"Point","coordinates":[-87.114161,32.616798]}},{"properties":{"city":"Forest","zip":"24551-3739","geo_score":0.488,"id":"a7bf7tx7g4tt","geo_precision":"street","address":"1114 Groveland Dr","state":"VA"},"type":"Feature","geometry":{"type":"Point","coordinates":[-81.760041,32.205945]}},{"properties":{"city":"Forest","zip":"24551-2223","geo_score":0.442,"id":"a7bf7twi8o2q","geo_precision":"city","address":"1620 Perrowville Rd","state":"VA"},"type":"Feature","geometry":{"type":"Point","coordinates":[-87.114161,32.616798]}},{"properties":{"city":"Forest","zip":"24551-2224","geo_score":0.442,"id":"a7bf7u2xch5i","geo_precision":"city","address":"1720 Perrowville Rd","state":"VA"},"type":"Feature","geometry":{"type":"Point","coordinates":[-87.114161,32.616798]}},{"properties":{"city":"Forest","zip":"24551-0417","geo_score":0.143,"id":"a7bf7tywi35s","geo_precision":"street","address":"PO Box 417","state":"VA"},"type":"Feature","geometry":{"type":"Point","coordinates":[-87.743938,31.939605]}},{"properties":{"city":"Forest","zip":"24551-3316","geo_score":0.442,"id":"a7bf7tw1o6wn","geo_precision":"city","address":"4017 Perrowville Rd","state":"VA"},"type":"Feature","geometry":{"type":"Point","coordinates":[-87.114161,32.616798]}},{"properties":{"city":"Forest","zip":"24551-2260","geo_score":0.442,"id":"a7bf7u6pv6xb","geo_precision":"city","address":"1920 Perrowville Rd","state":"VA"},"type":"Feature","geometry":{"type":"Point","coordinates":[-87.114161,32.616798]}},{"properties":{"city":"Forest","zip":"24551-2227","geo_score":0.442,"id":"a7bf7txf9pab","geo_precision":"city","address":"1810 Perrowville Rd","state":"VA"},"type":"Feature","geometry":{"type":"Point","coordinates":[-87.114161,32.616798]}},{"properties":{"city":"Forest","zip":"24551-3300","geo_score":0.0,"id":"a7bf7u5t0yr0","geo_precision":"unmatched","address":"10 Stonegate Ct","state":"VA"},"type":"Feature","geometry":null},{"properties":{"city":"Forest","zip":"24551-2227","geo_score":0.442,"id":"a7bf7tsk3kia","geo_precision":"city","address":"1800 Perrowville Rd","state":"VA"},"type":"Feature","geometry":{"type":"Point","coordinates":[-87.114161,32.616798]}},{"properties":{"city":"Forest","zip":"24551-2224","geo_score":0.442,"id":"a7bf7twzvbrx","geo_precision":"city","address":"1760 Perrowville Rd","state":"VA"},"type":"Feature","geometry":{"type":"Point","coordinates":[-87.114161,32.616798]}},{"properties":{"city":"Forest","zip":"24551-3308","geo_score":0.503,"id":"a7bf7tsbr7bg","geo_precision":"range","address":"194 Burning Lamp Ln","state":"VA"},"type":"Feature","geometry":{"type":"Point","coordinates":[-85.210785,34.926924]}},{"properties":{"city":"Forest","zip":"24551-3307","geo_score":0.625,"id":"a7bf7tzmc32x","geo_precision":"range","address":"193 Burning Lamp Ln","state":"VA"},"type":"Feature","geometry":{"type":"Point","coordinates":[-85.210785,34.926922]}},{"properties":{"city":"Forest","zip":"24551-2260","geo_score":0.442,"id":"a7bf7u0t6b2u","geo_precision":"city","address":"1900 Perrowville Rd","state":"VA"},"type":"Feature","geometry":{"type":"Point","coordinates":[-87.114161,32.616798]}},{"properties":{"city":"Forest","zip":"24551-3756","geo_score":0.457,"id":"a7bf7tyiie2h","geo_precision":"street","address":"1168 Berkeley Farm Dr","state":"VA"},"type":"Feature","geometry":{"type":"Point","coordinates":[-86.429191,34.639871]}},{"properties":{"city":"Forest","zip":"24551-4264","geo_score":0.0,"id":"a7bf7u4q4b30","geo_precision":"unmatched","address":"1007 Maple Leaf Ct","state":"VA"},"type":"Feature","geometry":null},{"properties":{"city":"Forest","zip":"24551-1175","geo_score":0.442,"id":"a7bf7u0vq5nf","geo_precision":"city","address":"3448 Perrowville Rd","state":"VA"},"type":"Feature","geometry":{"type":"Point","coordinates":[-87.114161,32.616798]}},{"properties":{"city":"Forest","zip":"24551-1175","geo_score":0.442,"id":"a7bf7u4yvn9d","geo_precision":"city","address":"3448 Perrowville Rd","state":"VA"},"type":"Feature","geometry":{"type":"Point","coordinates":[-87.114161,32.616798]}},{"properties":{"city":"Forest","zip":"24551-3705","geo_score":0.442,"id":"a7bf7tt73y3s","geo_precision":"city","address":"5204 Perrowville Rd","state":"VA"},"type":"Feature","geometry":{"type":"Point","coordinates":[-87.114161,32.616798]}},{"properties":{"city":"Forest","zip":"24551-1175","geo_score":0.442,"id":"a7bf7u344x3p","geo_precision":"city","address":"3424 Perrowville Rd","state":"VA"},"type":"Feature","geometry":{"type":"Point","coordinates":[-87.114161,32.616798]}},{"properties":{"city":"Forest","zip":"24551-2223","geo_score":0.442,"id":"a7bf7tvlb6ib","geo_precision":"city","address":"1660 Perrowville Rd","state":"VA"},"type":"Feature","geometry":{"type":"Point","coordinates":[-87.114161,32.616798]}},{"properties":{"city":"Forest","zip":"24551-3311","geo_score":0.625,"id":"a7bf7tviw8yh","geo_precision":"range","address":"301 Burning Lamp Ln","state":"VA"},"type":"Feature","geometry":{"type":"Point","coordinates":[-85.210791,34.927116]}},{"properties":{"city":"Forest","zip":"24551-3397","geo_score":0.0,"id":"a7bf7u4zxx6z","geo_precision":"unmatched","address":"1168 Stonegate Ct","state":"VA"},"type":"Feature","geometry":null},{"properties":{"city":"Forest","zip":"24551-3307","geo_score":0.625,"id":"a7bf7tuqyubh","geo_precision":"range","address":"197 Burning Lamp Ln","state":"VA"},"type":"Feature","geometry":{"type":"Point","coordinates":[-85.210785,34.926929]}},{"properties":{"city":"Forest","zip":"24551-3307","geo_score":0.625,"id":"a7bf7u21q1t7","geo_precision":"range","address":"197 Burning Lamp Ln","state":"VA"},"type":"Feature","geometry":{"type":"Point","coordinates":[-85.210785,34.926929]}},{"properties":{"city":"Forest","zip":"24551-2224","geo_score":0.442,"id":"a7bf7tr9zj64","geo_precision":"city","address":"1780 Perrowville Rd","state":"VA"},"type":"Feature","geometry":{"type":"Point","coordinates":[-87.114161,32.616798]}},{"properties":{"city":"Forest","zip":"24551-2445","geo_score":0.291,"id":"a7bf7tzpk5xs","geo_precision":"street","address":"1623 Chestnut Grove Dr","state":"VA"},"type":"Feature","geometry":{"type":"Point","coordinates":[-90.868034,42.495871]}},{"properties":{"city":"Forest","zip":"24551-4008","geo_score":0.805,"id":"a7bf7tum7xjt","geo_precision":"range","address":"294 Barbour Dr","state":"VA"},"type":"Feature","geometry":{"type":"Point","coordinates":[-85.675209,31.404827]}},{"properties":{"city":"Forest","zip":"24551-1057","geo_score":0.0,"id":"a7bf7u4hm3bl","geo_precision":"unmatched","address":"1007 Oak Leaf Ct","state":"VA"},"type":"Feature","geometry":null},{"properties":{"city":"Forest","zip":"24551-4205","geo_score":0.545,"id":"a7bf7twev300","geo_precision":"street","address":"1148 Ivy Hill Dr","state":"VA"},"type":"Feature","geometry":{"type":"Point","coordinates":[-80.145476,26.053117]}},{"properties":{"city":"Forest","zip":"24551-1054","geo_score":0.532,"id":"a7bf7ttjxwcr","geo_precision":"street","address":"1059 Ivy Woods Dr","state":"VA"},"type":"Feature","geometry":{"type":"Point","coordinates":[-92.630927,33.196266]}},{"properties":{"city":"Forest","zip":"24551-1054","geo_score":0.532,"id":"a7bf7tviy1xh","geo_precision":"street","address":"1059 Ivy Woods Dr","state":"VA"},"type":"Feature","geometry":{"type":"Point","coordinates":[-92.630927,33.196266]}},{"properties":{"city":"Forest","zip":"24551-1057","geo_score":0.0,"id":"a7bf7twv0xcr","geo_precision":"unmatched","address":"1007 Oak Leaf Ct","state":"VA"},"type":"Feature","geometry":null},{"properties":{"city":"Forest","zip":"24551-2259","geo_score":0.442,"id":"a7bf7trn4oip","geo_precision":"city","address":"1640 Perrowville Rd","state":"VA"},"type":"Feature","geometry":{"type":"Point","coordinates":[-87.114161,32.616798]}},{"properties":{"city":"Forest","zip":"24551-2227","geo_score":0.442,"id":"a7bf7u3h4hsy","geo_precision":"city","address":"1810 Perrowville Rd","state":"VA"},"type":"Feature","geometry":{"type":"Point","coordinates":[-87.114161,32.616798]}},{"properties":{"city":"Forest","zip":"24551-0064","geo_score":0.143,"id":"a7bf7txdi4st","geo_precision":"street","address":"PO Box 64","state":"VA"},"type":"Feature","geometry":{"type":"Point","coordinates":[-87.743938,31.939605]}},{"properties":{"city":"Forest","zip":"24551-3307","geo_score":0.625,"id":"a7bf7tvkfqs7","geo_precision":"range","address":"197 Burning Lamp Ln","state":"VA"},"type":"Feature","geometry":{"type":"Point","coordinates":[-85.210785,34.926929]}},{"properties":{"city":"Forest","zip":"24551-3309","geo_score":0.503,"id":"a7bf7u55kg4t","geo_precision":"range","address":"204 Burning Lamp Ln","state":"VA"},"type":"Feature","geometry":{"type":"Point","coordinates":[-85.210785,34.926942]}},{"properties":{"city":"Forest","zip":"24551-0017","geo_score":0.327,"id":"a7bf7tt1i458","geo_precision":"street","address":"PO Box 17","state":"VA"},"type":"Feature","geometry":{"type":"Point","coordinates":[-87.811889,31.793246]}},{"properties":{"city":"Forest","zip":"24551-4264","geo_score":0.0,"id":"a7bf7txg06gv","geo_precision":"unmatched","address":"1045 Maple Leaf Ct","state":"VA"},"type":"Feature","geometry":null},{"properties":{"city":"Forest","zip":"24551-1831","geo_score":0.442,"id":"a7bf7tz01kt1","geo_precision":"city","address":"2379 Perrowville Rd","state":"VA"},"type":"Feature","geometry":{"type":"Point","coordinates":[-87.114161,32.616798]}},{"properties":{"city":"Forest","zip":"24551-3318","geo_score":0.442,"id":"a7bf7u4eapwb","geo_precision":"city","address":"4525 Perrowville Rd","state":"VA"},"type":"Feature","geometry":{"type":"Point","coordinates":[-87.114161,32.616798]}},{"properties":{"city":"Forest","zip":"24551-4308","geo_score":0.0,"id":"a7bf7tuplm0g","geo_precision":"unmatched","address":"1095 Stonegate Ct","state":"VA"},"type":"Feature","geometry":null},{"properties":{"city":"Forest","zip":"24551-1058","geo_score":0.532,"id":"a7bf7u6x8gr3","geo_precision":"street","address":"1042 Ivy Woods Dr","state":"VA"},"type":"Feature","geometry":{"type":"Point","coordinates":[-92.630927,33.196266]}},{"properties":{"city":"Forest","zip":"24551-4484","geo_score":0.292,"id":"a7bf7ty9a9ht","geo_precision":"street","address":"1121 Chestnut Grove Dr","state":"VA"},"type":"Feature","geometry":{"type":"Point","coordinates":[-90.868034,42.495871]}},{"properties":{"city":"Forest","zip":"24551-1056","geo_score":0.532,"id":"a7bf7u205xpu","geo_precision":"street","address":"1154 Ivy Woods Dr","state":"VA"},"type":"Feature","geometry":{"type":"Point","coordinates":[-92.630927,33.196266]}},{"properties":{"city":"Forest","zip":"24551-3738","geo_score":0.488,"id":"a7bf7twiotts","geo_precision":"street","address":"1113 Groveland Dr","state":"VA"},"type":"Feature","geometry":{"type":"Point","coordinates":[-81.760041,32.205945]}},{"properties":{"city":"Forest","zip":"24551-1058","geo_score":0.532,"id":"a7bf7ty50qqe","geo_precision":"street","address":"1042 Ivy Woods Dr","state":"VA"},"type":"Feature","geometry":{"type":"Point","coordinates":[-92.630927,33.196266]}},{"properties":{"city":"Forest","zip":"24551-3397","geo_score":0.0,"id":"a7bf7u1w7bou","geo_precision":"unmatched","address":"1119 Stonegate Ct","state":"VA"},"type":"Feature","geometry":null},{"properties":{"city":"Forest","zip":"24551-1057","geo_score":0.0,"id":"a7bf7u1zg7r8","geo_precision":"unmatched","address":"1039 Oak Leaf Ct","state":"VA"},"type":"Feature","geometry":null},{"properties":{"city":"Forest","zip":"24551-2445","geo_score":0.291,"id":"a7bf7tx7k598","geo_precision":"street","address":"1623 Chestnut Grove Dr","state":"VA"},"type":"Feature","geometry":{"type":"Point","coordinates":[-90.868034,42.495871]}},{"properties":{"city":"Forest","zip":"24551-2227","geo_score":0.442,"id":"a7bf7trf6r64","geo_precision":"city","address":"1860 Perrowville Rd","state":"VA"},"type":"Feature","geometry":{"type":"Point","coordinates":[-87.114161,32.616798]}},{"properties":{"city":"Forest","zip":"24551-3315","geo_score":0.442,"id":"a7bf7twemq1g","geo_precision":"city","address":"3947 Perrowville Rd","state":"VA"},"type":"Feature","geometry":{"type":"Point","coordinates":[-87.114161,32.616798]}},{"properties":{"city":"Forest","zip":"24551-2266","geo_score":0.442,"id":"a7bf7tvbfcze","geo_precision":"city","address":"3364 Perrowville Rd","state":"VA"},"type":"Feature","geometry":{"type":"Point","coordinates":[-87.114161,32.616798]}},{"properties":{"city":"Forest","zip":"24551-0017","geo_score":0.327,"id":"a7bf7trdpkzx","geo_precision":"street","address":"PO Box 17","state":"VA"},"type":"Feature","geometry":{"type":"Point","coordinates":[-87.811889,31.793246]}},{"properties":{"city":"Forest","zip":"24551-2266","geo_score":0.442,"id":"a7bf7u1x2qok","geo_precision":"city","address":"3336 Perrowville Rd","state":"VA"},"type":"Feature","geometry":{"type":"Point","coordinates":[-87.114161,32.616798]}},{"properties":{"city":"Forest","zip":"24551-2266","geo_score":0.442,"id":"a7bf7tvo2tyj","geo_precision":"city","address":"3336 Perrowville Rd","state":"VA"},"type":"Feature","geometry":{"type":"Point","coordinates":[-87.114161,32.616798]}},{"properties":{"city":"Forest","zip":"24551-1055","geo_score":0.532,"id":"a7bf7txogn7m","geo_precision":"street","address":"1179 Ivy Woods Dr","state":"VA"},"type":"Feature","geometry":{"type":"Point","coordinates":[-92.630927,33.196266]}},{"properties":{"city":"Forest","zip":"24551-1055","geo_score":0.532,"id":"a7bf7u6mtn6v","geo_precision":"street","address":"1179 Ivy Woods Dr","state":"VA"},"type":"Feature","geometry":{"type":"Point","coordinates":[-92.630927,33.196266]}},{"properties":{"city":"Forest","zip":"24551-3307","geo_score":0.625,"id":"a7bf7tu8rnq2","geo_precision":"range","address":"197 Burning Lamp Ln","state":"VA"},"type":"Feature","geometry":{"type":"Point","coordinates":[-85.210785,34.926929]}},{"properties":{"city":"Forest","zip":"24551-2260","geo_score":0.442,"id":"a7bf7u45l0k3","geo_precision":"city","address":"1900 Perrowville Rd","state":"VA"},"type":"Feature","geometry":{"type":"Point","coordinates":[-87.114161,32.616798]}},{"properties":{"city":"Forest","zip":"24551-2224","geo_score":0.442,"id":"a7bf7tzt3b6m","geo_precision":"city","address":"1730 Perrowville Rd","state":"VA"},"type":"Feature","geometry":{"type":"Point","coordinates":[-87.114161,32.616798]}},{"properties":{"city":"Forest","zip":"24551-4372","geo_score":0.291,"id":"a7bf7u6644fl","geo_precision":"street","address":"1596 Chestnut Grove Dr","state":"VA"},"type":"Feature","geometry":{"type":"Point","coordinates":[-90.879358,42.488465]}},{"properties":{"city":"Forest","zip":"24551-2227","geo_score":0.442,"id":"a7bf7tu0enh5","geo_precision":"city","address":"1870 Perrowville Rd","state":"VA"},"type":"Feature","geometry":{"type":"Point","coordinates":[-87.114161,32.616798]}},{"properties":{"city":"Forest","zip":"24551-4500","geo_score":0.289,"id":"a7bf7u1qi728","geo_precision":"street","address":"1129 Majestic View Ln","state":"VA"},"type":"Feature","geometry":{"type":"Point","coordinates":[-86.825515,34.169818]}},{"properties":{"city":"Forest","zip":"24551-2227","geo_score":0.442,"id":"a7bf7u3h30to","geo_precision":"city","address":"1820 Perrowville Rd","state":"VA"},"type":"Feature","geometry":{"type":"Point","coordinates":[-87.114161,32.616798]}},{"properties":{"city":"Forest","zip":"24551-2223","geo_score":0.442,"id":"a7bf7u4h0wni","geo_precision":"city","address":"1610 Perrowville Rd","state":"VA"},"type":"Feature","geometry":{"type":"Point","coordinates":[-87.114161,32.616798]}},{"properties":{"city":"Forest","zip":"24551-3307","geo_score":0.625,"id":"a7bf7u0bhsu3","geo_precision":"range","address":"193 Burning Lamp Ln","state":"VA"},"type":"Feature","geometry":{"type":"Point","coordinates":[-85.210785,34.926922]}},{"properties":{"city":"Forest","zip":"24551-3307","geo_score":0.625,"id":"a7bf7u67g2p3","geo_precision":"range","address":"193 Burning Lamp Ln","state":"VA"},"type":"Feature","geometry":{"type":"Point","coordinates":[-85.210785,34.926922]}},{"properties":{"city":"Forest","zip":"24551-2227","geo_score":0.442,"id":"a7bf7u6e040c","geo_precision":"city","address":"1860 Perrowville Rd","state":"VA"},"type":"Feature","geometry":{"type":"Point","coordinates":[-87.114161,32.616798]}},{"properties":{"city":"Forest","zip":"24551-3309","geo_score":0.503,"id":"a7bf7u3dmezm","geo_precision":"range","address":"208 Burning Lamp Ln","state":"VA"},"type":"Feature","geometry":{"type":"Point","coordinates":[-85.210785,34.926949]}},{"properties":{"city":"Forest","zip":"24551-3309","geo_score":0.503,"id":"a7bf7u560g2o","geo_precision":"range","address":"208 Burning Lamp Ln","state":"VA"},"type":"Feature","geometry":{"type":"Point","coordinates":[-85.210785,34.926949]}},{"properties":{"city":"Forest","zip":"24551-1056","geo_score":0.532,"id":"a7bf7u511ddu","geo_precision":"street","address":"1154 Ivy Woods Dr","state":"VA"},"type":"Feature","geometry":{"type":"Point","coordinates":[-92.630927,33.196266]}},{"properties":{"city":"Forest","zip":"24551-3397","geo_score":0.0,"id":"a7bf7tyakdfg","geo_precision":"unmatched","address":"1139 Stonegate Ct","state":"VA"},"type":"Feature","geometry":null},{"properties":{"city":"Forest","zip":"24551-3314","geo_score":0.442,"id":"a7bf7u5plweo","geo_precision":"city","address":"3881 Perrowville Rd","state":"VA"},"type":"Feature","geometry":{"type":"Point","coordinates":[-87.114161,32.616798]}},{"properties":{"city":"Forest","zip":"24551-4308","geo_score":0.0,"id":"a7bf7tv389gq","geo_precision":"unmatched","address":"1095 Stonegate Ct","state":"VA"},"type":"Feature","geometry":null},{"properties":{"city":"Forest","zip":"24551-2224","geo_score":0.442,"id":"a7bf7u0rhb85","geo_precision":"city","address":"1710 Perrowville Rd","state":"VA"},"type":"Feature","geometry":{"type":"Point","coordinates":[-87.114161,32.616798]}},{"properties":{"city":"Forest","zip":"24551-2266","geo_score":0.442,"id":"a7bf7u3w8fnk","geo_precision":"city","address":"3396 Perrowville Rd","state":"VA"},"type":"Feature","geometry":{"type":"Point","coordinates":[-87.114161,32.616798]}},{"properties":{"city":"Forest","zip":"24551-4264","geo_score":0.0,"id":"a7bf7tzf1xh1","geo_precision":"unmatched","address":"1031 Maple Leaf Ct","state":"VA"},"type":"Feature","geometry":null},{"properties":{"city":"Forest","zip":"24551-4275","geo_score":0.0,"id":"a7bf7txcuwhg","geo_precision":"unmatched","address":"1044 Maple Leaf Ct","state":"VA"},"type":"Feature","geometry":null},{"properties":{"city":"Forest","zip":"24551-4275","geo_score":0.0,"id":"a7bf7tw074hh","geo_precision":"unmatched","address":"1044 Maple Leaf Ct","state":"VA"},"type":"Feature","geometry":null},{"properties":{"city":"Forest","zip":"24551-1055","geo_score":0.532,"id":"a7bf7tv0ywgb","geo_precision":"street","address":"1151 Ivy Woods Dr","state":"VA"},"type":"Feature","geometry":{"type":"Point","coordinates":[-92.630927,33.196266]}},{"properties":{"city":"Forest","zip":"24551-2266","geo_score":0.442,"id":"a7bf7u14j6r7","geo_precision":"city","address":"3314 Perrowville Rd","state":"VA"},"type":"Feature","geometry":{"type":"Point","coordinates":[-87.114161,32.616798]}},{"properties":{"city":"Forest","zip":"24551-2445","geo_score":0.291,"id":"a7bf7trvkjc2","geo_precision":"street","address":"1673 Chestnut Grove Dr","state":"VA"},"type":"Feature","geometry":{"type":"Point","coordinates":[-90.868034,42.495871]}},{"properties":{"city":"Forest","zip":"24551-1831","geo_score":0.442,"id":"a7bf7tsao8kj","geo_precision":"city","address":"2367 Perrowville Rd","state":"VA"},"type":"Feature","geometry":{"type":"Point","coordinates":[-87.114161,32.616798]}},{"properties":{"city":"Forest","zip":"24551-0725","geo_score":0.143,"id":"a7bf7tsiwe7x","geo_precision":"street","address":"PO Box 725","state":"VA"},"type":"Feature","geometry":{"type":"Point","coordinates":[-87.743938,31.939605]}},{"properties":{"city":"Forest","zip":"24551-4484","geo_score":0.292,"id":"a7bf7u6nb61g","geo_precision":"street","address":"1121 Chestnut Grove Dr","state":"VA"},"type":"Feature","geometry":{"type":"Point","coordinates":[-90.868034,42.495871]}},{"properties":{"city":"Forest","zip":"24551-1831","geo_score":0.442,"id":"a7bf7tsrjvq7","geo_precision":"city","address":"2367 Perrowville Rd","state":"VA"},"type":"Feature","geometry":{"type":"Point","coordinates":[-87.114161,32.616798]}},{"properties":{"city":"Forest","zip":"24551-3315","geo_score":0.442,"id":"a7bf7tx7yk6s","geo_precision":"city","address":"3915 Perrowville Rd","state":"VA"},"type":"Feature","geometry":{"type":"Point","coordinates":[-87.114161,32.616798]}},{"properties":{"city":"Forest","zip":"24551-2445","geo_score":0.291,"id":"a7bf7tybxuz9","geo_precision":"street","address":"1673 Chestnut Grove Dr","state":"VA"},"type":"Feature","geometry":{"type":"Point","coordinates":[-90.868034,42.495871]}},{"properties":{"city":"Forest","zip":"24551-3397","geo_score":0.0,"id":"a7bf7tv0kh99","geo_precision":"unmatched","address":"1168 Stonegate Ct","state":"VA"},"type":"Feature","geometry":null},{"properties":{"city":"Forest","zip":"24551-4275","geo_score":0.0,"id":"a7bf7u01hyeg","geo_precision":"unmatched","address":"1046 Maple Leaf Ct","state":"VA"},"type":"Feature","geometry":null},{"properties":{"city":"Forest","zip":"24551-2224","geo_score":0.442,"id":"a7bf7tueqot8","geo_precision":"city","address":"1750 Perrowville Rd","state":"VA"},"type":"Feature","geometry":{"type":"Point","coordinates":[-87.114161,32.616798]}},{"properties":{"city":"Forest","zip":"24551-0273","geo_score":0.143,"id":"a7bf7u1sr4wo","geo_precision":"street","address":"PO Box 273","state":"VA"},"type":"Feature","geometry":{"type":"Point","coordinates":[-87.743938,31.939605]}},{"properties":{"city":"Forest","zip":"24551-3320","geo_score":0.442,"id":"a7bf7u4ah1h1","geo_precision":"city","address":"5070 Perrowville Rd","state":"VA"},"type":"Feature","geometry":{"type":"Point","coordinates":[-87.114161,32.616798]}},{"properties":{"city":"Forest","zip":"24551-2224","geo_score":0.442,"id":"a7bf7tsjdxdz","geo_precision":"city","address":"1720 Perrowville Rd","state":"VA"},"type":"Feature","geometry":{"type":"Point","coordinates":[-87.114161,32.616798]}},{"properties":{"city":"Forest","zip":"24551-0134","geo_score":0.143,"id":"a7bf7tymkgbi","geo_precision":"street","address":"PO Box 134","state":"VA"},"type":"Feature","geometry":{"type":"Point","coordinates":[-87.743938,31.939605]}},{"properties":{"city":"Forest","zip":"24551-3397","geo_score":0.0,"id":"a7bf7tsro907","geo_precision":"unmatched","address":"1139 Stonegate Ct","state":"VA"},"type":"Feature","geometry":null},{"properties":{"city":"Forest","zip":"24551-1058","geo_score":0.532,"id":"a7bf7tzrft80","geo_precision":"street","address":"1020 Ivy Woods Dr","state":"VA"},"type":"Feature","geometry":{"type":"Point","coordinates":[-92.630927,33.196266]}},{"properties":{"city":"Forest","zip":"24551-1055","geo_score":0.532,"id":"a7bf7tzcarpq","geo_precision":"street","address":"1193 Ivy Woods Dr","state":"VA"},"type":"Feature","geometry":{"type":"Point","coordinates":[-92.630927,33.196266]}},{"properties":{"city":"Forest","zip":"24551-3310","geo_score":0.625,"id":"a7bf7u2hyq9o","geo_precision":"range","address":"201 Burning Lamp Ln","state":"VA"},"type":"Feature","geometry":{"type":"Point","coordinates":[-85.210785,34.926936]}},{"properties":{"city":"Forest","zip":"24551-1058","geo_score":0.532,"id":"a7bf7u39oafd","geo_precision":"street","address":"1020 Ivy Woods Dr","state":"VA"},"type":"Feature","geometry":{"type":"Point","coordinates":[-92.630927,33.196266]}},{"properties":{"city":"Forest","zip":"24551-3310","geo_score":0.625,"id":"a7bf7tybfplq","geo_precision":"range","address":"203 Burning Lamp Ln","state":"VA"},"type":"Feature","geometry":{"type":"Point","coordinates":[-85.210785,34.92694]}},{"properties":{"city":"Forest","zip":"24551-0725","geo_score":0.143,"id":"a7bf7u7mhpd9","geo_precision":"street","address":"PO Box 725","state":"VA"},"type":"Feature","geometry":{"type":"Point","coordinates":[-87.743938,31.939605]}},{"properties":{"city":"Forest","zip":"24551-3307","geo_score":0.625,"id":"a7bf7ttk9zkj","geo_precision":"range","address":"189 Burning Lamp Ln","state":"VA"},"type":"Feature","geometry":{"type":"Point","coordinates":[-85.210784,34.926915]}},{"properties":{"city":"Forest","zip":"24551-2224","geo_score":0.442,"id":"a7bf7u6mccl4","geo_precision":"city","address":"1710 Perrowville Rd","state":"VA"},"type":"Feature","geometry":{"type":"Point","coordinates":[-87.114161,32.616798]}},{"properties":{"city":"Forest","zip":"24551-2266","geo_score":0.442,"id":"a7bf7u2cdot9","geo_precision":"city","address":"3314 Perrowville Rd","state":"VA"},"type":"Feature","geometry":{"type":"Point","coordinates":[-87.114161,32.616798]}},{"properties":{"city":"Forest","zip":"24551-4308","geo_score":0.0,"id":"a7bf7u479aqc","geo_precision":"unmatched","address":"1095 Stonegate Ct","state":"VA"},"type":"Feature","geometry":null},{"properties":{"city":"Forest","zip":"24551-3397","geo_score":0.0,"id":"a7bf7ttmggik","geo_precision":"unmatched","address":"1157 Stonegate Ct","state":"VA"},"type":"Feature","geometry":null},{"properties":{"city":"Forest","zip":"24551-4264","geo_score":0.0,"id":"a7bf7tuf0dqx","geo_precision":"unmatched","address":"1045 Maple Leaf Ct","state":"VA"},"type":"Feature","geometry":null},{"properties":{"city":"Forest","zip":"24551-0417","geo_score":0.143,"id":"a7bf7u1bt4ko","geo_precision":"street","address":"PO Box 417","state":"VA"},"type":"Feature","geometry":{"type":"Point","coordinates":[-87.743938,31.939605]}},{"properties":{"city":"Forest","zip":"24551-1054","geo_score":0.532,"id":"a7bf7tsocynb","geo_precision":"street","address":"1085 Ivy Woods Dr","state":"VA"},"type":"Feature","geometry":{"type":"Point","coordinates":[-92.630927,33.196266]}},{"properties":{"city":"Forest","zip":"24551-0112","geo_score":0.143,"id":"a7bf7u6xkw29","geo_precision":"street","address":"PO Box 112","state":"VA"},"type":"Feature","geometry":{"type":"Point","coordinates":[-87.743938,31.939605]}},{"properties":{"city":"Forest","zip":"24551-4205","geo_score":0.545,"id":"a7bf7txc55yu","geo_precision":"street","address":"1148 Ivy Hill Dr","state":"VA"},"type":"Feature","geometry":{"type":"Point","coordinates":[-80.145476,26.053117]}},{"properties":{"city":"Forest","zip":"24551-3309","geo_score":0.503,"id":"a7bf7u6f54j7","geo_precision":"range","address":"202 Burning Lamp Ln","state":"VA"},"type":"Feature","geometry":{"type":"Point","coordinates":[-85.210785,34.926938]}},{"properties":{"city":"Forest","zip":"24551-2227","geo_score":0.442,"id":"a7bf7tvta63q","geo_precision":"city","address":"1890 Perrowville Rd","state":"VA"},"type":"Feature","geometry":{"type":"Point","coordinates":[-87.114161,32.616798]}},{"properties":{"city":"Forest","zip":"24551-2223","geo_score":0.442,"id":"a7bf7u1wp129","geo_precision":"city","address":"1610 Perrowville Rd","state":"VA"},"type":"Feature","geometry":{"type":"Point","coordinates":[-87.114161,32.616798]}},{"properties":{"city":"Forest","zip":"24551-3308","geo_score":0.503,"id":"a7bf7tsei62p","geo_precision":"range","address":"194 Burning Lamp Ln","state":"VA"},"type":"Feature","geometry":{"type":"Point","coordinates":[-85.210785,34.926924]}},{"properties":{"city":"Forest","zip":"24551-4484","geo_score":0.292,"id":"a7bf7u3fka2o","geo_precision":"street","address":"1103 Chestnut Grove Dr","state":"VA"},"type":"Feature","geometry":{"type":"Point","coordinates":[-90.868034,42.495871]}},{"properties":{"city":"Forest","zip":"24551-3314","geo_score":0.442,"id":"a7bf7u5imnqo","geo_precision":"city","address":"3881 Perrowville Rd","state":"VA"},"type":"Feature","geometry":{"type":"Point","coordinates":[-87.114161,32.616798]}},{"properties":{"city":"Forest","zip":"24551-4264","geo_score":0.0,"id":"a7bf7tv1dh2h","geo_precision":"unmatched","address":"1001 Maple Leaf Ct","state":"VA"},"type":"Feature","geometry":null},{"properties":{"city":"Forest","zip":"24551-4008","geo_score":0.805,"id":"a7bf7u1yq0fw","geo_precision":"range","address":"294 Barbour Dr","state":"VA"},"type":"Feature","geometry":{"type":"Point","coordinates":[-85.675209,31.404827]}},{"properties":{"city":"Forest","zip":"24551-2266","geo_score":0.442,"id":"a7bf7u31a2fd","geo_precision":"city","address":"3382 Perrowville Rd","state":"VA"},"type":"Feature","geometry":{"type":"Point","coordinates":[-87.114161,32.616798]}},{"properties":{"city":"Forest","zip":"24551-3311","geo_score":0.625,"id":"a7bf7tv2ysta","geo_precision":"range","address":"301 Burning Lamp Ln","state":"VA"},"type":"Feature","geometry":{"type":"Point","coordinates":[-85.210791,34.927116]}},{"properties":{"city":"Forest","zip":"24551-4308","geo_score":0.0,"id":"a7bf7tvu7o0q","geo_precision":"unmatched","address":"1095 Stonegate Ct","state":"VA"},"type":"Feature","geometry":null},{"properties":{"city":"Forest","zip":"24551-3316","geo_score":0.442,"id":"a7bf7trc0j6g","geo_precision":"city","address":"4017 Perrowville Rd","state":"VA"},"type":"Feature","geometry":{"type":"Point","coordinates":[-87.114161,32.616798]}},{"properties":{"city":"Forest","zip":"24551-4127","geo_score":0.0,"id":"a7bf7tue60rc","geo_precision":"unmatched","address":"23 Oak Leaf Ct","state":"VA"},"type":"Feature","geometry":null},{"properties":{"city":"Forest","zip":"24551-3705","geo_score":0.442,"id":"a7bf7tzoytnl","geo_precision":"city","address":"5204 Perrowville Rd","state":"VA"},"type":"Feature","geometry":{"type":"Point","coordinates":[-87.114161,32.616798]}},{"properties":{"city":"Forest","zip":"24551-3397","geo_score":0.0,"id":"a7bf7u58fp8y","geo_precision":"unmatched","address":"1168 Stonegate Ct","state":"VA"},"type":"Feature","geometry":null},{"properties":{"city":"Forest","zip":"24551-4500","geo_score":0.289,"id":"a7bf7u5kayzy","geo_precision":"street","address":"1129 Majestic View Ln","state":"VA"},"type":"Feature","geometry":{"type":"Point","coordinates":[-86.825515,34.169818]}},{"properties":{"city":"Forest","zip":"24551-1055","geo_score":0.532,"id":"a7bf7u6or7v0","geo_precision":"street","address":"1151 Ivy Woods Dr","state":"VA"},"type":"Feature","geometry":{"type":"Point","coordinates":[-92.630927,33.196266]}},{"properties":{"city":"Forest","zip":"24551-3397","geo_score":0.0,"id":"a7bf7tt4q6uw","geo_precision":"unmatched","address":"1168 Stonegate Ct","state":"VA"},"type":"Feature","geometry":null},{"properties":{"city":"Forest","zip":"24551-4276","geo_score":0.0,"id":"a7bf7tsfrao6","geo_precision":"unmatched","address":"1178 Maple Leaf Ct","state":"VA"},"type":"Feature","geometry":null},{"properties":{"city":"Forest","zip":"24551-3315","geo_score":0.442,"id":"a7bf7tvyemng","geo_precision":"city","address":"3995 Perrowville Rd","state":"VA"},"type":"Feature","geometry":{"type":"Point","coordinates":[-87.114161,32.616798]}},{"properties":{"city":"Forest","zip":"24551-2223","geo_score":0.442,"id":"a7bf7u5bejc6","geo_precision":"city","address":"1620 Perrowville Rd","state":"VA"},"type":"Feature","geometry":{"type":"Point","coordinates":[-87.114161,32.616798]}},{"properties":{"city":"Forest","zip":"24551-2223","geo_score":0.442,"id":"a7bf7u6646kz","geo_precision":"city","address":"1660 Perrowville Rd","state":"VA"},"type":"Feature","geometry":{"type":"Point","coordinates":[-87.114161,32.616798]}},{"properties":{"city":"Forest","zip":"24551-0134","geo_score":0.143,"id":"a7bf7tuwe9m5","geo_precision":"street","address":"PO Box 134","state":"VA"},"type":"Feature","geometry":{"type":"Point","coordinates":[-87.743938,31.939605]}},{"properties":{"city":"Forest","zip":"24551-3310","geo_score":0.625,"id":"a7bf7u2kh2ay","geo_precision":"range","address":"203 Burning Lamp Ln","state":"VA"},"type":"Feature","geometry":{"type":"Point","coordinates":[-85.210785,34.92694]}},{"properties":{"city":"Forest","zip":"24551-1056","geo_score":0.532,"id":"a7bf7u3utsfb","geo_precision":"street","address":"1154 Ivy Woods Dr","state":"VA"},"type":"Feature","geometry":{"type":"Point","coordinates":[-92.630927,33.196266]}},{"properties":{"city":"Forest","zip":"24551-2266","geo_score":0.442,"id":"a7bf7u5sbxhm","geo_precision":"city","address":"3364 Perrowville Rd","state":"VA"},"type":"Feature","geometry":{"type":"Point","coordinates":[-87.114161,32.616798]}},{"properties":{"city":"Forest","zip":"24551-0017","geo_score":0.327,"id":"a7bf7u1ch4x7","geo_precision":"street","address":"PO Box 17","state":"VA"},"type":"Feature","geometry":{"type":"Point","coordinates":[-87.811889,31.793246]}},{"properties":{"city":"Forest","zip":"24551-2227","geo_score":0.442,"id":"a7bf7u00rll6","geo_precision":"city","address":"1800 Perrowville Rd","state":"VA"},"type":"Feature","geometry":{"type":"Point","coordinates":[-87.114161,32.616798]}},{"properties":{"city":"Forest","zip":"24551-3310","geo_score":0.625,"id":"a7bf7u5qbyzd","geo_precision":"range","address":"201 Burning Lamp Ln","state":"VA"},"type":"Feature","geometry":{"type":"Point","coordinates":[-85.210785,34.926936]}},{"properties":{"city":"Forest","zip":"24551-3315","geo_score":0.442,"id":"a7bf7u4pp0t1","geo_precision":"city","address":"3995 Perrowville Rd","state":"VA"},"type":"Feature","geometry":{"type":"Point","coordinates":[-87.114161,32.616798]}},{"properties":{"city":"Forest","zip":"24551-3390","geo_score":0.442,"id":"a7bf7tzmkk0v","geo_precision":"city","address":"4457 Perrowville Rd","state":"VA"},"type":"Feature","geometry":{"type":"Point","coordinates":[-87.114161,32.616798]}},{"properties":{"city":"Forest","zip":"24551-4126","geo_score":0.0,"id":"a7bf7u07miog","geo_precision":"unmatched","address":"18 Maple Leaf Ct","state":"VA"},"type":"Feature","geometry":null},{"properties":{"city":"Forest","zip":"24551-4264","geo_score":0.0,"id":"a7bf7tw4yyrc","geo_precision":"unmatched","address":"1047 Maple Leaf Ct","state":"VA"},"type":"Feature","geometry":null},{"properties":{"city":"Forest","zip":"24551-3309","geo_score":0.503,"id":"a7bf7u696vyx","geo_precision":"range","address":"208 Burning Lamp Ln","state":"VA"},"type":"Feature","geometry":{"type":"Point","coordinates":[-85.210785,34.926949]}},{"properties":{"city":"Forest","zip":"24551-2266","geo_score":0.442,"id":"a7bf7u12vguq","geo_precision":"city","address":"3336 Perrowville Rd","state":"VA"},"type":"Feature","geometry":{"type":"Point","coordinates":[-87.114161,32.616798]}},{"properties":{"city":"Forest","zip":"24551-2266","geo_score":0.442,"id":"a7bf7u32f2u9","geo_precision":"city","address":"3396 Perrowville Rd","state":"VA"},"type":"Feature","geometry":{"type":"Point","coordinates":[-87.114161,32.616798]}},{"properties":{"city":"Forest","zip":"24551-3308","geo_score":0.503,"id":"a7bf7u2kjv74","geo_precision":"range","address":"194 Burning Lamp Ln","state":"VA"},"type":"Feature","geometry":{"type":"Point","coordinates":[-85.210785,34.926924]}},{"properties":{"city":"Forest","zip":"24551-2227","geo_score":0.442,"id":"a7bf7tyxo7vv","geo_precision":"city","address":"1870 Perrowville Rd","state":"VA"},"type":"Feature","geometry":{"type":"Point","coordinates":[-87.114161,32.616798]}},{"properties":{"city":"Forest","zip":"24551-3315","geo_score":0.442,"id":"a7bf7u4cyzi2","geo_precision":"city","address":"3947 Perrowville Rd","state":"VA"},"type":"Feature","geometry":{"type":"Point","coordinates":[-87.114161,32.616798]}},{"properties":{"city":"Forest","zip":"24551-3309","geo_score":0.503,"id":"a7bf7u6lxbh7","geo_precision":"range","address":"208 Burning Lamp Ln","state":"VA"},"type":"Feature","geometry":{"type":"Point","coordinates":[-85.210785,34.926949]}},{"properties":{"city":"Forest","zip":"24551-3316","geo_score":0.442,"id":"a7bf7ttlnuw4","geo_precision":"city","address":"4017 Perrowville Rd","state":"VA"},"type":"Feature","geometry":{"type":"Point","coordinates":[-87.114161,32.616798]}},{"properties":{"city":"Forest","zip":"24551-4484","geo_score":0.292,"id":"a7bf7u0xxw3r","geo_precision":"street","address":"1103 Chestnut Grove Dr","state":"VA"},"type":"Feature","geometry":{"type":"Point","coordinates":[-90.868034,42.495871]}},{"properties":{"city":"Forest","zip":"24551-2224","geo_score":0.442,"id":"a7bf7tsut83g","geo_precision":"city","address":"1780 Perrowville Rd","state":"VA"},"type":"Feature","geometry":{"type":"Point","coordinates":[-87.114161,32.616798]}},{"properties":{"city":"Forest","zip":"24551-2227","geo_score":0.442,"id":"a7bf7tuwnfqg","geo_precision":"city","address":"1820 Perrowville Rd","state":"VA"},"type":"Feature","geometry":{"type":"Point","coordinates":[-87.114161,32.616798]}},{"properties":{"city":"Forest","zip":"24551-3397","geo_score":0.0,"id":"a7bf7u5ag75h","geo_precision":"unmatched","address":"1168 Stonegate Ct","state":"VA"},"type":"Feature","geometry":null},{"properties":{"city":"Forest","zip":"24551-3397","geo_score":0.0,"id":"a7bf7tvdyiw9","geo_precision":"unmatched","address":"1168 Stonegate Ct","state":"VA"},"type":"Feature","geometry":null},{"properties":{"city":"Forest","zip":"24551-4277","geo_score":0.0,"id":"a7bf7u5ip972","geo_precision":"unmatched","address":"1040 Oak Leaf Ct","state":"VA"},"type":"Feature","geometry":null},{"properties":{"city":"Forest","zip":"24551","geo_score":0.442,"id":"a7bf7tzwu3jo","geo_precision":"city","address":"2685 Perrowville Rd","state":"VA"},"type":"Feature","geometry":{"type":"Point","coordinates":[-87.114161,32.616798]}}],"is_temporal":false,"author":{"url":"","metadata":"","contact_name":"","contact_address":"","source":"","contact_phone":""},"source":"","pagination":{"sort":null,"start":0,"total":215,"limit":1000000},"state":"complete","tags":"","published":"2014-08-12T23:12:27-04:00","id":131706}