{"type":"FeatureCollection","data_type":"Dataset","url_type":null,"permissions":[{"permissions":{"download":true,"view":true},"group_id":"everyone"}],"classification":null,"title":"addresses","count":215,"stream_id":131707,"contributor":{"url":"http://geocommons.com/users/29343","name":"felixmc"},"data_attributes":null,"calculation_params":null,"icon_link":null,"link":"http://geocommons.com/overlays/131707.json","extent":[-79.3437,37.2478,-79.1501,37.417],"geometry_types":["point"],"unique_name":null,"name":"addresses","feature_count":215,"description":"","next_feature":null,"is_raster":false,"short_classification":"Y","stats":{},"features":[{"properties":{"city":"Forest","zip":"24551-3320","geo_score":0.902,"street":"5072 Perrowville Rd","id":"a7dg3x3npmh6","geo_precision":"range","state":"VA"},"type":"Feature","geometry":{"type":"Point","coordinates":[-79.343644,37.415089]}},{"properties":{"city":"Forest","zip":"24551-1055","geo_score":0.902,"street":"1193 Ivy Woods Dr","id":"a7dg3ww5zwrh","geo_precision":"range","state":"VA"},"type":"Feature","geometry":{"type":"Point","coordinates":[-79.327828,37.393272]}},{"properties":{"city":"Forest","zip":"24551-3704","geo_score":0.707,"street":"2731 Groveland Dr","id":"a7dg3x043602","geo_precision":"street","state":"VA"},"type":"Feature","geometry":{"type":"Point","coordinates":[-79.338861,37.392292]}},{"properties":{"city":"Forest","zip":"24551-3304","geo_score":0.902,"street":"3755 Perrowville Rd","id":"a7dg3wurl0q3","geo_precision":"range","state":"VA"},"type":"Feature","geometry":{"type":"Point","coordinates":[-79.334027,37.398655]}},{"properties":{"city":"Forest","zip":"24551-1057","geo_score":0.902,"street":"1007 Oak Leaf Ct","id":"a7dg3wu7k02j","geo_precision":"range","state":"VA"},"type":"Feature","geometry":{"type":"Point","coordinates":[-79.32693,37.392225]}},{"properties":{"city":"Forest","zip":"24551-4264","geo_score":0.902,"street":"1031 Maple Leaf Ct","id":"a7dg3wq3uag1","geo_precision":"range","state":"VA"},"type":"Feature","geometry":{"type":"Point","coordinates":[-79.328363,37.393205]}},{"properties":{"city":"Forest","zip":"24551-3317","geo_score":0.902,"street":"4105 Perrowville Rd","id":"a7dg3wro5jpx","geo_precision":"range","state":"VA"},"type":"Feature","geometry":{"type":"Point","coordinates":[-79.338651,37.401992]}},{"properties":{"city":"Forest","zip":"24551-3397","geo_score":0.902,"street":"1119 Stonegate Ct","id":"a7dg3wr1n746","geo_precision":"range","state":"VA"},"type":"Feature","geometry":{"type":"Point","coordinates":[-79.332028,37.402061]}},{"properties":{"city":"Forest","zip":"24551-3397","geo_score":0.902,"street":"1157 Stonegate Ct","id":"a7dg3x3o6sr0","geo_precision":"range","state":"VA"},"type":"Feature","geometry":{"type":"Point","coordinates":[-79.331479,37.402879]}},{"properties":{"city":"Forest","zip":"24551-1057","geo_score":0.902,"street":"1037 Oak Leaf Ct","id":"a7dg3x0ok78o","geo_precision":"range","state":"VA"},"type":"Feature","geometry":{"type":"Point","coordinates":[-79.32714,37.392142]}},{"properties":{"city":"Forest","zip":"24551-4331","geo_score":0.902,"street":"2493 Perrowville Rd","id":"a7dg3x0vx08b","geo_precision":"range","state":"VA"},"type":"Feature","geometry":{"type":"Point","coordinates":[-79.316481,37.384783]}},{"properties":{"city":"Forest","zip":"24551-3397","geo_score":0.902,"street":"1119 Stonegate Ct","id":"a7dg3wrqznyn","geo_precision":"range","state":"VA"},"type":"Feature","geometry":{"type":"Point","coordinates":[-79.332028,37.402061]}},{"properties":{"city":"Forest","zip":"24551-3315","geo_score":0.902,"street":"3995 Perrowville Rd","id":"a7dg3x1hcjw3","geo_precision":"range","state":"VA"},"type":"Feature","geometry":{"type":"Point","coordinates":[-79.337248,37.400966]}},{"properties":{"city":"Forest","zip":"24551-3307","geo_score":0.902,"street":"189 Burning Lamp Ln","id":"a7dg3wt1fmd4","geo_precision":"range","state":"VA"},"type":"Feature","geometry":{"type":"Point","coordinates":[-79.331585,37.397994]}},{"properties":{"city":"Forest","zip":"24551-0417","geo_score":0.446,"street":"PO Box 417","id":"a7dg3x45djja","geo_precision":"street","state":"VA"},"type":"Feature","geometry":{"type":"Point","coordinates":[-79.150078,37.298729]}},{"properties":{"city":"Forest","zip":"24551-2227","geo_score":0.902,"street":"1820 Perrowville Rd","id":"a7dg3wrkml98","geo_precision":"range","state":"VA"},"type":"Feature","geometry":{"type":"Point","coordinates":[-79.311199,37.379187]}},{"properties":{"city":"Forest","zip":"24551-1057","geo_score":0.902,"street":"1037 Oak Leaf Ct","id":"a7dg3x4xf5za","geo_precision":"range","state":"VA"},"type":"Feature","geometry":{"type":"Point","coordinates":[-79.32714,37.392142]}},{"properties":{"city":"Forest","zip":"24551-4513","geo_score":0.902,"street":"1482 Ivy Hill Dr","id":"a7dg3wwd069f","geo_precision":"range","state":"VA"},"type":"Feature","geometry":{"type":"Point","coordinates":[-79.317841,37.396742]}},{"properties":{"city":"Forest","zip":"24551-3704","geo_score":0.707,"street":"2731 Groveland Dr","id":"a7dg3x1h3gum","geo_precision":"street","state":"VA"},"type":"Feature","geometry":{"type":"Point","coordinates":[-79.338861,37.392292]}},{"properties":{"city":"Forest","zip":"24551-3317","geo_score":0.902,"street":"4105 Perrowville Rd","id":"a7dg3x0ofvey","geo_precision":"range","state":"VA"},"type":"Feature","geometry":{"type":"Point","coordinates":[-79.338651,37.401992]}},{"properties":{"city":"Forest","zip":"24551-3307","geo_score":0.902,"street":"189 Burning Lamp Ln","id":"a7dg3wv1tf6l","geo_precision":"range","state":"VA"},"type":"Feature","geometry":{"type":"Point","coordinates":[-79.331585,37.397994]}},{"properties":{"city":"Forest","zip":"24551-1054","geo_score":0.902,"street":"1039 Ivy Woods Dr","id":"a7dg3x0oxvu3","geo_precision":"range","state":"VA"},"type":"Feature","geometry":{"type":"Point","coordinates":[-79.326317,37.391652]}},{"properties":{"city":"Forest","zip":"24551","geo_score":0.708,"street":"663 Perrowville Rd","id":"a7dg3ww2r3nc","geo_precision":"street","state":"VA"},"type":"Feature","geometry":{"type":"Point","coordinates":[-79.302911,37.373712]}},{"properties":{"city":"Forest","zip":"24551-4264","geo_score":0.902,"street":"1031 Maple Leaf Ct","id":"a7dg3wvzsyy0","geo_precision":"range","state":"VA"},"type":"Feature","geometry":{"type":"Point","coordinates":[-79.328363,37.393205]}},{"properties":{"city":"Forest","zip":"24551-4513","geo_score":0.902,"street":"1480 Ivy Hill Dr","id":"a7dg3wrfdrhj","geo_precision":"range","state":"VA"},"type":"Feature","geometry":{"type":"Point","coordinates":[-79.317873,37.396568]}},{"properties":{"city":"Forest","zip":"24551-1860","geo_score":0.902,"street":"2438 Perrowville Rd","id":"a7dg3wq13oz5","geo_precision":"range","state":"VA"},"type":"Feature","geometry":{"type":"Point","coordinates":[-79.316215,37.38444]}},{"properties":{"city":"Forest","zip":"24551","geo_score":0.902,"street":"2379 Perrowville Rd","id":"a7dg3wu5o5pq","geo_precision":"range","state":"VA"},"type":"Feature","geometry":{"type":"Point","coordinates":[-79.315918,37.384216]}},{"properties":{"city":"Forest","zip":"24551-1055","geo_score":0.902,"street":"1175 Ivy Woods Dr","id":"a7dg3wv1281f","geo_precision":"range","state":"VA"},"type":"Feature","geometry":{"type":"Point","coordinates":[-79.327669,37.393084]}},{"properties":{"city":"Forest","zip":"24551-3315","geo_score":0.902,"street":"3947 Perrowville Rd","id":"a7dg3wqqitka","geo_precision":"range","state":"VA"},"type":"Feature","geometry":{"type":"Point","coordinates":[-79.33677,37.400623]}},{"properties":{"city":"Forest","zip":"24551-3314","geo_score":0.902,"street":"3881 Perrowville Rd","id":"a7dg3x3pla21","geo_precision":"range","state":"VA"},"type":"Feature","geometry":{"type":"Point","coordinates":[-79.335678,37.399977]}},{"properties":{"city":"Forest","zip":"24551-3316","geo_score":0.902,"street":"4017 Perrowville Rd","id":"a7dg3wx6hgsr","geo_precision":"range","state":"VA"},"type":"Feature","geometry":{"type":"Point","coordinates":[-79.33748,37.401175]}},{"properties":{"city":"Forest","zip":"24551-3315","geo_score":0.902,"street":"3947 Perrowville Rd","id":"a7dg3wumyugc","geo_precision":"range","state":"VA"},"type":"Feature","geometry":{"type":"Point","coordinates":[-79.33677,37.400623]}},{"properties":{"city":"Forest","zip":"24551-3304","geo_score":0.902,"street":"3755 Perrowville Rd","id":"a7dg3ww3n6z9","geo_precision":"range","state":"VA"},"type":"Feature","geometry":{"type":"Point","coordinates":[-79.334027,37.398655]}},{"properties":{"city":"Forest","zip":"24551-1860","geo_score":0.902,"street":"2442 Perrowville Rd","id":"a7dg3x5rxl3c","geo_precision":"range","state":"VA"},"type":"Feature","geometry":{"type":"Point","coordinates":[-79.316235,37.384465]}},{"properties":{"city":"Forest","zip":"24551-4513","geo_score":0.902,"street":"1480 Ivy Hill Dr","id":"a7dg3wuzhu2u","geo_precision":"range","state":"VA"},"type":"Feature","geometry":{"type":"Point","coordinates":[-79.317873,37.396568]}},{"properties":{"city":"Forest","zip":"24551-2227","geo_score":0.902,"street":"1820 Perrowville Rd","id":"a7dg3wx0u3sv","geo_precision":"range","state":"VA"},"type":"Feature","geometry":{"type":"Point","coordinates":[-79.311199,37.379187]}},{"properties":{"city":"Forest","zip":"24551-2249","geo_score":0.902,"street":"2065 Perrowville Rd","id":"a7dg3x5i8jsb","geo_precision":"range","state":"VA"},"type":"Feature","geometry":{"type":"Point","coordinates":[-79.313405,37.381216]}},{"properties":{"city":"Forest","zip":"24551-4264","geo_score":0.902,"street":"1045 Maple Leaf Ct","id":"a7dg3wxm7n85","geo_precision":"range","state":"VA"},"type":"Feature","geometry":{"type":"Point","coordinates":[-79.328436,37.393181]}},{"properties":{"city":"Forest","zip":"24551-1055","geo_score":0.902,"street":"1193 Ivy Woods Dr","id":"a7dg3x592o50","geo_precision":"range","state":"VA"},"type":"Feature","geometry":{"type":"Point","coordinates":[-79.327828,37.393272]}},{"properties":{"city":"Forest","zip":"24551-4331","geo_score":0.902,"street":"2493 Perrowville Rd","id":"a7dg3x3pbdfd","geo_precision":"range","state":"VA"},"type":"Feature","geometry":{"type":"Point","coordinates":[-79.316481,37.384783]}},{"properties":{"city":"Forest","zip":"24551-1175","geo_score":0.902,"street":"3424 Perrowville Rd","id":"a7dg3wt18gya","geo_precision":"range","state":"VA"},"type":"Feature","geometry":{"type":"Point","coordinates":[-79.329996,37.395788]}},{"properties":{"city":"Forest","zip":"24551-1054","geo_score":0.902,"street":"1085 Ivy Woods Dr","id":"a7dg3x33s6i3","geo_precision":"range","state":"VA"},"type":"Feature","geometry":{"type":"Point","coordinates":[-79.326848,37.392191]}},{"properties":{"city":"Forest","zip":"24551-1055","geo_score":0.902,"street":"1193 Ivy Woods Dr","id":"a7dg3wpsop2j","geo_precision":"range","state":"VA"},"type":"Feature","geometry":{"type":"Point","coordinates":[-79.327828,37.393272]}},{"properties":{"city":"Forest","zip":"24551-1055","geo_score":0.902,"street":"1175 Ivy Woods Dr","id":"a7dg3x4krbhx","geo_precision":"range","state":"VA"},"type":"Feature","geometry":{"type":"Point","coordinates":[-79.327669,37.393084]}},{"properties":{"city":"Forest","zip":"24551-1054","geo_score":0.902,"street":"1039 Ivy Woods Dr","id":"a7dg3wtm33lr","geo_precision":"range","state":"VA"},"type":"Feature","geometry":{"type":"Point","coordinates":[-79.326317,37.391652]}},{"properties":{"city":"Forest","zip":"24551-0064","geo_score":0.469,"street":"PO Box 64","id":"a7dg3x26nt71","geo_precision":"street","state":"VA"},"type":"Feature","geometry":{"type":"Point","coordinates":[-79.150078,37.298729]}},{"properties":{"city":"Forest","zip":"24551-3318","geo_score":0.902,"street":"4525 Perrowville Rd","id":"a7dg3x10xjz0","geo_precision":"range","state":"VA"},"type":"Feature","geometry":{"type":"Point","coordinates":[-79.339853,37.408803]}},{"properties":{"city":"Forest","zip":"24551-3318","geo_score":0.902,"street":"4525 Perrowville Rd","id":"a7dg3x1ybkn7","geo_precision":"range","state":"VA"},"type":"Feature","geometry":{"type":"Point","coordinates":[-79.339853,37.408803]}},{"properties":{"city":"Forest","zip":"24551-3390","geo_score":0.902,"street":"4457 Perrowville Rd","id":"a7dg3x0yt7e1","geo_precision":"range","state":"VA"},"type":"Feature","geometry":{"type":"Point","coordinates":[-79.3392,37.407202]}},{"properties":{"city":"Forest","zip":"24551-1860","geo_score":0.902,"street":"2442 Perrowville Rd","id":"a7dg3wt6hgnd","geo_precision":"range","state":"VA"},"type":"Feature","geometry":{"type":"Point","coordinates":[-79.316235,37.384465]}},{"properties":{"city":"Forest","zip":"24551-1057","geo_score":0.902,"street":"1039 Oak Leaf Ct","id":"a7dg3x00mfw1","geo_precision":"range","state":"VA"},"type":"Feature","geometry":{"type":"Point","coordinates":[-79.327152,37.392137]}},{"properties":{"city":"Forest","zip":"24551-2266","geo_score":0.902,"street":"3382 Perrowville Rd","id":"a7dg3wupcvhq","geo_precision":"range","state":"VA"},"type":"Feature","geometry":{"type":"Point","coordinates":[-79.329378,37.395505]}},{"properties":{"city":"Forest","zip":"24551-3739","geo_score":0.902,"street":"1114 Groveland Dr","id":"a7dg3x271942","geo_precision":"range","state":"VA"},"type":"Feature","geometry":{"type":"Point","coordinates":[-79.33065,37.39548]}},{"properties":{"city":"Forest","zip":"24551-2254","geo_score":0.902,"street":"2274 Perrowville Rd","id":"a7dg3wq13x8o","geo_precision":"range","state":"VA"},"type":"Feature","geometry":{"type":"Point","coordinates":[-79.315502,37.383732]}},{"properties":{"city":"Forest","zip":"24551-3739","geo_score":0.902,"street":"1114 Groveland Dr","id":"a7dg3wwthec2","geo_precision":"range","state":"VA"},"type":"Feature","geometry":{"type":"Point","coordinates":[-79.33065,37.39548]}},{"properties":{"city":"Forest","zip":"24551-2223","geo_score":0.902,"street":"1620 Perrowville Rd","id":"a7dg3wrqhlol","geo_precision":"range","state":"VA"},"type":"Feature","geometry":{"type":"Point","coordinates":[-79.308128,37.377761]}},{"properties":{"city":"Forest","zip":"24551-2224","geo_score":0.902,"street":"1720 Perrowville Rd","id":"a7dg3x3g81bq","geo_precision":"range","state":"VA"},"type":"Feature","geometry":{"type":"Point","coordinates":[-79.310709,37.378894]}},{"properties":{"city":"Forest","zip":"24551-0417","geo_score":0.446,"street":"PO Box 417","id":"a7dg3x1un3x4","geo_precision":"street","state":"VA"},"type":"Feature","geometry":{"type":"Point","coordinates":[-79.150078,37.298729]}},{"properties":{"city":"Forest","zip":"24551-3316","geo_score":0.902,"street":"4017 Perrowville Rd","id":"a7dg3wsi5czd","geo_precision":"range","state":"VA"},"type":"Feature","geometry":{"type":"Point","coordinates":[-79.33748,37.401175]}},{"properties":{"city":"Forest","zip":"24551-2260","geo_score":0.902,"street":"1920 Perrowville Rd","id":"a7dg3wrpbp4h","geo_precision":"range","state":"VA"},"type":"Feature","geometry":{"type":"Point","coordinates":[-79.311915,37.379494]}},{"properties":{"city":"Forest","zip":"24551-2227","geo_score":0.902,"street":"1810 Perrowville Rd","id":"a7dg3wv4xjs8","geo_precision":"range","state":"VA"},"type":"Feature","geometry":{"type":"Point","coordinates":[-79.31115,37.379158]}},{"properties":{"city":"Forest","zip":"24551-3300","geo_score":0.902,"street":"10 Stonegate Ct","id":"a7dg3x4rrjca","geo_precision":"range","state":"VA"},"type":"Feature","geometry":{"type":"Point","coordinates":[-79.33655,37.401896]}},{"properties":{"city":"Forest","zip":"24551-2227","geo_score":0.902,"street":"1800 Perrowville Rd","id":"a7dg3x3vpgtf","geo_precision":"range","state":"VA"},"type":"Feature","geometry":{"type":"Point","coordinates":[-79.311101,37.379128]}},{"properties":{"city":"Forest","zip":"24551-2224","geo_score":0.902,"street":"1760 Perrowville Rd","id":"a7dg3x28zch2","geo_precision":"range","state":"VA"},"type":"Feature","geometry":{"type":"Point","coordinates":[-79.310905,37.379011]}},{"properties":{"city":"Forest","zip":"24551-3308","geo_score":0.902,"street":"194 Burning Lamp Ln","id":"a7dg3x2fi5m7","geo_precision":"range","state":"VA"},"type":"Feature","geometry":{"type":"Point","coordinates":[-79.331481,37.397988]}},{"properties":{"city":"Forest","zip":"24551-3307","geo_score":0.902,"street":"193 Burning Lamp Ln","id":"a7dg3wqdkcv2","geo_precision":"range","state":"VA"},"type":"Feature","geometry":{"type":"Point","coordinates":[-79.33153,37.397989]}},{"properties":{"city":"Forest","zip":"24551-2260","geo_score":0.902,"street":"1900 Perrowville Rd","id":"a7dg3x5zpsml","geo_precision":"range","state":"VA"},"type":"Feature","geometry":{"type":"Point","coordinates":[-79.311798,37.379433]}},{"properties":{"city":"Forest","zip":"24551-3756","geo_score":0.902,"street":"1168 Berkeley Farm Dr","id":"a7dg3wqybon1","geo_precision":"range","state":"VA"},"type":"Feature","geometry":{"type":"Point","coordinates":[-79.338545,37.39885]}},{"properties":{"city":"Forest","zip":"24551-4264","geo_score":0.902,"street":"1007 Maple Leaf Ct","id":"a7dg3wrbr4k7","geo_precision":"range","state":"VA"},"type":"Feature","geometry":{"type":"Point","coordinates":[-79.328283,37.393255]}},{"properties":{"city":"Forest","zip":"24551-1175","geo_score":0.902,"street":"3448 Perrowville Rd","id":"a7dg3wuf228k","geo_precision":"range","state":"VA"},"type":"Feature","geometry":{"type":"Point","coordinates":[-79.330131,37.395903]}},{"properties":{"city":"Forest","zip":"24551-1175","geo_score":0.902,"street":"3448 Perrowville Rd","id":"a7dg3wr4oya8","geo_precision":"range","state":"VA"},"type":"Feature","geometry":{"type":"Point","coordinates":[-79.330131,37.395903]}},{"properties":{"city":"Forest","zip":"24551-3705","geo_score":0.902,"street":"5204 Perrowville Rd","id":"a7dg3wxc0eqg","geo_precision":"range","state":"VA"},"type":"Feature","geometry":{"type":"Point","coordinates":[-79.34366,37.416989]}},{"properties":{"city":"Forest","zip":"24551-1175","geo_score":0.902,"street":"3424 Perrowville Rd","id":"a7dg3wq3l9ix","geo_precision":"range","state":"VA"},"type":"Feature","geometry":{"type":"Point","coordinates":[-79.329996,37.395788]}},{"properties":{"city":"Forest","zip":"24551-2223","geo_score":0.902,"street":"1660 Perrowville Rd","id":"a7dg3x63h7em","geo_precision":"range","state":"VA"},"type":"Feature","geometry":{"type":"Point","coordinates":[-79.309335,37.378239]}},{"properties":{"city":"Forest","zip":"24551-3311","geo_score":0.902,"street":"301 Burning Lamp Ln","id":"a7dg3wxd7fcm","geo_precision":"range","state":"VA"},"type":"Feature","geometry":{"type":"Point","coordinates":[-79.329729,37.397769]}},{"properties":{"city":"Forest","zip":"24551-3397","geo_score":0.902,"street":"1168 Stonegate Ct","id":"a7dg3x1kpnd9","geo_precision":"range","state":"VA"},"type":"Feature","geometry":{"type":"Point","coordinates":[-79.33131,37.403124]}},{"properties":{"city":"Forest","zip":"24551-3307","geo_score":0.902,"street":"197 Burning Lamp Ln","id":"a7dg3x46dtyl","geo_precision":"range","state":"VA"},"type":"Feature","geometry":{"type":"Point","coordinates":[-79.331453,37.397989]}},{"properties":{"city":"Forest","zip":"24551-3307","geo_score":0.902,"street":"197 Burning Lamp Ln","id":"a7dg3x31j957","geo_precision":"range","state":"VA"},"type":"Feature","geometry":{"type":"Point","coordinates":[-79.331453,37.397989]}},{"properties":{"city":"Forest","zip":"24551-2224","geo_score":0.902,"street":"1780 Perrowville Rd","id":"a7dg3x1c7w71","geo_precision":"range","state":"VA"},"type":"Feature","geometry":{"type":"Point","coordinates":[-79.311003,37.37907]}},{"properties":{"city":"Forest","zip":"24551-2445","geo_score":0.902,"street":"1623 Chestnut Grove Dr","id":"a7dg3wvc13mo","geo_precision":"range","state":"VA"},"type":"Feature","geometry":{"type":"Point","coordinates":[-79.328195,37.384893]}},{"properties":{"city":"Forest","zip":"24551-4008","geo_score":0.902,"street":"294 Barbour Dr","id":"a7dg3wvx70s3","geo_precision":"range","state":"VA"},"type":"Feature","geometry":{"type":"Point","coordinates":[-79.259953,37.329046]}},{"properties":{"city":"Forest","zip":"24551-1057","geo_score":0.902,"street":"1007 Oak Leaf Ct","id":"a7dg3wwozw1h","geo_precision":"range","state":"VA"},"type":"Feature","geometry":{"type":"Point","coordinates":[-79.32693,37.392225]}},{"properties":{"city":"Forest","zip":"24551-4205","geo_score":0.902,"street":"1148 Ivy Hill Dr","id":"a7dg3x0ca3r9","geo_precision":"range","state":"VA"},"type":"Feature","geometry":{"type":"Point","coordinates":[-79.324265,37.396578]}},{"properties":{"city":"Forest","zip":"24551-1054","geo_score":0.902,"street":"1059 Ivy Woods Dr","id":"a7dg3wzukchw","geo_precision":"range","state":"VA"},"type":"Feature","geometry":{"type":"Point","coordinates":[-79.326509,37.391881]}},{"properties":{"city":"Forest","zip":"24551-1054","geo_score":0.902,"street":"1059 Ivy Woods Dr","id":"a7dg3x5vovvl","geo_precision":"range","state":"VA"},"type":"Feature","geometry":{"type":"Point","coordinates":[-79.326509,37.391881]}},{"properties":{"city":"Forest","zip":"24551-1057","geo_score":0.902,"street":"1007 Oak Leaf Ct","id":"a7dg3x17cjdk","geo_precision":"range","state":"VA"},"type":"Feature","geometry":{"type":"Point","coordinates":[-79.32693,37.392225]}},{"properties":{"city":"Forest","zip":"24551-2259","geo_score":0.902,"street":"1640 Perrowville Rd","id":"a7dg3x248pkk","geo_precision":"range","state":"VA"},"type":"Feature","geometry":{"type":"Point","coordinates":[-79.308889,37.377997]}},{"properties":{"city":"Forest","zip":"24551-2227","geo_score":0.902,"street":"1810 Perrowville Rd","id":"a7dg3wssf4uy","geo_precision":"range","state":"VA"},"type":"Feature","geometry":{"type":"Point","coordinates":[-79.31115,37.379158]}},{"properties":{"city":"Forest","zip":"24551-0064","geo_score":0.469,"street":"PO Box 64","id":"a7dg3wzfugsg","geo_precision":"street","state":"VA"},"type":"Feature","geometry":{"type":"Point","coordinates":[-79.150078,37.298729]}},{"properties":{"city":"Forest","zip":"24551-3307","geo_score":0.902,"street":"197 Burning Lamp Ln","id":"a7dg3wsy1xkv","geo_precision":"range","state":"VA"},"type":"Feature","geometry":{"type":"Point","coordinates":[-79.331453,37.397989]}},{"properties":{"city":"Forest","zip":"24551-3309","geo_score":0.902,"street":"204 Burning Lamp Ln","id":"a7dg3x1xwvtr","geo_precision":"range","state":"VA"},"type":"Feature","geometry":{"type":"Point","coordinates":[-79.331353,37.398002]}},{"properties":{"city":"Forest","zip":"24551-0017","geo_score":0.469,"street":"PO Box 17","id":"a7dg3wsbfik6","geo_precision":"street","state":"VA"},"type":"Feature","geometry":{"type":"Point","coordinates":[-79.150078,37.298729]}},{"properties":{"city":"Forest","zip":"24551-4264","geo_score":0.902,"street":"1045 Maple Leaf Ct","id":"a7dg3x5x3wvm","geo_precision":"range","state":"VA"},"type":"Feature","geometry":{"type":"Point","coordinates":[-79.328436,37.393181]}},{"properties":{"city":"Forest","zip":"24551-1831","geo_score":0.902,"street":"2379 Perrowville Rd","id":"a7dg3wx1cmcq","geo_precision":"range","state":"VA"},"type":"Feature","geometry":{"type":"Point","coordinates":[-79.315918,37.384216]}},{"properties":{"city":"Forest","zip":"24551-3318","geo_score":0.902,"street":"4525 Perrowville Rd","id":"a7dg3wsm61xe","geo_precision":"range","state":"VA"},"type":"Feature","geometry":{"type":"Point","coordinates":[-79.339853,37.408803]}},{"properties":{"city":"Forest","zip":"24551-4308","geo_score":0.902,"street":"1095 Stonegate Ct","id":"a7dg3x24vv3w","geo_precision":"range","state":"VA"},"type":"Feature","geometry":{"type":"Point","coordinates":[-79.332741,37.401916]}},{"properties":{"city":"Forest","zip":"24551-1058","geo_score":0.902,"street":"1042 Ivy Woods Dr","id":"a7dg3x342v71","geo_precision":"range","state":"VA"},"type":"Feature","geometry":{"type":"Point","coordinates":[-79.326355,37.391698]}},{"properties":{"city":"Forest","zip":"24551-4484","geo_score":0.902,"street":"1121 Chestnut Grove Dr","id":"a7dg3wvrje3z","geo_precision":"range","state":"VA"},"type":"Feature","geometry":{"type":"Point","coordinates":[-79.326465,37.390825]}},{"properties":{"city":"Forest","zip":"24551-1056","geo_score":0.902,"street":"1154 Ivy Woods Dr","id":"a7dg3wspwtz5","geo_precision":"range","state":"VA"},"type":"Feature","geometry":{"type":"Point","coordinates":[-79.327455,37.392891]}},{"properties":{"city":"Forest","zip":"24551-3738","geo_score":0.902,"street":"1113 Groveland Dr","id":"a7dg3wq1ytvt","geo_precision":"range","state":"VA"},"type":"Feature","geometry":{"type":"Point","coordinates":[-79.331633,37.394607]}},{"properties":{"city":"Forest","zip":"24551-1058","geo_score":0.902,"street":"1042 Ivy Woods Dr","id":"a7dg3x5aq168","geo_precision":"range","state":"VA"},"type":"Feature","geometry":{"type":"Point","coordinates":[-79.326355,37.391698]}},{"properties":{"city":"Forest","zip":"24551-3397","geo_score":0.902,"street":"1119 Stonegate Ct","id":"a7dg3wqggemt","geo_precision":"range","state":"VA"},"type":"Feature","geometry":{"type":"Point","coordinates":[-79.332028,37.402061]}},{"properties":{"city":"Forest","zip":"24551-1057","geo_score":0.902,"street":"1039 Oak Leaf Ct","id":"a7dg3wr3j2nm","geo_precision":"range","state":"VA"},"type":"Feature","geometry":{"type":"Point","coordinates":[-79.327152,37.392137]}},{"properties":{"city":"Forest","zip":"24551-2445","geo_score":0.902,"street":"1623 Chestnut Grove Dr","id":"a7dg3wtkryp8","geo_precision":"range","state":"VA"},"type":"Feature","geometry":{"type":"Point","coordinates":[-79.328195,37.384893]}},{"properties":{"city":"Forest","zip":"24551-2227","geo_score":0.902,"street":"1860 Perrowville Rd","id":"a7dg3x2cegsq","geo_precision":"range","state":"VA"},"type":"Feature","geometry":{"type":"Point","coordinates":[-79.311529,37.379307]}},{"properties":{"city":"Forest","zip":"24551-3315","geo_score":0.902,"street":"3947 Perrowville Rd","id":"a7dg3x3j1yvb","geo_precision":"range","state":"VA"},"type":"Feature","geometry":{"type":"Point","coordinates":[-79.33677,37.400623]}},{"properties":{"city":"Forest","zip":"24551-2266","geo_score":0.902,"street":"3364 Perrowville Rd","id":"a7dg3wwkkcab","geo_precision":"range","state":"VA"},"type":"Feature","geometry":{"type":"Point","coordinates":[-79.32908,37.395322]}},{"properties":{"city":"Forest","zip":"24551-0017","geo_score":0.469,"street":"PO Box 17","id":"a7dg3x42k5h1","geo_precision":"street","state":"VA"},"type":"Feature","geometry":{"type":"Point","coordinates":[-79.150078,37.298729]}},{"properties":{"city":"Forest","zip":"24551-2266","geo_score":0.902,"street":"3336 Perrowville Rd","id":"a7dg3wqspftz","geo_precision":"range","state":"VA"},"type":"Feature","geometry":{"type":"Point","coordinates":[-79.328561,37.395041]}},{"properties":{"city":"Forest","zip":"24551-2266","geo_score":0.902,"street":"3336 Perrowville Rd","id":"a7dg3wvs54xq","geo_precision":"range","state":"VA"},"type":"Feature","geometry":{"type":"Point","coordinates":[-79.328561,37.395041]}},{"properties":{"city":"Forest","zip":"24551-1055","geo_score":0.902,"street":"1179 Ivy Woods Dr","id":"a7dg3wv5wc6l","geo_precision":"range","state":"VA"},"type":"Feature","geometry":{"type":"Point","coordinates":[-79.327699,37.393125]}},{"properties":{"city":"Forest","zip":"24551-1055","geo_score":0.902,"street":"1179 Ivy Woods Dr","id":"a7dg3wvw62xw","geo_precision":"range","state":"VA"},"type":"Feature","geometry":{"type":"Point","coordinates":[-79.327699,37.393125]}},{"properties":{"city":"Forest","zip":"24551-3307","geo_score":0.902,"street":"197 Burning Lamp Ln","id":"a7dg3x3lp7na","geo_precision":"range","state":"VA"},"type":"Feature","geometry":{"type":"Point","coordinates":[-79.331453,37.397989]}},{"properties":{"city":"Forest","zip":"24551-2260","geo_score":0.902,"street":"1900 Perrowville Rd","id":"a7dg3x2rm537","geo_precision":"range","state":"VA"},"type":"Feature","geometry":{"type":"Point","coordinates":[-79.311798,37.379433]}},{"properties":{"city":"Forest","zip":"24551-2224","geo_score":0.902,"street":"1730 Perrowville Rd","id":"a7dg3wru3z40","geo_precision":"range","state":"VA"},"type":"Feature","geometry":{"type":"Point","coordinates":[-79.310758,37.378923]}},{"properties":{"city":"Forest","zip":"24551-4372","geo_score":0.902,"street":"1596 Chestnut Grove Dr","id":"a7dg3wtq7t1f","geo_precision":"range","state":"VA"},"type":"Feature","geometry":{"type":"Point","coordinates":[-79.328277,37.385237]}},{"properties":{"city":"Forest","zip":"24551-2227","geo_score":0.902,"street":"1870 Perrowville Rd","id":"a7dg3wze5rkh","geo_precision":"range","state":"VA"},"type":"Feature","geometry":{"type":"Point","coordinates":[-79.311577,37.379338]}},{"properties":{"city":"Forest","zip":"24551-4500","geo_score":0.861,"street":"1129 Majestic View Ln","id":"a7dg3x1mq5ty","geo_precision":"range","state":"VA"},"type":"Feature","geometry":{"type":"Point","coordinates":[-79.329587,37.386249]}},{"properties":{"city":"Forest","zip":"24551-2227","geo_score":0.902,"street":"1820 Perrowville Rd","id":"a7dg3wqf411i","geo_precision":"range","state":"VA"},"type":"Feature","geometry":{"type":"Point","coordinates":[-79.311199,37.379187]}},{"properties":{"city":"Forest","zip":"24551-2223","geo_score":0.902,"street":"1610 Perrowville Rd","id":"a7dg3wtfnh82","geo_precision":"range","state":"VA"},"type":"Feature","geometry":{"type":"Point","coordinates":[-79.307948,37.377629]}},{"properties":{"city":"Forest","zip":"24551-3307","geo_score":0.902,"street":"193 Burning Lamp Ln","id":"a7dg3wqsg012","geo_precision":"range","state":"VA"},"type":"Feature","geometry":{"type":"Point","coordinates":[-79.33153,37.397989]}},{"properties":{"city":"Forest","zip":"24551-3307","geo_score":0.902,"street":"193 Burning Lamp Ln","id":"a7dg3ws8wxlv","geo_precision":"range","state":"VA"},"type":"Feature","geometry":{"type":"Point","coordinates":[-79.33153,37.397989]}},{"properties":{"city":"Forest","zip":"24551-2227","geo_score":0.902,"street":"1860 Perrowville Rd","id":"a7dg3wujxnm6","geo_precision":"range","state":"VA"},"type":"Feature","geometry":{"type":"Point","coordinates":[-79.311529,37.379307]}},{"properties":{"city":"Forest","zip":"24551-3309","geo_score":0.902,"street":"208 Burning Lamp Ln","id":"a7dg3wt2ohcl","geo_precision":"range","state":"VA"},"type":"Feature","geometry":{"type":"Point","coordinates":[-79.331297,37.398014]}},{"properties":{"city":"Forest","zip":"24551-3309","geo_score":0.902,"street":"208 Burning Lamp Ln","id":"a7dg3wvjyeas","geo_precision":"range","state":"VA"},"type":"Feature","geometry":{"type":"Point","coordinates":[-79.331297,37.398014]}},{"properties":{"city":"Forest","zip":"24551-1056","geo_score":0.902,"street":"1154 Ivy Woods Dr","id":"a7dg3x5coueh","geo_precision":"range","state":"VA"},"type":"Feature","geometry":{"type":"Point","coordinates":[-79.327455,37.392891]}},{"properties":{"city":"Forest","zip":"24551-3397","geo_score":0.902,"street":"1139 Stonegate Ct","id":"a7dg3wsdrqbk","geo_precision":"range","state":"VA"},"type":"Feature","geometry":{"type":"Point","coordinates":[-79.331565,37.402395]}},{"properties":{"city":"Forest","zip":"24551-3314","geo_score":0.902,"street":"3881 Perrowville Rd","id":"a7dg3x21hlmq","geo_precision":"range","state":"VA"},"type":"Feature","geometry":{"type":"Point","coordinates":[-79.335678,37.399977]}},{"properties":{"city":"Forest","zip":"24551-4308","geo_score":0.902,"street":"1095 Stonegate Ct","id":"a7dg3x14vqww","geo_precision":"range","state":"VA"},"type":"Feature","geometry":{"type":"Point","coordinates":[-79.332741,37.401916]}},{"properties":{"city":"Forest","zip":"24551-2224","geo_score":0.902,"street":"1710 Perrowville Rd","id":"a7dg3x51nz8i","geo_precision":"range","state":"VA"},"type":"Feature","geometry":{"type":"Point","coordinates":[-79.310375,37.378805]}},{"properties":{"city":"Forest","zip":"24551-2266","geo_score":0.902,"street":"3396 Perrowville Rd","id":"a7dg3x5k9fy6","geo_precision":"range","state":"VA"},"type":"Feature","geometry":{"type":"Point","coordinates":[-79.32973,37.395658]}},{"properties":{"city":"Forest","zip":"24551-4264","geo_score":0.902,"street":"1031 Maple Leaf Ct","id":"a7dg3wzx879z","geo_precision":"range","state":"VA"},"type":"Feature","geometry":{"type":"Point","coordinates":[-79.328363,37.393205]}},{"properties":{"city":"Forest","zip":"24551-4275","geo_score":0.902,"street":"1044 Maple Leaf Ct","id":"a7dg3wtm03o7","geo_precision":"range","state":"VA"},"type":"Feature","geometry":{"type":"Point","coordinates":[-79.328436,37.393181]}},{"properties":{"city":"Forest","zip":"24551-4275","geo_score":0.902,"street":"1044 Maple Leaf Ct","id":"a7dg3wryiz8v","geo_precision":"range","state":"VA"},"type":"Feature","geometry":{"type":"Point","coordinates":[-79.328436,37.393181]}},{"properties":{"city":"Forest","zip":"24551-1055","geo_score":0.902,"street":"1151 Ivy Woods Dr","id":"a7dg3wrrroj2","geo_precision":"range","state":"VA"},"type":"Feature","geometry":{"type":"Point","coordinates":[-79.327418,37.392856]}},{"properties":{"city":"Forest","zip":"24551-2266","geo_score":0.902,"street":"3314 Perrowville Rd","id":"a7dg3x3zm0n5","geo_precision":"range","state":"VA"},"type":"Feature","geometry":{"type":"Point","coordinates":[-79.327791,37.394523]}},{"properties":{"city":"Forest","zip":"24551-2445","geo_score":0.902,"street":"1673 Chestnut Grove Dr","id":"a7dg3x37ptcl","geo_precision":"range","state":"VA"},"type":"Feature","geometry":{"type":"Point","coordinates":[-79.327934,37.384218]}},{"properties":{"city":"Forest","zip":"24551-1831","geo_score":0.902,"street":"2367 Perrowville Rd","id":"a7dg3x1c8j8a","geo_precision":"range","state":"VA"},"type":"Feature","geometry":{"type":"Point","coordinates":[-79.315882,37.384169]}},{"properties":{"city":"Forest","zip":"24551-0725","geo_score":0.5,"street":"PO Box 725","id":"a7dg3wzknuhi","geo_precision":"street","state":"VA"},"type":"Feature","geometry":{"type":"Point","coordinates":[-79.281752,37.24782]}},{"properties":{"city":"Forest","zip":"24551-4484","geo_score":0.902,"street":"1121 Chestnut Grove Dr","id":"a7dg3x12qbxd","geo_precision":"range","state":"VA"},"type":"Feature","geometry":{"type":"Point","coordinates":[-79.326465,37.390825]}},{"properties":{"city":"Forest","zip":"24551-1831","geo_score":0.902,"street":"2367 Perrowville Rd","id":"a7dg3wtb4cvt","geo_precision":"range","state":"VA"},"type":"Feature","geometry":{"type":"Point","coordinates":[-79.315882,37.384169]}},{"properties":{"city":"Forest","zip":"24551-3315","geo_score":0.902,"street":"3915 Perrowville Rd","id":"a7dg3wu1fyvd","geo_precision":"range","state":"VA"},"type":"Feature","geometry":{"type":"Point","coordinates":[-79.336085,37.400343]}},{"properties":{"city":"Forest","zip":"24551-2445","geo_score":0.902,"street":"1673 Chestnut Grove Dr","id":"a7dg3wrso3vd","geo_precision":"range","state":"VA"},"type":"Feature","geometry":{"type":"Point","coordinates":[-79.327934,37.384218]}},{"properties":{"city":"Forest","zip":"24551-3397","geo_score":0.902,"street":"1168 Stonegate Ct","id":"a7dg3wujtm5y","geo_precision":"range","state":"VA"},"type":"Feature","geometry":{"type":"Point","coordinates":[-79.33131,37.403124]}},{"properties":{"city":"Forest","zip":"24551-4275","geo_score":0.902,"street":"1046 Maple Leaf Ct","id":"a7dg3wxmzlz0","geo_precision":"range","state":"VA"},"type":"Feature","geometry":{"type":"Point","coordinates":[-79.328443,37.393178]}},{"properties":{"city":"Forest","zip":"24551-2224","geo_score":0.902,"street":"1750 Perrowville Rd","id":"a7dg3x1awe2r","geo_precision":"range","state":"VA"},"type":"Feature","geometry":{"type":"Point","coordinates":[-79.310856,37.378982]}},{"properties":{"city":"Forest","zip":"24551-0273","geo_score":0.446,"street":"PO Box 273","id":"a7dg3x0y710c","geo_precision":"street","state":"VA"},"type":"Feature","geometry":{"type":"Point","coordinates":[-79.150078,37.298729]}},{"properties":{"city":"Forest","zip":"24551-3320","geo_score":0.902,"street":"5070 Perrowville Rd","id":"a7dg3wqctdas","geo_precision":"range","state":"VA"},"type":"Feature","geometry":{"type":"Point","coordinates":[-79.34364,37.41506]}},{"properties":{"city":"Forest","zip":"24551-2224","geo_score":0.902,"street":"1720 Perrowville Rd","id":"a7dg3wujfsqb","geo_precision":"range","state":"VA"},"type":"Feature","geometry":{"type":"Point","coordinates":[-79.310709,37.378894]}},{"properties":{"city":"Forest","zip":"24551-0134","geo_score":0.446,"street":"PO Box 134","id":"a7dg3x14sjbq","geo_precision":"street","state":"VA"},"type":"Feature","geometry":{"type":"Point","coordinates":[-79.150078,37.298729]}},{"properties":{"city":"Forest","zip":"24551-3397","geo_score":0.902,"street":"1139 Stonegate Ct","id":"a7dg3wur5r7h","geo_precision":"range","state":"VA"},"type":"Feature","geometry":{"type":"Point","coordinates":[-79.331565,37.402395]}},{"properties":{"city":"Forest","zip":"24551-1058","geo_score":0.902,"street":"1020 Ivy Woods Dr","id":"a7dg3x2tr1e2","geo_precision":"range","state":"VA"},"type":"Feature","geometry":{"type":"Point","coordinates":[-79.326073,37.391462]}},{"properties":{"city":"Forest","zip":"24551-1055","geo_score":0.902,"street":"1193 Ivy Woods Dr","id":"a7dg3wtbwslh","geo_precision":"range","state":"VA"},"type":"Feature","geometry":{"type":"Point","coordinates":[-79.327828,37.393272]}},{"properties":{"city":"Forest","zip":"24551-3310","geo_score":0.902,"street":"201 Burning Lamp Ln","id":"a7dg3x4da0kc","geo_precision":"range","state":"VA"},"type":"Feature","geometry":{"type":"Point","coordinates":[-79.331409,37.397991]}},{"properties":{"city":"Forest","zip":"24551-1058","geo_score":0.902,"street":"1020 Ivy Woods Dr","id":"a7dg3x0gg36k","geo_precision":"range","state":"VA"},"type":"Feature","geometry":{"type":"Point","coordinates":[-79.326073,37.391462]}},{"properties":{"city":"Forest","zip":"24551-3310","geo_score":0.902,"street":"203 Burning Lamp Ln","id":"a7dg3wr98y7g","geo_precision":"range","state":"VA"},"type":"Feature","geometry":{"type":"Point","coordinates":[-79.331381,37.397997]}},{"properties":{"city":"Forest","zip":"24551-0725","geo_score":0.5,"street":"PO Box 725","id":"a7dg3wy8pfwe","geo_precision":"street","state":"VA"},"type":"Feature","geometry":{"type":"Point","coordinates":[-79.281752,37.24782]}},{"properties":{"city":"Forest","zip":"24551-3307","geo_score":0.902,"street":"189 Burning Lamp Ln","id":"a7dg3x049obu","geo_precision":"range","state":"VA"},"type":"Feature","geometry":{"type":"Point","coordinates":[-79.331585,37.397994]}},{"properties":{"city":"Forest","zip":"24551-2224","geo_score":0.902,"street":"1710 Perrowville Rd","id":"a7dg3ws361u7","geo_precision":"range","state":"VA"},"type":"Feature","geometry":{"type":"Point","coordinates":[-79.310375,37.378805]}},{"properties":{"city":"Forest","zip":"24551-2266","geo_score":0.902,"street":"3314 Perrowville Rd","id":"a7dg3wx7d3p5","geo_precision":"range","state":"VA"},"type":"Feature","geometry":{"type":"Point","coordinates":[-79.327791,37.394523]}},{"properties":{"city":"Forest","zip":"24551-4308","geo_score":0.902,"street":"1095 Stonegate Ct","id":"a7dg3wv2e7lr","geo_precision":"range","state":"VA"},"type":"Feature","geometry":{"type":"Point","coordinates":[-79.332741,37.401916]}},{"properties":{"city":"Forest","zip":"24551-3397","geo_score":0.902,"street":"1157 Stonegate Ct","id":"a7dg3wv8mdhu","geo_precision":"range","state":"VA"},"type":"Feature","geometry":{"type":"Point","coordinates":[-79.331479,37.402879]}},{"properties":{"city":"Forest","zip":"24551-4264","geo_score":0.902,"street":"1045 Maple Leaf Ct","id":"a7dg3x40ge08","geo_precision":"range","state":"VA"},"type":"Feature","geometry":{"type":"Point","coordinates":[-79.328436,37.393181]}},{"properties":{"city":"Forest","zip":"24551-0417","geo_score":0.446,"street":"PO Box 417","id":"a7dg3wxqi4e1","geo_precision":"street","state":"VA"},"type":"Feature","geometry":{"type":"Point","coordinates":[-79.150078,37.298729]}},{"properties":{"city":"Forest","zip":"24551-1054","geo_score":0.902,"street":"1085 Ivy Woods Dr","id":"a7dg3wztc6mj","geo_precision":"range","state":"VA"},"type":"Feature","geometry":{"type":"Point","coordinates":[-79.326848,37.392191]}},{"properties":{"city":"Forest","zip":"24551-0112","geo_score":0.446,"street":"PO Box 112","id":"a7dg3x0ghkt7","geo_precision":"street","state":"VA"},"type":"Feature","geometry":{"type":"Point","coordinates":[-79.150078,37.298729]}},{"properties":{"city":"Forest","zip":"24551-4205","geo_score":0.902,"street":"1148 Ivy Hill Dr","id":"a7dg3wq5yhfd","geo_precision":"range","state":"VA"},"type":"Feature","geometry":{"type":"Point","coordinates":[-79.324265,37.396578]}},{"properties":{"city":"Forest","zip":"24551-3309","geo_score":0.902,"street":"202 Burning Lamp Ln","id":"a7dg3x2npibk","geo_precision":"range","state":"VA"},"type":"Feature","geometry":{"type":"Point","coordinates":[-79.331381,37.397997]}},{"properties":{"city":"Forest","zip":"24551-2227","geo_score":0.902,"street":"1890 Perrowville Rd","id":"a7dg3x3rphu6","geo_precision":"range","state":"VA"},"type":"Feature","geometry":{"type":"Point","coordinates":[-79.311752,37.379398]}},{"properties":{"city":"Forest","zip":"24551-2223","geo_score":0.902,"street":"1610 Perrowville Rd","id":"a7dg3wtm3g0o","geo_precision":"range","state":"VA"},"type":"Feature","geometry":{"type":"Point","coordinates":[-79.307948,37.377629]}},{"properties":{"city":"Forest","zip":"24551-3308","geo_score":0.902,"street":"194 Burning Lamp Ln","id":"a7dg3ws7dc8n","geo_precision":"range","state":"VA"},"type":"Feature","geometry":{"type":"Point","coordinates":[-79.331481,37.397988]}},{"properties":{"city":"Forest","zip":"24551-4484","geo_score":0.902,"street":"1103 Chestnut Grove Dr","id":"a7dg3wuwt2as","geo_precision":"range","state":"VA"},"type":"Feature","geometry":{"type":"Point","coordinates":[-79.326191,37.390864]}},{"properties":{"city":"Forest","zip":"24551-3314","geo_score":0.902,"street":"3881 Perrowville Rd","id":"a7dg3x0i1txs","geo_precision":"range","state":"VA"},"type":"Feature","geometry":{"type":"Point","coordinates":[-79.335678,37.399977]}},{"properties":{"city":"Forest","zip":"24551-4264","geo_score":0.902,"street":"1001 Maple Leaf Ct","id":"a7dg3wr3idrz","geo_precision":"range","state":"VA"},"type":"Feature","geometry":{"type":"Point","coordinates":[-79.32826,37.393268]}},{"properties":{"city":"Forest","zip":"24551-4008","geo_score":0.902,"street":"294 Barbour Dr","id":"a7dg3wz1imps","geo_precision":"range","state":"VA"},"type":"Feature","geometry":{"type":"Point","coordinates":[-79.259953,37.329046]}},{"properties":{"city":"Forest","zip":"24551-2266","geo_score":0.902,"street":"3382 Perrowville Rd","id":"a7dg3wwju41k","geo_precision":"range","state":"VA"},"type":"Feature","geometry":{"type":"Point","coordinates":[-79.329378,37.395505]}},{"properties":{"city":"Forest","zip":"24551-3311","geo_score":0.902,"street":"301 Burning Lamp Ln","id":"a7dg3wsh1llj","geo_precision":"range","state":"VA"},"type":"Feature","geometry":{"type":"Point","coordinates":[-79.329729,37.397769]}},{"properties":{"city":"Forest","zip":"24551-4308","geo_score":0.902,"street":"1095 Stonegate Ct","id":"a7dg3x0tgt0h","geo_precision":"range","state":"VA"},"type":"Feature","geometry":{"type":"Point","coordinates":[-79.332741,37.401916]}},{"properties":{"city":"Forest","zip":"24551-3316","geo_score":0.902,"street":"4017 Perrowville Rd","id":"a7dg3wxyo5h9","geo_precision":"range","state":"VA"},"type":"Feature","geometry":{"type":"Point","coordinates":[-79.33748,37.401175]}},{"properties":{"city":"Forest","zip":"24551-4127","geo_score":0.708,"street":"23 Oak Leaf Ct","id":"a7dg3wvl3n0p","geo_precision":"street","state":"VA"},"type":"Feature","geometry":{"type":"Point","coordinates":[-79.326895,37.392243]}},{"properties":{"city":"Forest","zip":"24551-3705","geo_score":0.902,"street":"5204 Perrowville Rd","id":"a7dg3x573dto","geo_precision":"range","state":"VA"},"type":"Feature","geometry":{"type":"Point","coordinates":[-79.34366,37.416989]}},{"properties":{"city":"Forest","zip":"24551-3397","geo_score":0.902,"street":"1168 Stonegate Ct","id":"a7dg3x3yv5g1","geo_precision":"range","state":"VA"},"type":"Feature","geometry":{"type":"Point","coordinates":[-79.33131,37.403124]}},{"properties":{"city":"Forest","zip":"24551-4500","geo_score":0.861,"street":"1129 Majestic View Ln","id":"a7dg3wuenoz3","geo_precision":"range","state":"VA"},"type":"Feature","geometry":{"type":"Point","coordinates":[-79.329587,37.386249]}},{"properties":{"city":"Forest","zip":"24551-1055","geo_score":0.902,"street":"1151 Ivy Woods Dr","id":"a7dg3x2je65h","geo_precision":"range","state":"VA"},"type":"Feature","geometry":{"type":"Point","coordinates":[-79.327418,37.392856]}},{"properties":{"city":"Forest","zip":"24551-3397","geo_score":0.902,"street":"1168 Stonegate Ct","id":"a7dg3x4m21g4","geo_precision":"range","state":"VA"},"type":"Feature","geometry":{"type":"Point","coordinates":[-79.33131,37.403124]}},{"properties":{"city":"Forest","zip":"24551-4276","geo_score":0.71,"street":"1178 Maple Leaf Ct","id":"a7dg3x4n5i4l","geo_precision":"street","state":"VA"},"type":"Feature","geometry":{"type":"Point","coordinates":[-79.328695,37.393097]}},{"properties":{"city":"Forest","zip":"24551-3315","geo_score":0.902,"street":"3995 Perrowville Rd","id":"a7dg3x56hivd","geo_precision":"range","state":"VA"},"type":"Feature","geometry":{"type":"Point","coordinates":[-79.337248,37.400966]}},{"properties":{"city":"Forest","zip":"24551-2223","geo_score":0.902,"street":"1620 Perrowville Rd","id":"a7dg3x5pcthk","geo_precision":"range","state":"VA"},"type":"Feature","geometry":{"type":"Point","coordinates":[-79.308128,37.377761]}},{"properties":{"city":"Forest","zip":"24551-2223","geo_score":0.902,"street":"1660 Perrowville Rd","id":"a7dg3x43hedi","geo_precision":"range","state":"VA"},"type":"Feature","geometry":{"type":"Point","coordinates":[-79.309335,37.378239]}},{"properties":{"city":"Forest","zip":"24551-0134","geo_score":0.446,"street":"PO Box 134","id":"a7dg3x2d85pg","geo_precision":"street","state":"VA"},"type":"Feature","geometry":{"type":"Point","coordinates":[-79.150078,37.298729]}},{"properties":{"city":"Forest","zip":"24551-3310","geo_score":0.902,"street":"203 Burning Lamp Ln","id":"a7dg3x5scdpn","geo_precision":"range","state":"VA"},"type":"Feature","geometry":{"type":"Point","coordinates":[-79.331381,37.397997]}},{"properties":{"city":"Forest","zip":"24551-1056","geo_score":0.902,"street":"1154 Ivy Woods Dr","id":"a7dg3x35zvuv","geo_precision":"range","state":"VA"},"type":"Feature","geometry":{"type":"Point","coordinates":[-79.327455,37.392891]}},{"properties":{"city":"Forest","zip":"24551-2266","geo_score":0.902,"street":"3364 Perrowville Rd","id":"a7dg3x1xh2gi","geo_precision":"range","state":"VA"},"type":"Feature","geometry":{"type":"Point","coordinates":[-79.32908,37.395322]}},{"properties":{"city":"Forest","zip":"24551-0017","geo_score":0.469,"street":"PO Box 17","id":"a7dg3wrdze1v","geo_precision":"street","state":"VA"},"type":"Feature","geometry":{"type":"Point","coordinates":[-79.150078,37.298729]}},{"properties":{"city":"Forest","zip":"24551-2227","geo_score":0.902,"street":"1800 Perrowville Rd","id":"a7dg3x4tfki3","geo_precision":"range","state":"VA"},"type":"Feature","geometry":{"type":"Point","coordinates":[-79.311101,37.379128]}},{"properties":{"city":"Forest","zip":"24551-3310","geo_score":0.902,"street":"201 Burning Lamp Ln","id":"a7dg3wppzrnx","geo_precision":"range","state":"VA"},"type":"Feature","geometry":{"type":"Point","coordinates":[-79.331409,37.397991]}},{"properties":{"city":"Forest","zip":"24551-3315","geo_score":0.902,"street":"3995 Perrowville Rd","id":"a7dg3wymatks","geo_precision":"range","state":"VA"},"type":"Feature","geometry":{"type":"Point","coordinates":[-79.337248,37.400966]}},{"properties":{"city":"Forest","zip":"24551-3390","geo_score":0.902,"street":"4457 Perrowville Rd","id":"a7dg3wqg9gut","geo_precision":"range","state":"VA"},"type":"Feature","geometry":{"type":"Point","coordinates":[-79.3392,37.407202]}},{"properties":{"city":"Forest","zip":"24551-4126","geo_score":0.708,"street":"18 Maple Leaf Ct","id":"a7dg3x5dlc8f","geo_precision":"street","state":"VA"},"type":"Feature","geometry":{"type":"Point","coordinates":[-79.32826,37.393268]}},{"properties":{"city":"Forest","zip":"24551-4264","geo_score":0.902,"street":"1047 Maple Leaf Ct","id":"a7dg3wzx4r7n","geo_precision":"range","state":"VA"},"type":"Feature","geometry":{"type":"Point","coordinates":[-79.328443,37.393178]}},{"properties":{"city":"Forest","zip":"24551-3309","geo_score":0.902,"street":"208 Burning Lamp Ln","id":"a7dg3wximpey","geo_precision":"range","state":"VA"},"type":"Feature","geometry":{"type":"Point","coordinates":[-79.331297,37.398014]}},{"properties":{"city":"Forest","zip":"24551-2266","geo_score":0.902,"street":"3336 Perrowville Rd","id":"a7dg3wpyu7ke","geo_precision":"range","state":"VA"},"type":"Feature","geometry":{"type":"Point","coordinates":[-79.328561,37.395041]}},{"properties":{"city":"Forest","zip":"24551-2266","geo_score":0.902,"street":"3396 Perrowville Rd","id":"a7dg3wztrez2","geo_precision":"range","state":"VA"},"type":"Feature","geometry":{"type":"Point","coordinates":[-79.32973,37.395658]}},{"properties":{"city":"Forest","zip":"24551-3308","geo_score":0.902,"street":"194 Burning Lamp Ln","id":"a7dg3x50u8y8","geo_precision":"range","state":"VA"},"type":"Feature","geometry":{"type":"Point","coordinates":[-79.331481,37.397988]}},{"properties":{"city":"Forest","zip":"24551-2227","geo_score":0.902,"street":"1870 Perrowville Rd","id":"a7dg3wv8sp9u","geo_precision":"range","state":"VA"},"type":"Feature","geometry":{"type":"Point","coordinates":[-79.311577,37.379338]}},{"properties":{"city":"Forest","zip":"24551-3315","geo_score":0.902,"street":"3947 Perrowville Rd","id":"a7dg3wwjeueg","geo_precision":"range","state":"VA"},"type":"Feature","geometry":{"type":"Point","coordinates":[-79.33677,37.400623]}},{"properties":{"city":"Forest","zip":"24551-3309","geo_score":0.902,"street":"208 Burning Lamp Ln","id":"a7dg3x572laq","geo_precision":"range","state":"VA"},"type":"Feature","geometry":{"type":"Point","coordinates":[-79.331297,37.398014]}},{"properties":{"city":"Forest","zip":"24551-3316","geo_score":0.902,"street":"4017 Perrowville Rd","id":"a7dg3wu5eb49","geo_precision":"range","state":"VA"},"type":"Feature","geometry":{"type":"Point","coordinates":[-79.33748,37.401175]}},{"properties":{"city":"Forest","zip":"24551-4484","geo_score":0.902,"street":"1103 Chestnut Grove Dr","id":"a7dg3wwydr7q","geo_precision":"range","state":"VA"},"type":"Feature","geometry":{"type":"Point","coordinates":[-79.326191,37.390864]}},{"properties":{"city":"Forest","zip":"24551-2224","geo_score":0.902,"street":"1780 Perrowville Rd","id":"a7dg3wv8158p","geo_precision":"range","state":"VA"},"type":"Feature","geometry":{"type":"Point","coordinates":[-79.311003,37.37907]}},{"properties":{"city":"Forest","zip":"24551-2227","geo_score":0.902,"street":"1820 Perrowville Rd","id":"a7dg3wr934hp","geo_precision":"range","state":"VA"},"type":"Feature","geometry":{"type":"Point","coordinates":[-79.311199,37.379187]}},{"properties":{"city":"Forest","zip":"24551-3397","geo_score":0.902,"street":"1168 Stonegate Ct","id":"a7dg3wzzfcwo","geo_precision":"range","state":"VA"},"type":"Feature","geometry":{"type":"Point","coordinates":[-79.33131,37.403124]}},{"properties":{"city":"Forest","zip":"24551-3397","geo_score":0.902,"street":"1168 Stonegate Ct","id":"a7dg3x3u0kwp","geo_precision":"range","state":"VA"},"type":"Feature","geometry":{"type":"Point","coordinates":[-79.33131,37.403124]}},{"properties":{"city":"Forest","zip":"24551-4277","geo_score":0.902,"street":"1040 Oak Leaf Ct","id":"a7dg3wx0tu2q","geo_precision":"range","state":"VA"},"type":"Feature","geometry":{"type":"Point","coordinates":[-79.327164,37.392132]}},{"properties":{"city":"Forest","zip":"24551","geo_score":0.902,"street":"2685 Perrowville Rd","id":"a7dg3wwpzwn5","geo_precision":"range","state":"VA"},"type":"Feature","geometry":{"type":"Point","coordinates":[-79.320071,37.388708]}}],"is_temporal":false,"author":{"url":"","metadata":"","contact_name":"","contact_address":"","source":"","contact_phone":""},"source":"","pagination":{"sort":null,"start":0,"total":215,"limit":1000000},"state":"complete","tags":"","published":"2014-08-12T23:12:29-04:00","id":131707}