{"type":"FeatureCollection","data_type":"Dataset","url_type":null,"permissions":[{"permissions":{"download":true,"view":true},"group_id":"everyone"}],"classification":null,"title":"Upload","count":5,"stream_id":132503,"contributor":{"url":"http://geocommons.com/users/29515","name":"Siddney"},"data_attributes":null,"calculation_params":null,"icon_link":null,"link":"http://geocommons.com/overlays/132503.json","extent":[-72.9275,41.3657,-71.4548,42.9956],"geometry_types":["point"],"unique_name":null,"name":"Upload","feature_count":5,"description":"","next_feature":null,"is_raster":false,"short_classification":"Y","stats":{"units":{"max":1,"mean":1.0,"variance":0.0,"stdev":0.0,"min":1,"median":1}},"features":[{"properties":{"postcode":"3193","geo_score":0.714,"country":"Australia","units":1,"country code":"AU","suburb":"BEAUMARIS","id":"a6bi616kn4ft","geo_precision":"zip"},"type":"Feature","geometry":{"type":"Point","coordinates":[-71.454789,42.99564]}},{"properties":{"postcode":"3111","geo_score":0.743,"country":"Australia","units":1,"country code":"AU","suburb":"DONVALE","id":"a6bi61bp7vms","geo_precision":"zip"},"type":"Feature","geometry":{"type":"Point","coordinates":[-71.653939,42.952124]}},{"properties":{"postcode":"6721","geo_score":0.73,"country":"Australia","units":1,"country code":"AU","suburb":"INDEE","id":"a6bi618x2ytn","geo_precision":"zip"},"type":"Feature","geometry":{"type":"Point","coordinates":[-72.927507,41.365709]}},{"properties":{"postcode":"3758","geo_score":0.0,"country":"Australia","units":1,"country code":"AU","suburb":"HEATHCOTE JUNCTION","id":"a6bi61gx560a","geo_precision":"unmatched"},"type":"Feature","geometry":null},{"properties":{"postcode":"3783","geo_score":0.0,"country":"Australia","units":1,"country code":"AU","suburb":"GEMBROOK","id":"a6bi617uz2lx","geo_precision":"unmatched"},"type":"Feature","geometry":null}],"is_temporal":false,"author":{"url":"","metadata":"","contact_name":"","contact_address":"","source":"","contact_phone":""},"source":"","pagination":{"sort":null,"start":0,"total":5,"limit":1000000},"state":"complete","tags":"","published":"2014-08-13T00:22:21-04:00","id":132503}