{"type":"FeatureCollection","data_type":"Dataset","url_type":null,"permissions":[{"permissions":{"download":true,"view":true},"group_id":"everyone"}],"classification":null,"title":"AZ OccEd schools","count":140,"stream_id":132617,"contributor":{"url":"http://geocommons.com/users/29533","name":"gjeldridge"},"data_attributes":null,"calculation_params":null,"icon_link":null,"link":"http://geocommons.com/overlays/132617.json","extent":[-114.624,31.4456,-109.523,36.9747],"geometry_types":["point"],"unique_name":null,"name":"AZ OccEd schools","feature_count":140,"description":"","next_feature":null,"is_raster":false,"short_classification":"Y","stats":{"pen":{"max":320602410,"mean":138970996.564286,"variance":2.49447323917622e+16,"stdev":157939014.786601,"min":103732,"median":2071250}},"features":[{"properties":{"city":"Scottsdale","zip":"85257","school name":"Artistic Beauty Colleges (Scottsdale, Arizona)","pen":103732,"geo_score":0.857,"url":"www.artisticbeautycolleges.com","id":"a634xcgoj79a","geo_precision":"city","state":"Arizona"},"type":"Feature","geometry":{"type":"Point","coordinates":[-111.899033,33.50921]}},{"properties":{"city":"Tucson","zip":"85716","school name":"Empire Beauty Schools (Tucson, Arizona)","pen":103741,"geo_score":0.857,"url":"www.empire.edu","id":"a634xcbzc62p","geo_precision":"city","state":"Arizona"},"type":"Feature","geometry":{"type":"Point","coordinates":[-110.926479,32.221743]}},{"properties":{"city":"Phoenix","zip":"85043-4729","school name":"American Institute of Technology","pen":103811,"geo_score":0.857,"url":"www.ait-schools.com","id":"a634xch2afca","geo_precision":"city","state":"Arizona"},"type":"Feature","geometry":{"type":"Point","coordinates":[-112.074037,33.448377]}},{"properties":{"city":"Mesa","zip":"85210","school name":"Apollo College-Tri City Inc.","pen":103909,"geo_score":0.857,"url":"www.apollocollege.edu","id":"a634xcdim78x","geo_precision":"city","state":"Arizona"},"type":"Feature","geometry":{"type":"Point","coordinates":[-111.82264,33.422269]}},{"properties":{"city":"Flagstaff","zip":"86004","school name":"College America","pen":103945,"geo_score":0.857,"url":"www.collegeamerica.edu","id":"a634xcb7e23b","geo_precision":"city","state":"Arizona"},"type":"Feature","geometry":{"type":"Point","coordinates":[-111.597853,35.932116]}},{"properties":{"city":"Tucson","zip":"85712","school name":"Arizona Academy of Beauty Inc.","pen":103954,"geo_score":0.857,"url":"www.arizonaacademy.com","id":"a634xc9xyws4","geo_precision":"city","state":"Arizona"},"type":"Feature","geometry":{"type":"Point","coordinates":[-110.926479,32.221743]}},{"properties":{"city":"Glendale","zip":"85301-3579","school name":"Arizona Automotive Institute","pen":103963,"geo_score":0.857,"url":"www.aai.edu","id":"a634xcl1hqks","geo_precision":"city","state":"Arizona"},"type":"Feature","geometry":{"type":"Point","coordinates":[-112.185987,33.538652]}},{"properties":{"city":"Lake Havasu City","zip":"86403","school name":"Charles of Italy Beauty College","pen":104391,"geo_score":0.857,"url":"www.charlesofitaly.edu","id":"a634xcfe5zfp","geo_precision":"city","state":"Arizona"},"type":"Feature","geometry":{"type":"Point","coordinates":[-114.310294,34.500556]}},{"properties":{"city":"Flagstaff","zip":"86004","school name":"Artistic Beauty Colleges (Flagstaff, Arizona)","pen":104434,"geo_score":0.857,"url":"www.empire.edu","id":"a634xcdnesix","geo_precision":"city","state":"Arizona"},"type":"Feature","geometry":{"type":"Point","coordinates":[-111.597853,35.932116]}},{"properties":{"city":"Chandler","zip":"85224","school name":"Artistic Beauty Colleges (Chandler, Arizona)","pen":104443,"geo_score":0.857,"url":"www.artisticbeautycolleges.com","id":"a634xcdy34mu","geo_precision":"city","state":"Arizona"},"type":"Feature","geometry":{"type":"Point","coordinates":[-111.85062,33.298461]}},{"properties":{"city":"Mesa","zip":"85210","school name":"Avalon School of Cosmetology","pen":104568,"geo_score":0.857,"url":"www.theavalonschool.com","id":"a634xcj4ux5v","geo_precision":"city","state":"Arizona"},"type":"Feature","geometry":{"type":"Point","coordinates":[-111.82264,33.422269]}},{"properties":{"city":"Tempe","zip":"85284","school name":"Lamson College","pen":104984,"geo_score":0.857,"url":"www.lamsoncollege.com","id":"a634xcbfze9p","geo_precision":"city","state":"Arizona"},"type":"Feature","geometry":{"type":"Point","coordinates":[-111.90931,33.414768]}},{"properties":{"city":"Phoenix","zip":"85029","school name":"Kaplan College","pen":105118,"geo_score":0.857,"url":"phoenix.kaplancollege.com","id":"a634xcmzq0aj","geo_precision":"city","state":"Arizona"},"type":"Feature","geometry":{"type":"Point","coordinates":[-112.074037,33.448377]}},{"properties":{"city":"Avondale","zip":"85323","school name":"Maricopa Beauty College","pen":105127,"geo_score":0.857,"url":"www.maricopabeautycollege.com","id":"a634xcmqsckk","geo_precision":"city","state":"Arizona"},"type":"Feature","geometry":{"type":"Point","coordinates":[-112.18717,33.276539]}},{"properties":{"city":"Phoenix","zip":"85027","school name":"Motorcycle Mechanics Institute","pen":105215,"geo_score":0.857,"url":"www.uti.edu/Home/Motorcycle","id":"a634xcct1n6f","geo_precision":"city","state":"Arizona"},"type":"Feature","geometry":{"type":"Point","coordinates":[-112.074037,33.448377]}},{"properties":{"city":"Phoenix","zip":"85021","school name":"Everest College (Phoenix, Arizona)","pen":2000577,"geo_score":0.857,"url":"www.everestcollegephoenix.edu","id":"a634xce0zqdf","geo_precision":"city","state":"Arizona"},"type":"Feature","geometry":{"type":"Point","coordinates":[-112.074037,33.448377]}},{"properties":{"city":"Tempe","zip":"85281","school name":"Collins College","pen":2001818,"geo_score":0.857,"url":"www.collinscollege.edu","id":"a634xcaesupz","geo_precision":"city","state":"Arizona"},"type":"Feature","geometry":{"type":"Point","coordinates":[-111.90931,33.414768]}},{"properties":{"city":"Fountain Hills","zip":"85268","school name":"American Institute of Interior Design","pen":2003499,"geo_score":0.758,"url":"www.americandesignschool.com","id":"a634xcnxzkhm","geo_precision":"city","state":"Arizona"},"type":"Feature","geometry":{"type":"Point","coordinates":[-112.243196,32.466171]}},{"properties":{"city":"Tucson","zip":"85705","school name":"Apollo College","pen":2004479,"geo_score":0.857,"url":"www.apollocollege.edu","id":"a634xcf12hbw","geo_precision":"city","state":"Arizona"},"type":"Feature","geometry":{"type":"Point","coordinates":[-110.926479,32.221743]}},{"properties":{"city":"Mesa","zip":"85210","school name":"Apollo College of Medical and Dental Careers (Mesa, Arizona)","pen":2004480,"geo_score":0.857,"url":"www.apollocollege.edu","id":"a634xcf06fa0","geo_precision":"city","state":"Arizona"},"type":"Feature","geometry":{"type":"Point","coordinates":[-111.82264,33.422269]}},{"properties":{"city":"Phoenix","zip":"85051","school name":"Apollo College of Medical and Dental Careers (Phoenix, Arizona)","pen":2004492,"geo_score":0.857,"url":"www.apollocollege.edu","id":"a634xcgwiuzo","geo_precision":"city","state":"Arizona"},"type":"Feature","geometry":{"type":"Point","coordinates":[-112.074037,33.448377]}},{"properties":{"city":"Phoenix","zip":"85021","school name":"Brookline College (Phoenix, Arizona)","pen":2004807,"geo_score":0.857,"url":"brooklinecollege.edu","id":"a634xch9r1db","geo_precision":"city","state":"Arizona"},"type":"Feature","geometry":{"type":"Point","coordinates":[-112.074037,33.448377]}},{"properties":{"city":"Tucson","zip":"85712","school name":"Arizona School of Acupuncture and Oriental Medicine","pen":2004820,"geo_score":0.857,"url":"asaom.edu","id":"a634xc9x8z1p","geo_precision":"city","state":"Arizona"},"type":"Feature","geometry":{"type":"Point","coordinates":[-110.926479,32.221743]}},{"properties":{"city":"Clarkdale","zip":"86324-3106","school name":"Arizona School of Integrative Studies","pen":2004832,"geo_score":0.857,"url":"asismassage.com","id":"a634xcapqpnt","geo_precision":"city","state":"Arizona"},"type":"Feature","geometry":{"type":"Point","coordinates":[-112.13222,34.659484]}},{"properties":{"city":"Yuma","zip":"85366-0929","school name":"Arizona Western College","pen":2004868,"geo_score":0.857,"url":"www.azwestern.edu","id":"a634xc9zh284","geo_precision":"city","state":"Arizona"},"type":"Feature","geometry":{"type":"Point","coordinates":[-114.624397,32.725325]}},{"properties":{"city":"Tucson","zip":"85716","school name":"The Art Center Design College","pen":2005125,"geo_score":0.857,"url":"www.theartcenter.edu","id":"a634xc8828qn","geo_precision":"city","state":"Arizona"},"type":"Feature","geometry":{"type":"Point","coordinates":[-110.926479,32.221743]}},{"properties":{"city":"Phoenix","zip":"85021","school name":"Art Institute of Phoenix","pen":2005204,"geo_score":0.857,"url":"www.artinstitutes.edu/phoenix","id":"a634xcbbtef9","geo_precision":"city","state":"Arizona"},"type":"Feature","geometry":{"type":"Point","coordinates":[-112.074037,33.448377]}},{"properties":{"city":"Glendale","zip":"85304","school name":"Empire Beauty School (Glendale, Arizona)","pen":2005319,"geo_score":0.857,"url":"www.empire.edu","id":"a634xcjfy9ry","geo_precision":"city","state":"Arizona"},"type":"Feature","geometry":{"type":"Point","coordinates":[-112.185987,33.538652]}},{"properties":{"city":"Mesa","zip":"85202","school name":"Pima Medical Institute (Mesa, Arizona)","pen":2006270,"geo_score":0.857,"url":"mesa.pmi.edu","id":"a634xchk3zat","geo_precision":"city","state":"Arizona"},"type":"Feature","geometry":{"type":"Point","coordinates":[-111.82264,33.422269]}},{"properties":{"city":"Tucson","zip":"85711","school name":"Brodsky School of Real Estate","pen":2009600,"geo_score":0.857,"url":"brodskyschool.com","id":"a634xcaytwef","geo_precision":"city","state":"Arizona"},"type":"Feature","geometry":{"type":"Point","coordinates":[-110.926479,32.221743]}},{"properties":{"city":"Phoenix","zip":"85029","school name":"Bryman School (Phoenix, Arizona)","pen":2010091,"geo_score":0.857,"url":"www.brymanschool.edu","id":"a634xcgljfec","geo_precision":"city","state":"Arizona"},"type":"Feature","geometry":{"type":"Point","coordinates":[-112.074037,33.448377]}},{"properties":{"city":"Scottsdale","zip":"85251","school name":"Toni and Guy Hairdressing Academy","pen":2012040,"geo_score":0.857,"url":"toniguyacademy.com","id":"a634xckm4zxi","geo_precision":"city","state":"Arizona"},"type":"Feature","geometry":{"type":"Point","coordinates":[-111.899033,33.50921]}},{"properties":{"city":"Tempe","zip":"85282","school name":"Carsten Aveda Institute","pen":2012269,"geo_score":0.857,"url":"www.carsteninstitute.com","id":"a634xcgv11us","geo_precision":"city","state":"Arizona"},"type":"Feature","geometry":{"type":"Point","coordinates":[-111.90931,33.414768]}},{"properties":{"city":"Coolidge","zip":"85228","school name":"Central Arizona College","pen":2012944,"geo_score":0.857,"url":"www.centralaz.edu","id":"a634xcidljoz","geo_precision":"city","state":"Arizona"},"type":"Feature","geometry":{"type":"Point","coordinates":[-111.247908,32.904485]}},{"properties":{"city":"Tucson","zip":"85712","school name":"Brown Mackie College (Tucson, Arizona)","pen":2013705,"geo_score":0.857,"url":"www.brownmackie.edu/tucson","id":"a634xcdftgme","geo_precision":"city","state":"Arizona"},"type":"Feature","geometry":{"type":"Point","coordinates":[-110.926479,32.221743]}},{"properties":{"city":"Phoenix","zip":"85032","school name":"Classic Beauty College","pen":2014862,"geo_score":0.857,"url":"www.classicbeautycollege.com","id":"a634xcb6hfak","geo_precision":"city","state":"Arizona"},"type":"Feature","geometry":{"type":"Point","coordinates":[-112.074037,33.448377]}},{"properties":{"city":"Douglas","zip":"85607-6190","school name":"Cochise College","pen":2015246,"geo_score":0.857,"url":"www.cochise.edu","id":"a634xclp0xpf","geo_precision":"city","state":"Arizona"},"type":"Feature","geometry":{"type":"Point","coordinates":[-109.866187,31.604081]}},{"properties":{"city":"Tempe","zip":"85282-1707","school name":"Conservatory of Recording Arts and Sciences","pen":2017360,"geo_score":0.857,"url":"www.audiorecordingschool.com","id":"a634xcauphds","geo_precision":"city","state":"Arizona"},"type":"Feature","geometry":{"type":"Point","coordinates":[-111.90931,33.414768]}},{"properties":{"city":"Tucson","zip":"85710","school name":"Cortiva Institute (Tucson, Arizona)","pen":2019859,"geo_score":0.857,"url":"www.cortiva.com/locations/tucson","id":"a634xcl5anva","geo_precision":"city","state":"Arizona"},"type":"Feature","geometry":{"type":"Point","coordinates":[-110.926479,32.221743]}},{"properties":{"city":"Sierra Vista","zip":"85635","school name":"DeVoe College of Beauty","pen":2019914,"geo_score":0.857,"url":"personal.riverusers.com/devoe/index.html","id":"a634xc8uxroc","geo_precision":"city","state":"Arizona"},"type":"Feature","geometry":{"type":"Point","coordinates":[-109.997623,31.810649]}},{"properties":{"city":"Scottsdale","zip":"85254","school name":"Discovery Detective Academy","pen":2020060,"geo_score":0.857,"url":"www.discoverydetectiveacademy.org","id":"a634xckh0fz6","geo_precision":"city","state":"Arizona"},"type":"Feature","geometry":{"type":"Point","coordinates":[-111.899033,33.50921]}},{"properties":{"city":"Thatcher","zip":"85552","school name":"Eastern Arizona College","pen":2020941,"geo_score":0.857,"url":"www.eac.edu","id":"a634xc8m51nk","geo_precision":"city","state":"Arizona"},"type":"Feature","geometry":{"type":"Point","coordinates":[-109.746133,32.850436]}},{"properties":{"city":"Prescott","zip":"86301","school name":"Embry-Riddle Aeronautical University (Prescott, Arizona)","pen":2022147,"geo_score":0.857,"url":"www.erau.edu/campuses/prescott.html","id":"a634xcm6wcw9","geo_precision":"city","state":"Arizona"},"type":"Feature","geometry":{"type":"Point","coordinates":[-112.567165,34.620826]}},{"properties":{"city":"Phoenix","zip":"85034","school name":"Gateway Community College","pen":2025239,"geo_score":0.857,"url":"www.gatewaycc.edu","id":"a634xclw3eh2","geo_precision":"city","state":"Arizona"},"type":"Feature","geometry":{"type":"Point","coordinates":[-112.074037,33.448377]}},{"properties":{"city":"Glendale","zip":"85302","school name":"Glendale Community College","pen":2025770,"geo_score":0.857,"url":"www.gc.maricopa.edu","id":"a634xcbha5h0","geo_precision":"city","state":"Arizona"},"type":"Feature","geometry":{"type":"Point","coordinates":[-112.185987,33.538652]}},{"properties":{"city":"Phoenix","zip":"85014","school name":"Anthem College (Phoenix, Arizona)","pen":2028770,"geo_score":0.857,"url":"www.anthemcollege.com/locations/anthem-college-phoenix","id":"a634xcbdl2s5","geo_precision":"city","state":"Arizona"},"type":"Feature","geometry":{"type":"Point","coordinates":[-112.074037,33.448377]}},{"properties":{"city":"Tempe","zip":"85282","school name":"International Academy of Hair Design","pen":2031185,"geo_score":0.857,"url":"intlacademy.biz","id":"a634xc9809iq","geo_precision":"city","state":"Arizona"},"type":"Feature","geometry":{"type":"Point","coordinates":[-111.90931,33.414768]}},{"properties":{"city":"Tucson","zip":"85704","school name":"ITT Technical Institute (Tucson, Arizona)","pen":2032128,"geo_score":0.857,"url":"www.itt-tech.edu","id":"a634xc971lfx","geo_precision":"city","state":"Arizona"},"type":"Feature","geometry":{"type":"Point","coordinates":[-110.926479,32.221743]}},{"properties":{"city":"Tempe","zip":"85282","school name":"International Academy of Beauty","pen":2035816,"geo_score":0.857,"url":"www.intlacademy.biz","id":"a634xccldgo7","geo_precision":"city","state":"Arizona"},"type":"Feature","geometry":{"type":"Point","coordinates":[-111.90931,33.414768]}},{"properties":{"city":"Phoenix","zip":"85034","school name":"Maricopa Skill Center, Division of Gateway Community College","pen":2038611,"geo_score":0.857,"url":"www.maricopaskillcenter.com","id":"a634xcbd8jcj","geo_precision":"city","state":"Arizona"},"type":"Feature","geometry":{"type":"Point","coordinates":[-112.074037,33.448377]}},{"properties":{"city":"Mesa","zip":"85202","school name":"Mesa Community College","pen":2040526,"geo_score":0.857,"url":"www.mc.maricopa.edu","id":"a634xcmq8hpo","geo_precision":"city","state":"Arizona"},"type":"Feature","geometry":{"type":"Point","coordinates":[-111.82264,33.422269]}},{"properties":{"city":"Kingman","zip":"86409","school name":"Mohave Community College","pen":2042330,"geo_score":0.857,"url":"www.mohave.edu/pages/1.asp","id":"a634xcahjqit","geo_precision":"city","state":"Arizona"},"type":"Feature","geometry":{"type":"Point","coordinates":[-114.017106,35.341456]}},{"properties":{"city":"Tsaile","zip":"86556","school name":"Dine College","pen":2044908,"geo_score":0.857,"url":"www.dinecollege.edu","id":"a634xcjw3xzt","geo_precision":"city","state":"Arizona"},"type":"Feature","geometry":{"type":"Point","coordinates":[-109.52295,35.237487]}},{"properties":{"city":"Glendale","zip":"85308","school name":"Paralegal Institute, Inc.","pen":2049517,"geo_score":0.857,"url":"www.theparalegalinstitute.edu","id":"a634xcmbvrdo","geo_precision":"city","state":"Arizona"},"type":"Feature","geometry":{"type":"Point","coordinates":[-112.185987,33.538652]}},{"properties":{"city":"Phoenix","zip":"85013","school name":"Phoenix College","pen":2051019,"geo_score":0.857,"url":"www.pc.maricopa.edu","id":"a634xcn975t8","geo_precision":"city","state":"Arizona"},"type":"Feature","geometry":{"type":"Point","coordinates":[-112.074037,33.448377]}},{"properties":{"city":"Tucson","zip":"85709-5000","school name":"Pima Community College, Community Campus","pen":2051287,"geo_score":0.857,"url":"www.pima.edu","id":"a634xcm7vp0v","geo_precision":"city","state":"Arizona"},"type":"Feature","geometry":{"type":"Point","coordinates":[-110.926479,32.221743]}},{"properties":{"city":"Tucson","zip":"85716","school name":"Pima Medical Institute (Tucson, Arizona)","pen":2051305,"geo_score":0.857,"url":"www.pmi.edu","id":"a634xc8fsdwo","geo_precision":"city","state":"Arizona"},"type":"Feature","geometry":{"type":"Point","coordinates":[-110.926479,32.221743]}},{"properties":{"city":"Chandler","zip":"85224","school name":"PPEP Tec (Chandler, Arizona)","pen":2051949,"geo_score":0.857,"url":"www.ppeptechs.org","id":"a634xcjmtf44","geo_precision":"city","state":"Arizona"},"type":"Feature","geometry":{"type":"Point","coordinates":[-111.85062,33.298461]}},{"properties":{"city":"San Luis","zip":"85349","school name":"PPEP Tec (San Luis, Arizona)","pen":2051950,"geo_score":0.857,"url":"www.ppeptechs.org","id":"a634xcb8edn5","geo_precision":"city","state":"Arizona"},"type":"Feature","geometry":{"type":"Point","coordinates":[-111.955128,32.08035]}},{"properties":{"city":"Tucson","zip":"85713","school name":"PPEP Tec (Tucson, Arizona)","pen":2051962,"geo_score":0.857,"url":"www.ppep.org","id":"a634xccwbllk","geo_precision":"city","state":"Arizona"},"type":"Feature","geometry":{"type":"Point","coordinates":[-110.926479,32.221743]}},{"properties":{"city":"Scottsdale","zip":"85251","school name":"Rainstar University","pen":2053077,"geo_score":0.857,"url":"www.rainstaruniversity.edvard.org","id":"a634xcdvmp1k","geo_precision":"city","state":"Arizona"},"type":"Feature","geometry":{"type":"Point","coordinates":[-111.899033,33.50921]}},{"properties":{"city":"Phoenix","zip":"85034","school name":"Refrigeration School, Inc.","pen":2053740,"geo_score":0.857,"url":"refrigerationschool.com","id":"a634xccxufjf","geo_precision":"city","state":"Arizona"},"type":"Feature","geometry":{"type":"Point","coordinates":[-112.074037,33.448377]}},{"properties":{"city":"Phoenix","zip":"85040","school name":"Roberto-Venn School of Luthiery","pen":2054598,"geo_score":0.857,"url":"www.roberto-venn.com","id":"a634xcnwg190","geo_precision":"city","state":"Arizona"},"type":"Feature","geometry":{"type":"Point","coordinates":[-112.074037,33.448377]}},{"properties":{"city":"Scottsdale","zip":"85260-2462","school name":"Sawyer Aviation Flight Training Center","pen":2056571,"geo_score":0.857,"url":"www.sawyeraviation.com","id":"a634xcn6k3a1","geo_precision":"city","state":"Arizona"},"type":"Feature","geometry":{"type":"Point","coordinates":[-111.899033,33.50921]}},{"properties":{"city":"Scottsdale","zip":"85251","school name":"Le Cordon Bleu College of Culinary Arts (Scottsdale, Arizona)","pen":2057186,"geo_score":0.857,"url":"scottsdale.chefs.com","id":"a634xcesbn78","geo_precision":"city","state":"Arizona"},"type":"Feature","geometry":{"type":"Point","coordinates":[-111.899033,33.50921]}},{"properties":{"city":"Phoenix","zip":"85042-5806","school name":"South Mountain Community College","pen":2058683,"geo_score":0.857,"url":"www.southmountaincc.edu","id":"a634xcoao6r7","geo_precision":"city","state":"Arizona"},"type":"Feature","geometry":{"type":"Point","coordinates":[-112.074037,33.448377]}},{"properties":{"city":"Tucson","zip":"85749","school name":"Tucson School of Horseshoeing","pen":2065201,"geo_score":0.857,"url":"www.tucsonhorseshoeing.com","id":"a634xcjylht1","geo_precision":"city","state":"Arizona"},"type":"Feature","geometry":{"type":"Point","coordinates":[-110.926479,32.221743]}},{"properties":{"city":"Avondale","zip":"85323","school name":"Universal Technical Institute","pen":2066102,"geo_score":0.857,"url":"www.uti.edu","id":"a634xc9uf61q","geo_precision":"city","state":"Arizona"},"type":"Feature","geometry":{"type":"Point","coordinates":[-112.18717,33.276539]}},{"properties":{"city":"Tucson","zip":"85716","school name":"Wesland Institute Inc.","pen":2068895,"geo_score":0.857,"url":"www.weslandinstitute.com","id":"a634xck35up2","geo_precision":"city","state":"Arizona"},"type":"Feature","geometry":{"type":"Point","coordinates":[-110.926479,32.221743]}},{"properties":{"city":"Prescott","zip":"86301","school name":"Yavapai College","pen":2071055,"geo_score":0.857,"url":"www.yc.edu","id":"a634xclklsei","geo_precision":"city","state":"Arizona"},"type":"Feature","geometry":{"type":"Point","coordinates":[-112.567165,34.620826]}},{"properties":{"city":"Yuma","zip":"85364","school name":"Yuma School of Beauty","pen":2071250,"geo_score":0.857,"url":"www.yumaschoolofbeauty.com","id":"a634xc8xm8jz","geo_precision":"city","state":"Arizona"},"type":"Feature","geometry":{"type":"Point","coordinates":[-114.624397,32.725325]}},{"properties":{"city":"Tucson","zip":"85712","school name":"Barbizon of Tucson, Inc.","pen":2151610,"geo_score":0.857,"url":"www.barbizonmodeling.com","id":"a634xckddyxm","geo_precision":"city","state":"Arizona"},"type":"Feature","geometry":{"type":"Point","coordinates":[-110.926479,32.221743]}},{"properties":{"city":"Glendale","zip":"85306","school name":"Bartending Academy (Glendale, Arizona)","pen":2151660,"geo_score":0.857,"url":"www.phoenixbartendingschool.com","id":"a634xccyjxr0","geo_precision":"city","state":"Arizona"},"type":"Feature","geometry":{"type":"Point","coordinates":[-112.185987,33.538652]}},{"properties":{"city":"Scottsdale","zip":"85257","school name":"Cortiva Institute, School of Massage Therapy","pen":2152237,"geo_score":0.857,"url":"www.cortiva.com","id":"a634xcfnybeo","geo_precision":"city","state":"Arizona"},"type":"Feature","geometry":{"type":"Point","coordinates":[-111.899033,33.50921]}},{"properties":{"city":"Glendale","zip":"85302","school name":"Arizona College of Allied Health","pen":2152778,"geo_score":0.857,"url":"www.arizonacollege.edu","id":"a634xc9vfu25","geo_precision":"city","state":"Arizona"},"type":"Feature","geometry":{"type":"Point","coordinates":[-112.185987,33.538652]}},{"properties":{"city":"Tempe","zip":"85281","school name":"Bartending Academy (Tempe, Arizona)","pen":2152882,"geo_score":0.857,"url":"www.phoenixbartendingschool.com","id":"a634xcmbu0g6","geo_precision":"city","state":"Arizona"},"type":"Feature","geometry":{"type":"Point","coordinates":[-111.90931,33.414768]}},{"properties":{"city":"Mesa","zip":"85202","school name":"International Instructor Academy","pen":2153345,"geo_score":0.857,"url":"www.elmar.com","id":"a634xcnmos70","geo_precision":"city","state":"Arizona"},"type":"Feature","geometry":{"type":"Point","coordinates":[-111.82264,33.422269]}},{"properties":{"city":"Tucson","zip":"85728","school name":"Academy of Handwriting Sciences","pen":4000814,"geo_score":0.857,"url":"iwhome.com/spectrum/academy.htm","id":"a634xclbutma","geo_precision":"city","state":"Arizona"},"type":"Feature","geometry":{"type":"Point","coordinates":[-110.926479,32.221743]}},{"properties":{"city":"Glendale","zip":"85308","school name":"Brighton College","pen":37029415,"geo_score":0.857,"url":"www.brightoncollege.edu","id":"a634xcdywip4","geo_precision":"city","state":"Arizona"},"type":"Feature","geometry":{"type":"Point","coordinates":[-112.185987,33.538652]}},{"properties":{"city":"Scottsdale","zip":"85250-6335","school name":"Sales Training Institute","pen":51055803,"geo_score":0.857,"url":"www.salesinstitute.com","id":"a634xciuryri","geo_precision":"city","state":"Arizona"},"type":"Feature","geometry":{"type":"Point","coordinates":[-111.899033,33.50921]}},{"properties":{"city":"Tempe","zip":"85282","school name":"Arizona School of Massage Therapy (Tempe, Arizona)","pen":320585758,"geo_score":0.857,"url":"www.arizonasmt.com","id":"a634xcbucn0l","geo_precision":"city","state":"Arizona"},"type":"Feature","geometry":{"type":"Point","coordinates":[-111.90931,33.414768]}},{"properties":{"city":"Tempe","zip":"85282","school name":"ITT Technical Institute (Tempe, Arizona)","pen":320585908,"geo_score":0.857,"url":"www.itt-tech.edu","id":"a634xciv8v1a","geo_precision":"city","state":"Arizona"},"type":"Feature","geometry":{"type":"Point","coordinates":[-111.90931,33.414768]}},{"properties":{"city":"Kingman","zip":"86401","school name":"SAGE Technical Services (Kingman, Arizona)","pen":320586508,"geo_score":0.857,"url":"www.sageschools.com","id":"a634xcd63tkf","geo_precision":"city","state":"Arizona"},"type":"Feature","geometry":{"type":"Point","coordinates":[-114.017106,35.341456]}},{"properties":{"city":"Tempe","zip":"85284","school name":"Bryman School-Tempe","pen":320587078,"geo_score":0.857,"url":"www.brymanschool.edu","id":"a634xcloh2o7","geo_precision":"city","state":"Arizona"},"type":"Feature","geometry":{"type":"Point","coordinates":[-111.90931,33.414768]}},{"properties":{"city":"Prescott","zip":"86303","school name":"Empire Beauty School (Prescott, Arizona)","pen":320589738,"geo_score":0.857,"url":"www.empire.edu","id":"a634xce7dgnb","geo_precision":"city","state":"Arizona"},"type":"Feature","geometry":{"type":"Point","coordinates":[-112.567165,34.620826]}},{"properties":{"city":"Tucson","zip":"85705","school name":"Empire Beauty School (Tucson, Arizona)","pen":320589758,"geo_score":0.857,"url":"www.empire.edu","id":"a634xcno8wjf","geo_precision":"city","state":"Arizona"},"type":"Feature","geometry":{"type":"Point","coordinates":[-110.926479,32.221743]}},{"properties":{"city":"Phoenix","zip":"85022","school name":"Artistic Beauty Colleges (Phoenix, Arizona)","pen":320589768,"geo_score":0.857,"url":"www.artisticbeautycolleges.com","id":"a634xchv4ti2","geo_precision":"city","state":"Arizona"},"type":"Feature","geometry":{"type":"Point","coordinates":[-112.074037,33.448377]}},{"properties":{"city":"Mesa","zip":"85206","school name":"Everest College (Mesa, Arizona)","pen":320590218,"geo_score":0.857,"url":"www.everestcollegephoenix.com","id":"a634xc98o95a","geo_precision":"city","state":"Arizona"},"type":"Feature","geometry":{"type":"Point","coordinates":[-111.82264,33.422269]}},{"properties":{"city":"Tempe","zip":"85284-1133","school name":"Remington College (Tempe, Arizona)","pen":320591038,"geo_score":0.857,"url":"remingtoncollege.edu","id":"a634xccgs3jc","geo_precision":"city","state":"Arizona"},"type":"Feature","geometry":{"type":"Point","coordinates":[-111.90931,33.414768]}},{"properties":{"city":"Flagstaff","zip":"86001","school name":"Coconino Community College","pen":320591300,"geo_score":0.857,"url":"www.coconino.edu","id":"a634xcfxh41r","geo_precision":"city","state":"Arizona"},"type":"Feature","geometry":{"type":"Point","coordinates":[-111.597853,35.932116]}},{"properties":{"city":"Avondale","zip":"85392","school name":"Estrella Mountain Community College","pen":320591420,"geo_score":0.857,"url":"www.estrellamountain.edu","id":"a634xcfnqkyg","geo_precision":"city","state":"Arizona"},"type":"Feature","geometry":{"type":"Point","coordinates":[-112.18717,33.276539]}},{"properties":{"city":"Holbrook","zip":"86025-0610","school name":"Northland Pioneer College","pen":320591700,"geo_score":0.857,"url":"www.npc.edu","id":"a634xc98s4nk","geo_precision":"city","state":"Arizona"},"type":"Feature","geometry":{"type":"Point","coordinates":[-110.089544,34.776828]}},{"properties":{"city":"Phoenix","zip":"85032","school name":"Paradise Valley Community College","pen":320591750,"geo_score":0.857,"url":"www.pvc.maricopa.edu","id":"a634xccfos5c","geo_precision":"city","state":"Arizona"},"type":"Feature","geometry":{"type":"Point","coordinates":[-112.074037,33.448377]}},{"properties":{"city":"Tempe","zip":"85281","school name":"Rio Salado College","pen":320591860,"geo_score":0.857,"url":"www.riosalado.edu","id":"a634xcisdlmj","geo_precision":"city","state":"Arizona"},"type":"Feature","geometry":{"type":"Point","coordinates":[-111.90931,33.414768]}},{"properties":{"city":"Scottsdale","zip":"85256-2626","school name":"Scottsdale Community College","pen":320591930,"geo_score":0.857,"url":"www.scottsdalecc.edu","id":"a634xcjnuuhh","geo_precision":"city","state":"Arizona"},"type":"Feature","geometry":{"type":"Point","coordinates":[-111.899033,33.50921]}},{"properties":{"city":"Tempe","zip":"85281","school name":"Southwest Institute of Healing Arts","pen":320591990,"geo_score":0.857,"url":"www.swiha.edu","id":"a634xckips30","geo_precision":"city","state":"Arizona"},"type":"Feature","geometry":{"type":"Point","coordinates":[-111.90931,33.414768]}},{"properties":{"city":"Sells","zip":"85634","school name":"Tohono O'odham Community College","pen":320592060,"geo_score":0.857,"url":"www.tocc.cc.az.us","id":"a634xcb6ccam","geo_precision":"city","state":"Arizona"},"type":"Feature","geometry":{"type":"Point","coordinates":[-110.702027,31.974033]}},{"properties":{"city":"Tucson","zip":"85710","school name":"Tucson College","pen":320592080,"geo_score":0.857,"url":"www.tucsoncollege.edu","id":"a634xcht5upj","geo_precision":"city","state":"Arizona"},"type":"Feature","geometry":{"type":"Point","coordinates":[-110.926479,32.221743]}},{"properties":{"city":"Glendale","zip":"85307","school name":"AirSafety Flight Academy (Glendale, Arizona)","pen":320592230,"geo_score":0.857,"url":"www.airsafetyacademy.com","id":"a634xcko78kg","geo_precision":"city","state":"Arizona"},"type":"Feature","geometry":{"type":"Point","coordinates":[-112.185987,33.538652]}},{"properties":{"city":"Phoenix","zip":"85021","school name":"Argosy University (Phoenix, Arizona)","pen":320593470,"geo_score":0.857,"url":"www.argosy.edu/locations/phoenix","id":"a634xcevij9y","geo_precision":"city","state":"Arizona"},"type":"Feature","geometry":{"type":"Point","coordinates":[-112.074037,33.448377]}},{"properties":{"city":"Chandler","zip":"85225","school name":"Chandler-Gilbert Community College (Pecos, Arizona)","pen":320593660,"geo_score":0.857,"url":"www.cgc.maricopa.edu","id":"a634xcd53ryt","geo_precision":"city","state":"Arizona"},"type":"Feature","geometry":{"type":"Point","coordinates":[-111.85062,33.298461]}},{"properties":{"city":"Sun Lakes","zip":"85248","school name":"Chandler-Gilbert Community College (Sun Lakes, Arizona)","pen":320593670,"geo_score":0.857,"url":"www.cgc.maricopa.edu","id":"a634xc8wvzcs","geo_precision":"city","state":"Arizona"},"type":"Feature","geometry":{"type":"Point","coordinates":[-111.875417,33.211162]}},{"properties":{"city":"Mesa","zip":"85212","school name":"Chandler-Gilbert Community College - Williams","pen":320593680,"geo_score":0.857,"url":"www.cgc.maricopa.edu","id":"a634xcd9ckno","geo_precision":"city","state":"Arizona"},"type":"Feature","geometry":{"type":"Point","coordinates":[-111.82264,33.422269]}},{"properties":{"city":"Phoenix","zip":"85051","school name":"Denver School of Massage Therapy (Phoenix, Arizona)","pen":320593870,"geo_score":0.857,"url":"www.denversmt.com","id":"a634xcikkqri","geo_precision":"city","state":"Arizona"},"type":"Feature","geometry":{"type":"Point","coordinates":[-112.074037,33.448377]}},{"properties":{"city":"Tempe","zip":"85282","school name":"Denver School of Massage Therapy (Tempe, Arizona)","pen":320593890,"geo_score":0.857,"url":"www.denversmt.com","id":"a634xcg4sbv7","geo_precision":"city","state":"Arizona"},"type":"Feature","geometry":{"type":"Point","coordinates":[-111.90931,33.414768]}},{"properties":{"city":"Bullhead City","zip":"86442","school name":"Mohave Community College (Bullhead City, Arizona)","pen":320594240,"geo_score":0.857,"url":"www.mohave.edu/pages/162.asp","id":"a634xcb8ayar","geo_precision":"city","state":"Arizona"},"type":"Feature","geometry":{"type":"Point","coordinates":[-114.538599,35.171497]}},{"properties":{"city":"Lake Havasu City","zip":"86403","school name":"Mohave Community College (Lake Havasu City, Arizona)","pen":320594250,"geo_score":0.857,"url":"www.mohave.edu/pages/164.asp","id":"a634xcn5d246","geo_precision":"city","state":"Arizona"},"type":"Feature","geometry":{"type":"Point","coordinates":[-114.310294,34.500556]}},{"properties":{"city":"Colorado City","zip":"86021","school name":"Mohave Community College - North Mohave","pen":320594260,"geo_score":0.857,"url":"www.mohave.edu/pages/165.asp","id":"a634xcgh9chk","geo_precision":"city","state":"Arizona"},"type":"Feature","geometry":{"type":"Point","coordinates":[-112.978914,36.974658]}},{"properties":{"city":"Tucson","zip":"85709-6000","school name":"Pima Community College - Desert Vista Campus","pen":320594290,"geo_score":0.857,"url":"www.pima.edu","id":"a634xcoatg5o","geo_precision":"city","state":"Arizona"},"type":"Feature","geometry":{"type":"Point","coordinates":[-110.926479,32.221743]}},{"properties":{"city":"Tucson","zip":"85709","school name":"Pima Community College - Downtown Campus","pen":320594300,"geo_score":0.857,"url":"www.pima.edu","id":"a634xcnwnfta","geo_precision":"city","state":"Arizona"},"type":"Feature","geometry":{"type":"Point","coordinates":[-110.926479,32.221743]}},{"properties":{"city":"Tucson","zip":"85709","school name":"Pima Community College - East Campus","pen":320594310,"geo_score":0.857,"url":"www.pima.edu","id":"a634xcncwipv","geo_precision":"city","state":"Arizona"},"type":"Feature","geometry":{"type":"Point","coordinates":[-110.926479,32.221743]}},{"properties":{"city":"Tucson","zip":"85709","school name":"Pima Community College - Northwest Campus","pen":320594320,"geo_score":0.857,"url":"www.pima.edu","id":"a634xcd49co1","geo_precision":"city","state":"Arizona"},"type":"Feature","geometry":{"type":"Point","coordinates":[-110.926479,32.221743]}},{"properties":{"city":"Tucson","zip":"85709","school name":"Pima Community College - West Campus","pen":320594330,"geo_score":0.857,"url":"www.pima.edu","id":"a634xcl382pm","geo_precision":"city","state":"Arizona"},"type":"Feature","geometry":{"type":"Point","coordinates":[-110.926479,32.221743]}},{"properties":{"city":"Scottsdale","zip":"85254","school name":"Kohler Academy","pen":320595230,"geo_score":0.857,"url":"www.kohleracademy.com","id":"a634xc9zwrza","geo_precision":"city","state":"Arizona"},"type":"Feature","geometry":{"type":"Point","coordinates":[-111.899033,33.50921]}},{"properties":{"city":"Phoenix","zip":"85014-1262","school name":"National Paralegal College","pen":320595280,"geo_score":0.857,"url":"nationalparalegal.edu","id":"a634xcio3xka","geo_precision":"city","state":"Arizona"},"type":"Feature","geometry":{"type":"Point","coordinates":[-112.074037,33.448377]}},{"properties":{"city":"Bisbee","zip":"85603","school name":"Bisbee Cooking School","pen":320596460,"geo_score":0.857,"url":"geocities.com/bisbeecookingschool","id":"a634xcl0vuy1","geo_precision":"city","state":"Arizona"},"type":"Feature","geometry":{"type":"Point","coordinates":[-109.819216,31.445577]}},{"properties":{"city":"Scottsdale","zip":"85260","school name":"Sweet Basil Gourmetware and Cooking School","pen":320596740,"geo_score":0.857,"url":"www.sweetbasilgourmet.com","id":"a634xcl7b6b2","geo_precision":"city","state":"Arizona"},"type":"Feature","geometry":{"type":"Point","coordinates":[-111.899033,33.50921]}},{"properties":{"city":"Kingman","zip":"86409","school name":"Coming Attractions Academy of Beauty Arts and Sciences","pen":320596900,"geo_score":0.857,"url":"comingattractions.info","id":"a634xca9i8uo","geo_precision":"city","state":"Arizona"},"type":"Feature","geometry":{"type":"Point","coordinates":[-114.017106,35.341456]}},{"properties":{"city":"Scottsdale","zip":"85251","school name":"IMAj Institute","pen":320597050,"geo_score":0.857,"url":"www.imajschool.org","id":"a634xc83j05l","geo_precision":"city","state":"Arizona"},"type":"Feature","geometry":{"type":"Point","coordinates":[-111.899033,33.50921]}},{"properties":{"city":"Scottsdale","zip":"85260","school name":"National Laser Institute","pen":320597110,"geo_score":0.857,"url":"www.nationallaserinstitute.com","id":"a634xcew2n9j","geo_precision":"city","state":"Arizona"},"type":"Feature","geometry":{"type":"Point","coordinates":[-111.899033,33.50921]}},{"properties":{"city":"Fredonia","zip":"86022","school name":"Arizona Pet Grooming School","pen":320597200,"geo_score":0.857,"url":"www.xpressweb.com/dog-grooming-school","id":"a634xcc9xc9u","geo_precision":"city","state":"Arizona"},"type":"Feature","geometry":{"type":"Point","coordinates":[-112.524696,36.96649]}},{"properties":{"city":"Mesa","zip":"85201","school name":"Kar-Che' The Professional Career Center","pen":320597380,"geo_score":0.857,"url":"www.kar-che.com","id":"a634xcjwhu8c","geo_precision":"city","state":"Arizona"},"type":"Feature","geometry":{"type":"Point","coordinates":[-111.82264,33.422269]}},{"properties":{"city":"Scottsdale","zip":"85259","school name":"Arizona Culinary Institute","pen":320597690,"geo_score":0.857,"url":"www.azculinary.com","id":"a634xccd3t7o","geo_precision":"city","state":"Arizona"},"type":"Feature","geometry":{"type":"Point","coordinates":[-111.899033,33.50921]}},{"properties":{"city":"Scottsdale","zip":"85250","school name":"Automotive Dealership Institute","pen":320598780,"geo_score":0.857,"url":"www.autodealerinstitute.com","id":"a634xcm8wecf","geo_precision":"city","state":"Arizona"},"type":"Feature","geometry":{"type":"Point","coordinates":[-111.899033,33.50921]}},{"properties":{"city":"Tucson","zip":"85705","school name":"Dunbar Barber Academy","pen":320599770,"geo_score":0.857,"url":"www.dunbarberacademy.com","id":"a634xcdchwno","geo_precision":"city","state":"Arizona"},"type":"Feature","geometry":{"type":"Point","coordinates":[-110.926479,32.221743]}},{"properties":{"city":"Safford","zip":"85546","school name":"Hair Academy of Safford","pen":320599830,"geo_score":0.857,"url":"www.hairacademysafford.com","id":"a634xc8u4hdd","geo_precision":"city","state":"Arizona"},"type":"Feature","geometry":{"type":"Point","coordinates":[-109.701631,32.813612]}},{"properties":{"city":"Tucson","zip":"85706","school name":"HDS Truck Driving Institute","pen":320599850,"geo_score":0.857,"url":"hdsdrivers.com","id":"a634xc84rb1o","geo_precision":"city","state":"Arizona"},"type":"Feature","geometry":{"type":"Point","coordinates":[-110.926479,32.221743]}},{"properties":{"city":"Tucson","zip":"85705","school name":"Hollywood Barber College","pen":320599860,"geo_score":0.857,"url":"www.hollywoodbarbercollege.com","id":"a634xc8e4jy7","geo_precision":"city","state":"Arizona"},"type":"Feature","geometry":{"type":"Point","coordinates":[-110.926479,32.221743]}},{"properties":{"city":"Mesa","zip":"85207","school name":"Turning Point Beauty College (Mesa, Arizona)","pen":320600070,"geo_score":0.857,"url":"www.turningpointbc.net/mesas_campus","id":"a634xck7r7wa","geo_precision":"city","state":"Arizona"},"type":"Feature","geometry":{"type":"Point","coordinates":[-111.82264,33.422269]}},{"properties":{"city":"Phoenix","zip":"85007","school name":"Universal Barber College","pen":320600330,"geo_score":0.857,"url":"universalbarbercollege.com","id":"a634xckwtpf1","geo_precision":"city","state":"Arizona"},"type":"Feature","geometry":{"type":"Point","coordinates":[-112.074037,33.448377]}},{"properties":{"city":"Mesa","zip":"85210","school name":"Avalon School of Cosmetology (Mesa, Arizona)","pen":320600440,"geo_score":0.857,"url":"www.theavalonschool.com","id":"a634xcjnyata","geo_precision":"city","state":"Arizona"},"type":"Feature","geometry":{"type":"Point","coordinates":[-111.82264,33.422269]}},{"properties":{"city":"Phoenix","zip":"85022","school name":"Avalon School of Cosmetology (Phoenix, Arizona)","pen":320600450,"geo_score":0.857,"url":"www.theavalonschool.com","id":"a634xcjw6yno","geo_precision":"city","state":"Arizona"},"type":"Feature","geometry":{"type":"Point","coordinates":[-112.074037,33.448377]}},{"properties":{"city":"Mesa","zip":"85213","school name":"Chairside Dental Academy","pen":320600880,"geo_score":0.857,"url":"www.chairside.com","id":"a634xccibydf","geo_precision":"city","state":"Arizona"},"type":"Feature","geometry":{"type":"Point","coordinates":[-111.82264,33.422269]}},{"properties":{"city":"Mesa","zip":"85201","school name":"East Valley Institute of Technology - Adult &amp; Continuing Education","pen":320600920,"geo_score":0.857,"url":"www.evit.com","id":"a634xcgvbnb9","geo_precision":"city","state":"Arizona"},"type":"Feature","geometry":{"type":"Point","coordinates":[-111.82264,33.422269]}},{"properties":{"city":"Prescott","zip":"86305","school name":"Northern Arizona Massage Therapy Institute (Prescott, Arizona)","pen":320601710,"geo_score":0.857,"url":"www.namti.com","id":"a634xcmvtdwi","geo_precision":"city","state":"Arizona"},"type":"Feature","geometry":{"type":"Point","coordinates":[-112.567165,34.620826]}},{"properties":{"city":"Sedona","zip":"86336","school name":"Northern Arizona Massage Therapy Institute (Sedona, Arizona)","pen":320601720,"geo_score":0.857,"url":"www.namti.com","id":"a634xcadf5qg","geo_precision":"city","state":"Arizona"},"type":"Feature","geometry":{"type":"Point","coordinates":[-111.279927,34.756885]}},{"properties":{"city":"Mesa","zip":"85204","school name":"TechSkills (Mesa, Arizona)","pen":320602120,"geo_score":0.857,"url":"www.techskills.edu","id":"a634xcnv3oeq","geo_precision":"city","state":"Arizona"},"type":"Feature","geometry":{"type":"Point","coordinates":[-111.82264,33.422269]}},{"properties":{"city":"Phoenix","zip":"85029","school name":"TechSkills (Phoenix, Arizona)","pen":320602170,"geo_score":0.857,"url":"www.techskills.edu","id":"a634xcdojzpm","geo_precision":"city","state":"Arizona"},"type":"Feature","geometry":{"type":"Point","coordinates":[-112.074037,33.448377]}},{"properties":{"city":"Phoenix","zip":"85014","school name":"West-Wind Academy of Massage Therapy","pen":320602400,"geo_score":0.857,"url":"www.westwindmassageacademy.com","id":"a634xck5bixi","geo_precision":"city","state":"Arizona"},"type":"Feature","geometry":{"type":"Point","coordinates":[-112.074037,33.448377]}},{"properties":{"city":"Phoenix","zip":"85014","school name":"Westwind Academy of Massage Therapy","pen":320602410,"geo_score":0.857,"url":"www.westwindmassageacademy.com","id":"a634xcd014mv","geo_precision":"city","state":"Arizona"},"type":"Feature","geometry":{"type":"Point","coordinates":[-112.074037,33.448377]}}],"is_temporal":false,"author":{"url":"","metadata":"","contact_name":"","contact_address":"","source":"","contact_phone":""},"source":"","pagination":{"sort":null,"start":0,"total":140,"limit":1000000},"state":"complete","tags":"","published":"2014-08-13T00:32:40-04:00","id":132617}