{"type":"FeatureCollection","data_type":"Dataset","url_type":null,"permissions":[{"permissions":{"download":true,"view":true},"group_id":"everyone"}],"classification":null,"title":"sonic locations sample","count":46,"stream_id":132834,"contributor":{"url":"http://geocommons.com/users/21818","name":"vladimirpick"},"data_attributes":null,"calculation_params":null,"icon_link":null,"link":"http://geocommons.com/overlays/132834.json","extent":[-131.542,25.7634,-75.8433,55.0617],"geometry_types":["point"],"unique_name":null,"name":"sonic locations sample","feature_count":46,"description":"","next_feature":null,"is_raster":false,"short_classification":"Y","stats":{},"features":[{"properties":{"city":"ABILENE","st":"TX","geo_score":0.727,"id":"a69q80pipydz","geo_precision":"range","address":"1720 N. FIRST STREET"},"type":"Feature","geometry":{"type":"Point","coordinates":[-87.574865,33.216169]}},{"properties":{"city":"ABILENE","st":"TX","geo_score":0.561,"id":"a69q80fe85dk","geo_precision":"street","address":"2402 SAYLES BOULEVARD"},"type":"Feature","geometry":{"type":"Point","coordinates":[-84.934576,30.721923]}},{"properties":{"city":"ABILENE","st":"TX","geo_score":0.409,"id":"a69q80g4txyy","geo_precision":"city","address":"202 N. JUDGE ELY BOULEVARD"},"type":"Feature","geometry":{"type":"Point","coordinates":[-92.896003,35.902299]}},{"properties":{"city":"BROWNWOOD","st":"TX","geo_score":0.455,"id":"a69q80jlcuk0","geo_precision":"city","address":"211 W. COMMERCE"},"type":"Feature","geometry":{"type":"Point","coordinates":[-93.764667,41.538879]}},{"properties":{"city":"BRECKENRIDGE","st":"TX","geo_score":0.432,"id":"a69q80nobsba","geo_precision":"city","address":"1850 WEST WALKER"},"type":"Feature","geometry":{"type":"Point","coordinates":[-93.225167,33.226519]}},{"properties":{"city":"BALLINGER","st":"TX","geo_score":0.617,"id":"a69q80fxoawc","geo_precision":"street","address":"2003 HUTCHINSON AVENUE"},"type":"Feature","geometry":{"type":"Point","coordinates":[-97.785322,37.905709]}},{"properties":{"city":"CISCO","st":"TX","geo_score":0.415,"id":"a69q80ib2qja","geo_precision":"city","address":"2106 CONRAD HILTON"},"type":"Feature","geometry":{"type":"Point","coordinates":[-88.061429,34.453153]}},{"properties":{"city":"COLORADO CITY","st":"TX","geo_score":0.408,"id":"a69q80p17hem","geo_precision":"city","address":"125 E. AND IH20"},"type":"Feature","geometry":{"type":"Point","coordinates":[-131.541667,55.061667]}},{"properties":{"city":"EASTLAND","st":"TX","geo_score":0.45,"id":"a69q80h40s0m","geo_precision":"street","address":"1475 MAIN STREET"},"type":"Feature","geometry":{"type":"Point","coordinates":[-94.183731,36.06053]}},{"properties":{"city":"HASKELL","st":"TX","geo_score":0.407,"id":"a69q80jen10b","geo_precision":"city","address":"1402 N. E AVENUE"},"type":"Feature","geometry":{"type":"Point","coordinates":[-85.558572,34.132319]}},{"properties":{"city":"SNYDER","st":"TX","geo_score":0.642,"id":"a69q80bj4zt2","geo_precision":"street","address":"4100 COLLEGE"},"type":"Feature","geometry":{"type":"Point","coordinates":[-91.257432,33.121786]}},{"properties":{"city":"SWEETWATER","st":"TX","geo_score":0.512,"id":"a69q80nlylu5","geo_precision":"street","address":"706 EAST BROADWAY"},"type":"Feature","geometry":{"type":"Point","coordinates":[-75.843276,41.318946]}},{"properties":{"city":"STAMFORD","st":"TX","geo_score":0.48,"id":"a69q80khej6w","geo_precision":"street","address":"616 N. SWENSON"},"type":"Feature","geometry":{"type":"Point","coordinates":[-88.035998,45.930564]}},{"properties":{"city":"COLEMAN","st":"TX","geo_score":0.707,"id":"a69q80j65ts3","geo_precision":"street","address":"2300 COMMERCIAL AVENUE"},"type":"Feature","geometry":{"type":"Point","coordinates":[-83.42371,39.545212]}},{"properties":{"city":"CLYDE","st":"TX","geo_score":0.41,"id":"a69q80h9zy9l","geo_precision":"city","address":"1506 N ACCESS ROAD"},"type":"Feature","geometry":{"type":"Point","coordinates":[-81.121253,33.525625]}},{"properties":{"city":"ABILENE","st":"TX","geo_score":0.443,"id":"a69q80jxmwah","geo_precision":"street","address":"3856 S. CLACK STREET"},"type":"Feature","geometry":{"type":"Point","coordinates":[-90.272736,34.846246]}},{"properties":{"city":"ANSON","st":"TX","geo_score":0.707,"id":"a69q80fw97qc","geo_precision":"street","address":"1715 COMMERCIAL AVENUE"},"type":"Feature","geometry":{"type":"Point","coordinates":[-83.42371,39.545212]}},{"properties":{"city":"BROWNWOOD","st":"TX","geo_score":0.427,"id":"a69q809fgqjk","geo_precision":"city","address":"1500 AUSTIN AVENUE"},"type":"Feature","geometry":{"type":"Point","coordinates":[-97.743061,30.267153]}},{"properties":{"city":"EARLY","st":"TX","geo_score":0.577,"id":"a69q80ik3n7h","geo_precision":"street","address":"974 EARLY BOULEVARD"},"type":"Feature","geometry":{"type":"Point","coordinates":[-87.492955,37.946222]}},{"properties":{"city":"ABILENE","st":"TX","geo_score":0.635,"id":"a69q80al4v7n","geo_precision":"street","address":"1442 BARROW STREET"},"type":"Feature","geometry":{"type":"Point","coordinates":[-91.978669,34.221258]}},{"properties":{"city":"MERKEL","st":"TX","geo_score":0.351,"id":"a69q80c5luu5","geo_precision":"street","address":"9846 INTERSTATE 20"},"type":"Feature","geometry":{"type":"Point","coordinates":[-122.260725,47.925135]}},{"properties":{"city":"FITZGERALD","st":"GA","geo_score":0.532,"id":"a69q80af7vtu","geo_precision":"street","address":"276 OCILLA HIGHWAY"},"type":"Feature","geometry":{"type":"Point","coordinates":[-81.964531,29.79619]}},{"properties":{"city":"MOULTRIE","st":"GA","geo_score":0.303,"id":"a69q80crb1vw","geo_precision":"street","address":"807 FIRST AVENUE, S.E."},"type":"Feature","geometry":{"type":"Point","coordinates":[-83.878906,42.339935]}},{"properties":{"city":"ALBANY","st":"GA","geo_score":0.622,"id":"a69q80b3uvxd","geo_precision":"street","address":"519 N WESTOVER"},"type":"Feature","geometry":{"type":"Point","coordinates":[-84.148635,40.306255]}},{"properties":{"city":"TIFTON","st":"GA","geo_score":0.0,"id":"a69q80e0te4k","geo_precision":"unmatched","address":"317 S. VIRGINIA"},"type":"Feature","geometry":null},{"properties":{"city":"LEESBURG","st":"GA","geo_score":0.61,"id":"a69q809ewry7","geo_precision":"range","address":"1583 HIGHWAY 19 S"},"type":"Feature","geometry":{"type":"Point","coordinates":[-83.175354,42.217559]}},{"properties":{"city":"ALBANY","st":"GA","geo_score":0.34,"id":"a69q809ipayd","geo_precision":"street","address":"2833 LEDO ROAD"},"type":"Feature","geometry":{"type":"Point","coordinates":[-86.292051,34.312166]}},{"properties":{"city":"CORDELE","st":"GA","geo_score":0.515,"id":"a69q80c9ll6l","geo_precision":"street","address":"1015 EAST 16TH AVENUE"},"type":"Feature","geometry":{"type":"Point","coordinates":[-85.774357,31.087087]}},{"properties":{"city":"DOUGLAS","st":"GA","geo_score":0.667,"id":"a69q80h8v1pw","geo_precision":"range","address":"#55 BRANTLEY BOULEVARD"},"type":"Feature","geometry":{"type":"Point","coordinates":[-86.869526,33.216718]}},{"properties":{"city":"ALBANY","st":"GA","geo_score":0.0,"id":"a69q80n9p2b4","geo_precision":"unmatched","address":"910 SOUTH SLAPPEY BOULEVARD"},"type":"Feature","geometry":null},{"properties":{"city":"ALAMOGORDO","st":"NM","geo_score":0.523,"id":"a69q80g39zxe","geo_precision":"street","address":"504 WHITE SANDS BOULEVARD"},"type":"Feature","geometry":{"type":"Point","coordinates":[-81.961944,29.820614]}},{"properties":{"city":"ARTESIA","st":"NM","geo_score":0.504,"id":"a69q80cw86t3","geo_precision":"street","address":"1515 W. MAIN STREET"},"type":"Feature","geometry":{"type":"Point","coordinates":[-94.183731,36.06053]}},{"properties":{"city":"ALBUQUERQUE","st":"NM","geo_score":0.0,"id":"a69q80hzxbtu","geo_precision":"unmatched","address":"825 EUBANK N.E."},"type":"Feature","geometry":null},{"properties":{"city":"AZTEC","st":"NM","geo_score":0.0,"id":"a69q80ppvxcf","geo_precision":"unmatched","address":"1522 W. AZTEC BOULEVARD"},"type":"Feature","geometry":null},{"properties":{"city":"ALBUQUERQUE","st":"NM","geo_score":0.0,"id":"a69q80n0ygwn","geo_precision":"unmatched","address":"531 BRIDGE BOULEVARD"},"type":"Feature","geometry":null},{"properties":{"city":"ALBUQUERQUE","st":"NM","geo_score":0.423,"id":"a69q80luik1e","geo_precision":"city","address":"6420 W. CENTRAL SOUTHWEST"},"type":"Feature","geometry":{"type":"Point","coordinates":[-87.009174,34.224822]}},{"properties":{"city":"ALBUQUERQUE","st":"NM","geo_score":0.42,"id":"a69q809jn18t","geo_precision":"city","address":"220 ALAMEDA NORTHWEST BLVD"},"type":"Feature","geometry":{"type":"Point","coordinates":[-80.297551,25.763433]}},{"properties":{"city":"ALBUQUERQUE","st":"NM","geo_score":0.0,"id":"a69q80bwrajv","geo_precision":"unmatched","address":"3800 MENAUL NORTHEAST"},"type":"Feature","geometry":null},{"properties":{"city":"ALBUQUERQUE","st":"NM","geo_score":0.512,"id":"a69q80j7rgls","geo_precision":"street","address":"6320 S.E. CENTRAL"},"type":"Feature","geometry":{"type":"Point","coordinates":[-85.950049,32.960541]}},{"properties":{"city":"ALBUQUERQUE","st":"NM","geo_score":0.421,"id":"a69q80ikhyba","geo_precision":"city","address":"2703 ISLETA SOUTHWEST"},"type":"Feature","geometry":{"type":"Point","coordinates":[-81.671512,40.270071]}},{"properties":{"city":"ALBUQUERQUE","st":"NM","geo_score":0.407,"id":"a69q80adkkn1","geo_precision":"street","address":"5000 A SAN MATEO BLVD NE"},"type":"Feature","geometry":{"type":"Point","coordinates":[-96.492752,41.223189]}},{"properties":{"city":"ALBUQUERQUE","st":"NM","geo_score":0.423,"id":"a69q80euoxna","geo_precision":"city","address":"11715 CENTRAL NORTHEAST"},"type":"Feature","geometry":{"type":"Point","coordinates":[-87.009174,34.224822]}},{"properties":{"city":"ALBUQUERQUE","st":"NM","geo_score":0.672,"id":"a69q80cl97n2","geo_precision":"range","address":"3110 JUAN TABO BLVD NORTHEAST"},"type":"Feature","geometry":{"type":"Point","coordinates":[-76.963836,38.977651]}},{"properties":{"city":"BELEN","st":"NM","geo_score":0.457,"id":"a69q80nipeta","geo_precision":"street","address":"713 N. MAIN STREET"},"type":"Feature","geometry":{"type":"Point","coordinates":[-94.183731,36.06053]}},{"properties":{"city":"BLOOMFIELD","st":"NM","geo_score":0.45,"id":"a69q80na3tql","geo_precision":"city","address":"1332 W. BROADWAY"},"type":"Feature","geometry":{"type":"Point","coordinates":[-76.214654,41.247305]}},{"properties":{"city":"BOSQUE FARMS","st":"NM","geo_score":0.512,"id":"a69q80j33dtr","geo_precision":"street","address":"1351 BOSQUE FARMS BOULEVARD"},"type":"Feature","geometry":{"type":"Point","coordinates":[-92.746448,32.22728]}}],"is_temporal":false,"author":{"url":"","metadata":"","contact_name":"","contact_address":"","source":"","contact_phone":""},"source":"","pagination":{"sort":null,"start":0,"total":46,"limit":1000000},"state":"complete","tags":"","published":"2014-08-13T00:48:41-04:00","id":132834}