{"type":"FeatureCollection","data_type":"Dataset","url_type":null,"permissions":[{"permissions":{"download":true,"view":true},"group_id":"everyone"}],"classification":null,"title":"2011 Sales as of 07-06 addresses","count":135,"stream_id":132803,"contributor":{"url":"http://geocommons.com/users/29544","name":"fuse2@fuse2.com"},"data_attributes":null,"calculation_params":null,"icon_link":null,"link":"http://geocommons.com/overlays/132803.json","extent":[-147.75,24.6774,-71.2631,64.847],"geometry_types":["point"],"unique_name":null,"name":"2011 Sales as of 07-06 addresses","feature_count":135,"description":"","next_feature":null,"is_raster":false,"short_classification":"Y","stats":{},"features":[{"properties":{"city":"Louisville","zip":"40245","geo_score":0.857,"street":"14105","id":"a6fyxehg9k5h","geo_precision":"street","address":"Waterside Court","state":"KY"},"type":"Feature","geometry":{"type":"Point","coordinates":[-86.882551,33.347577]}},{"properties":{"city":"Louisville","zip":"40206","geo_score":0.0,"street":"509","id":"a6fyxec70n2f","geo_precision":"unmatched","address":"Altagate Road","state":"KY"},"type":"Feature","geometry":null},{"properties":{"city":"Louisville","zip":"40223","geo_score":0.692,"street":"10520","id":"a6fyxekhfkf2","geo_precision":"street","address":"Applecross Way","state":"KY"},"type":"Feature","geometry":{"type":"Point","coordinates":[-89.830778,37.362711]}},{"properties":{"city":"Louisville","zip":"40207","geo_score":0.534,"street":"2203","id":"a6fyxee129e5","geo_precision":"street","address":"Ardsley Road","state":"KY"},"type":"Feature","geometry":{"type":"Point","coordinates":[-75.146419,40.11201]}},{"properties":{"city":"Louisville","zip":"40220","geo_score":0.779,"street":"2943","id":"a6fyxe9mo9to","geo_precision":"street","address":"Arlington Rd","state":"KY"},"type":"Feature","geometry":{"type":"Point","coordinates":[-97.128571,32.561194]}},{"properties":{"city":"Louisville","zip":"40245","geo_score":0.571,"street":"2402","id":"a6fyxegfg3xr","geo_precision":"street","address":"Ash Ave","state":"KY"},"type":"Feature","geometry":{"type":"Point","coordinates":[-92.33619,38.95372]}},{"properties":{"city":"New Albany","zip":"47150","geo_score":0.56,"street":"3079","id":"a6fyxe8fi1y4","geo_precision":"street","address":"Autumn Hill Trail","state":"IN"},"type":"Feature","geometry":{"type":"Point","coordinates":[-81.39898,24.72739]}},{"properties":{"city":"Louisville","zip":"40207","geo_score":0.536,"street":"4622","id":"a6fyxea4hi0k","geo_precision":"street","address":"Beaver Rd","state":"KY"},"type":"Feature","geometry":{"type":"Point","coordinates":[-87.072344,37.242216]}},{"properties":{"city":"Louisville","zip":"40222","geo_score":0.675,"street":"701","id":"a6fyxed6ncn7","geo_precision":"city","address":"Bedford Lane","state":"KY"},"type":"Feature","geometry":{"type":"Point","coordinates":[-87.800055,41.76281]}},{"properties":{"city":"Louisville","zip":"40220","geo_score":0.714,"street":"3339","id":"a6fyxech3fr1","geo_precision":"street","address":"Bonair Ave","state":"KY"},"type":"Feature","geometry":{"type":"Point","coordinates":[-86.345562,33.265779]}},{"properties":{"city":"Crestwood","zip":"40014","geo_score":0.607,"street":"6215","id":"a6fyxeczgux0","geo_precision":"street","address":"Breeze Hill Rd","state":"KY"},"type":"Feature","geometry":{"type":"Point","coordinates":[-81.39898,24.72739]}},{"properties":{"city":"Louisville","zip":"40223","geo_score":0.595,"street":"11113","id":"a6fyxejxutr8","geo_precision":"city","address":"Brookstone Pl","state":"KY"},"type":"Feature","geometry":{"type":"Point","coordinates":[-92.985999,33.665666]}},{"properties":{"city":"Louisville","zip":"40223","geo_score":0.0,"street":"11121","id":"a6fyxee9kmw0","geo_precision":"unmatched","address":"Brookstone Ct.","state":"KY"},"type":"Feature","geometry":null},{"properties":{"city":"Louisville","zip":"40207","geo_score":0.346,"street":"306","id":"a6fyxekbmauv","geo_precision":"street","address":"Browns Lane","state":"kY"},"type":"Feature","geometry":{"type":"Point","coordinates":[-85.593597,33.927958]}},{"properties":{"city":"Louisville","zip":"40241","geo_score":0.455,"street":"7224","id":"a6fyxeaz92jj","geo_precision":"street","address":"Brownsbor Rd","state":"KY"},"type":"Feature","geometry":{"type":"Point","coordinates":[-85.4959,38.355132]}},{"properties":{"city":"Louisville","zip":"40205","geo_score":0.466,"street":"3015","id":"a6fyxejdyens","geo_precision":"street","address":"Brownsboro Rd Unit #1","state":"KY"},"type":"Feature","geometry":{"type":"Point","coordinates":[-85.4959,38.355132]}},{"properties":{"city":"Louisville","zip":"40242","geo_score":0.441,"street":"3313","id":"a6fyxekvd7dt","geo_precision":"street","address":"Brownsboro Vista Dr","state":"KY"},"type":"Feature","geometry":{"type":"Point","coordinates":[-85.4959,38.355132]}},{"properties":{"city":"Louisville","zip":"40220","geo_score":0.696,"street":"3430","id":"a6fyxehferwm","geo_precision":"street","address":"Bryan Way","state":"KY"},"type":"Feature","geometry":{"type":"Point","coordinates":[-96.467765,30.636419]}},{"properties":{"city":"Louisville","zip":"40205","geo_score":0.623,"street":"1709","id":"a6fyxefp4u8l","geo_precision":"street","address":"Calder Court","state":"KY"},"type":"Feature","geometry":{"type":"Point","coordinates":[-112.368699,34.549738]}},{"properties":{"city":"Louisville","zip":"40222","geo_score":0.662,"street":"304","id":"a6fyxeh9ghnx","geo_precision":"street","address":"Canton Court","state":"KY"},"type":"Feature","geometry":{"type":"Point","coordinates":[-81.453898,40.816443]}},{"properties":{"city":"Louisville","zip":"40205","geo_score":0.701,"street":"2558","id":"a6fyxe6kl94f","geo_precision":"street","address":"Carolina Avenue","state":"KY"},"type":"Feature","geometry":{"type":"Point","coordinates":[-87.057869,31.12323]}},{"properties":{"city":"Louisville","zip":"40207","geo_score":0.638,"street":"32","id":"a6fyxectoic7","geo_precision":"city","address":"Chamberry Circle","state":"KY"},"type":"Feature","geometry":{"type":"Point","coordinates":[-117.184614,46.64294]}},{"properties":{"city":"Pewee Valley","zip":"40059","geo_score":0.0,"street":"10403","id":"a6fyxekzoeg0","geo_precision":"unmatched","address":"Championship Court","state":"KY"},"type":"Feature","geometry":null},{"properties":{"city":"Louisville","zip":"40241","geo_score":0.0,"street":"6908","id":"a6fyxe8ttngs","geo_precision":"unmatched","address":"Chartwell Ct","state":"KY"},"type":"Feature","geometry":null},{"properties":{"city":"Louisville","zip":"40205","geo_score":0.686,"street":"1506","id":"a6fyxease97w","geo_precision":"street","address":"Cherokee Rd","state":"KY"},"type":"Feature","geometry":{"type":"Point","coordinates":[-121.103802,39.367996]}},{"properties":{"city":"Simpsonville","zip":"40067","geo_score":0.686,"street":"486","id":"a6fyxei8qcj8","geo_precision":"city","address":"Chesterfield Way","state":"KY"},"type":"Feature","geometry":{"type":"Point","coordinates":[-85.52385,34.446754]}},{"properties":{"city":"Louisville","zip":"40205","geo_score":0.571,"street":"1719","id":"a6fyxe92haac","geo_precision":"street","address":"Clayton Road","state":"KY"},"type":"Feature","geometry":{"type":"Point","coordinates":[-87.629669,32.277197]}},{"properties":{"city":"Louisville","zip":"40207","geo_score":0.464,"street":"422","id":"a6fyxehbzx8i","geo_precision":"street","address":"Club Lane","state":"KY"},"type":"Feature","geometry":{"type":"Point","coordinates":[-84.135781,33.742051]}},{"properties":{"city":"Louisville","zip":"40207","geo_score":0.464,"street":null,"id":"a6fyxe968ywn","geo_precision":"street","address":"Club Lane","state":"KY"},"type":"Feature","geometry":{"type":"Point","coordinates":[-84.135781,33.742051]}},{"properties":{"city":"Louisville","zip":"40245","geo_score":0.386,"street":"2112","id":"a6fyxehlgkl1","geo_precision":"street","address":"Clubb Vista","state":"KY"},"type":"Feature","geometry":{"type":"Point","coordinates":[-84.135781,33.742051]}},{"properties":{"city":"Louisville","zip":"40223","geo_score":0.612,"street":"204","id":"a6fyxeawqn4r","geo_precision":"street","address":"Clydesdale Trace","state":"KY"},"type":"Feature","geometry":{"type":"Point","coordinates":[-86.572251,34.750026]}},{"properties":{"city":"Louisville","zip":"40207","geo_score":0.6,"street":"1200","id":"a6fyxe6sgg61","geo_precision":"street","address":"Creighton Hill Rd","state":"KY"},"type":"Feature","geometry":{"type":"Point","coordinates":[-81.350078,24.67741]}},{"properties":{"city":"Louisville","zip":"40206","geo_score":0.355,"street":"609","id":"a6fyxe8f1e7f","geo_precision":"street","address":"Cressbrook Dr.","state":"KY"},"type":"Feature","geometry":{"type":"Point","coordinates":[-82.877517,38.642449]}},{"properties":{"city":"Louisville","zip":"40220","geo_score":0.623,"street":"3117","id":"a6fyxeaaylen","geo_precision":"city","address":"Cromarty Way","state":"KY"},"type":"Feature","geometry":{"type":"Point","coordinates":[-90.82932,34.382204]}},{"properties":{"city":"Louisville","zip":"40241","geo_score":0.571,"street":"9206","id":"a6fyxe61zbky","geo_precision":"street","address":"Darley Dr.","state":"KY"},"type":"Feature","geometry":{"type":"Point","coordinates":[-83.750441,31.62753]}},{"properties":{"city":"Louisville","zip":"40205","geo_score":0.714,"street":"2318","id":"a6fyxeh0a1ql","geo_precision":"street","address":"Douglass Blvd","state":"KY"},"type":"Feature","geometry":{"type":"Point","coordinates":[-85.586598,34.576516]}},{"properties":{"city":"Louisville","zip":"40205","geo_score":0.714,"street":"1868","id":"a6fyxekefg63","geo_precision":"street","address":"Douglass Blvd.","state":"KY"},"type":"Feature","geometry":{"type":"Point","coordinates":[-85.586598,34.576516]}},{"properties":{"city":"Louisville","zip":"40205","geo_score":0.714,"street":"2122","id":"a6fyxefblnid","geo_precision":"street","address":"Douglass Blvd.","state":"KY"},"type":"Feature","geometry":{"type":"Point","coordinates":[-85.586598,34.576516]}},{"properties":{"city":"Louisville","zip":"40218","geo_score":0.386,"street":"3811","id":"a6fyxedypwnh","geo_precision":"street","address":"Downing Way","state":"KY"},"type":"Feature","geometry":{"type":"Point","coordinates":[-93.760179,35.43167]}},{"properties":{"city":"Louisville","zip":"40207","geo_score":0.607,"street":"4021","id":"a6fyxebcc64n","geo_precision":"street","address":"Druid Hills Road","state":"KY"},"type":"Feature","geometry":{"type":"Point","coordinates":[-132.640881,55.485434]}},{"properties":{"city":"Louisville","zip":"40205","geo_score":0.657,"street":"2631","id":"a6fyxe83x88q","geo_precision":"street","address":"Dundee Road","state":"KY"},"type":"Feature","geometry":{"type":"Point","coordinates":[-85.671433,31.122187]}},{"properties":{"city":"Louisville","zip":"40214","geo_score":0.0,"street":"331","id":"a6fyxe7xhu98","geo_precision":"unmatched","address":"E Esplanade Ave","state":"KY"},"type":"Feature","geometry":null},{"properties":{"city":"Louisville","zip":"40207","geo_score":0.821,"street":"906","id":"a6fyxejm34r7","geo_precision":"street","address":"E. Riverside Dr","state":"KY"},"type":"Feature","geometry":{"type":"Point","coordinates":[-117.252472,33.897717]}},{"properties":{"city":"Louisville","zip":"40207","geo_score":0.729,"street":"3915","id":"a6fyxeeh2zf0","geo_precision":"street","address":"Elmwood Ave","state":"KY"},"type":"Feature","geometry":{"type":"Point","coordinates":[-90.035974,29.926809]}},{"properties":{"city":"Louisville","zip":"40207","geo_score":0.729,"street":"4020","id":"a6fyxeem4yup","geo_precision":"street","address":"Elmwood Ave.","state":"KY"},"type":"Feature","geometry":{"type":"Point","coordinates":[-90.035974,29.926809]}},{"properties":{"city":"Louisville","zip":"40206","geo_score":0.673,"street":"615","id":"a6fyxe6d5ze5","geo_precision":"city","address":"Emery Rd","state":"KY"},"type":"Feature","geometry":{"type":"Point","coordinates":[-93.280205,43.133571]}},{"properties":{"city":"Louisville","zip":"40204","geo_score":0.857,"street":"1115","id":"a6fyxefkz5t4","geo_precision":"street","address":"Everett Ave","state":"KY"},"type":"Feature","geometry":{"type":"Point","coordinates":[-122.21498,47.98201]}},{"properties":{"city":"Louisville","zip":"40204","geo_score":0.857,"street":"1289","id":"a6fyxekk0nxl","geo_precision":"street","address":"Everett Ave","state":"ky"},"type":"Feature","geometry":{"type":"Point","coordinates":[-122.21498,47.98201]}},{"properties":{"city":"Louisville","zip":"40206","geo_score":0.643,"street":"218","id":"a6fyxelu6s9i","geo_precision":"street","address":"Ewing Ave","state":"KY"},"type":"Feature","geometry":{"type":"Point","coordinates":[-82.576923,39.713356]}},{"properties":{"city":"Louisville","zip":"40241","geo_score":0.593,"street":"6913","id":"a6fyxelz4c53","geo_precision":"street","address":"Fallen Leaf Circle","state":"KY"},"type":"Feature","geometry":{"type":"Point","coordinates":[-86.482844,33.347856]}},{"properties":{"city":"Louisville","zip":"40223","geo_score":0.714,"street":"101","id":"a6fyxea058jz","geo_precision":"street","address":"Forest Park Drive","state":"KY"},"type":"Feature","geometry":{"type":"Point","coordinates":[-87.496018,33.208793]}},{"properties":{"city":"Louisville","zip":"40220","geo_score":0.357,"street":"7811","id":"a6fyxee9b9yf","geo_precision":"street","address":"Fox Lair Way","state":"KY"},"type":"Feature","geometry":{"type":"Point","coordinates":[-147.75014,64.846964]}},{"properties":{"city":"Elizabethtown","zip":"42701","geo_score":0.659,"street":"833","id":"a6fyxebh4ggw","geo_precision":"street","address":"Freeman Lake Road","state":"KY"},"type":"Feature","geometry":{"type":"Point","coordinates":[-105.093721,37.340564]}},{"properties":{"city":"Louisville","zip":"40243","geo_score":0.599,"street":"10905","id":"a6fyxe97a75y","geo_precision":"street","address":"Glenbarr Ct","state":"KY"},"type":"Feature","geometry":{"type":"Point","coordinates":[-73.525319,41.061375]}},{"properties":{"city":"Louisville","zip":"40241","geo_score":0.643,"street":"8618","id":"a6fyxebtiena","geo_precision":"street","address":"Glenfield Way","state":"KY"},"type":"Feature","geometry":{"type":"Point","coordinates":[-85.167307,32.296557]}},{"properties":{"city":"Louisville","zip":"40213","geo_score":0.564,"street":"1026","id":"a6fyxegnwb8g","geo_precision":"street","address":"Greenleaf Rd","state":"KY"},"type":"Feature","geometry":{"type":"Point","coordinates":[-85.961827,41.695589]}},{"properties":{"city":"Louisville","zip":"40217","geo_score":0.667,"street":"3001","id":"a6fyxe6i5koy","geo_precision":"city","address":"Greenup Rd","state":"KY"},"type":"Feature","geometry":{"type":"Point","coordinates":[-90.33845,38.523664]}},{"properties":{"city":"Louisville","zip":"40214","geo_score":0.643,"street":"3304","id":"a6fyxejioum9","geo_precision":"street","address":"Hardwood Forest Dr","state":"KY"},"type":"Feature","geometry":{"type":"Point","coordinates":[-87.496018,33.208793]}},{"properties":{"city":"Prospect","zip":"40059","geo_score":0.319,"street":"6707","id":"a6fyxedtiszc","geo_precision":"street","address":"Harrods View Circle","state":"KY"},"type":"Feature","geometry":{"type":"Point","coordinates":[-78.187041,42.63988]}},{"properties":{"city":"Prospect","zip":"40059","geo_score":0.319,"street":"6601","id":"a6fyxe7wuhy6","geo_precision":"street","address":"Harrods View Circle","state":"KY"},"type":"Feature","geometry":{"type":"Point","coordinates":[-78.187041,42.63988]}},{"properties":{"city":"LaGrange","zip":"40031","geo_score":0.0,"street":"2710","id":"a6fyxehvv6vz","geo_precision":"unmatched","address":"Heights Lane","state":"KY"},"type":"Feature","geometry":null},{"properties":{"city":"Louisville","zip":"40207","geo_score":0.592,"street":"5522","id":"a6fyxedjrt7q","geo_precision":"street","address":"Hempstead Rd","state":"KY"},"type":"Feature","geometry":{"type":"Point","coordinates":[-73.654005,40.703965]}},{"properties":{"city":"Louisville","zip":"40222","geo_score":0.714,"street":"8600","id":"a6fyxeh7b87s","geo_precision":"street","address":"Herefordshire Dr.","state":"KY"},"type":"Feature","geometry":{"type":"Point","coordinates":[-116.7154,34.883199]}},{"properties":{"city":"Louisville","zip":"40222","geo_score":0.714,"street":"8606","id":"a6fyxegfzfem","geo_precision":"street","address":"Herefordshire Dr.","state":"KY"},"type":"Feature","geometry":{"type":"Point","coordinates":[-116.7154,34.883199]}},{"properties":{"city":"Louisville","zip":"40204","geo_score":0.786,"street":"48","id":"a6fyxecu56ov","geo_precision":"street","address":"Hill Road","state":"KY"},"type":"Feature","geometry":{"type":"Point","coordinates":[-81.39898,24.72739]}},{"properties":{"city":"Louisville","zip":"40223","geo_score":0.469,"street":"10746","id":"a6fyxekz40z3","geo_precision":"street","address":"Hobbs Station Rd","state":"KY"},"type":"Feature","geometry":{"type":"Point","coordinates":[-75.851103,38.897211]}},{"properties":{"city":"Louisville","zip":"40242","geo_score":0.643,"street":"9002","id":"a6fyxeh8goxm","geo_precision":"street","address":"Holly Village Court","state":"KY"},"type":"Feature","geometry":{"type":"Point","coordinates":[-80.424003,25.113595]}},{"properties":{"city":"Louisville","zip":"40206","geo_score":0.762,"street":"2902","id":"a6fyxe9alk9m","geo_precision":"street","address":"Juniper Rd","state":"KY"},"type":"Feature","geometry":{"type":"Point","coordinates":[-112.422971,42.821193]}},{"properties":{"city":"Louisville","zip":"40205","geo_score":0.235,"street":"2611","id":"a6fyxeiuc351","geo_precision":"street","address":"Kings Hwy.","state":"KY"},"type":"Feature","geometry":{"type":"Point","coordinates":[-83.662899,43.565467]}},{"properties":{"city":"Vine Grove","zip":"40175","geo_score":0.633,"street":"2013","id":"a6fyxef6cojo","geo_precision":"city","address":"Know Ave","state":"KY"},"type":"Feature","geometry":{"type":"Point","coordinates":[-85.558572,34.132319]}},{"properties":{"city":"Louisville","zip":"40205","geo_score":0.569,"street":"2142","id":"a6fyxebf9eiu","geo_precision":"street","address":"Lakeside Dr","state":"KY"},"type":"Feature","geometry":{"type":"Point","coordinates":[-92.85897,33.58533]}},{"properties":{"city":"Louisville","zip":"40205","geo_score":0.49,"street":"1801","id":"a6fyxem6x8r5","geo_precision":"street","address":"Lauderdale Rd","state":"KY"},"type":"Feature","geometry":{"type":"Point","coordinates":[-87.693604,34.873239]}},{"properties":{"city":"Louisville","zip":"40220","geo_score":0.762,"street":"4319","id":"a6fyxe75jx6u","geo_precision":"street","address":"Lincoln Road","state":"KY"},"type":"Feature","geometry":{"type":"Point","coordinates":[-96.591839,40.726279]}},{"properties":{"city":"Anchorage","zip":"40223","geo_score":0.527,"street":"2603","id":"a6fyxec0x71a","geo_precision":"street","address":"Little Hills Lane","state":"KY"},"type":"Feature","geometry":{"type":"Point","coordinates":[-132.640881,55.485434]}},{"properties":{"city":"Louisville","zip":"40207","geo_score":0.786,"street":"5003","id":"a6fyxeg3lp3y","geo_precision":"street","address":"Long Knife Run","state":"KY"},"type":"Feature","geometry":{"type":"Point","coordinates":[-119.868447,39.494761]}},{"properties":{"city":"Louisville","zip":"40205","geo_score":0.857,"street":"2214","id":"a6fyxe9tyssk","geo_precision":"street","address":"Manchester Rd","state":"KY"},"type":"Feature","geometry":{"type":"Point","coordinates":[-71.392068,43.004436]}},{"properties":{"city":"Louisville","zip":"40205","geo_score":0.649,"street":"2101","id":"a6fyxe8pzw9q","geo_precision":"city","address":"Maryland Ave","state":"KY"},"type":"Feature","geometry":{"type":"Point","coordinates":[-87.300572,34.241213]}},{"properties":{"city":"Louisville","zip":"40220","geo_score":0.857,"street":"2821","id":"a6fyxe985svp","geo_precision":"street","address":"Meadow Drive","state":"KY"},"type":"Feature","geometry":{"type":"Point","coordinates":[-74.851193,40.252755]}},{"properties":{"city":"Prospect","zip":"40059","geo_score":0.0,"street":"2505","id":"a6fyxefjdfro","geo_precision":"unmatched","address":"Meadowlark Dr.","state":"KY"},"type":"Feature","geometry":null},{"properties":{"city":"Fisherville","zip":"40023","geo_score":0.262,"street":"17009","id":"a6fyxe7u79yo","geo_precision":"street","address":"Meeting House","state":"KY"},"type":"Feature","geometry":{"type":"Point","coordinates":[-111.694279,43.645604]}},{"properties":{"city":"Peewee Valley","zip":"40056","geo_score":0.696,"street":"104","id":"a6fyxea8e8z6","geo_precision":"street","address":"Muirs Lane","state":"KY"},"type":"Feature","geometry":{"type":"Point","coordinates":[-121.94514,37.274519]}},{"properties":{"city":"Sellersburg","zip":"47172","geo_score":0.81,"street":"814","id":"a6fyxei2ipwj","geo_precision":"street","address":"N. Forest Drive","state":"IN"},"type":"Feature","geometry":{"type":"Point","coordinates":[-87.496018,33.208793]}},{"properties":{"city":"Louisville","zip":"40207","geo_score":0.648,"street":"114","id":"a6fyxec1dt0t","geo_precision":"city","address":"N. Hubbards Lane","state":"KY"},"type":"Feature","geometry":{"type":"Point","coordinates":[-87.375282,37.776156]}},{"properties":{"city":"Louisville","zip":"40207","geo_score":0.652,"street":"331","id":"a6fyxebp4jqr","geo_precision":"street","address":"Norbourne Blvd","state":"KY"},"type":"Feature","geometry":{"type":"Point","coordinates":[-85.639118,38.250268]}},{"properties":{"city":"Prospect","zip":"40059","geo_score":0.58,"street":"9518","id":"a6fyxe9yhbzf","geo_precision":"street","address":"Norton Commoms Blvd","state":"KY"},"type":"Feature","geometry":{"type":"Point","coordinates":[-86.610627,34.750754]}},{"properties":{"city":"Louisville","zip":"40222","geo_score":0.729,"street":"7703","id":"a6fyxei0fkw2","geo_precision":"street","address":"Norwood Dr.","state":"KY"},"type":"Feature","geometry":{"type":"Point","coordinates":[-93.566638,41.375054]}},{"properties":{"city":"Louisville","zip":"40241","geo_score":0.667,"street":"4707","id":"a6fyxem3k3t2","geo_precision":"street","address":"Oak Bend Dr.","state":"KY"},"type":"Feature","geometry":{"type":"Point","coordinates":[-121.479858,43.714265]}},{"properties":{"city":"Crestwood","zip":"40014","geo_score":0.33,"street":"6411","id":"a6fyxehabm5d","geo_precision":"street","address":"Oak Lea Drive","state":"KY"},"type":"Feature","geometry":{"type":"Point","coordinates":[-107.56372,40.520669]}},{"properties":{"city":"Louisville","zip":"40207","geo_score":0.643,"street":"305","id":"a6fyxejjibx8","geo_precision":"street","address":"Old Farm Court","state":"KY"},"type":"Feature","geometry":{"type":"Point","coordinates":[-94.196653,36.056369]}},{"properties":{"city":"Shelbyville","zip":"40065","geo_score":0.643,"street":"1499","id":"a6fyxe97jw9o","geo_precision":"street","address":"Old Seven Mile Pike","state":"KY"},"type":"Feature","geometry":{"type":"Point","coordinates":[-81.146254,31.962349]}},{"properties":{"city":"Louisville","zip":"40214","geo_score":0.643,"street":"202","id":"a6fyxejznnud","geo_precision":"street","address":"Old Towne Rd","state":"ky"},"type":"Feature","geometry":{"type":"Point","coordinates":[-87.424213,31.492461]}},{"properties":{"city":"Louisville","zip":"40207","geo_score":0.475,"street":"3909","id":"a6fyxeibied0","geo_precision":"street","address":"Olympic Ave","state":"KY"},"type":"Feature","geometry":{"type":"Point","coordinates":[-122.742605,47.697005]}},{"properties":{"city":"Louisville","zip":"40207","geo_score":0.643,"street":"4111","id":"a6fyxejk7miq","geo_precision":"city","address":"Ormond  Road","state":"KY"},"type":"Feature","geometry":{"type":"Point","coordinates":[-117.41838,34.011125]}},{"properties":{"city":"Louisville","zip":"40222","geo_score":0.629,"street":"1100","id":"a6fyxecejk0u","geo_precision":"street","address":"Oxmoor Woods Parkway","state":"KY"},"type":"Feature","geometry":{"type":"Point","coordinates":[-86.835371,33.458324]}},{"properties":{"city":"Jefferstown","zip":"40299","geo_score":0.0,"street":"9506","id":"a6fyxe7lfela","geo_precision":"unmatched","address":"Palladio Ct","state":"KY"},"type":"Feature","geometry":null},{"properties":{"city":"Louisville","zip":"40220","geo_score":0.679,"street":"8","id":"a6fyxei70i7d","geo_precision":"street","address":"Pembroke Rd","state":"KY"},"type":"Feature","geometry":{"type":"Point","coordinates":[-80.147742,25.996639]}},{"properties":{"city":"Louisville","zip":"40241","geo_score":0.612,"street":"3312","id":"a6fyxekf632h","geo_precision":"city","address":"Pineneedle Lane","state":"KY"},"type":"Feature","geometry":{"type":"Point","coordinates":[-89.052834,32.155704]}},{"properties":{"city":"Louisville","zip":"40245","geo_score":0.643,"street":"16711","id":"a6fyxeg82isp","geo_precision":"street","address":"Polo Fields Lane","state":"KY"},"type":"Feature","geometry":{"type":"Point","coordinates":[-104.444712,38.166087]}},{"properties":{"city":"Louisville","zip":"40206","geo_score":0.589,"street":"3019","id":"a6fyxeipugib","geo_precision":"street","address":"Poppy Way","state":"KY"},"type":"Feature","geometry":{"type":"Point","coordinates":[-87.738497,32.091181]}},{"properties":{"city":"Louisville","zip":"40243","geo_score":0.75,"street":"211","id":"a6fyxe7jpew0","geo_precision":"street","address":"Prestwick Place","state":"KY"},"type":"Feature","geometry":{"type":"Point","coordinates":[-87.671652,30.301675]}},{"properties":{"city":"Louisville","zip":"40207","geo_score":0.74,"street":"5305","id":"a6fyxejddw1u","geo_precision":"street","address":"Pueblo Rd","state":"KY"},"type":"Feature","geometry":{"type":"Point","coordinates":[-104.669052,38.595596]}},{"properties":{"city":"Louisville","zip":"40241","geo_score":0.75,"street":"6202","id":"a6fyxe7ij9e1","geo_precision":"street","address":"Raccoon Run Court","state":"KY"},"type":"Feature","geometry":{"type":"Point","coordinates":[-119.922607,39.520159]}},{"properties":{"city":"Louisville","zip":"40242","geo_score":0.252,"street":"2502","id":"a6fyxe6qwiaw","geo_precision":"street","address":"Rhett Court","state":"ky"},"type":"Feature","geometry":{"type":"Point","coordinates":[-120.450219,37.966367]}},{"properties":{"city":"Anchorage","zip":"40223","geo_score":0.651,"street":"11802","id":"a6fyxe7a4lfl","geo_precision":"street","address":"Ridge Road","state":"KY"},"type":"Feature","geometry":{"type":"Point","coordinates":[-92.203006,30.180819]}},{"properties":{"city":"Louisville","zip":"40207","geo_score":0.558,"street":"352","id":"a6fyxeevmzip","geo_precision":"street","address":"Ridgeway Ave","state":"KY"},"type":"Feature","geometry":{"type":"Point","coordinates":[-73.543842,41.066994]}},{"properties":{"city":"Louisville","zip":"40206","geo_score":0.486,"street":"2714","id":"a6fyxefx3821","geo_precision":"street","address":"Riedling Dr. Unit B","state":"KY"},"type":"Feature","geometry":{"type":"Point","coordinates":[-92.773842,34.724904]}},{"properties":{"city":"Simpsonville","zip":"40067","geo_score":0.333,"street":"224","id":"a6fyxekc8f08","geo_precision":"street","address":"Rolling Ridge Way","state":"KY"},"type":"Feature","geometry":{"type":"Point","coordinates":[-92.203006,30.180819]}},{"properties":{"city":"Louisville","zip":"40206","geo_score":0.538,"street":"327","id":"a6fyxegx4895","geo_precision":"street","address":"S. Birchwood Ave.","state":"KY"},"type":"Feature","geometry":{"type":"Point","coordinates":[-72.722365,41.902939]}},{"properties":{"city":"Louisville","zip":"40299","geo_score":0.333,"street":"11400","id":"a6fyxe6prd1s","geo_precision":"street","address":"Saratoga Ridge Dr.","state":"KY"},"type":"Feature","geometry":{"type":"Point","coordinates":[-92.203006,30.180819]}},{"properties":{"city":"Louisville","zip":"40245","geo_score":0.625,"street":"3518","id":"a6fyxeic2l9m","geo_precision":"city","address":"Sasse Way","state":"ky"},"type":"Feature","geometry":{"type":"Point","coordinates":[-84.956338,36.776458]}},{"properties":{"city":"Louisville","zip":"40241","geo_score":0.615,"street":"2639","id":"a6fyxee42ft6","geo_precision":"city","address":"Seminary Drive","state":"KY"},"type":"Feature","geometry":{"type":"Point","coordinates":[-77.114979,38.955388]}},{"properties":{"city":"Prospect","zip":"40059","geo_score":0.686,"street":"7402","id":"a6fyxekewsvo","geo_precision":"street","address":"Shadwell Lane","state":"KY"},"type":"Feature","geometry":{"type":"Point","coordinates":[-78.482497,35.652877]}},{"properties":{"city":"Louisville","zip":"40059","geo_score":0.857,"street":"1845","id":"a6fyxebqdy8q","geo_precision":"street","address":"Shady Lane","state":"KY"},"type":"Feature","geometry":{"type":"Point","coordinates":[-82.03586,29.77893]}},{"properties":{"city":"Louisville","zip":"40206","geo_score":0.804,"street":"110","id":"a6fyxe7p999z","geo_precision":"street","address":"South State St.","state":"KY"},"type":"Feature","geometry":{"type":"Point","coordinates":[-71.263114,42.129567]}},{"properties":{"city":"Louisville","zip":"40223","geo_score":0.627,"street":"11527","id":"a6fyxe6wv5cn","geo_precision":"street","address":"Spring Heath Ct.","state":"KY"},"type":"Feature","geometry":{"type":"Point","coordinates":[-72.225903,41.784545]}},{"properties":{"city":"Louisville","zip":"40205","geo_score":0.423,"street":"1710","id":"a6fyxeh078iu","geo_precision":"street","address":"Stevens Ave","state":"KY"},"type":"Feature","geometry":{"type":"Point","coordinates":[-87.436419,38.032126]}},{"properties":{"city":"Louisville","zip":"40206","geo_score":0.643,"street":"230","id":"a6fyxeieq3kz","geo_precision":"city","address":"Stilz Ave","state":"KY"},"type":"Feature","geometry":{"type":"Point","coordinates":[-92.351296,40.635027]}},{"properties":{"city":"Louisville","zip":"40207","geo_score":0.626,"street":"601","id":"a6fyxeh1qq32","geo_precision":"city","address":"Stivers Rd","state":"KY"},"type":"Feature","geometry":{"type":"Point","coordinates":[-77.630546,39.927869]}},{"properties":{"city":"Louisville","zip":"40206","geo_score":0.821,"street":"615","id":"a6fyxem0z4co","geo_precision":"street","address":"Sunnyside Dr.","state":"KY"},"type":"Feature","geometry":{"type":"Point","coordinates":[-112.157941,33.592271]}},{"properties":{"city":"Louisville","zip":"40220","geo_score":0.0,"street":"3106","id":"a6fyxeeri7rb","geo_precision":"unmatched","address":"Talisman Rd","state":"KY"},"type":"Feature","geometry":null},{"properties":{"city":"Louisville","zip":"40223","geo_score":0.571,"street":"700","id":"a6fyxedwihix","geo_precision":"street","address":"Talon Place","state":"KY"},"type":"Feature","geometry":{"type":"Point","coordinates":[-86.98283,33.395638]}},{"properties":{"city":"Louisville","zip":"40242","geo_score":0.623,"street":"9100","id":"a6fyxeakfqgp","geo_precision":"city","address":"Tangley Lane","state":"KY"},"type":"Feature","geometry":{"type":"Point","coordinates":[-92.758499,35.908687]}},{"properties":{"city":"Louisville","zip":"40207","geo_score":0.729,"street":"6005","id":"a6fyxekvpcxe","geo_precision":"street","address":"Two Springs Lane","state":"KY"},"type":"Feature","geometry":{"type":"Point","coordinates":[-72.582199,42.104904]}},{"properties":{"city":"Louisville","zip":"40204","geo_score":0.303,"street":"1706","id":"a6fyxe7mbypj","geo_precision":"street","address":"Tyler Pkwy","state":"KY"},"type":"Feature","geometry":{"type":"Point","coordinates":[-112.462216,34.768343]}},{"properties":{"city":"New Albany","zip":"47150","geo_score":0.626,"street":"1008","id":"a6fyxegazjgx","geo_precision":"street","address":"Westchester Dr.","state":"IN"},"type":"Feature","geometry":{"type":"Point","coordinates":[-72.393407,41.59206]}},{"properties":{"city":"Louisville","zip":"40205","geo_score":0.584,"street":"2634","id":"a6fyxe9rn8u9","geo_precision":"street","address":"Whittier Ave","state":"KY"},"type":"Feature","geometry":{"type":"Point","coordinates":[-92.888584,35.117368]}},{"properties":{"city":"Louisville","zip":"40299","geo_score":0.667,"street":"3911","id":"a6fyxej1h3am","geo_precision":"city","address":"Wilderness Trail","state":"KY"},"type":"Feature","geometry":{"type":"Point","coordinates":[-91.192076,36.788944]}},{"properties":{"city":"Louisville","zip":"40205","geo_score":0.324,"street":"213","id":"a6fyxef6ytv3","geo_precision":"street","address":"Willoughby Court","state":"KY"},"type":"Feature","geometry":{"type":"Point","coordinates":[-104.95888,39.842849]}},{"properties":{"city":"Louisville","zip":"40207","geo_score":0.786,"street":"4105","id":"a6fyxe6t5m37","geo_precision":"street","address":"Winchester Rd","state":"KY"},"type":"Feature","geometry":{"type":"Point","coordinates":[-82.947333,32.572311]}},{"properties":{"city":"Louisville","zip":"40205","geo_score":0.729,"street":"2328","id":"a6fyxegrdw51","geo_precision":"street","address":"Winston Ave","state":"KY"},"type":"Feature","geometry":{"type":"Point","coordinates":[-80.277878,36.090661]}},{"properties":{"city":"Prospect","zip":"40059","geo_score":0.343,"street":"6302","id":"a6fyxelrvbed","geo_precision":"street","address":"Wolf Pen Branch Rd","state":"KY"},"type":"Feature","geometry":{"type":"Point","coordinates":[-92.981642,45.507912]}},{"properties":{"city":"Prospect","zip":"40059","geo_score":0.571,"street":"5002","id":"a6fyxeco1c5d","geo_precision":"street","address":"Wolf Pen Dr","state":"KY"},"type":"Feature","geometry":{"type":"Point","coordinates":[-86.850307,34.810874]}},{"properties":{"city":"Louisville","zip":"40220","geo_score":0.686,"street":"2405","id":"a6fyxek4651c","geo_precision":"city","address":"Woodmont Dr","state":"KY"},"type":"Feature","geometry":{"type":"Point","coordinates":[-86.993049,33.44872]}},{"properties":{"city":"Louisville","zip":"40241","geo_score":0.298,"street":"4101","id":"a6fyxe8043ck","geo_precision":"street","address":"Woodstone Way","state":"KY"},"type":"Feature","geometry":{"type":"Point","coordinates":[-80.018031,40.872769]}},{"properties":{"city":"Louisville","zip":"40220","geo_score":0.725,"street":"2928","id":"a6fyxe7evw0i","geo_precision":"street","address":"Yorkshire Blvd","state":"KY"},"type":"Feature","geometry":{"type":"Point","coordinates":[-76.912044,38.789766]}}],"is_temporal":false,"author":{"url":"","metadata":"","contact_name":"","contact_address":"","source":"","contact_phone":""},"source":"","pagination":{"sort":null,"start":0,"total":135,"limit":1000000},"state":"complete","tags":"","published":"2014-08-13T00:47:13-04:00","id":132803}