{"type":"FeatureCollection","data_type":"Dataset","url_type":null,"permissions":[{"permissions":{"download":true,"view":true},"group_id":"everyone"}],"classification":null,"title":"2009 Q1 Office Highlights","count":55,"stream_id":13316,"contributor":{"url":"http://geocommons.com/users/4388","name":"elliott.goodwin"},"data_attributes":null,"calculation_params":null,"icon_link":null,"link":"http://geocommons.com/overlays/13316.json","extent":[-157.858,21.3047,-71.0567,47.6036],"geometry_types":["point"],"unique_name":null,"name":"2009 Q1 Office Highlights","feature_count":55,"description":"A report from Colliers International on the state of office real estate in Q1 2009.","next_feature":null,"is_raster":false,"short_classification":"Y","stats":{"latitude":{"max":47.603561,"mean":36.6907340727273,"variance":28.5483796276804,"stdev":5.34306837198256,"min":21.304735,"median":37.805065},"new  supply q1  2009":{"max":2102000.0,"mean":86272.7272727273,"variance":123964868686.869,"stdev":352086.450586882,"min":-26000.0,"median":0.0},"under  construction":{"max":8446000.0,"mean":687709.090909091,"variance":2230315024915.83,"stdev":1493423.92672537,"min":0.0,"median":10000.0},"existing  inventory":{"max":257412000.0,"mean":28948872.7272727,"variance":1.82982018674276e+15,"stdev":42776397.5428362,"min":1070000.0,"median":12707000.0},"absorption  q1 2009":{"max":317000.0,"mean":-202581.818181818,"variance":309129395959.596,"stdev":555994.061083026,"min":-3596000.0,"median":-45000.0},"vacancy  rate q1 2009":{"max":21.96,"mean":13.7523636363636,"variance":18.719310976431,"stdev":4.32658190450972,"min":4.06,"median":13.98},"longitude":{"max":-71.056699,"mean":-96.065882,"variance":390.61181755655,"stdev":19.7639018808673,"min":-157.857619,"median":-87.632409},"vacancy  rate q4 2008":{"max":21.59,"mean":13.1438181818182,"variance":20.2257647811448,"stdev":4.49730639173548,"min":2.56,"median":13.06}},"features":[{"properties":{"city":"Atlanta","latitude":33.748315,"new  supply q1  2009":0.0,"under  construction":1260000.0,"existing  inventory":55688000.0,"absorption  q1 2009":63000.0,"vacancy  rate q1 2009":13.28,"longitude":-84.391109,"vacancy  rate q4 2008":13.4,"id":"a677aguh4ug8","state":"GA"},"type":"Feature","geometry":{"type":"Point","coordinates":[-84.391109,33.748315]}},{"properties":{"city":"Bakersfield","latitude":35.366975,"new  supply q1  2009":0.0,"under  construction":0.0,"existing  inventory":2926000.0,"absorption  q1 2009":-9000.0,"vacancy  rate q1 2009":6.54,"longitude":-119.018844,"vacancy  rate q4 2008":6.34,"id":"a677agk30nsh","state":"CA"},"type":"Feature","geometry":{"type":"Point","coordinates":[-119.018844,35.366975]}},{"properties":{"city":"Baltimore","latitude":39.290555,"new  supply q1  2009":0.0,"under  construction":803000.0,"existing  inventory":19471000.0,"absorption  q1 2009":-70000.0,"vacancy  rate q1 2009":17.74,"longitude":-76.609604,"vacancy  rate q4 2008":17.38,"id":"a677aggvq6dp","state":"MD"},"type":"Feature","geometry":{"type":"Point","coordinates":[-76.609604,39.290555]}},{"properties":{"city":"Boise","latitude":43.60698,"new  supply q1  2009":0.0,"under  construction":0.0,"existing  inventory":3470000.0,"absorption  q1 2009":-13000.0,"vacancy  rate q1 2009":9.9,"longitude":-116.193409,"vacancy  rate q4 2008":9.52,"id":"a677agh9rxu2","state":"ID"},"type":"Feature","geometry":{"type":"Point","coordinates":[-116.193409,43.60698]}},{"properties":{"city":"Boston","latitude":42.358635,"new  supply q1  2009":0.0,"under  construction":1544000.0,"existing  inventory":57591000.0,"absorption  q1 2009":-580000.0,"vacancy  rate q1 2009":11.52,"longitude":-71.056699,"vacancy  rate q4 2008":10.51,"id":"a677agroy606","state":"MA"},"type":"Feature","geometry":{"type":"Point","coordinates":[-71.056699,42.358635]}},{"properties":{"city":"Charleston","latitude":32.781155,"new  supply q1  2009":0.0,"under  construction":0.0,"existing  inventory":2064000.0,"absorption  q1 2009":-28000.0,"vacancy  rate q1 2009":7.96,"longitude":-79.931599,"vacancy  rate q4 2008":6.6,"id":"a677agicj9vf","state":"SC"},"type":"Feature","geometry":{"type":"Point","coordinates":[-79.931599,32.781155]}},{"properties":{"city":"Charlotte","latitude":35.2225,"new  supply q1  2009":0.0,"under  construction":2817000.0,"existing  inventory":19023000.0,"absorption  q1 2009":-204000.0,"vacancy  rate q1 2009":4.06,"longitude":-80.837539,"vacancy  rate q4 2008":2.56,"id":"a677agi0ym85","state":"NC"},"type":"Feature","geometry":{"type":"Point","coordinates":[-80.837539,35.2225]}},{"properties":{"city":"Chicago","latitude":41.88415,"new  supply q1  2009":1350000.0,"under  construction":2303000.0,"existing  inventory":130460000.0,"absorption  q1 2009":-507000.0,"vacancy  rate q1 2009":13.98,"longitude":-87.632409,"vacancy  rate q4 2008":12.69,"id":"a677agvd2ksu","state":"IL"},"type":"Feature","geometry":{"type":"Point","coordinates":[-87.632409,41.88415]}},{"properties":{"city":"Cincinnati","latitude":39.106441,"new  supply q1  2009":0.0,"under  construction":825000.0,"existing  inventory":12707000.0,"absorption  q1 2009":-3000.0,"vacancy  rate q1 2009":17.43,"longitude":-84.504694,"vacancy  rate q4 2008":17.32,"id":"a677agj30xju","state":"OH"},"type":"Feature","geometry":{"type":"Point","coordinates":[-84.504694,39.106441]}},{"properties":{"city":"Cleveland","latitude":41.504365,"new  supply q1  2009":0.0,"under  construction":0.0,"existing  inventory":30081000.0,"absorption  q1 2009":-76000.0,"vacancy  rate q1 2009":16.42,"longitude":-81.690459,"vacancy  rate q4 2008":16.3,"id":"a677agqr6lv1","state":"OH"},"type":"Feature","geometry":{"type":"Point","coordinates":[-81.690459,41.504365]}},{"properties":{"city":"Columbia","latitude":33.99855,"new  supply q1  2009":0.0,"under  construction":190000.0,"existing  inventory":4460000.0,"absorption  q1 2009":-45000.0,"vacancy  rate q1 2009":13.54,"longitude":-81.045249,"vacancy  rate q4 2008":12.53,"id":"a677aggrhwm9","state":"SC"},"type":"Feature","geometry":{"type":"Point","coordinates":[-81.045249,33.99855]}},{"properties":{"city":"Columbus","latitude":39.962,"new  supply q1  2009":0.0,"under  construction":195000.0,"existing  inventory":9673000.0,"absorption  q1 2009":-36000.0,"vacancy  rate q1 2009":14.81,"longitude":-83.003014,"vacancy  rate q4 2008":13.06,"id":"a677agkm78eb","state":"OH"},"type":"Feature","geometry":{"type":"Point","coordinates":[-83.003014,39.962]}},{"properties":{"city":"Dallas/Fort Wort","latitude":31.78954,"new  supply q1  2009":0.0,"under  construction":0.0,"existing  inventory":35365000.0,"absorption  q1 2009":317000.0,"vacancy  rate q1 2009":19.7,"longitude":-96.463602,"vacancy  rate q4 2008":20.59,"id":"a677aghoaqhb","state":"TX"},"type":"Feature","geometry":{"type":"Point","coordinates":[-96.463602,31.78954]}},{"properties":{"city":"Denver","latitude":39.74001,"new  supply q1  2009":0.0,"under  construction":496000.0,"existing  inventory":26608000.0,"absorption  q1 2009":-266000.0,"vacancy  rate q1 2009":15.11,"longitude":-104.992259,"vacancy  rate q4 2008":14.12,"id":"a677aggqz4yn","state":"CO"},"type":"Feature","geometry":{"type":"Point","coordinates":[-104.992259,39.74001]}},{"properties":{"city":"Detroit","latitude":42.331685,"new  supply q1  2009":0.0,"under  construction":0.0,"existing  inventory":29744000.0,"absorption  q1 2009":-57000.0,"vacancy  rate q1 2009":16.43,"longitude":-83.047924,"vacancy  rate q4 2008":16.12,"id":"a677agojqeho","state":"MI"},"type":"Feature","geometry":{"type":"Point","coordinates":[-83.047924,42.331685]}},{"properties":{"city":"Fresno","latitude":36.740615,"new  supply q1  2009":114000.0,"under  construction":0.0,"existing  inventory":3206000.0,"absorption  q1 2009":28000.0,"vacancy  rate q1 2009":10.72,"longitude":-119.785679,"vacancy  rate q4 2008":8.34,"id":"a677agt0kp16","state":"CA"},"type":"Feature","geometry":{"type":"Point","coordinates":[-119.785679,36.740615]}},{"properties":{"city":"Ft. Lauderdale/Broward County","latitude":26.123671,"new  supply q1  2009":0.0,"under  construction":0.0,"existing  inventory":6122000.0,"absorption  q1 2009":-14000.0,"vacancy  rate q1 2009":15.1,"longitude":-80.143562,"vacancy  rate q4 2008":14.87,"id":"a677agnbadw1","state":"FL"},"type":"Feature","geometry":{"type":"Point","coordinates":[-80.143562,26.123671]}},{"properties":{"city":"Greenville","latitude":34.84802,"new  supply q1  2009":0.0,"under  construction":60000.0,"existing  inventory":3144000.0,"absorption  q1 2009":0.0,"vacancy  rate q1 2009":20.76,"longitude":-82.400219,"vacancy  rate q4 2008":20.76,"id":"a677agurk7xj","state":"SC"},"type":"Feature","geometry":{"type":"Point","coordinates":[-82.400219,34.84802]}},{"properties":{"city":"Hartford","latitude":41.763325,"new  supply q1  2009":0.0,"under  construction":0.0,"existing  inventory":10096000.0,"absorption  q1 2009":-205000.0,"vacancy  rate q1 2009":16.25,"longitude":-72.674069,"vacancy  rate q4 2008":14.86,"id":"a677agt5hoqc","state":"CT"},"type":"Feature","geometry":{"type":"Point","coordinates":[-72.674069,41.763325]}},{"properties":{"city":"Honolulu","latitude":21.304735,"new  supply q1  2009":0.0,"under  construction":0.0,"existing  inventory":15706000.0,"absorption  q1 2009":-849000.0,"vacancy  rate q1 2009":5.65,"longitude":-157.857619,"vacancy  rate q4 2008":5.04,"id":"a677agv9p6te","state":"HI"},"type":"Feature","geometry":{"type":"Point","coordinates":[-157.857619,21.304735]}},{"properties":{"city":"Housto","latitude":29.76045,"new  supply q1  2009":0.0,"under  construction":1817000.0,"existing  inventory":37422000.0,"absorption  q1 2009":-171000.0,"vacancy  rate q1 2009":12.9,"longitude":-95.369784,"vacancy  rate q4 2008":12.44,"id":"a677agsge2lj","state":"TX"},"type":"Feature","geometry":{"type":"Point","coordinates":[-95.369784,29.76045]}},{"properties":{"city":"Indianapolis","latitude":39.76691,"new  supply q1  2009":0.0,"under  construction":0.0,"existing  inventory":11559000.0,"absorption  q1 2009":17000.0,"vacancy  rate q1 2009":14.77,"longitude":-86.149964,"vacancy  rate q4 2008":14.9,"id":"a677agiqmkpe","state":"IN"},"type":"Feature","geometry":{"type":"Point","coordinates":[-86.149964,39.76691]}},{"properties":{"city":"Jacksonville","latitude":30.33138,"new  supply q1  2009":0.0,"under  construction":0.0,"existing  inventory":12878000.0,"absorption  q1 2009":-13000.0,"vacancy  rate q1 2009":10.9,"longitude":-81.655799,"vacancy  rate q4 2008":10.8,"id":"a677agvoszh7","state":"FL"},"type":"Feature","geometry":{"type":"Point","coordinates":[-81.655799,30.33138]}},{"properties":{"city":"Kansas City M","latitude":37.055865,"new  supply q1  2009":44000.0,"under  construction":0.0,"existing  inventory":11285000.0,"absorption  q1 2009":17000.0,"vacancy  rate q1 2009":20.53,"longitude":-97.038979,"vacancy  rate q4 2008":20.38,"id":"a677aglo8flr","state":"KS"},"type":"Feature","geometry":{"type":"Point","coordinates":[-97.038979,37.055865]}},{"properties":{"city":"Las Vegas","latitude":36.171915,"new  supply q1  2009":0.0,"under  construction":0.0,"existing  inventory":3369000.0,"absorption  q1 2009":-82000.0,"vacancy  rate q1 2009":10.29,"longitude":-115.139974,"vacancy  rate q4 2008":8.94,"id":"a677agu6di9v","state":"NV"},"type":"Feature","geometry":{"type":"Point","coordinates":[-115.139974,36.171915]}},{"properties":{"city":"Little Roc","latitude":34.748655,"new  supply q1  2009":23000.0,"under  construction":0.0,"existing  inventory":6280000.0,"absorption  q1 2009":24000.0,"vacancy  rate q1 2009":11.56,"longitude":-92.274494,"vacancy  rate q4 2008":11.71,"id":"a677agtz4r7v","state":"AR"},"type":"Feature","geometry":{"type":"Point","coordinates":[-92.274494,34.748655]}},{"properties":{"city":"Los Angeles","latitude":34.05329,"new  supply q1  2009":0.0,"under  construction":0.0,"existing  inventory":31409000.0,"absorption  q1 2009":46000.0,"vacancy  rate q1 2009":14.99,"longitude":-118.245009,"vacancy  rate q4 2008":14.9,"id":"a677agqdmtef","state":"CA"},"type":"Feature","geometry":{"type":"Point","coordinates":[-118.245009,34.05329]}},{"properties":{"city":"Louisville","latitude":38.25486,"new  supply q1  2009":0.0,"under  construction":0.0,"existing  inventory":10105000.0,"absorption  q1 2009":-32000.0,"vacancy  rate q1 2009":7.88,"longitude":-85.766404,"vacancy  rate q4 2008":7.57,"id":"a677aguor0jd","state":"KY"},"type":"Feature","geometry":{"type":"Point","coordinates":[-85.766404,38.25486]}},{"properties":{"city":"Memphi","latitude":35.149657,"new  supply q1  2009":0.0,"under  construction":0.0,"existing  inventory":8451000.0,"absorption  q1 2009":-50000.0,"vacancy  rate q1 2009":12.52,"longitude":-90.048913,"vacancy  rate q4 2008":11.92,"id":"a677agiok5id","state":"TN"},"type":"Feature","geometry":{"type":"Point","coordinates":[-90.048913,35.149657]}},{"properties":{"city":"Miami/Dade County","latitude":25.558399,"new  supply q1  2009":0.0,"under  construction":1982000.0,"existing  inventory":15165000.0,"absorption  q1 2009":-50000.0,"vacancy  rate q1 2009":15.09,"longitude":-80.49585,"vacancy  rate q4 2008":14.76,"id":"a677agqt2p7c","state":"FL"},"type":"Feature","geometry":{"type":"Point","coordinates":[-80.49585,25.558399]}},{"properties":{"city":"Milwauke","latitude":43.04181,"new  supply q1  2009":0.0,"under  construction":0.0,"existing  inventory":10629000.0,"absorption  q1 2009":-192000.0,"vacancy  rate q1 2009":18.62,"longitude":-87.906844,"vacancy  rate q4 2008":17.54,"id":"a677aguhr7fn","state":"WI"},"type":"Feature","geometry":{"type":"Point","coordinates":[-87.906844,43.04181]}},{"properties":{"city":"Minneapolis/St. Paul","latitude":44.943829,"new  supply q1  2009":0.0,"under  construction":0.0,"existing  inventory":24422000.0,"absorption  q1 2009":-15000.0,"vacancy  rate q1 2009":15.85,"longitude":-93.093326,"vacancy  rate q4 2008":15.78,"id":"a677agq866su","state":"MN"},"type":"Feature","geometry":{"type":"Point","coordinates":[-93.093326,44.943829]}},{"properties":{"city":"Nashvill","latitude":36.167762,"new  supply q1  2009":75000.0,"under  construction":520000.0,"existing  inventory":7524000.0,"absorption  q1 2009":-50000.0,"vacancy  rate q1 2009":17.3,"longitude":-86.778366,"vacancy  rate q4 2008":15.8,"id":"a677agotnfam","state":"TN"},"type":"Feature","geometry":{"type":"Point","coordinates":[-86.778366,36.167762]}},{"properties":{"city":"New York, NY -DT Manha","latitude":40.714531,"new  supply q1  2009":0.0,"under  construction":4600000.0,"existing  inventory":89744000.0,"absorption  q1 2009":-3000.0,"vacancy  rate q1 2009":10.22,"longitude":-74.007133,"vacancy  rate q4 2008":10.21,"id":"a677aghm2zc1","state":"an"},"type":"Feature","geometry":{"type":"Point","coordinates":[-74.007133,40.714531]}},{"properties":{"city":"New York, NY -MT Manha","latitude":40.714531,"new  supply q1  2009":2102000.0,"under  construction":1438000.0,"existing  inventory":257412000.0,"absorption  q1 2009":-3596000.0,"vacancy  rate q1 2009":12.44,"longitude":-74.007133,"vacancy  rate q4 2008":10.14,"id":"a677ags208en","state":"an"},"type":"Feature","geometry":{"type":"Point","coordinates":[-74.007133,40.714531]}},{"properties":{"city":"New York, NY -MTS Manha","latitude":40.714531,"new  supply q1  2009":0.0,"under  construction":315000.0,"existing  inventory":98339000.0,"absorption  q1 2009":-1647000.0,"vacancy  rate q1 2009":13.06,"longitude":-74.007133,"vacancy  rate q4 2008":11.38,"id":"a677agqn1zwh","state":"an"},"type":"Feature","geometry":{"type":"Point","coordinates":[-74.007133,40.714531]}},{"properties":{"city":"Oakland","latitude":37.805065,"new  supply q1  2009":0.0,"under  construction":172000.0,"existing  inventory":16913000.0,"absorption  q1 2009":-47000.0,"vacancy  rate q1 2009":10.99,"longitude":-122.273024,"vacancy  rate q4 2008":11.12,"id":"a677agu9olkm","state":"CA"},"type":"Feature","geometry":{"type":"Point","coordinates":[-122.273024,37.805065]}},{"properties":{"city":"Orlando","latitude":28.53774,"new  supply q1  2009":0.0,"under  construction":10000.0,"existing  inventory":11611000.0,"absorption  q1 2009":-130000.0,"vacancy  rate q1 2009":15.1,"longitude":-81.377389,"vacancy  rate q4 2008":13.84,"id":"a677agrsdexl","state":"FL"},"type":"Feature","geometry":{"type":"Point","coordinates":[-81.377389,28.53774]}},{"properties":{"city":"Philadelphia","latitude":39.95227,"new  supply q1  2009":0.0,"under  construction":0.0,"existing  inventory":41978000.0,"absorption  q1 2009":-304000.0,"vacancy  rate q1 2009":9.97,"longitude":-75.162369,"vacancy  rate q4 2008":9.25,"id":"a677agkinfej","state":"PA"},"type":"Feature","geometry":{"type":"Point","coordinates":[-75.162369,39.95227]}},{"properties":{"city":"Phoeni","latitude":33.44826,"new  supply q1  2009":0.0,"under  construction":1030000.0,"existing  inventory":19972000.0,"absorption  q1 2009":-161000.0,"vacancy  rate q1 2009":14.62,"longitude":-112.075774,"vacancy  rate q4 2008":13.8,"id":"a677aghtovd1","state":"AZ"},"type":"Feature","geometry":{"type":"Point","coordinates":[-112.075774,33.44826]}},{"properties":{"city":"Pleasanton/Walnut Creek","latitude":37.901192,"new  supply q1  2009":0.0,"under  construction":0.0,"existing  inventory":22370000.0,"absorption  q1 2009":-831000.0,"vacancy  rate q1 2009":19.34,"longitude":-122.0616,"vacancy  rate q4 2008":17.33,"id":"a677agmon0pb","state":"CA"},"type":"Feature","geometry":{"type":"Point","coordinates":[-122.0616,37.901192]}},{"properties":{"city":"Portland","latitude":45.511795,"new  supply q1  2009":124000.0,"under  construction":908000.0,"existing  inventory":32824000.0,"absorption  q1 2009":-99000.0,"vacancy  rate q1 2009":8.09,"longitude":-122.675629,"vacancy  rate q4 2008":7.32,"id":"a677agmzhpx6","state":"OR"},"type":"Feature","geometry":{"type":"Point","coordinates":[-122.675629,45.511795]}},{"properties":{"city":"Raleigh/Durham/Chapel Hill","latitude":35.914639,"new  supply q1  2009":-26000.0,"under  construction":24000.0,"existing  inventory":3712000.0,"absorption  q1 2009":-27000.0,"vacancy  rate q1 2009":8.8,"longitude":-79.056587,"vacancy  rate q4 2008":8.39,"id":"a677agoyjsdk","state":"NC"},"type":"Feature","geometry":{"type":"Point","coordinates":[-79.056587,35.914639]}},{"properties":{"city":"Reno","latitude":39.524555,"new  supply q1  2009":0.0,"under  construction":0.0,"existing  inventory":1318000.0,"absorption  q1 2009":-12000.0,"vacancy  rate q1 2009":21.96,"longitude":-119.811649,"vacancy  rate q4 2008":21.01,"id":"a677agmehdls","state":"NV"},"type":"Feature","geometry":{"type":"Point","coordinates":[-119.811649,39.524555]}},{"properties":{"city":"Sacramento","latitude":38.57906,"new  supply q1  2009":0.0,"under  construction":434000.0,"existing  inventory":18680000.0,"absorption  q1 2009":92000.0,"vacancy  rate q1 2009":7.96,"longitude":-121.490999,"vacancy  rate q4 2008":8.46,"id":"a677agmf3qyi","state":"CA"},"type":"Feature","geometry":{"type":"Point","coordinates":[-121.490999,38.57906]}},{"properties":{"city":"San Diego County","latitude":33.01984,"new  supply q1  2009":0.0,"under  construction":40000.0,"existing  inventory":10100000.0,"absorption  q1 2009":21000.0,"vacancy  rate q1 2009":15.13,"longitude":-116.8386,"vacancy  rate q4 2008":15.34,"id":"a677aglzhog4","state":"CA"},"type":"Feature","geometry":{"type":"Point","coordinates":[-116.8386,33.01984]}},{"properties":{"city":"San Francisco","latitude":37.77916,"new  supply q1  2009":0.0,"under  construction":468000.0,"existing  inventory":82895000.0,"absorption  q1 2009":-554000.0,"vacancy  rate q1 2009":13.22,"longitude":-122.420049,"vacancy  rate q4 2008":12.55,"id":"a677agljgh8l","state":"CA"},"type":"Feature","geometry":{"type":"Point","coordinates":[-122.420049,37.77916]}},{"properties":{"city":"San Jose/Silicon Valley","latitude":33.22227,"new  supply q1  2009":0.0,"under  construction":300000.0,"existing  inventory":7275000.0,"absorption  q1 2009":-164000.0,"vacancy  rate q1 2009":20.47,"longitude":-117.039187,"vacancy  rate q4 2008":21.09,"id":"a677agndzetx","state":"CA"},"type":"Feature","geometry":{"type":"Point","coordinates":[-117.039187,33.22227]}},{"properties":{"city":"Santa Rosa/Sonoma County","latitude":38.437729,"new  supply q1  2009":0.0,"under  construction":0.0,"existing  inventory":1070000.0,"absorption  q1 2009":-18000.0,"vacancy  rate q1 2009":12.42,"longitude":-122.712402,"vacancy  rate q4 2008":10.72,"id":"a677agptutke","state":"CA"},"type":"Feature","geometry":{"type":"Point","coordinates":[-122.712402,38.437729]}},{"properties":{"city":"Seattle/Puget Soun","latitude":47.603561,"new  supply q1  2009":31000.0,"under  construction":4797000.0,"existing  inventory":57644000.0,"absorption  q1 2009":-641000.0,"vacancy  rate q1 2009":9.28,"longitude":-122.329437,"vacancy  rate q4 2008":9.03,"id":"a677agoh1hjh","state":"WA"},"type":"Feature","geometry":{"type":"Point","coordinates":[-122.329437,47.603561]}},{"properties":{"city":"St. Louis","latitude":38.62774,"new  supply q1  2009":0.0,"under  construction":0.0,"existing  inventory":11401000.0,"absorption  q1 2009":24000.0,"vacancy  rate q1 2009":21.38,"longitude":-90.199514,"vacancy  rate q4 2008":21.59,"id":"a677agrvkclp","state":"MO"},"type":"Feature","geometry":{"type":"Point","coordinates":[-90.199514,38.62774]}},{"properties":{"city":"Stockton/San Joaquin County","latitude":37.953602,"new  supply q1  2009":0.0,"under  construction":30000.0,"existing  inventory":7272000.0,"absorption  q1 2009":-33000.0,"vacancy  rate q1 2009":19.02,"longitude":-121.290718,"vacancy  rate q4 2008":18.56,"id":"a677agkde5ol","state":"CA"},"type":"Feature","geometry":{"type":"Point","coordinates":[-121.290718,37.953602]}},{"properties":{"city":"Tampa","latitude":27.94653,"new  supply q1  2009":0.0,"under  construction":0.0,"existing  inventory":8508000.0,"absorption  q1 2009":-64000.0,"vacancy  rate q1 2009":15.43,"longitude":-82.459269,"vacancy  rate q4 2008":14.68,"id":"a677agk0piu8","state":"FL"},"type":"Feature","geometry":{"type":"Point","coordinates":[-82.459269,27.94653]}},{"properties":{"city":"W. Palm Beach/Palm Beach County","latitude":26.714399,"new  supply q1  2009":0.0,"under  construction":0.0,"existing  inventory":8847000.0,"absorption  q1 2009":-17000.0,"vacancy  rate q1 2009":19.11,"longitude":-80.052689,"vacancy  rate q4 2008":18.91,"id":"a677agklwhr4","state":"FL"},"type":"Feature","geometry":{"type":"Point","coordinates":[-80.052689,26.714399]}},{"properties":{"city":"Washington","latitude":38.89037,"new  supply q1  2009":908000.0,"under  construction":8446000.0,"existing  inventory":114200000.0,"absorption  q1 2009":174000.0,"vacancy  rate q1 2009":8.27,"longitude":-77.031959,"vacancy  rate q4 2008":7.84,"id":"a677agwvvkoh","state":"DC"},"type":"Feature","geometry":{"type":"Point","coordinates":[-77.031959,38.89037]}}],"is_temporal":false,"author":{"url":"http://www.colliers.com","metadata":"http://www.colliers.com/Content/Repositories/Base/Corporate/English/Market_Report_Corporate/PDFs/officenahighlights1q2009.pdf","contact_name":"","contact_address":"","source":"Colliers International","contact_phone":""},"source":"http://www.colliers.com","pagination":{"sort":null,"start":0,"total":55,"limit":1000000},"state":"complete","tags":"office","published":"2014-08-10T16:13:21-04:00","id":13316}