{"type":"FeatureCollection","data_type":"Dataset","url_type":null,"permissions":[{"permissions":{"download":true,"view":true},"group_id":"everyone"}],"classification":null,"title":"The Architect 11-20","count":10,"stream_id":13326,"contributor":{"url":"http://geocommons.com/users/4388","name":"elliott.goodwin"},"data_attributes":null,"calculation_params":null,"icon_link":null,"link":"http://geocommons.com/overlays/13326.json","extent":[-122.42,32.7782,-71.0567,47.6036],"geometry_types":["point"],"unique_name":null,"name":"The Architect 11-20","feature_count":10,"description":"From Architect Magazine, a more well rounded list of top architecture firms.","next_feature":null,"is_raster":false,"short_classification":"Y","stats":{"latitude":{"max":47.60358,"mean":37.9208819,"variance":21.4207595253772,"stdev":4.62825663996469,"min":32.778155,"median":37.77916},"revenue per employee":{"max":200.0,"mean":140.5,"variance":2980.27777777778,"stdev":54.591920444126,"min":30.0,"median":147.0},"rank":{"max":20.0,"mean":15.5,"variance":9.16666666666667,"stdev":3.02765035409749,"min":11.0,"median":16.0},"2008 revenue":{"max":200000000.0,"mean":75000000.0,"variance":5.29444444444444e+15,"stdev":72762933.1764769,"min":20000000.0,"median":30000000.0},"longitude":{"max":-71.056679,"mean":-102.5648193,"variance":426.8637013263,"stdev":20.6606800789882,"min":-122.420049,"median":-96.795404}},"features":[{"properties":{"city":"Philidelphia","latitude":39.95227,"firm name":"KlingStubbins","revenue per employee":200.0,"rank":11.0,"2008 revenue":100000000.0,"longitude":-75.162369,"id":"a64dezp1d6iw","state":"Pennsylvania"},"type":"Feature","geometry":{"type":"Point","coordinates":[-75.162369,39.95227]}},{"properties":{"city":"Los Angeles","latitude":34.05329,"firm name":"CO Architects","revenue per employee":187.0,"rank":12.0,"2008 revenue":30000000.0,"longitude":-118.245009,"id":"a64df01hjx8l","state":"California"},"type":"Feature","geometry":{"type":"Point","coordinates":[-118.245009,34.05329]}},{"properties":{"city":"San Francisco","latitude":37.77916,"firm name":"Gensler","revenue per employee":147.0,"rank":13.0,"2008 revenue":200000000.0,"longitude":-122.420049,"id":"a64dezsl9ugl","state":"California"},"type":"Feature","geometry":{"type":"Point","coordinates":[-122.420049,37.77916]}},{"properties":{"city":"Los Angeles","latitude":34.05329,"firm name":"RBB Architects","revenue per employee":187.0,"rank":14.0,"2008 revenue":30000000.0,"longitude":-118.245009,"id":"a64dezyxd73n","state":"California"},"type":"Feature","geometry":{"type":"Point","coordinates":[-118.245009,34.05329]}},{"properties":{"city":"San Francisco","latitude":37.77916,"firm name":"SB Architects","revenue per employee":187.0,"rank":15.0,"2008 revenue":30000000.0,"longitude":-122.420049,"id":"a64dezp9s0rc","state":"California"},"type":"Feature","geometry":{"type":"Point","coordinates":[-122.420049,37.77916]}},{"properties":{"city":"Boston","latitude":42.358639,"firm name":"Goody Clancy","revenue per employee":120.0,"rank":16.0,"2008 revenue":20000000.0,"longitude":-71.056679,"id":"a64dezpi2v0f","state":"Massachussetts"},"type":"Feature","geometry":{"type":"Point","coordinates":[-71.056679,42.358639]}},{"properties":{"city":"Dallas","latitude":32.778155,"firm name":"Good Fulton &amp; Farrell","revenue per employee":120.0,"rank":17.0,"2008 revenue":20000000.0,"longitude":-96.795404,"id":"a64dezo52mem","state":"Texas"},"type":"Feature","geometry":{"type":"Point","coordinates":[-96.795404,32.778155]}},{"properties":{"city":"Kansas City","latitude":39.10296,"firm name":"BNIM Architects","revenue per employee":30.0,"rank":18.0,"2008 revenue":20000000.0,"longitude":-94.583062,"id":"a64dezve1tvt","state":"Missouri"},"type":"Feature","geometry":{"type":"Point","coordinates":[-94.583062,39.10296]}},{"properties":{"city":"Seattle","latitude":47.60358,"firm name":"NBBJ","revenue per employee":80.0,"rank":19.0,"2008 revenue":100000000.0,"longitude":-122.329454,"id":"a64deztid41q","state":"Washington"},"type":"Feature","geometry":{"type":"Point","coordinates":[-122.329454,47.60358]}},{"properties":{"city":"Atlanta","latitude":33.748315,"firm name":"Heery International","revenue per employee":147.0,"rank":20.0,"2008 revenue":200000000.0,"longitude":-84.391109,"id":"a64dezws9jcz","state":"Georgia"},"type":"Feature","geometry":{"type":"Point","coordinates":[-84.391109,33.748315]}}],"is_temporal":false,"author":{"url":"http://architectmagazine.com","metadata":"http://www.architectmagazine.com/industry-news.asp?sectionID=1006&articleID=965712","contact_name":"","contact_address":"","source":"Architect Magazine","contact_phone":""},"source":"http://architectmagazine.com","pagination":{"sort":null,"start":0,"total":10,"limit":1000000},"state":"complete","tags":"business,revenue","published":"2009-05-01T12:00:00Z","id":13326}