{"type":"FeatureCollection","data_type":"Dataset","url_type":null,"permissions":[{"permissions":{"download":true,"view":true},"group_id":"everyone"}],"classification":null,"title":"Property List 7-8-2011v3","count":8,"stream_id":133776,"contributor":{"url":"http://geocommons.com/users/25515","name":"agoodyear"},"data_attributes":null,"calculation_params":null,"icon_link":null,"link":"http://geocommons.com/overlays/133776.json","extent":[-87.4139,39.4275,-81.8126,43.9989],"geometry_types":["point"],"unique_name":null,"name":"Property List 7-8-2011v3","feature_count":8,"description":"","next_feature":null,"is_raster":false,"short_classification":"Y","stats":{},"features":[{"properties":{"city":"Terre Haute","zip":"47802","geo_score":0.857,"id":"a6iphv56gn9z","geo_precision":"city","state":"IN"},"type":"Feature","geometry":{"type":"Point","coordinates":[-87.413909,39.466703]}},{"properties":{"city":"Huntertown","zip":"46748","geo_score":0.857,"id":"a6iphvixz6pf","geo_precision":"city","state":"IN"},"type":"Feature","geometry":{"type":"Point","coordinates":[-85.159437,41.237988]}},{"properties":{"city":"McConnelsville","zip":"43756","geo_score":0.857,"id":"a6iphve3c4qv","geo_precision":"city","state":"OH"},"type":"Feature","geometry":{"type":"Point","coordinates":[-81.81256,39.676688]}},{"properties":{"city":"Danville","zip":"46122","geo_score":0.805,"id":"a6iphv5vhz1u","geo_precision":"city","state":"IN"},"type":"Feature","geometry":{"type":"Point","coordinates":[-85.554417,39.427549]}},{"properties":{"city":"Indianapolis","zip":"46227","geo_score":0.857,"id":"a6iphvk3r0lq","geo_precision":"city","state":"IN"},"type":"Feature","geometry":{"type":"Point","coordinates":[-86.158042,39.768377]}},{"properties":{"city":"Ludington","zip":"46431","geo_score":0.857,"id":"a6iphvgq3unv","geo_precision":"city","state":"MI"},"type":"Feature","geometry":{"type":"Point","coordinates":[-86.349439,43.998926]}},{"properties":{"city":"Indianapolis","zip":"46218","geo_score":0.857,"id":"a6iphv9d9g4n","geo_precision":"city","state":"IN"},"type":"Feature","geometry":{"type":"Point","coordinates":[-86.158042,39.768377]}},{"properties":{"city":"Michigan City","zip":"46360","geo_score":0.857,"id":"a6iphvgis2fk","geo_precision":"city","state":"IN"},"type":"Feature","geometry":{"type":"Point","coordinates":[-86.756985,41.594185]}}],"is_temporal":false,"author":{"url":"","metadata":"","contact_name":"","contact_address":"","source":"","contact_phone":""},"source":"","pagination":{"sort":null,"start":0,"total":8,"limit":1000000},"state":"complete","tags":"","published":"2014-08-13T02:00:52-04:00","id":133776}