{"type":"FeatureCollection","data_type":"Dataset","url_type":null,"permissions":[{"permissions":{"download":true,"view":true},"group_id":"everyone"}],"classification":null,"title":"2001 Lead Poisoning data on Cleveland","count":380,"stream_id":13414,"contributor":{"url":"http://geocommons.com/users/7065","name":"ravin1317"},"data_attributes":null,"calculation_params":null,"icon_link":null,"link":"http://geocommons.com/overlays/13414.json","extent":[-81.817,41.4235,-81.5627,41.5777],"geometry_types":["point"],"unique_name":null,"name":"2001 Lead Poisoning data on Cleveland","feature_count":380,"description":"This data is collected from CDC","next_feature":null,"is_raster":false,"short_classification":"Y","stats":{"X":{"max":null,"min":null,"median":null},"Y":{"max":null,"min":null,"median":null},"CENSUSTRA":{"max":null,"min":null,"median":null}},"features":[{"properties":{"CITY":"CLEVELAND","ZIP":"44108","X":"-81.619667","DATE":"1/2/2002","Y":"41.531471","APT":"","STATE":"OH","STREET":"10009 COLUMBIA AVE","CENSUSTRA":"1164.00","id":"a63800ez7acz","COUNTY":"CUYAHOGA"},"type":"Feature","geometry":{"type":"Point","coordinates":[-81.619667,41.531471]}},{"properties":{"CITY":"CLEVELAND","ZIP":"44108","X":"-81.619745","DATE":"1/2/2002","Y":"41.528668","APT":"","STATE":"OH","STREET":"10009 PARKGATE AVE","CENSUSTRA":"","id":"a63800fwtu40","COUNTY":"CUYAHOGA"},"type":"Feature","geometry":{"type":"Point","coordinates":[-81.619745,41.528668]}},{"properties":{"CITY":"CLEVELAND","ZIP":"44105","X":"-81.615081","DATE":"1/2/2002","Y":"41.461152","APT":"UP","STATE":"OH","STREET":"10016 ANDERSON AVE","CENSUSTRA":"1204.00","id":"a63800gxf6w5","COUNTY":"CUYAHOGA"},"type":"Feature","geometry":{"type":"Point","coordinates":[-81.615081,41.461152]}},{"properties":{"CITY":"CLEVELAND","ZIP":"44105","X":"-81.615081","DATE":"1/2/2002","Y":"41.461152","APT":"DN","STATE":"OH","STREET":"10016 ANDERSON AVE","CENSUSTRA":"","id":"a63800gif7dl","COUNTY":"CUYAHOGA"},"type":"Feature","geometry":{"type":"Point","coordinates":[-81.615081,41.461152]}},{"properties":{"CITY":"CLEVELAND","ZIP":"44108","X":"-81.619628","DATE":"1/2/2002","Y":"41.528670","APT":"","STATE":"OH","STREET":"10023 PARKGATE AVE","CENSUSTRA":"1164.00","id":"a63800b2fj0l","COUNTY":"CUYAHOGA"},"type":"Feature","geometry":{"type":"Point","coordinates":[-81.619628,41.52867]}},{"properties":{"CITY":"CLEVELAND","ZIP":"44115","X":"-81.683052","DATE":"1/2/2002","Y":"41.499451","APT":"523","STATE":"OH","STREET":"1012 PROSPECT AVE","CENSUSTRA":"1077.00","id":"a63800b7bef3","COUNTY":"CUYAHOGA"},"type":"Feature","geometry":{"type":"Point","coordinates":[-81.683052,41.499451]}},{"properties":{"CITY":"CLEVELAND","ZIP":"44110","X":"-81.568876","DATE":"1/2/2002","Y":"41.553459","APT":"2","STATE":"OH","STREET":"1017 EVANGELINE RD","CENSUSTRA":"1175.00","id":"a638006puvr9","COUNTY":"CUYAHOGA"},"type":"Feature","geometry":{"type":"Point","coordinates":[-81.568876,41.553459]}},{"properties":{"CITY":"CLEVELAND","ZIP":"44104","X":"-81.613897","DATE":"1/2/2002","Y":"41.475353","APT":"UP","STATE":"OH","STREET":"10209 MANOR AVE","CENSUSTRA":"1196.00","id":"a63800e4nn3x","COUNTY":"CUYAHOGA"},"type":"Feature","geometry":{"type":"Point","coordinates":[-81.613897,41.475353]}},{"properties":{"CITY":"CLEVELAND","ZIP":"44105","X":"-81.613821","DATE":"1/2/2002","Y":"41.451452","APT":"","STATE":"OH","STREET":"10214 AVON AVE","CENSUSTRA":"","id":"a63800ia592c","COUNTY":"CUYAHOGA"},"type":"Feature","geometry":{"type":"Point","coordinates":[-81.613821,41.451452]}},{"properties":{"CITY":"CLEVELAND","ZIP":"44104","X":"-81.613732","DATE":"1/2/2002","Y":"41.484452","APT":"","STATE":"OH","STREET":"10302 ROSEHILL AVE","CENSUSTRA":"","id":"a63800boptzr","COUNTY":"CUYAHOGA"},"type":"Feature","geometry":{"type":"Point","coordinates":[-81.613732,41.484452]}},{"properties":{"CITY":"CLEVELAND","ZIP":"44105","X":"-81.613241","DATE":"1/2/2002","Y":"41.448868","APT":"","STATE":"OH","STREET":"10308 HARVARD AVE","CENSUSTRA":"","id":"a638007cytsa","COUNTY":"CUYAHOGA"},"type":"Feature","geometry":{"type":"Point","coordinates":[-81.613241,41.448868]}},{"properties":{"CITY":"CLEVELAND","ZIP":"44103","X":"-81.628449","DATE":"1/2/2002","Y":"41.52595","APT":"5","STATE":"OH","STREET":"1031 ANSEL RD","CENSUSTRA":"1119.02","id":"a638004sm4ph","COUNTY":"CUYAHOGA"},"type":"Feature","geometry":{"type":"Point","coordinates":[-81.628449,41.52595]}},{"properties":{"CITY":"CLEVELAND","ZIP":"44103","X":"-81.628449","DATE":"1/2/2002","Y":"41.52595","APT":"2","STATE":"OH","STREET":"1031 ANSEL RD","CENSUSTRA":"1119.02","id":"a63800cg8hzz","COUNTY":"CUYAHOGA"},"type":"Feature","geometry":{"type":"Point","coordinates":[-81.628449,41.52595]}},{"properties":{"CITY":"CLEVELAND","ZIP":"44108","X":"-81.616884","DATE":"1/2/2002","Y":"41.543640","APT":"10","STATE":"OH","STREET":"10318 ELK AVE","CENSUSTRA":"1161.00","id":"a63800ipzknj","COUNTY":"CUYAHOGA"},"type":"Feature","geometry":{"type":"Point","coordinates":[-81.616884,41.54364]}},{"properties":{"CITY":"CLEVELAND","ZIP":"44103","X":"-81.642696","DATE":"1/2/2002","Y":"41.525391","APT":"UP","STATE":"OH","STREET":"1050 E 67TH ST","CENSUSTRA":"","id":"a638004jstrp","COUNTY":"CUYAHOGA"},"type":"Feature","geometry":{"type":"Point","coordinates":[-81.642696,41.525391]}},{"properties":{"CITY":"CLEVELAND","ZIP":"44108","X":"-81.613990","DATE":"1/2/2002","Y":"41.543492","APT":"","STATE":"OH","STREET":"10557 ELK AVE","CENSUSTRA":"1162.00","id":"a63800gu30k4","COUNTY":"CUYAHOGA"},"type":"Feature","geometry":{"type":"Point","coordinates":[-81.61399,41.543492]}},{"properties":{"CITY":"CLEVELAND","ZIP":"44110","X":"-81.580653","DATE":"1/2/2002","Y":"41.550085","APT":"UP","STATE":"OH","STREET":"1057 GALEWOOD DR","CENSUSTRA":"","id":"a63800ilxqq8","COUNTY":"CUYAHOGA"},"type":"Feature","geometry":{"type":"Point","coordinates":[-81.580653,41.550085]}},{"properties":{"CITY":"CLEVELAND","ZIP":"44108","X":"-81.614440","DATE":"1/2/2002","Y":"41.527115","APT":"","STATE":"OH","STREET":"10605 DREXEL AVE","CENSUSTRA":"","id":"a638008bq8yk","COUNTY":"CUYAHOGA"},"type":"Feature","geometry":{"type":"Point","coordinates":[-81.61444,41.527115]}},{"properties":{"CITY":"CLEVELAND","ZIP":"44106","X":"-81.613799","DATE":"1/2/2002","Y":"41.497854","APT":"UP","STATE":"OH","STREET":"10624 FRANK AVE","CENSUSTRA":"","id":"a63800bq8kux","COUNTY":"CUYAHOGA"},"type":"Feature","geometry":{"type":"Point","coordinates":[-81.613799,41.497854]}},{"properties":{"CITY":"CLEVELAND","ZIP":"44110","X":"-81.578651","DATE":"1/2/2002","Y":"41.550421","APT":"","STATE":"OH","STREET":"1063 E 147TH ST","CENSUSTRA":"","id":"a63800brddyu","COUNTY":"CUYAHOGA"},"type":"Feature","geometry":{"type":"Point","coordinates":[-81.578651,41.550421]}},{"properties":{"CITY":"CLEVELAND","ZIP":"44104","X":"-81.610201","DATE":"1/2/2002","Y":"41.469842","APT":"","STATE":"OH","STREET":"10708 KINSMAN RD","CENSUSTRA":"1205.00","id":"a63800dr6rru","COUNTY":"CUYAHOGA"},"type":"Feature","geometry":{"type":"Point","coordinates":[-81.610201,41.469842]}},{"properties":{"CITY":"CLEVELAND","ZIP":"44108","X":"-81.613131","DATE":"1/2/2002","Y":"41.53525","APT":"","STATE":"OH","STREET":"10710 ENGLEWOOD AVE","CENSUSTRA":"","id":"a638007uoyoa","COUNTY":"CUYAHOGA"},"type":"Feature","geometry":{"type":"Point","coordinates":[-81.613131,41.53525]}},{"properties":{"CITY":"CLEVELAND","ZIP":"44104","X":"-81.611875","DATE":"1/2/2002","Y":"41.487552","APT":"DN","STATE":"OH","STREET":"10718 CRESTWOOD AVE","CENSUSTRA":"","id":"a63800c1keto","COUNTY":"CUYAHOGA"},"type":"Feature","geometry":{"type":"Point","coordinates":[-81.611875,41.487552]}},{"properties":{"CITY":"CLEVELAND","ZIP":"44104","X":"-81.611875","DATE":"2/4/2002","Y":"41.487552","APT":"UP","STATE":"OH","STREET":"10718 CRESTWOOD AVE","CENSUSTRA":"","id":"a638003s6pyt","COUNTY":"CUYAHOGA"},"type":"Feature","geometry":{"type":"Point","coordinates":[-81.611875,41.487552]}},{"properties":{"CITY":"CLEVELAND","ZIP":"44106","X":"-81.612524","DATE":"2/4/2002","Y":"41.519851","APT":"2","STATE":"OH","STREET":"10736 ORVILLE AVE","CENSUSTRA":"1183.00","id":"a63800eypx9t","COUNTY":"CUYAHOGA"},"type":"Feature","geometry":{"type":"Point","coordinates":[-81.612524,41.519851]}},{"properties":{"CITY":"CLEVELAND","ZIP":"44108","X":"-81.610041","DATE":"2/4/2002","Y":"41.53725","APT":"","STATE":"OH","STREET":"10826 LIMA AVE","CENSUSTRA":"","id":"a63800i6n5z7","COUNTY":"CUYAHOGA"},"type":"Feature","geometry":{"type":"Point","coordinates":[-81.610041,41.53725]}},{"properties":{"CITY":"CLEVELAND","ZIP":"44103","X":"-81.637149","DATE":"2/4/2002","Y":"41.525551","APT":"DN","STATE":"OH","STREET":"1089 E 74TH ST","CENSUSTRA":"1117.00","id":"a63800cje2c6","COUNTY":"CUYAHOGA"},"type":"Feature","geometry":{"type":"Point","coordinates":[-81.637149,41.525551]}},{"properties":{"CITY":"CLEVELAND","ZIP":"44103","X":"-81.637149","DATE":"2/4/2002","Y":"41.525551","APT":"UP","STATE":"OH","STREET":"1089 E 74TH ST","CENSUSTRA":"1117.00","id":"a638009rywt4","COUNTY":"CUYAHOGA"},"type":"Feature","geometry":{"type":"Point","coordinates":[-81.637149,41.525551]}},{"properties":{"CITY":"CLEVELAND","ZIP":"44110","X":"-81.562691","DATE":"2/4/2002","Y":"41.577698","APT":"","STATE":"OH","STREET":"1090 E 168TH ST","CENSUSTRA":"","id":"a63800cvhxg6","COUNTY":"CUYAHOGA"},"type":"Feature","geometry":{"type":"Point","coordinates":[-81.562691,41.577698]}},{"properties":{"CITY":"CLEVELAND","ZIP":"44104","X":"-81.610291","DATE":"2/4/2002","Y":"41.483980","APT":"2","STATE":"OH","STREET":"10900 SHAKER BLVD","CENSUSTRA":"","id":"a638006dbn6q","COUNTY":"CUYAHOGA"},"type":"Feature","geometry":{"type":"Point","coordinates":[-81.610291,41.48398]}},{"properties":{"CITY":"CLEVELAND","ZIP":"44108","X":"-81.610565","DATE":"2/4/2002","Y":"41.524532","APT":"","STATE":"OH","STREET":"10923 HAMPDEN AVE","CENSUSTRA":"1182.00","id":"a63800devsa9","COUNTY":"CUYAHOGA"},"type":"Feature","geometry":{"type":"Point","coordinates":[-81.610565,41.524532]}},{"properties":{"CITY":"CLEVELAND","ZIP":"44108","X":"-81.607348","DATE":"2/4/2002","Y":"41.527221","APT":"","STATE":"OH","STREET":"1100 E 112TH ST","CENSUSTRA":"1182.00","id":"a63800dgtnbk","COUNTY":"CUYAHOGA"},"type":"Feature","geometry":{"type":"Point","coordinates":[-81.607348,41.527221]}},{"properties":{"CITY":"CLEVELAND","ZIP":"44106","X":"-81.609448","DATE":"2/4/2002","Y":"41.517151","APT":"","STATE":"OH","STREET":"11001 ASHBURY AVE","CENSUSTRA":"1183.00","id":"a63800a1rj08","COUNTY":"CUYAHOGA"},"type":"Feature","geometry":{"type":"Point","coordinates":[-81.609448,41.517151]}},{"properties":{"CITY":"CLEVELAND","ZIP":"44110","X":"-81.576949","DATE":"2/4/2002","Y":"41.547703","APT":"","STATE":"OH","STREET":"1125 E 148TH ST","CENSUSTRA":"1169.00","id":"a6380076tvgh","COUNTY":"CUYAHOGA"},"type":"Feature","geometry":{"type":"Point","coordinates":[-81.576949,41.547703]}},{"properties":{"CITY":"CLEVELAND","ZIP":"44103","X":"-81.635449","DATE":"2/4/2002","Y":"41.524755","APT":"","STATE":"OH","STREET":"1126 E 77TH ST","CENSUSTRA":"1117.00","id":"a63800enml6t","COUNTY":"CUYAHOGA"},"type":"Feature","geometry":{"type":"Point","coordinates":[-81.635449,41.524755]}},{"properties":{"CITY":"CLEVELAND","ZIP":"44103","X":"-81.64147","DATE":"2/4/2002","Y":"41.52383","APT":"","STATE":"OH","STREET":"1127 E 67TH ST","CENSUSTRA":"1116.00","id":"a638006baxet","COUNTY":"CUYAHOGA"},"type":"Feature","geometry":{"type":"Point","coordinates":[-81.64147,41.52383]}},{"properties":{"CITY":"CLEVELAND","ZIP":"44111","X":"-81.765644","DATE":"2/4/2002","Y":"41.456372","APT":"","STATE":"OH","STREET":"11313 LINNET AVE","CENSUSTRA":"1021.02","id":"a638006msmq7","COUNTY":"CUYAHOGA"},"type":"Feature","geometry":{"type":"Point","coordinates":[-81.765644,41.456372]}},{"properties":{"CITY":"CLEVELAND","ZIP":"44105","X":"-81.604934","DATE":"2/4/2002","Y":"41.445252","APT":"4","STATE":"OH","STREET":"11317 MILES AVE","CENSUSTRA":"","id":"a63800hisg54","COUNTY":"CUYAHOGA"},"type":"Feature","geometry":{"type":"Point","coordinates":[-81.604934,41.445252]}},{"properties":{"CITY":"CLEVELAND","ZIP":"44105","X":"-81.603774","DATE":"2/4/2002","Y":"41.445258","APT":"","STATE":"OH","STREET":"11413 MILES AVE","CENSUSTRA":"1213.00","id":"a6380072doeu","COUNTY":"CUYAHOGA"},"type":"Feature","geometry":{"type":"Point","coordinates":[-81.603774,41.445258]}},{"properties":{"CITY":"CLEVELAND","ZIP":"44106","X":"-81.605971","DATE":"2/4/2002","Y":"41.517068","APT":"","STATE":"OH","STREET":"11416 ASHBURY AVE","CENSUSTRA":"1183.00","id":"a6380085x6vn","COUNTY":"CUYAHOGA"},"type":"Feature","geometry":{"type":"Point","coordinates":[-81.605971,41.517068]}},{"properties":{"CITY":"CLEVELAND","ZIP":"44106","X":"-81.605693","DATE":"2/4/2002","Y":"41.517084","APT":"1","STATE":"OH","STREET":"11433 ASHBURY AVE","CENSUSTRA":"1183.00","id":"a638007gf766","COUNTY":"CUYAHOGA"},"type":"Feature","geometry":{"type":"Point","coordinates":[-81.605693,41.517084]}},{"properties":{"CITY":"CLEVELAND","ZIP":"44104","X":"-81.603786","DATE":"2/4/2002","Y":"41.477352","APT":"UP","STATE":"OH","STREET":"11505 PARKVIEW AVE","CENSUSTRA":"","id":"a638004b3h9o","COUNTY":"CUYAHOGA"},"type":"Feature","geometry":{"type":"Point","coordinates":[-81.603786,41.477352]}},{"properties":{"CITY":"CLEVELAND","ZIP":"44108","X":"-81.605548","DATE":"2/4/2002","Y":"41.53165","APT":"DN","STATE":"OH","STREET":"11525 FAIRPORT AVE","CENSUSTRA":"","id":"a638004u6746","COUNTY":"CUYAHOGA"},"type":"Feature","geometry":{"type":"Point","coordinates":[-81.605548,41.53165]}},{"properties":{"CITY":"CLEVELAND","ZIP":"44108","X":"-81.605066","DATE":"2/4/2002","Y":"41.530919","APT":"DN","STATE":"OH","STREET":"11608 TUSCORA AVE","CENSUSTRA":"","id":"a63800c0q5kf","COUNTY":"CUYAHOGA"},"type":"Feature","geometry":{"type":"Point","coordinates":[-81.605066,41.530919]}},{"properties":{"CITY":"CLEVELAND","ZIP":"44108","X":"-81.605047","DATE":"2/4/2002","Y":"41.530918","APT":"UP","STATE":"OH","STREET":"11612 TUSCORA AVE","CENSUSTRA":"","id":"a63800d4zskc","COUNTY":"CUYAHOGA"},"type":"Feature","geometry":{"type":"Point","coordinates":[-81.605047,41.530918]}},{"properties":{"CITY":"CLEVELAND","ZIP":"44108","X":"-81.605154","DATE":"2/4/2002","Y":"41.53225","APT":"","STATE":"OH","STREET":"11618 OHLMAN AVE","CENSUSTRA":"1166.00","id":"a638004gsvfj","COUNTY":"CUYAHOGA"},"type":"Feature","geometry":{"type":"Point","coordinates":[-81.605154,41.53225]}},{"properties":{"CITY":"CLEVELAND","ZIP":"44108","X":"-81.605144","DATE":"2/4/2002","Y":"41.53225","APT":"","STATE":"OH","STREET":"11620 OHLMAN AVE","CENSUSTRA":"","id":"a6380045leb0","COUNTY":"CUYAHOGA"},"type":"Feature","geometry":{"type":"Point","coordinates":[-81.605144,41.53225]}},{"properties":{"CITY":"CLEVELAND","ZIP":"44108","X":"-81.603681","DATE":"2/4/2002","Y":"41.54765","APT":"UP","STATE":"OH","STREET":"11703 ABLEWHITE AVE","CENSUSTRA":"","id":"a63800cd5pfl","COUNTY":"CUYAHOGA"},"type":"Feature","geometry":{"type":"Point","coordinates":[-81.603681,41.54765]}},{"properties":{"CITY":"CLEVELAND","ZIP":"44108","X":"-81.603025","DATE":"2/4/2002","Y":"41.545787","APT":"","STATE":"OH","STREET":"11703 OAKVIEW AVE","CENSUSTRA":"1163.00","id":"a6380096x4oj","COUNTY":"CUYAHOGA"},"type":"Feature","geometry":{"type":"Point","coordinates":[-81.603025,41.545787]}},{"properties":{"CITY":"CLEVELAND","ZIP":"44108","X":"-81.604535","DATE":"2/4/2002","Y":"41.530068","APT":"","STATE":"OH","STREET":"11707 SAYWELL AVE","CENSUSTRA":"1166.00","id":"a638008ouwlw","COUNTY":"CUYAHOGA"},"type":"Feature","geometry":{"type":"Point","coordinates":[-81.604535,41.530068]}},{"properties":{"CITY":"CLEVELAND","ZIP":"44108","X":"-81.603360","DATE":"2/4/2002","Y":"41.54705","APT":"DN","STATE":"OH","STREET":"11708 SHADELAND AVE","CENSUSTRA":"","id":"a638007cl8is","COUNTY":"CUYAHOGA"},"type":"Feature","geometry":{"type":"Point","coordinates":[-81.60336,41.54705]}},{"properties":{"CITY":"CLEVELAND","ZIP":"44103","X":"-81.64745","DATE":"2/4/2002","Y":"41.521318","APT":"UP","STATE":"OH","STREET":"1193 E 61ST ST","CENSUSTRA":"1115.00","id":"a63800eak3bg","COUNTY":"CUYAHOGA"},"type":"Feature","geometry":{"type":"Point","coordinates":[-81.64745,41.521318]}},{"properties":{"CITY":"CLEVELAND","ZIP":"44103","X":"-81.63715","DATE":"2/4/2002","Y":"41.52235","APT":"UP","STATE":"OH","STREET":"1194 E 74TH ST","CENSUSTRA":"1117.00","id":"a63800bmcnvq","COUNTY":"CUYAHOGA"},"type":"Feature","geometry":{"type":"Point","coordinates":[-81.63715,41.52235]}},{"properties":{"CITY":"CLEVELAND","ZIP":"44105","X":"-81.598962","DATE":"2/4/2002","Y":"41.462655","APT":"DN","STATE":"OH","STREET":"12013 OAKFIELD AVE","CENSUSTRA":"","id":"a638003u32di","COUNTY":"CUYAHOGA"},"type":"Feature","geometry":{"type":"Point","coordinates":[-81.598962,41.462655]}},{"properties":{"CITY":"CLEVELAND","ZIP":"44105","X":"-81.598962","DATE":"2/4/2002","Y":"41.462655","APT":"UP","STATE":"OH","STREET":"12013 OAKFIELD AVE","CENSUSTRA":"","id":"a63800ds401l","COUNTY":"CUYAHOGA"},"type":"Feature","geometry":{"type":"Point","coordinates":[-81.598962,41.462655]}},{"properties":{"CITY":"CLEVELAND","ZIP":"44106","X":"-81.601910","DATE":"2/4/2002","Y":"41.522351","APT":"","STATE":"OH","STREET":"12016 OAKLAND AVE","CENSUSTRA":"1185.00","id":"a63800bolqsu","COUNTY":"CUYAHOGA"},"type":"Feature","geometry":{"type":"Point","coordinates":[-81.60191,41.522351]}},{"properties":{"CITY":"CLEVELAND","ZIP":"44108","X":"-81.602401","DATE":"2/4/2002","Y":"41.527500","APT":"","STATE":"OH","STREET":"12105 CHESTERFIELD AVE","CENSUSTRA":"1184.00","id":"a63800boxnx4","COUNTY":"CUYAHOGA"},"type":"Feature","geometry":{"type":"Point","coordinates":[-81.602401,41.5275]}},{"properties":{"CITY":"CLEVELAND","ZIP":"44108","X":"-81.605631","DATE":"2/4/2002","Y":"41.524775","APT":"","STATE":"OH","STREET":"1217 E 114TH ST","CENSUSTRA":"","id":"a63800i8ognh","COUNTY":"CUYAHOGA"},"type":"Feature","geometry":{"type":"Point","coordinates":[-81.605631,41.524775]}},{"properties":{"CITY":"CLEVELAND","ZIP":"44105","X":"-81.597436","DATE":"2/4/2002","Y":"41.455717","APT":"UP","STATE":"OH","STREET":"12200 CORLETT AVE","CENSUSTRA":"","id":"a63800ck57pj","COUNTY":"CUYAHOGA"},"type":"Feature","geometry":{"type":"Point","coordinates":[-81.597436,41.455717]}},{"properties":{"CITY":"CLEVELAND","ZIP":"44112","X":"-81.598222","DATE":"2/4/2002","Y":"41.525216","APT":"","STATE":"OH","STREET":"1228 E 125TH ST","CENSUSTRA":"","id":"a63800644o9u","COUNTY":"CUYAHOGA"},"type":"Feature","geometry":{"type":"Point","coordinates":[-81.598222,41.525216]}},{"properties":{"CITY":"CLEVELAND","ZIP":"44120","X":"-81.596681","DATE":"2/4/2002","Y":"41.466936","APT":"","STATE":"OH","STREET":"12310 KINSMAN RD","CENSUSTRA":"","id":"a63800cnlhlo","COUNTY":"CUYAHOGA"},"type":"Feature","geometry":{"type":"Point","coordinates":[-81.596681,41.466936]}},{"properties":{"CITY":"CLEVELAND","ZIP":"44108","X":"-81.619604","DATE":"2/4/2002","Y":"41.522139","APT":"","STATE":"OH","STREET":"1238 E 100TH ST","CENSUSTRA":"","id":"a63800ehw8va","COUNTY":"CUYAHOGA"},"type":"Feature","geometry":{"type":"Point","coordinates":[-81.619604,41.522139]}},{"properties":{"CITY":"CLEVELAND","ZIP":"44108","X":"-81.620789","DATE":"2/4/2002","Y":"41.52273","APT":"","STATE":"OH","STREET":"1243 E 99TH ST","CENSUSTRA":"1181.00","id":"a63800c8nhvd","COUNTY":"CUYAHOGA"},"type":"Feature","geometry":{"type":"Point","coordinates":[-81.620789,41.52273]}},{"properties":{"CITY":"CLEVELAND","ZIP":"44108","X":"-81.622833","DATE":"2/4/2002","Y":"41.521392","APT":"DN","STATE":"OH","STREET":"1259 ANSEL RD","CENSUSTRA":"","id":"a63800hxzsoi","COUNTY":"CUYAHOGA"},"type":"Feature","geometry":{"type":"Point","coordinates":[-81.622833,41.521392]}},{"properties":{"CITY":"CLEVELAND","ZIP":"44135","X":"-81.777168","DATE":"2/4/2002","Y":"41.42995","APT":"","STATE":"OH","STREET":"12604 ERWIN AVE","CENSUSTRA":"","id":"a63800eyy5pk","COUNTY":"CUYAHOGA"},"type":"Feature","geometry":{"type":"Point","coordinates":[-81.777168,41.42995]}},{"properties":{"CITY":"CLEVELAND","ZIP":"44120","X":"-81.594472","DATE":"2/4/2002","Y":"41.474552","APT":"DN","STATE":"OH","STREET":"12613 PARKHILL AVE","CENSUSTRA":"1197.02","id":"a638005wp21o","COUNTY":"CUYAHOGA"},"type":"Feature","geometry":{"type":"Point","coordinates":[-81.594472,41.474552]}},{"properties":{"CITY":"CLEVELAND","ZIP":"44120","X":"-81.594472","DATE":"2/4/2002","Y":"41.474552","APT":"UP","STATE":"OH","STREET":"12613 PARKHILL AVE","CENSUSTRA":"","id":"a638004iyc1n","COUNTY":"CUYAHOGA"},"type":"Feature","geometry":{"type":"Point","coordinates":[-81.594472,41.474552]}},{"properties":{"CITY":"CLEVELAND","ZIP":"44105","X":"-81.594610","DATE":"2/4/2002","Y":"41.460852","APT":"","STATE":"OH","STREET":"12613 REXFORD AVE","CENSUSTRA":"1207.02","id":"a63800g8vdvu","COUNTY":"CUYAHOGA"},"type":"Feature","geometry":{"type":"Point","coordinates":[-81.59461,41.460852]}},{"properties":{"CITY":"CLEVELAND","ZIP":"44103","X":"-81.64595","DATE":"2/4/2002","Y":"41.51945","APT":"DN","STATE":"OH","STREET":"1262 NORWOOD RD","CENSUSTRA":"1115.00","id":"a63800i4r4iq","COUNTY":"CUYAHOGA"},"type":"Feature","geometry":{"type":"Point","coordinates":[-81.64595,41.51945]}},{"properties":{"CITY":"CLEVELAND","ZIP":"44103","X":"-81.64595","DATE":"2/4/2002","Y":"41.51945","APT":"UP","STATE":"OH","STREET":"1262 NORWOOD RD","CENSUSTRA":"","id":"a63800a8y3kr","COUNTY":"CUYAHOGA"},"type":"Feature","geometry":{"type":"Point","coordinates":[-81.64595,41.51945]}},{"properties":{"CITY":"CLEVELAND","ZIP":"44108","X":"-81.595830","DATE":"2/4/2002","Y":"41.545347","APT":"","STATE":"OH","STREET":"12702 LOCKE AVE","CENSUSTRA":"","id":"a63800ebfpjx","COUNTY":"CUYAHOGA"},"type":"Feature","geometry":{"type":"Point","coordinates":[-81.59583,41.545347]}},{"properties":{"CITY":"CLEVELAND","ZIP":"44105","X":"-81.593835","DATE":"2/4/2002","Y":"41.452361","APT":"UP","STATE":"OH","STREET":"12716 DOVE AVE","CENSUSTRA":"1211.00","id":"a63800atfxqt","COUNTY":"CUYAHOGA"},"type":"Feature","geometry":{"type":"Point","coordinates":[-81.593835,41.452361]}},{"properties":{"CITY":"CLEVELAND","ZIP":"44103","X":"-81.64595","DATE":"2/4/2002","Y":"41.519244","APT":"UP","STATE":"OH","STREET":"1274 NORWOOD RD","CENSUSTRA":"","id":"a63800e9ccr9","COUNTY":"CUYAHOGA"},"type":"Feature","geometry":{"type":"Point","coordinates":[-81.64595,41.519244]}},{"properties":{"CITY":"CLEVELAND","ZIP":"44102","X":"-81.732155","DATE":"3/5/2002","Y":"41.486861","APT":"UP","STATE":"OH","STREET":"1275 W 69TH ST","CENSUSTRA":"","id":"a63800cn917b","COUNTY":"CUYAHOGA"},"type":"Feature","geometry":{"type":"Point","coordinates":[-81.732155,41.486861]}},{"properties":{"CITY":"CLEVELAND","ZIP":"44105","X":"-81.593268","DATE":"3/5/2002","Y":"41.453152","APT":"","STATE":"OH","STREET":"12800 LENACRAVE AVE","CENSUSTRA":"1211.00","id":"a63800cdbwwb","COUNTY":"CUYAHOGA"},"type":"Feature","geometry":{"type":"Point","coordinates":[-81.593268,41.453152]}},{"properties":{"CITY":"CLEVELAND","ZIP":"44108","X":"-81.593418","DATE":"3/5/2002","Y":"41.537296","APT":"2","STATE":"OH","STREET":"12911 BRACKLAND AVE","CENSUSTRA":"1168.00","id":"a63800dxv5gz","COUNTY":"CUYAHOGA"},"type":"Feature","geometry":{"type":"Point","coordinates":[-81.593418,41.537296]}},{"properties":{"CITY":"CLEVELAND","ZIP":"44102","X":"-81.743305","DATE":"3/5/2002","Y":"41.482183","APT":"1","STATE":"OH","STREET":"1301 W 85TH ST","CENSUSTRA":"1012.00","id":"a638003xs5hf","COUNTY":"CUYAHOGA"},"type":"Feature","geometry":{"type":"Point","coordinates":[-81.743305,41.482183]}},{"properties":{"CITY":"CLEVELAND","ZIP":"44120","X":"-81.591499","DATE":"3/5/2002","Y":"41.480032","APT":"2","STATE":"OH","STREET":"13020 BUCKEYE RD","CENSUSTRA":"1195.01","id":"a63800heh112","COUNTY":"CUYAHOGA"},"type":"Feature","geometry":{"type":"Point","coordinates":[-81.591499,41.480032]}},{"properties":{"CITY":"CLEVELAND","ZIP":"44106","X":"-81.599114","DATE":"3/5/2002","Y":"41.522817","APT":"","STATE":"OH","STREET":"1321 E 124TH ST","CENSUSTRA":"","id":"a6380074c5lt","COUNTY":"CUYAHOGA"},"type":"Feature","geometry":{"type":"Point","coordinates":[-81.599114,41.522817]}},{"properties":{"CITY":"CLEVELAND","ZIP":"44106","X":"-81.625449","DATE":"3/5/2002","Y":"41.519875","APT":"","STATE":"OH","STREET":"1327 E 89TH ST","CENSUSTRA":"","id":"a63800c3zuck","COUNTY":"CUYAHOGA"},"type":"Feature","geometry":{"type":"Point","coordinates":[-81.625449,41.519875]}},{"properties":{"CITY":"CLEVELAND","ZIP":"44103","X":"-81.642316","DATE":"4/6/2002","Y":"41.518016","APT":"","STATE":"OH","STREET":"1333 RUSSELL RD","CENSUSTRA":"1121.00","id":"a638007907mx","COUNTY":"CUYAHOGA"},"type":"Feature","geometry":{"type":"Point","coordinates":[-81.642316,41.518016]}},{"properties":{"CITY":"CLEVELAND","ZIP":"44102","X":"-81.757199","DATE":"4/6/2002","Y":"41.483509","APT":"","STATE":"OH","STREET":"1340 W 104TH ST","CENSUSTRA":"1011.02","id":"a638007fwss6","COUNTY":"CUYAHOGA"},"type":"Feature","geometry":{"type":"Point","coordinates":[-81.757199,41.483509]}},{"properties":{"CITY":"CLEVELAND","ZIP":"44135","X":"-81.783706","DATE":"4/6/2002","Y":"41.440555","APT":"","STATE":"OH","STREET":"13417 HIGHLANDVIEW AVE","CENSUSTRA":"1243.00","id":"a63800iy1q64","COUNTY":"CUYAHOGA"},"type":"Feature","geometry":{"type":"Point","coordinates":[-81.783706,41.440555]}},{"properties":{"CITY":"CLEVELAND","ZIP":"44102","X":"-81.757215","DATE":"4/6/2002","Y":"41.48347","APT":"","STATE":"OH","STREET":"1342 W 104TH ST","CENSUSTRA":"1011.02","id":"a63800bv56sh","COUNTY":"CUYAHOGA"},"type":"Feature","geometry":{"type":"Point","coordinates":[-81.757215,41.48347]}},{"properties":{"CITY":"CLEVELAND","ZIP":"44103","X":"-81.629068","DATE":"4/6/2002","Y":"41.518842","APT":"","STATE":"OH","STREET":"1357 E 84TH ST","CENSUSTRA":"1122.00","id":"a63800blyf15","COUNTY":"CUYAHOGA"},"type":"Feature","geometry":{"type":"Point","coordinates":[-81.629068,41.518842]}},{"properties":{"CITY":"CLEVELAND","ZIP":"44135","X":"-81.786686","DATE":"4/6/2002","Y":"41.438150","APT":"","STATE":"OH","STREET":"13613 HAROLD AVE","CENSUSTRA":"","id":"a63800adjd4q","COUNTY":"CUYAHOGA"},"type":"Feature","geometry":{"type":"Point","coordinates":[-81.786686,41.43815]}},{"properties":{"CITY":"CLEVELAND","ZIP":"44103","X":"-81.64455","DATE":"4/6/2002","Y":"41.516525","APT":"","STATE":"OH","STREET":"1362 E 66TH ST","CENSUSTRA":"1121.00","id":"a63800cfk8by","COUNTY":"CUYAHOGA"},"type":"Feature","geometry":{"type":"Point","coordinates":[-81.64455,41.516525]}},{"properties":{"CITY":"CLEVELAND","ZIP":"44110","X":"-81.587790","DATE":"4/6/2002","Y":"41.545945","APT":"9","STATE":"OH","STREET":"13622 GLENSIDE RD","CENSUSTRA":"","id":"a6380079vf4m","COUNTY":"CUYAHOGA"},"type":"Feature","geometry":{"type":"Point","coordinates":[-81.58779,41.545945]}},{"properties":{"CITY":"CLEVELAND","ZIP":"44120","X":"-81.587797","DATE":"4/6/2002","Y":"41.463952","APT":"","STATE":"OH","STREET":"13705 UNION AVE","CENSUSTRA":"1207.01","id":"a6380048iwne","COUNTY":"CUYAHOGA"},"type":"Feature","geometry":{"type":"Point","coordinates":[-81.587797,41.463952]}},{"properties":{"CITY":"CLEVELAND","ZIP":"44120","X":"-81.586659","DATE":"4/6/2002","Y":"41.455252","APT":"","STATE":"OH","STREET":"13709 COATH AVE","CENSUSTRA":"1212.00","id":"a638005ut3gb","COUNTY":"CUYAHOGA"},"type":"Feature","geometry":{"type":"Point","coordinates":[-81.586659,41.455252]}},{"properties":{"CITY":"CLEVELAND","ZIP":"44102","X":"-81.740355","DATE":"4/6/2002","Y":"41.482212","APT":"6","STATE":"OH","STREET":"1373 W 80TH ST","CENSUSTRA":"","id":"a63800371qqp","COUNTY":"CUYAHOGA"},"type":"Feature","geometry":{"type":"Point","coordinates":[-81.740355,41.482212]}},{"properties":{"CITY":"CLEVELAND","ZIP":"44106","X":"-81.622149","DATE":"4/6/2002","Y":"41.517497","APT":"","STATE":"OH","STREET":"1429 E 93RD ST","CENSUSTRA":"1186.02","id":"a63800hu6mwf","COUNTY":"CUYAHOGA"},"type":"Feature","geometry":{"type":"Point","coordinates":[-81.622149,41.517497]}},{"properties":{"CITY":"CLEVELAND","ZIP":"44106","X":"-81.600873","DATE":"4/6/2002","Y":"41.519250","APT":"","STATE":"OH","STREET":"1433 E 123RD ST","CENSUSTRA":"1185.00","id":"a63800gmr3i1","COUNTY":"CUYAHOGA"},"type":"Feature","geometry":{"type":"Point","coordinates":[-81.600873,41.51925]}},{"properties":{"CITY":"CLEVELAND","ZIP":"44106","X":"-81.610448","DATE":"4/6/2002","Y":"41.518367","APT":"","STATE":"OH","STREET":"1438 E 109TH ST","CENSUSTRA":"1183.00","id":"a638006hqgnb","COUNTY":"CUYAHOGA"},"type":"Feature","geometry":{"type":"Point","coordinates":[-81.610448,41.518367]}},{"properties":{"CITY":"CLEVELAND","ZIP":"44110","X":"-81.582313","DATE":"4/6/2002","Y":"41.547441","APT":"","STATE":"OH","STREET":"14405 IDAROSE AVE","CENSUSTRA":"1169.00","id":"a638008i1gjc","COUNTY":"CUYAHOGA"},"type":"Feature","geometry":{"type":"Point","coordinates":[-81.582313,41.547441]}},{"properties":{"CITY":"CLEVELAND","ZIP":"44110","X":"-81.580246","DATE":"4/6/2002","Y":"41.571649","APT":"2","STATE":"OH","STREET":"14614 LAKE SHORE BLVD","CENSUSTRA":"1171.01","id":"a63800in8dqa","COUNTY":"CUYAHOGA"},"type":"Feature","geometry":{"type":"Point","coordinates":[-81.580246,41.571649]}},{"properties":{"CITY":"CLEVELAND","ZIP":"44110","X":"-81.578915","DATE":"4/6/2002","Y":"41.558850","APT":"UP","STATE":"OH","STREET":"14705 PEPPER AVE","CENSUSTRA":"","id":"a63800derv33","COUNTY":"CUYAHOGA"},"type":"Feature","geometry":{"type":"Point","coordinates":[-81.578915,41.55885]}},{"properties":{"CITY":"CLEVELAND","ZIP":"44106","X":"-81.615449","DATE":"4/6/2002","Y":"41.517262","APT":"","STATE":"OH","STREET":"1475 E 105TH ST","CENSUSTRA":"1183.00","id":"a63800gdi0fn","COUNTY":"CUYAHOGA"},"type":"Feature","geometry":{"type":"Point","coordinates":[-81.615449,41.517262]}},{"properties":{"CITY":"CLEVELAND","ZIP":"44106","X":"-81.606340","DATE":"5/17/200","Y":"41.517697","APT":"","STATE":"OH","STREET":"1475 E 114TH ST","CENSUSTRA":"1183.00","id":"a63800gz9yon","COUNTY":"CUYAHOGA"},"type":"Feature","geometry":{"type":"Point","coordinates":[-81.60634,41.517697]}},{"properties":{"CITY":"CLEVELAND","ZIP":"44106","X":"-81.602648","DATE":"5/17/200","Y":"41.517303","APT":"DN","STATE":"OH","STREET":"1492 E 118TH ST","CENSUSTRA":"1185.00","id":"a63800cafbov","COUNTY":"CUYAHOGA"},"type":"Feature","geometry":{"type":"Point","coordinates":[-81.602648,41.517303]}},{"properties":{"CITY":"CLEVELAND","ZIP":"44106","X":"-81.628249","DATE":"5/17/200","Y":"41.515491","APT":"DN","STATE":"OH","STREET":"1520 E 85TH ST","CENSUSTRA":"1125.00","id":"a638007mhkwm","COUNTY":"CUYAHOGA"},"type":"Feature","geometry":{"type":"Point","coordinates":[-81.628249,41.515491]}},{"properties":{"CITY":"CLEVELAND","ZIP":"44106","X":"-81.628249","DATE":"5/17/200","Y":"41.515491","APT":"UP","STATE":"OH","STREET":"1520 E 85TH ST","CENSUSTRA":"","id":"a63800cj57b0","COUNTY":"CUYAHOGA"},"type":"Feature","geometry":{"type":"Point","coordinates":[-81.628249,41.515491]}},{"properties":{"CITY":"CLEVELAND","ZIP":"44110","X":"-81.574584","DATE":"5/17/200","Y":"41.56025","APT":"","STATE":"OH","STREET":"15312 HOLMES AVE","CENSUSTRA":"","id":"a63800asvn7j","COUNTY":"CUYAHOGA"},"type":"Feature","geometry":{"type":"Point","coordinates":[-81.574584,41.56025]}},{"properties":{"CITY":"CLEVELAND","ZIP":"44110","X":"-81.574008","DATE":"5/17/200","Y":"41.575849","APT":"","STATE":"OH","STREET":"15313 GROVEWOOD AVE","CENSUSTRA":"1172.01","id":"a638009gwqrh","COUNTY":"CUYAHOGA"},"type":"Feature","geometry":{"type":"Point","coordinates":[-81.574008,41.575849]}},{"properties":{"CITY":"CLEVELAND","ZIP":"44110","X":"-81.574355","DATE":"6/12/200","Y":"41.55965","APT":"","STATE":"OH","STREET":"15319 SCHOOL AVE","CENSUSTRA":"","id":"a63800ftdv8a","COUNTY":"CUYAHOGA"},"type":"Feature","geometry":{"type":"Point","coordinates":[-81.574355,41.55965]}},{"properties":{"CITY":"CLEVELAND","ZIP":"44106","X":"-81.619678","DATE":"6/12/200","Y":"41.514262","APT":"1","STATE":"OH","STREET":"1568 ANSEL RD","CENSUSTRA":"","id":"a63800cgup1p","COUNTY":"CUYAHOGA"},"type":"Feature","geometry":{"type":"Point","coordinates":[-81.619678,41.514262]}},{"properties":{"CITY":"CLEVELAND","ZIP":"44110","X":"-81.571214","DATE":"6/12/200","Y":"41.560065","APT":"UP","STATE":"OH","STREET":"15706 HOLMES AVE","CENSUSTRA":"","id":"a6380057wmfq","COUNTY":"CUYAHOGA"},"type":"Feature","geometry":{"type":"Point","coordinates":[-81.571214,41.560065]}},{"properties":{"CITY":"CLEVELAND","ZIP":"44110","X":"-81.571189","DATE":"6/12/200","Y":"41.55965","APT":"UP","STATE":"OH","STREET":"15707 SCHOOL AVE","CENSUSTRA":"","id":"a638009ib5di","COUNTY":"CUYAHOGA"},"type":"Feature","geometry":{"type":"Point","coordinates":[-81.571189,41.55965]}},{"properties":{"CITY":"CLEVELAND","ZIP":"44110","X":"-81.569271","DATE":"6/12/200","Y":"41.574049","APT":"","STATE":"OH","STREET":"15907 HUNTMERE AVE","CENSUSTRA":"1172.02","id":"a638005j0p4m","COUNTY":"CUYAHOGA"},"type":"Feature","geometry":{"type":"Point","coordinates":[-81.569271,41.574049]}},{"properties":{"CITY":"CLEVELAND","ZIP":"44110","X":"-81.564542","DATE":"6/12/200","Y":"41.565648","APT":"","STATE":"OH","STREET":"16021 SARANAC RD","CENSUSTRA":"","id":"a63800dcdgeg","COUNTY":"CUYAHOGA"},"type":"Feature","geometry":{"type":"Point","coordinates":[-81.564542,41.565648]}},{"properties":{"CITY":"CLEVELAND","ZIP":"44110","X":"-81.567702","DATE":"6/12/200","Y":"41.573249","APT":"4","STATE":"OH","STREET":"16124 ARCADE AVE","CENSUSTRA":"","id":"a63800eoksgv","COUNTY":"CUYAHOGA"},"type":"Feature","geometry":{"type":"Point","coordinates":[-81.567702,41.573249]}},{"properties":{"CITY":"CLEVELAND","ZIP":"44128","X":"-81.563233","DATE":"6/12/200","Y":"41.433953","APT":"","STATE":"OH","STREET":"16708 FAIRFAX AVE","CENSUSTRA":"1223.00","id":"a63800dxnm7j","COUNTY":"CUYAHOGA"},"type":"Feature","geometry":{"type":"Point","coordinates":[-81.563233,41.433953]}},{"properties":{"CITY":"CLEVELAND","ZIP":"44103","X":"-81.631849","DATE":"6/12/200","Y":"41.510680","APT":"","STATE":"OH","STREET":"1677 E 81ST ST","CENSUSTRA":"1125.00","id":"a63800elq9m1","COUNTY":"CUYAHOGA"},"type":"Feature","geometry":{"type":"Point","coordinates":[-81.631849,41.51068]}},{"properties":{"CITY":"CLEVELAND","ZIP":"44111","X":"-81.817023","DATE":"6/12/200","Y":"41.456818","APT":"","STATE":"OH","STREET":"17201 ERNADALE AVE","CENSUSTRA":"1234.00","id":"a63800emar7w","COUNTY":"CUYAHOGA"},"type":"Feature","geometry":{"type":"Point","coordinates":[-81.817023,41.456818]}},{"properties":{"CITY":"CLEVELAND","ZIP":"44114","X":"-81.683745","DATE":"6/12/200","Y":"41.502937","APT":"1408","STATE":"OH","STREET":"1802 E 13TH ST","CENSUSTRA":"1078.00","id":"a63800h8iuzy","COUNTY":"CUYAHOGA"},"type":"Feature","geometry":{"type":"Point","coordinates":[-81.683745,41.502937]}},{"properties":{"CITY":"CLEVELAND","ZIP":"44114","X":"-81.683745","DATE":"6/12/200","Y":"41.502937","APT":"306","STATE":"OH","STREET":"1802 E 13TH ST","CENSUSTRA":"","id":"a63800bgywuf","COUNTY":"CUYAHOGA"},"type":"Feature","geometry":{"type":"Point","coordinates":[-81.683745,41.502937]}},{"properties":{"CITY":"CLEVELAND","ZIP":"44109","X":"-81.695625","DATE":"6/12/200","Y":"41.465851","APT":"UP","STATE":"OH","STREET":"1803 BRAINARD AVE","CENSUSTRA":"","id":"a63800hzn9qj","COUNTY":"CUYAHOGA"},"type":"Feature","geometry":{"type":"Point","coordinates":[-81.695625,41.465851]}},{"properties":{"CITY":"CLEVELAND","ZIP":"44109","X":"-81.695280","DATE":"6/12/200","Y":"41.450936","APT":"","STATE":"OH","STREET":"1914 DENISON AVE","CENSUSTRA":"1056.02","id":"a63800bg2pos","COUNTY":"CUYAHOGA"},"type":"Feature","geometry":{"type":"Point","coordinates":[-81.69528,41.450936]}},{"properties":{"CITY":"CLEVELAND","ZIP":"44109","X":"-81.697237","DATE":"8/13/200","Y":"41.469779","APT":"UPFT","STATE":"OH","STREET":"1915 CLARK AVE","CENSUSTRA":"","id":"a638007lwdjv","COUNTY":"CUYAHOGA"},"type":"Feature","geometry":{"type":"Point","coordinates":[-81.697237,41.469779]}},{"properties":{"CITY":"CLEVELAND","ZIP":"44106","X":"-81.598548","DATE":"8/13/200","Y":"41.510643","APT":"4","STATE":"OH","STREET":"1931 COLTMAN RD","CENSUSTRA":"1188.00","id":"a638003pjcs4","COUNTY":"CUYAHOGA"},"type":"Feature","geometry":{"type":"Point","coordinates":[-81.598548,41.510643]}},{"properties":{"CITY":"CLEVELAND","ZIP":"44102","X":"-81.721254","DATE":"8/13/200","Y":"41.478431","APT":"DN","STATE":"OH","STREET":"1965 W 50TH ST","CENSUSTRA":"","id":"a63800eia1ti","COUNTY":"CUYAHOGA"},"type":"Feature","geometry":{"type":"Point","coordinates":[-81.721254,41.478431]}},{"properties":{"CITY":"CLEVELAND","ZIP":"44102","X":"-81.721254","DATE":"8/13/200","Y":"41.478431","APT":"UP","STATE":"OH","STREET":"1965 W 50TH ST","CENSUSTRA":"","id":"a638004e06hj","COUNTY":"CUYAHOGA"},"type":"Feature","geometry":{"type":"Point","coordinates":[-81.721254,41.478431]}},{"properties":{"CITY":"CLEVELAND","ZIP":"44109","X":"-81.697013","DATE":"8/13/200","Y":"41.464015","APT":"UP","STATE":"OH","STREET":"2001 CLOVER AVE","CENSUSTRA":"","id":"a63800aeo2qq","COUNTY":"CUYAHOGA"},"type":"Feature","geometry":{"type":"Point","coordinates":[-81.697013,41.464015]}},{"properties":{"CITY":"CLEVELAND","ZIP":"44109","X":"-81.697013","DATE":"8/13/200","Y":"41.464015","APT":"DN","STATE":"OH","STREET":"2001 CLOVER AVE","CENSUSTRA":"","id":"a638004evdav","COUNTY":"CUYAHOGA"},"type":"Feature","geometry":{"type":"Point","coordinates":[-81.697013,41.464015]}},{"properties":{"CITY":"CLEVELAND","ZIP":"44109","X":"-81.695352","DATE":"8/13/200","Y":"41.433951","APT":"","STATE":"OH","STREET":"2001 HOOD AVE","CENSUSTRA":"","id":"a63800fzatn3","COUNTY":"CUYAHOGA"},"type":"Feature","geometry":{"type":"Point","coordinates":[-81.695352,41.433951]}},{"properties":{"CITY":"CLEVELAND","ZIP":"44102","X":"-81.722332","DATE":"8/13/200","Y":"41.476939","APT":"","STATE":"OH","STREET":"2009 W 52ND ST","CENSUSTRA":"","id":"a638009wqwfi","COUNTY":"CUYAHOGA"},"type":"Feature","geometry":{"type":"Point","coordinates":[-81.722332,41.476939]}},{"properties":{"CITY":"CLEVELAND","ZIP":"44102","X":"-81.722855","DATE":"8/13/200","Y":"41.475571","APT":"","STATE":"OH","STREET":"2020 W 53RD ST","CENSUSTRA":"1026.00","id":"a638007noaa7","COUNTY":"CUYAHOGA"},"type":"Feature","geometry":{"type":"Point","coordinates":[-81.722855,41.475571]}},{"properties":{"CITY":"CLEVELAND","ZIP":"44102","X":"-81.743171","DATE":"8/13/200","Y":"41.476300","APT":"","STATE":"OH","STREET":"2029 W 85TH ST","CENSUSTRA":"1017.00","id":"a63800fs82i4","COUNTY":"CUYAHOGA"},"type":"Feature","geometry":{"type":"Point","coordinates":[-81.743171,41.4763]}},{"properties":{"CITY":"CLEVELAND","ZIP":"44102","X":"-81.750955","DATE":"8/13/200","Y":"41.476000","APT":"","STATE":"OH","STREET":"2032 W 98TH ST","CENSUSTRA":"","id":"a63800g2ure0","COUNTY":"CUYAHOGA"},"type":"Feature","geometry":{"type":"Point","coordinates":[-81.750955,41.476]}},{"properties":{"CITY":"CLEVELAND","ZIP":"44102","X":"-81.743217","DATE":"8/13/200","Y":"41.475327","APT":"","STATE":"OH","STREET":"2046 W 85TH ST","CENSUSTRA":"1017.00","id":"a63800ene75k","COUNTY":"CUYAHOGA"},"type":"Feature","geometry":{"type":"Point","coordinates":[-81.743217,41.475327]}},{"properties":{"CITY":"CLEVELAND","ZIP":"44113","X":"-81.687697","DATE":"8/13/200","Y":"41.483155","APT":"","STATE":"OH","STREET":"2076 W 10TH ST","CENSUSTRA":"1042.00","id":"a638004l9hs4","COUNTY":"CUYAHOGA"},"type":"Feature","geometry":{"type":"Point","coordinates":[-81.687697,41.483155]}},{"properties":{"CITY":"CLEVELAND","ZIP":"44102","X":"-81.747455","DATE":"8/13/200","Y":"41.472749","APT":"UP","STATE":"OH","STREET":"2152 W 93RD ST","CENSUSTRA":"","id":"a638007c0j6r","COUNTY":"CUYAHOGA"},"type":"Feature","geometry":{"type":"Point","coordinates":[-81.747455,41.472749]}},{"properties":{"CITY":"CLEVELAND","ZIP":"44102","X":"-81.754179","DATE":"8/13/200","Y":"41.475125","APT":"","STATE":"OH","STREET":"2168 W 101ST ST","CENSUSTRA":"1015.00","id":"a63800f9ucq0","COUNTY":"CUYAHOGA"},"type":"Feature","geometry":{"type":"Point","coordinates":[-81.754179,41.475125]}},{"properties":{"CITY":"CLEVELAND","ZIP":"44103","X":"-81.63175","DATE":"8/13/200","Y":"41.499589","APT":"","STATE":"OH","STREET":"2177 E 81ST ST","CENSUSTRA":"1134.00","id":"a63800j7evux","COUNTY":"CUYAHOGA"},"type":"Feature","geometry":{"type":"Point","coordinates":[-81.63175,41.499589]}},{"properties":{"CITY":"CLEVELAND","ZIP":"44102","X":"-81.740154","DATE":"8/13/200","Y":"41.471783","APT":"UP","STATE":"OH","STREET":"2188 W 80TH ST","CENSUSTRA":"","id":"a63800557gb0","COUNTY":"CUYAHOGA"},"type":"Feature","geometry":{"type":"Point","coordinates":[-81.740154,41.471783]}},{"properties":{"CITY":"CLEVELAND","ZIP":"44106","X":"-81.620649","DATE":"8/13/200","Y":"41.498105","APT":"","STATE":"OH","STREET":"2210 E 95TH ST","CENSUSTRA":"1136.00","id":"a63800fbcypz","COUNTY":"CUYAHOGA"},"type":"Feature","geometry":{"type":"Point","coordinates":[-81.620649,41.498105]}},{"properties":{"CITY":"CLEVELAND","ZIP":"44113","X":"-81.697614","DATE":"9/2/2002","Y":"41.472651","APT":"","STATE":"OH","STREET":"2213 SEYMOUR AVE","CENSUSTRA":"1041.00","id":"a638006jkrj9","COUNTY":"CUYAHOGA"},"type":"Feature","geometry":{"type":"Point","coordinates":[-81.697614,41.472651]}},{"properties":{"CITY":"CLEVELAND","ZIP":"44103","X":"-81.63335","DATE":"9/2/2002","Y":"41.497857","APT":"","STATE":"OH","STREET":"2228 E 79TH ST","CENSUSTRA":"1133.00","id":"a63800bjwch2","COUNTY":"CUYAHOGA"},"type":"Feature","geometry":{"type":"Point","coordinates":[-81.63335,41.497857]}},{"properties":{"CITY":"CLEVELAND","ZIP":"44103","X":"-81.63335","DATE":"9/2/2002","Y":"41.497799","APT":"","STATE":"OH","STREET":"2230 E 79TH ST","CENSUSTRA":"1133.00","id":"a638005d9fjo","COUNTY":"CUYAHOGA"},"type":"Feature","geometry":{"type":"Point","coordinates":[-81.63335,41.497799]}},{"properties":{"CITY":"CLEVELAND","ZIP":"44103","X":"-81.628722","DATE":"9/2/2002","Y":"41.497450","APT":"","STATE":"OH","STREET":"2259 E 84TH ST","CENSUSTRA":"1135.00","id":"a638005sa8t8","COUNTY":"CUYAHOGA"},"type":"Feature","geometry":{"type":"Point","coordinates":[-81.628722,41.49745]}},{"properties":{"CITY":"CLEVELAND","ZIP":"44106","X":"-81.621550","DATE":"9/2/2002","Y":"41.494624","APT":"4","STATE":"OH","STREET":"2270 E 93RD ST","CENSUSTRA":"","id":"a638009hrvg1","COUNTY":"CUYAHOGA"},"type":"Feature","geometry":{"type":"Point","coordinates":[-81.62155,41.494624]}},{"properties":{"CITY":"CLEVELAND","ZIP":"44106","X":"-81.621578","DATE":"9/2/2002","Y":"41.496101","APT":"","STATE":"OH","STREET":"2281 E 93RD ST","CENSUSTRA":"","id":"a63800ifoh53","COUNTY":"CUYAHOGA"},"type":"Feature","geometry":{"type":"Point","coordinates":[-81.621578,41.496101]}},{"properties":{"CITY":"CLEVELAND","ZIP":"44106","X":"-81.624449","DATE":"9/2/2002","Y":"41.496345","APT":"DN","STATE":"OH","STREET":"2289 E 89TH ST","CENSUSTRA":"1135.00","id":"a63800944kkd","COUNTY":"CUYAHOGA"},"type":"Feature","geometry":{"type":"Point","coordinates":[-81.624449,41.496345]}},{"properties":{"CITY":"CLEVELAND","ZIP":"44106","X":"-81.624449","DATE":"9/2/2002","Y":"41.496345","APT":"UP","STATE":"OH","STREET":"2289 E 89TH ST","CENSUSTRA":"1135.00","id":"a638007pkki7","COUNTY":"CUYAHOGA"},"type":"Feature","geometry":{"type":"Point","coordinates":[-81.624449,41.496345]}},{"properties":{"CITY":"CLEVELAND","ZIP":"44106","X":"-81.626949","DATE":"9/2/2002","Y":"41.495700","APT":"","STATE":"OH","STREET":"2312 E 86TH ST","CENSUSTRA":"","id":"a63800dmwax5","COUNTY":"CUYAHOGA"},"type":"Feature","geometry":{"type":"Point","coordinates":[-81.626949,41.4957]}},{"properties":{"CITY":"CLEVELAND","ZIP":"44104","X":"-81.628749","DATE":"9/2/2002","Y":"41.495977","APT":"","STATE":"OH","STREET":"2316 E 84TH ST","CENSUSTRA":"","id":"a63800j8oq63","COUNTY":"CUYAHOGA"},"type":"Feature","geometry":{"type":"Point","coordinates":[-81.628749,41.495977]}},{"properties":{"CITY":"CLEVELAND","ZIP":"44104","X":"-81.628749","DATE":"9/2/2002","Y":"41.495504","APT":"","STATE":"OH","STREET":"2333 E 84TH ST","CENSUSTRA":"1135.00","id":"a638008n4vc8","COUNTY":"CUYAHOGA"},"type":"Feature","geometry":{"type":"Point","coordinates":[-81.628749,41.495504]}},{"properties":{"CITY":"CLEVELAND","ZIP":"44109","X":"-81.699114","DATE":"9/2/2002","Y":"41.465551","APT":"","STATE":"OH","STREET":"2333 MEYER AVE","CENSUSTRA":"1046.00","id":"a63800goa2dr","COUNTY":"CUYAHOGA"},"type":"Feature","geometry":{"type":"Point","coordinates":[-81.699114,41.465551]}},{"properties":{"CITY":"CLEVELAND","ZIP":"44104","X":"-81.653767","DATE":"9/2/2002","Y":"41.494500","APT":"","STATE":"OH","STREET":"2421 UNWIN RD","CENSUSTRA":"","id":"a638009tkbqt","COUNTY":"CUYAHOGA"},"type":"Feature","geometry":{"type":"Point","coordinates":[-81.653767,41.4945]}},{"properties":{"CITY":"CLEVELAND","ZIP":"44113","X":"-81.681763","DATE":"9/2/2002","Y":"41.479236","APT":"","STATE":"OH","STREET":"2481 W 7TH ST","CENSUSTRA":"1045.00","id":"a63800djq4e4","COUNTY":"CUYAHOGA"},"type":"Feature","geometry":{"type":"Point","coordinates":[-81.681763,41.479236]}},{"properties":{"CITY":"CLEVELAND","ZIP":"44104","X":"-81.631209","DATE":"9/2/2002","Y":"41.490911","APT":"","STATE":"OH","STREET":"2488 E 82ND ST","CENSUSTRA":"1141.00","id":"a63800a177ww","COUNTY":"CUYAHOGA"},"type":"Feature","geometry":{"type":"Point","coordinates":[-81.631209,41.490911]}},{"properties":{"CITY":"CLEVELAND","ZIP":"44104","X":"-81.631222","DATE":"9/2/2002","Y":"41.490790","APT":"","STATE":"OH","STREET":"2492 E 82ND ST","CENSUSTRA":"1141.00","id":"a63800fgfzms","COUNTY":"CUYAHOGA"},"type":"Feature","geometry":{"type":"Point","coordinates":[-81.631222,41.49079]}},{"properties":{"CITY":"CLEVELAND","ZIP":"44115","X":"-81.663779","DATE":"9/2/2002","Y":"41.492709","APT":"213","STATE":"OH","STREET":"2532 E 35TH ST","CENSUSTRA":"1097.00","id":"a638007wwkty","COUNTY":"CUYAHOGA"},"type":"Feature","geometry":{"type":"Point","coordinates":[-81.663779,41.492709]}},{"properties":{"CITY":"CLEVELAND","ZIP":"44104","X":"-81.654320","DATE":"9/2/2002","Y":"41.489677","APT":"","STATE":"OH","STREET":"2566 E 49TH ST","CENSUSTRA":"","id":"a63800a95kze","COUNTY":"CUYAHOGA"},"type":"Feature","geometry":{"type":"Point","coordinates":[-81.65432,41.489677]}},{"properties":{"CITY":"CLEVELAND","ZIP":"44120","X":"-81.595653","DATE":"9/2/2002","Y":"41.485299","APT":"","STATE":"OH","STREET":"2672 E 126TH ST","CENSUSTRA":"","id":"a63800gjjgql","COUNTY":"CUYAHOGA"},"type":"Feature","geometry":{"type":"Point","coordinates":[-81.595653,41.485299]}},{"properties":{"CITY":"CLEVELAND","ZIP":"44120","X":"-81.595178","DATE":"10/19/20","Y":"41.482531","APT":"UP","STATE":"OH","STREET":"2765 E 126TH ST","CENSUSTRA":"","id":"a638007mbef2","COUNTY":"CUYAHOGA"},"type":"Feature","geometry":{"type":"Point","coordinates":[-81.595178,41.482531]}},{"properties":{"CITY":"CLEVELAND","ZIP":"44113","X":"-81.703065","DATE":"10/19/20","Y":"41.480410","APT":"UP","STATE":"OH","STREET":"2811 MONROE AVE","CENSUSTRA":"1039.00","id":"a63800bkiwwn","COUNTY":"CUYAHOGA"},"type":"Feature","geometry":{"type":"Point","coordinates":[-81.703065,41.48041]}},{"properties":{"CITY":"CLEVELAND","ZIP":"44104","X":"-81.616618","DATE":"10/19/20","Y":"41.482194","APT":"","STATE":"OH","STREET":"2840 E 99TH ST","CENSUSTRA":"","id":"a63800flh9ri","COUNTY":"CUYAHOGA"},"type":"Feature","geometry":{"type":"Point","coordinates":[-81.616618,41.482194]}},{"properties":{"CITY":"CLEVELAND","ZIP":"44120","X":"-81.600648","DATE":"10/19/20","Y":"41.480351","APT":"DN","STATE":"OH","STREET":"2894 E 118TH ST","CENSUSTRA":"1194.02","id":"a638007ofezu","COUNTY":"CUYAHOGA"},"type":"Feature","geometry":{"type":"Point","coordinates":[-81.600648,41.480351]}},{"properties":{"CITY":"CLEVELAND","ZIP":"44104","X":"-81.623149","DATE":"10/19/20","Y":"41.479052","APT":"","STATE":"OH","STREET":"2945 E 92ND ST","CENSUSTRA":"1148.00","id":"a63800gqnxxj","COUNTY":"CUYAHOGA"},"type":"Feature","geometry":{"type":"Point","coordinates":[-81.623149,41.479052]}},{"properties":{"CITY":"CLEVELAND","ZIP":"44120","X":"-81.594628","DATE":"10/19/20","Y":"41.478637","APT":"UP","STATE":"OH","STREET":"2961 E 126TH ST","CENSUSTRA":"","id":"a6380067d234","COUNTY":"CUYAHOGA"},"type":"Feature","geometry":{"type":"Point","coordinates":[-81.594628,41.478637]}},{"properties":{"CITY":"CLEVELAND","ZIP":"44120","X":"-81.594628","DATE":"10/19/20","Y":"41.478637","APT":"DN","STATE":"OH","STREET":"2961 E 126TH ST","CENSUSTRA":"","id":"a6380041ucjl","COUNTY":"CUYAHOGA"},"type":"Feature","geometry":{"type":"Point","coordinates":[-81.594628,41.478637]}},{"properties":{"CITY":"CLEVELAND","ZIP":"44127","X":"-81.64675","DATE":"11/20/20","Y":"41.478651","APT":"DN","STATE":"OH","STREET":"2971 E 63RD ST","CENSUSTRA":"","id":"a63800eler5a","COUNTY":"CUYAHOGA"},"type":"Feature","geometry":{"type":"Point","coordinates":[-81.64675,41.478651]}},{"properties":{"CITY":"CLEVELAND","ZIP":"44127","X":"-81.64935","DATE":"11/20/20","Y":"41.477257","APT":"UP","STATE":"OH","STREET":"2990 E 59TH ST","CENSUSTRA":"","id":"a6380074975z","COUNTY":"CUYAHOGA"},"type":"Feature","geometry":{"type":"Point","coordinates":[-81.64935,41.477257]}},{"properties":{"CITY":"CLEVELAND","ZIP":"44127","X":"-81.64935","DATE":"11/20/20","Y":"41.477257","APT":"DN","STATE":"OH","STREET":"2990 E 59TH ST","CENSUSTRA":"","id":"a63800g34apa","COUNTY":"CUYAHOGA"},"type":"Feature","geometry":{"type":"Point","coordinates":[-81.64935,41.477257]}},{"properties":{"CITY":"CLEVELAND","ZIP":"44127","X":"-81.64935","DATE":"11/20/20","Y":"41.477154","APT":"UP","STATE":"OH","STREET":"2994 E 59TH ST","CENSUSTRA":"1146.00","id":"a63800iqgga7","COUNTY":"CUYAHOGA"},"type":"Feature","geometry":{"type":"Point","coordinates":[-81.64935,41.477154]}},{"properties":{"CITY":"CLEVELAND","ZIP":"44127","X":"-81.64935","DATE":"11/20/20","Y":"41.477154","APT":"DN","STATE":"OH","STREET":"2994 E 59TH ST","CENSUSTRA":"","id":"a638007060ue","COUNTY":"CUYAHOGA"},"type":"Feature","geometry":{"type":"Point","coordinates":[-81.64935,41.477154]}},{"properties":{"CITY":"CLEVELAND","ZIP":"44127","X":"-81.656819","DATE":"11/20/20","Y":"41.476717","APT":"","STATE":"OH","STREET":"2994 NURSERY AVE","CENSUSTRA":"","id":"a63800ah6mir","COUNTY":"CUYAHOGA"},"type":"Feature","geometry":{"type":"Point","coordinates":[-81.656819,41.476717]}},{"properties":{"CITY":"CLEVELAND","ZIP":"44120","X":"-81.597748","DATE":"11/20/20","Y":"41.476932","APT":"DN","STATE":"OH","STREET":"3013 E 121ST ST","CENSUSTRA":"1197.02","id":"a63800bic3o9","COUNTY":"CUYAHOGA"},"type":"Feature","geometry":{"type":"Point","coordinates":[-81.597748,41.476932]}},{"properties":{"CITY":"CLEVELAND","ZIP":"44120","X":"-81.597748","DATE":"11/20/20","Y":"41.476932","APT":"UP","STATE":"OH","STREET":"3013 E 121ST ST","CENSUSTRA":"","id":"a63800b8yq5y","COUNTY":"CUYAHOGA"},"type":"Feature","geometry":{"type":"Point","coordinates":[-81.597748,41.476932]}},{"properties":{"CITY":"CLEVELAND","ZIP":"44127","X":"-81.65575","DATE":"11/20/20","Y":"41.476536","APT":"","STATE":"OH","STREET":"3015 VICTOR AVE","CENSUSTRA":"","id":"a638007qq2fo","COUNTY":"CUYAHOGA"},"type":"Feature","geometry":{"type":"Point","coordinates":[-81.65575,41.476536]}},{"properties":{"CITY":"CLEVELAND","ZIP":"44120","X":"-81.597748","DATE":"11/20/20","Y":"41.476612","APT":"","STATE":"OH","STREET":"3025 E 121ST ST","CENSUSTRA":"1197.02","id":"a638005pt067","COUNTY":"CUYAHOGA"},"type":"Feature","geometry":{"type":"Point","coordinates":[-81.597748,41.476612]}},{"properties":{"CITY":"CLEVELAND","ZIP":"44104","X":"-81.633626","DATE":"12/29/20","Y":"41.476680","APT":"","STATE":"OH","STREET":"3028 E 78TH ST","CENSUSTRA":"1143.00","id":"a63800hvam31","COUNTY":"CUYAHOGA"},"type":"Feature","geometry":{"type":"Point","coordinates":[-81.633626,41.47668]}},{"properties":{"CITY":"CLEVELAND","ZIP":"44120","X":"-81.594544","DATE":"12/29/20","Y":"41.476823","APT":"","STATE":"OH","STREET":"3031 E 126TH ST","CENSUSTRA":"1197.02","id":"a63800dag5cr","COUNTY":"CUYAHOGA"},"type":"Feature","geometry":{"type":"Point","coordinates":[-81.594544,41.476823]}},{"properties":{"CITY":"CLEVELAND","ZIP":"44113","X":"-81.689952","DATE":"12/29/20","Y":"41.470696","APT":"","STATE":"OH","STREET":"3052 W 12TH ST","CENSUSTRA":"1047.02","id":"a63800554hl0","COUNTY":"CUYAHOGA"},"type":"Feature","geometry":{"type":"Point","coordinates":[-81.689952,41.470696]}},{"properties":{"CITY":"CLEVELAND","ZIP":"44113","X":"-81.689952","DATE":"12/29/20","Y":"41.470668","APT":"UP","STATE":"OH","STREET":"3054 W 12TH ST","CENSUSTRA":"","id":"a638005d5b9z","COUNTY":"CUYAHOGA"},"type":"Feature","geometry":{"type":"Point","coordinates":[-81.689952,41.470668]}},{"properties":{"CITY":"CLEVELAND","ZIP":"44120","X":"-81.596847","DATE":"12/29/20","Y":"41.475782","APT":"","STATE":"OH","STREET":"3061 E 123RD ST","CENSUSTRA":"1197.02","id":"a6380042ool2","COUNTY":"CUYAHOGA"},"type":"Feature","geometry":{"type":"Point","coordinates":[-81.596847,41.475782]}},{"properties":{"CITY":"CLEVELAND","ZIP":"44120","X":"-81.589156","DATE":"12/29/20","Y":"41.475039","APT":"12","STATE":"OH","STREET":"3068 LIVINGSTON RD","CENSUSTRA":"1197.01","id":"a63800jat1s2","COUNTY":"CUYAHOGA"},"type":"Feature","geometry":{"type":"Point","coordinates":[-81.589156,41.475039]}},{"properties":{"CITY":"CLEVELAND","ZIP":"44109","X":"-81.703203","DATE":"12/29/20","Y":"41.453751","APT":"","STATE":"OH","STREET":"3110 CHESTNUTDALE AVE","CENSUSTRA":"","id":"a63800gm9vax","COUNTY":"CUYAHOGA"},"type":"Feature","geometry":{"type":"Point","coordinates":[-81.703203,41.453751]}},{"properties":{"CITY":"CLEVELAND","ZIP":"44102","X":"-81.732254","DATE":"12/29/20","Y":"41.469015","APT":"","STATE":"OH","STREET":"3119 W 68TH ST","CENSUSTRA":"","id":"a63800g8khzv","COUNTY":"CUYAHOGA"},"type":"Feature","geometry":{"type":"Point","coordinates":[-81.732254,41.469015]}},{"properties":{"CITY":"CLEVELAND","ZIP":"44109","X":"-81.710253","DATE":"12/29/20","Y":"41.468638","APT":"DN","STATE":"OH","STREET":"3127 W 38TH ST","CENSUSTRA":"","id":"a638009k9k0j","COUNTY":"CUYAHOGA"},"type":"Feature","geometry":{"type":"Point","coordinates":[-81.710253,41.468638]}},{"properties":{"CITY":"CLEVELAND","ZIP":"44109","X":"-81.701852","DATE":"12/29/20","Y":"41.468818","APT":"UP","STATE":"OH","STREET":"3130 W 30TH ST","CENSUSTRA":"","id":"a63800j9u2zx","COUNTY":"CUYAHOGA"},"type":"Feature","geometry":{"type":"Point","coordinates":[-81.701852,41.468818]}},{"properties":{"CITY":"CLEVELAND","ZIP":"44109","X":"-81.694852","DATE":"12/29/20","Y":"41.469227","APT":"","STATE":"OH","STREET":"3132 W 17TH PL","CENSUSTRA":"","id":"a63800dms3ad","COUNTY":"CUYAHOGA"},"type":"Feature","geometry":{"type":"Point","coordinates":[-81.694852,41.469227]}},{"properties":{"CITY":"CLEVELAND","ZIP":"44109","X":"-81.694852","DATE":"12/29/20","Y":"41.469212","APT":"2","STATE":"OH","STREET":"3136 W 17TH PL","CENSUSTRA":"","id":"a638009u5yiw","COUNTY":"CUYAHOGA"},"type":"Feature","geometry":{"type":"Point","coordinates":[-81.694852,41.469212]}},{"properties":{"CITY":"CLEVELAND","ZIP":"44104","X":"-81.621149","DATE":"12/29/20","Y":"41.473523","APT":"1","STATE":"OH","STREET":"3142 E 93RD ST","CENSUSTRA":"1148.00","id":"a63800eeyx7l","COUNTY":"CUYAHOGA"},"type":"Feature","geometry":{"type":"Point","coordinates":[-81.621149,41.473523]}},{"properties":{"CITY":"CLEVELAND","ZIP":"44102","X":"-81.744855","DATE":"12/29/20","Y":"41.467873","APT":"UP","STATE":"OH","STREET":"3147 W 88TH ST","CENSUSTRA":"1024.02","id":"a63800id1r50","COUNTY":"CUYAHOGA"},"type":"Feature","geometry":{"type":"Point","coordinates":[-81.744855,41.467873]}},{"properties":{"CITY":"CLEVELAND","ZIP":"44109","X":"-81.713282","DATE":"12/29/20","Y":"41.468115","APT":"","STATE":"OH","STREET":"3152 W 41ST ST","CENSUSTRA":"","id":"a63800eftkg2","COUNTY":"CUYAHOGA"},"type":"Feature","geometry":{"type":"Point","coordinates":[-81.713282,41.468115]}},{"properties":{"CITY":"CLEVELAND","ZIP":"44109","X":"-81.713282","DATE":"12/29/20","Y":"41.468115","APT":"DN","STATE":"OH","STREET":"3152 W 41ST ST","CENSUSTRA":"","id":"a63800alcd28","COUNTY":"CUYAHOGA"},"type":"Feature","geometry":{"type":"Point","coordinates":[-81.713282,41.468115]}},{"properties":{"CITY":"CLEVELAND","ZIP":"44109","X":"-81.707453","DATE":"12/29/20","Y":"41.467922","APT":"","STATE":"OH","STREET":"3156 FULTON RD","CENSUSTRA":"1029.00","id":"a63800eikiru","COUNTY":"CUYAHOGA"},"type":"Feature","geometry":{"type":"Point","coordinates":[-81.707453,41.467922]}},{"properties":{"CITY":"CLEVELAND","ZIP":"44102","X":"-81.721253","DATE":"12/29/20","Y":"41.467341","APT":"DN","STATE":"OH","STREET":"3177 W 50TH ST","CENSUSTRA":"","id":"a63800eakef8","COUNTY":"CUYAHOGA"},"type":"Feature","geometry":{"type":"Point","coordinates":[-81.721253,41.467341]}},{"properties":{"CITY":"CLEVELAND","ZIP":"44102","X":"-81.718353","DATE":"12/29/20","Y":"41.466214","APT":"3","STATE":"OH","STREET":"3209 W 46TH ST","CENSUSTRA":"1028.00","id":"a63800ilrulm","COUNTY":"CUYAHOGA"},"type":"Feature","geometry":{"type":"Point","coordinates":[-81.718353,41.466214]}},{"properties":{"CITY":"CLEVELAND","ZIP":"44102","X":"-81.718353","DATE":"12/29/20","Y":"41.466214","APT":"1","STATE":"OH","STREET":"3209 W 46TH ST","CENSUSTRA":"","id":"a63800hcl7hg","COUNTY":"CUYAHOGA"},"type":"Feature","geometry":{"type":"Point","coordinates":[-81.718353,41.466214]}},{"properties":{"CITY":"CLEVELAND","ZIP":"44102","X":"-81.718353","DATE":"12/30/20","Y":"41.466214","APT":"2","STATE":"OH","STREET":"3209 W 46TH ST","CENSUSTRA":"","id":"a63800aswpj2","COUNTY":"CUYAHOGA"},"type":"Feature","geometry":{"type":"Point","coordinates":[-81.718353,41.466214]}},{"properties":{"CITY":"CLEVELAND","ZIP":"44102","X":"-81.718353","DATE":"12/30/20","Y":"41.466172","APT":"RR","STATE":"OH","STREET":"3211 W 46TH ST","CENSUSTRA":"","id":"a63800hr4i8a","COUNTY":"CUYAHOGA"},"type":"Feature","geometry":{"type":"Point","coordinates":[-81.718353,41.466172]}},{"properties":{"CITY":"CLEVELAND","ZIP":"44109","X":"-81.730155","DATE":"12/30/20","Y":"41.462052","APT":"","STATE":"OH","STREET":"3222 STORER AVE","CENSUSTRA":"","id":"a63800avz7ri","COUNTY":"CUYAHOGA"},"type":"Feature","geometry":{"type":"Point","coordinates":[-81.730155,41.462052]}},{"properties":{"CITY":"CLEVELAND","ZIP":"44102","X":"-81.743755","DATE":"12/30/20","Y":"41.46555","APT":"UP","STATE":"OH","STREET":"3236 W 86TH ST","CENSUSTRA":"","id":"a63800654jxh","COUNTY":"CUYAHOGA"},"type":"Feature","geometry":{"type":"Point","coordinates":[-81.743755,41.46555]}},{"properties":{"CITY":"CLEVELAND","ZIP":"44102","X":"-81.743755","DATE":"12/30/20","Y":"41.46555","APT":"DN","STATE":"OH","STREET":"3236 W 86TH ST","CENSUSTRA":"","id":"a638008vmua0","COUNTY":"CUYAHOGA"},"type":"Feature","geometry":{"type":"Point","coordinates":[-81.743755,41.46555]}},{"properties":{"CITY":"CLEVELAND","ZIP":"44109","X":"-81.715353","DATE":"12/30/20","Y":"41.465350","APT":"","STATE":"OH","STREET":"3254 W 43RD ST","CENSUSTRA":"1028.00","id":"a63800aosxvx","COUNTY":"CUYAHOGA"},"type":"Feature","geometry":{"type":"Point","coordinates":[-81.715353,41.46535]}},{"properties":{"CITY":"CLEVELAND","ZIP":"44109","X":"-81.710353","DATE":"12/30/20","Y":"41.464900","APT":"","STATE":"OH","STREET":"3271 W 38TH ST","CENSUSTRA":"","id":"a63800fgulvi","COUNTY":"CUYAHOGA"},"type":"Feature","geometry":{"type":"Point","coordinates":[-81.710353,41.4649]}},{"properties":{"CITY":"CLEVELAND","ZIP":"44102","X":"-81.747655","DATE":"12/30/20","Y":"41.464090","APT":"UP","STATE":"OH","STREET":"3273 W 94TH ST","CENSUSTRA":"","id":"a638004llc7m","COUNTY":"CUYAHOGA"},"type":"Feature","geometry":{"type":"Point","coordinates":[-81.747655,41.46409]}},{"properties":{"CITY":"CLEVELAND","ZIP":"44102","X":"-81.722353","DATE":"12/30/20","Y":"41.464434","APT":"RR","STATE":"OH","STREET":"3283 W 52ND ST","CENSUSTRA":"1027.00","id":"a63800hbhh3c","COUNTY":"CUYAHOGA"},"type":"Feature","geometry":{"type":"Point","coordinates":[-81.722353,41.464434]}},{"properties":{"CITY":"CLEVELAND","ZIP":"44104","X":"-81.612705","DATE":"12/30/20","Y":"41.469309","APT":"DN","STATE":"OH","STREET":"3285 E 104TH ST","CENSUSTRA":"","id":"a63800i0fg2v","COUNTY":"CUYAHOGA"},"type":"Feature","geometry":{"type":"Point","coordinates":[-81.612705,41.469309]}},{"properties":{"CITY":"CLEVELAND","ZIP":"44102","X":"-81.719987","DATE":"12/30/20","Y":"41.464508","APT":"UPRR","STATE":"OH","STREET":"3289 W 48TH ST","CENSUSTRA":"","id":"a638005csdat","COUNTY":"CUYAHOGA"},"type":"Feature","geometry":{"type":"Point","coordinates":[-81.719987,41.464508]}},{"properties":{"CITY":"CLEVELAND","ZIP":"44109","X":"-81.694901","DATE":"12/30/20","Y":"41.464801","APT":"DN","STATE":"OH","STREET":"3290 W 17TH ST","CENSUSTRA":"","id":"a638009bq9au","COUNTY":"CUYAHOGA"},"type":"Feature","geometry":{"type":"Point","coordinates":[-81.694901,41.464801]}},{"properties":{"CITY":"CLEVELAND","ZIP":"44109","X":"-81.694901","DATE":"12/30/20","Y":"41.464801","APT":"UP","STATE":"OH","STREET":"3290 W 17TH ST","CENSUSTRA":"","id":"a638005bffcs","COUNTY":"CUYAHOGA"},"type":"Feature","geometry":{"type":"Point","coordinates":[-81.694901,41.464801]}},{"properties":{"CITY":"CLEVELAND","ZIP":"44102","X":"-81.722353","DATE":"12/30/20","Y":"41.463466","APT":"UP","STATE":"OH","STREET":"3325 W 52ND ST","CENSUSTRA":"","id":"a63800cbhhhf","COUNTY":"CUYAHOGA"},"type":"Feature","geometry":{"type":"Point","coordinates":[-81.722353,41.463466]}},{"properties":{"CITY":"CLEVELAND","ZIP":"44102","X":"-81.748655","DATE":"12/30/20","Y":"41.461674","APT":"","STATE":"OH","STREET":"3375 W 95TH ST","CENSUSTRA":"","id":"a63800ewdma2","COUNTY":"CUYAHOGA"},"type":"Feature","geometry":{"type":"Point","coordinates":[-81.748655,41.461674]}},{"properties":{"CITY":"CLEVELAND","ZIP":"44120","X":"-81.777810","DATE":"12/30/20","Y":"41.460015","APT":"","STATE":"OH","STREET":"3388 E 128TH ST","CENSUSTRA":"1198.00","id":"a63800azzho4","COUNTY":"CUYAHOGA"},"type":"Feature","geometry":{"type":"Point","coordinates":[-81.77781,41.460015]}},{"properties":{"CITY":"CLEVELAND","ZIP":"44120","X":"-81.602648","DATE":"12/30/20","Y":"41.467579","APT":"1","STATE":"OH","STREET":"3403 E 116TH ST","CENSUSTRA":"1206.00","id":"a63800hbxsuq","COUNTY":"CUYAHOGA"},"type":"Feature","geometry":{"type":"Point","coordinates":[-81.602648,41.467579]}},{"properties":{"CITY":"CLEVELAND","ZIP":"44120","X":"-81.602648","DATE":"12/30/20","Y":"41.467579","APT":"3","STATE":"OH","STREET":"3403 E 116TH ST","CENSUSTRA":"","id":"a638008m9i29","COUNTY":"CUYAHOGA"},"type":"Feature","geometry":{"type":"Point","coordinates":[-81.602648,41.467579]}},{"properties":{"CITY":"CLEVELAND","ZIP":"44120","X":"-81.600479","DATE":"12/30/20","Y":"41.466160","APT":"DN","STATE":"OH","STREET":"3413 E 118TH ST","CENSUSTRA":"","id":"a63800funjuc","COUNTY":"CUYAHOGA"},"type":"Feature","geometry":{"type":"Point","coordinates":[-81.600479,41.46616]}},{"properties":{"CITY":"CLEVELAND","ZIP":"44104","X":"-81.606733","DATE":"12/30/20","Y":"41.466337","APT":"","STATE":"OH","STREET":"3414 MLK BLVD","CENSUSTRA":"","id":"a63800jcv0id","COUNTY":"CUYAHOGA"},"type":"Feature","geometry":{"type":"Point","coordinates":[-81.606733,41.466337]}},{"properties":{"CITY":"CLEVELAND","ZIP":"44104","X":"-81.608248","DATE":"12/30/20","Y":"41.467167","APT":"","STATE":"OH","STREET":"3415 E 110TH ST","CENSUSTRA":"1206.00","id":"a6380036ktld","COUNTY":"CUYAHOGA"},"type":"Feature","geometry":{"type":"Point","coordinates":[-81.608248,41.467167]}},{"properties":{"CITY":"CLEVELAND","ZIP":"44102","X":"-81.728804","DATE":"12/30/20","Y":"41.461214","APT":"","STATE":"OH","STREET":"3419 W 62ND ST","CENSUSTRA":"1051.00","id":"a63800fw75f9","COUNTY":"CUYAHOGA"},"type":"Feature","geometry":{"type":"Point","coordinates":[-81.728804,41.461214]}},{"properties":{"CITY":"CLEVELAND","ZIP":"44109","X":"-81.711261","DATE":"12/30/20","Y":"41.460842","APT":"DN","STATE":"OH","STREET":"3425 FULTON RD","CENSUSTRA":"","id":"a638009apxfp","COUNTY":"CUYAHOGA"},"type":"Feature","geometry":{"type":"Point","coordinates":[-81.711261,41.460842]}},{"properties":{"CITY":"CLEVELAND","ZIP":"44127","X":"-81.634349","DATE":"12/30/20","Y":"41.465556","APT":"UP","STATE":"OH","STREET":"3428 E 76TH ST","CENSUSTRA":"1149.00","id":"a638008uvt5n","COUNTY":"CUYAHOGA"},"type":"Feature","geometry":{"type":"Point","coordinates":[-81.634349,41.465556]}},{"properties":{"CITY":"CLEVELAND","ZIP":"44127","X":"-81.634349","DATE":"12/30/20","Y":"41.465556","APT":"DN","STATE":"OH","STREET":"3428 E 76TH ST","CENSUSTRA":"","id":"a63800891sik","COUNTY":"CUYAHOGA"},"type":"Feature","geometry":{"type":"Point","coordinates":[-81.634349,41.465556]}},{"properties":{"CITY":"CLEVELAND","ZIP":"44104","X":"-81.608193","DATE":"12/30/20","Y":"41.465242","APT":"","STATE":"OH","STREET":"3436 E 110TH ST","CENSUSTRA":"1205.00","id":"a63800fhzjvp","COUNTY":"CUYAHOGA"},"type":"Feature","geometry":{"type":"Point","coordinates":[-81.608193,41.465242]}},{"properties":{"CITY":"CLEVELAND","ZIP":"44120","X":"-81.591583","DATE":"12/30/20","Y":"41.465154","APT":"","STATE":"OH","STREET":"3436 E 130TH ST","CENSUSTRA":"1207.01","id":"a638007xq1df","COUNTY":"CUYAHOGA"},"type":"Feature","geometry":{"type":"Point","coordinates":[-81.591583,41.465154]}},{"properties":{"CITY":"CLEVELAND","ZIP":"44104","X":"-81.608221","DATE":"12/30/20","Y":"41.466230","APT":"DN","STATE":"OH","STREET":"3439 E 110TH ST","CENSUSTRA":"","id":"a63800dite0u","COUNTY":"CUYAHOGA"},"type":"Feature","geometry":{"type":"Point","coordinates":[-81.608221,41.46623]}},{"properties":{"CITY":"CLEVELAND","ZIP":"44104","X":"-81.608190","DATE":"12/30/20","Y":"41.465136","APT":"","STATE":"OH","STREET":"3440 E 110TH ST","CENSUSTRA":"1205.00","id":"a63800a99zt8","COUNTY":"CUYAHOGA"},"type":"Feature","geometry":{"type":"Point","coordinates":[-81.60819,41.465136]}},{"properties":{"CITY":"CLEVELAND","ZIP":"44127","X":"-81.635549","DATE":"12/30/20","Y":"41.464463","APT":"","STATE":"OH","STREET":"3454 E 75TH ST","CENSUSTRA":"1149.00","id":"a63800h1cxe9","COUNTY":"CUYAHOGA"},"type":"Feature","geometry":{"type":"Point","coordinates":[-81.635549,41.464463]}},{"properties":{"CITY":"CLEVELAND","ZIP":"44120","X":"-81.597906","DATE":"2/6/2001","Y":"41.464601","APT":"DN","STATE":"OH","STREET":"3470 E 121ST ST","CENSUSTRA":"1207.01","id":"a63800exbxaz","COUNTY":"CUYAHOGA"},"type":"Feature","geometry":{"type":"Point","coordinates":[-81.597906,41.464601]}},{"properties":{"CITY":"CLEVELAND","ZIP":"44102","X":"-81.727100","DATE":"2/6/2001","Y":"41.459713","APT":"UP","STATE":"OH","STREET":"3483 W 58TH ST","CENSUSTRA":"1027.00","id":"a63800eox61b","COUNTY":"CUYAHOGA"},"type":"Feature","geometry":{"type":"Point","coordinates":[-81.7271,41.459713]}},{"properties":{"CITY":"CLEVELAND","ZIP":"44102","X":"-81.727100","DATE":"2/6/2001","Y":"41.459713","APT":"DN","STATE":"OH","STREET":"3483 W 58TH ST","CENSUSTRA":"","id":"a63800jg6xv9","COUNTY":"CUYAHOGA"},"type":"Feature","geometry":{"type":"Point","coordinates":[-81.7271,41.459713]}},{"properties":{"CITY":"CLEVELAND","ZIP":"44102","X":"-81.727174","DATE":"2/6/2001","Y":"41.459492","APT":"UP","STATE":"OH","STREET":"3491 W 58TH ST","CENSUSTRA":"1027.00","id":"a638005lajrj","COUNTY":"CUYAHOGA"},"type":"Feature","geometry":{"type":"Point","coordinates":[-81.727174,41.459492]}},{"properties":{"CITY":"CLEVELAND","ZIP":"44102","X":"-81.717375","DATE":"2/6/2001","Y":"41.458669","APT":"","STATE":"OH","STREET":"3516 W 45TH ST","CENSUSTRA":"1053.00","id":"a63800b88t5x","COUNTY":"CUYAHOGA"},"type":"Feature","geometry":{"type":"Point","coordinates":[-81.717375,41.458669]}},{"properties":{"CITY":"CLEVELAND","ZIP":"44105","X":"-81.631982","DATE":"2/6/2001","Y":"41.463352","APT":"UP","STATE":"OH","STREET":"3532 E 80TH ST","CENSUSTRA":"1153.00","id":"a63800fa2egj","COUNTY":"CUYAHOGA"},"type":"Feature","geometry":{"type":"Point","coordinates":[-81.631982,41.463352]}},{"properties":{"CITY":"CLEVELAND","ZIP":"44120","X":"-81.585747","DATE":"2/6/2001","Y":"41.463692","APT":"","STATE":"OH","STREET":"3534 E 139TH ST","CENSUSTRA":"1207.01","id":"a63800hwcw92","COUNTY":"CUYAHOGA"},"type":"Feature","geometry":{"type":"Point","coordinates":[-81.585747,41.463692]}},{"properties":{"CITY":"CLEVELAND","ZIP":"44105","X":"-81.605808","DATE":"2/6/2001","Y":"41.462592","APT":"","STATE":"OH","STREET":"3542 E 112TH ST","CENSUSTRA":"","id":"a63800gxr3fz","COUNTY":"CUYAHOGA"},"type":"Feature","geometry":{"type":"Point","coordinates":[-81.605808,41.462592]}},{"properties":{"CITY":"CLEVELAND","ZIP":"44105","X":"-81.610448","DATE":"2/6/2001","Y":"41.462168","APT":"","STATE":"OH","STREET":"3542 E 116TH ST","CENSUSTRA":"1206.00","id":"a6380064sr69","COUNTY":"CUYAHOGA"},"type":"Feature","geometry":{"type":"Point","coordinates":[-81.610448,41.462168]}},{"properties":{"CITY":"CLEVELAND","ZIP":"44105","X":"-81.612188","DATE":"2/6/2001","Y":"41.462462","APT":"","STATE":"OH","STREET":"3544 E 104TH ST","CENSUSTRA":"1205.00","id":"a63800i066nt","COUNTY":"CUYAHOGA"},"type":"Feature","geometry":{"type":"Point","coordinates":[-81.612188,41.462462]}},{"properties":{"CITY":"CLEVELAND","ZIP":"44105","X":"-81.599047","DATE":"2/6/2001","Y":"41.462427","APT":"DN","STATE":"OH","STREET":"3550 E 120TH ST","CENSUSTRA":"","id":"a63800756dia","COUNTY":"CUYAHOGA"},"type":"Feature","geometry":{"type":"Point","coordinates":[-81.599047,41.462427]}},{"properties":{"CITY":"CLEVELAND","ZIP":"44120","X":"-81.591147","DATE":"2/6/2001","Y":"41.462032","APT":"2","STATE":"OH","STREET":"3557 E 131ST ST","CENSUSTRA":"1207.01","id":"a638005j29zs","COUNTY":"CUYAHOGA"},"type":"Feature","geometry":{"type":"Point","coordinates":[-81.591147,41.462032]}},{"properties":{"CITY":"CLEVELAND","ZIP":"44120","X":"-81.591147","DATE":"2/6/2001","Y":"41.462032","APT":"4","STATE":"OH","STREET":"3557 E 131ST ST","CENSUSTRA":"1207.01","id":"a638008b1f1n","COUNTY":"CUYAHOGA"},"type":"Feature","geometry":{"type":"Point","coordinates":[-81.591147,41.462032]}},{"properties":{"CITY":"CLEVELAND","ZIP":"44105","X":"-81.631886","DATE":"2/6/2001","Y":"41.462502","APT":"","STATE":"OH","STREET":"3568 E 80TH ST","CENSUSTRA":"1153.00","id":"a638008vfk7w","COUNTY":"CUYAHOGA"},"type":"Feature","geometry":{"type":"Point","coordinates":[-81.631886,41.462502]}},{"properties":{"CITY":"CLEVELAND","ZIP":"44105","X":"-81.629749","DATE":"2/6/2001","Y":"41.461400","APT":"UP","STATE":"OH","STREET":"3578 E 82ND ST","CENSUSTRA":"1153.00","id":"a638005q73i9","COUNTY":"CUYAHOGA"},"type":"Feature","geometry":{"type":"Point","coordinates":[-81.629749,41.4614]}},{"properties":{"CITY":"CLEVELAND","ZIP":"44105","X":"-81.629749","DATE":"2/6/2001","Y":"41.461400","APT":"DN","STATE":"OH","STREET":"3578 E 82ND ST","CENSUSTRA":"1153.00","id":"a63800ewclqj","COUNTY":"CUYAHOGA"},"type":"Feature","geometry":{"type":"Point","coordinates":[-81.629749,41.4614]}},{"properties":{"CITY":"CLEVELAND","ZIP":"44109","X":"-81.716453","DATE":"2/6/2001","Y":"41.457121","APT":"DN","STATE":"OH","STREET":"3580 W 44TH ST","CENSUSTRA":"","id":"a63800g3p06f","COUNTY":"CUYAHOGA"},"type":"Feature","geometry":{"type":"Point","coordinates":[-81.716453,41.457121]}},{"properties":{"CITY":"CLEVELAND","ZIP":"44105","X":"-81.605819","DATE":"2/6/2001","Y":"41.461494","APT":"DN","STATE":"OH","STREET":"3585 E 112TH ST","CENSUSTRA":"1206.00","id":"a63800dobypd","COUNTY":"CUYAHOGA"},"type":"Feature","geometry":{"type":"Point","coordinates":[-81.605819,41.461494]}},{"properties":{"CITY":"CLEVELAND","ZIP":"44105","X":"-81.605819","DATE":"2/6/2001","Y":"41.461494","APT":"UP","STATE":"OH","STREET":"3585 E 112TH ST","CENSUSTRA":"","id":"a63800ixoavf","COUNTY":"CUYAHOGA"},"type":"Feature","geometry":{"type":"Point","coordinates":[-81.605819,41.461494]}},{"properties":{"CITY":"CLEVELAND","ZIP":"44105","X":"-81.634349","DATE":"2/6/2001","Y":"41.460757","APT":"","STATE":"OH","STREET":"3586 E 76TH ST","CENSUSTRA":"1153.00","id":"a6380099tuvr","COUNTY":"CUYAHOGA"},"type":"Feature","geometry":{"type":"Point","coordinates":[-81.634349,41.460757]}},{"properties":{"CITY":"CLEVELAND","ZIP":"44105","X":"-81.635449","DATE":"2/6/2001","Y":"41.461452","APT":"DN","STATE":"OH","STREET":"3589 E 75TH ST","CENSUSTRA":"","id":"a6380036o0ib","COUNTY":"CUYAHOGA"},"type":"Feature","geometry":{"type":"Point","coordinates":[-81.635449,41.461452]}},{"properties":{"CITY":"CLEVELAND","ZIP":"44105","X":"-81.635449","DATE":"2/6/2001","Y":"41.461452","APT":"UP","STATE":"OH","STREET":"3589 E 75TH ST","CENSUSTRA":"","id":"a638009lz3z9","COUNTY":"CUYAHOGA"},"type":"Feature","geometry":{"type":"Point","coordinates":[-81.635449,41.461452]}},{"properties":{"CITY":"CLEVELAND","ZIP":"44105","X":"-81.604813","DATE":"2/6/2001","Y":"41.461236","APT":"UP","STATE":"OH","STREET":"3593 E 113TH ST","CENSUSTRA":"","id":"a63800gjmsc6","COUNTY":"CUYAHOGA"},"type":"Feature","geometry":{"type":"Point","coordinates":[-81.604813,41.461236]}},{"properties":{"CITY":"CLEVELAND","ZIP":"44105","X":"-81.604813","DATE":"2/6/2001","Y":"41.461236","APT":"DN","STATE":"OH","STREET":"3593 E 113TH ST","CENSUSTRA":"","id":"a63800e8x5ym","COUNTY":"CUYAHOGA"},"type":"Feature","geometry":{"type":"Point","coordinates":[-81.604813,41.461236]}},{"properties":{"CITY":"CLEVELAND","ZIP":"44113","X":"-81.713967","DATE":"2/6/2001","Y":"41.487365","APT":"16","STATE":"OH","STREET":"3607 CLINTON AVE","CENSUSTRA":"","id":"a638009d69k0","COUNTY":"CUYAHOGA"},"type":"Feature","geometry":{"type":"Point","coordinates":[-81.713967,41.487365]}},{"properties":{"CITY":"CLEVELAND","ZIP":"44109","X":"-81.708916","DATE":"3/7/2001","Y":"41.429632","APT":"","STATE":"OH","STREET":"3611 BIDDULPH AVE","CENSUSTRA":"","id":"a6380065obdm","COUNTY":"CUYAHOGA"},"type":"Feature","geometry":{"type":"Point","coordinates":[-81.708916,41.429632]}},{"properties":{"CITY":"CLEVELAND","ZIP":"44105","X":"-81.636287","DATE":"3/7/2001","Y":"41.460410","APT":"","STATE":"OH","STREET":"3616 E 74TH ST","CENSUSTRA":"","id":"a63800f0gp5g","COUNTY":"CUYAHOGA"},"type":"Feature","geometry":{"type":"Point","coordinates":[-81.636287,41.46041]}},{"properties":{"CITY":"CLEVELAND","ZIP":"44120","X":"-81.581193","DATE":"3/7/2001","Y":"41.461213","APT":"UP","STATE":"OH","STREET":"3624 E 144TH ST","CENSUSTRA":"","id":"a63800aidn11","COUNTY":"CUYAHOGA"},"type":"Feature","geometry":{"type":"Point","coordinates":[-81.581193,41.461213]}},{"properties":{"CITY":"CLEVELAND","ZIP":"44111","X":"-81.764378","DATE":"3/7/2001","Y":"41.452844","APT":"102","STATE":"OH","STREET":"3678 BOSWORTH RD","CENSUSTRA":"","id":"a6380039t96x","COUNTY":"CUYAHOGA"},"type":"Feature","geometry":{"type":"Point","coordinates":[-81.764378,41.452844]}},{"properties":{"CITY":"CLEVELAND","ZIP":"44105","X":"-81.633538","DATE":"3/7/2001","Y":"41.458094","APT":"DN","STATE":"OH","STREET":"3689 E 77TH ST","CENSUSTRA":"1153.00","id":"a638009wnd8t","COUNTY":"CUYAHOGA"},"type":"Feature","geometry":{"type":"Point","coordinates":[-81.633538,41.458094]}},{"properties":{"CITY":"CLEVELAND","ZIP":"44105","X":"-81.633538","DATE":"3/7/2001","Y":"41.458094","APT":"UP","STATE":"OH","STREET":"3689 E 77TH ST","CENSUSTRA":"","id":"a6380034ykd3","COUNTY":"CUYAHOGA"},"type":"Feature","geometry":{"type":"Point","coordinates":[-81.633538,41.458094]}},{"properties":{"CITY":"CLEVELAND","ZIP":"44120","X":"-81.579946","DATE":"3/7/2001","Y":"41.459083","APT":"DN","STATE":"OH","STREET":"3692 E 146TH ST","CENSUSTRA":"1208.02","id":"a638007nh28o","COUNTY":"CUYAHOGA"},"type":"Feature","geometry":{"type":"Point","coordinates":[-81.579946,41.459083]}},{"properties":{"CITY":"CLEVELAND","ZIP":"44120","X":"-81.584483","DATE":"3/7/2001","Y":"41.457889","APT":"","STATE":"OH","STREET":"3734 E 140TH ST","CENSUSTRA":"1207.02","id":"a638007d1n6r","COUNTY":"CUYAHOGA"},"type":"Feature","geometry":{"type":"Point","coordinates":[-81.584483,41.457889]}},{"properties":{"CITY":"CLEVELAND","ZIP":"44109","X":"-81.709667","DATE":"4/8/2001","Y":"41.457928","APT":"","STATE":"OH","STREET":"3810 LIBRARY AVE","CENSUSTRA":"1055.00","id":"a6380073mnb3","COUNTY":"CUYAHOGA"},"type":"Feature","geometry":{"type":"Point","coordinates":[-81.709667,41.457928]}},{"properties":{"CITY":"CLEVELAND","ZIP":"44128","X":"-81.581200","DATE":"4/8/2001","Y":"41.455501","APT":"DN","STATE":"OH","STREET":"3823 E 144TH ST","CENSUSTRA":"1208.02","id":"a63800ivgt3v","COUNTY":"CUYAHOGA"},"type":"Feature","geometry":{"type":"Point","coordinates":[-81.5812,41.455501]}},{"properties":{"CITY":"CLEVELAND","ZIP":"44128","X":"-81.581200","DATE":"4/8/2001","Y":"41.455501","APT":"UP","STATE":"OH","STREET":"3823 E 144TH ST","CENSUSTRA":"","id":"a63800aez8n7","COUNTY":"CUYAHOGA"},"type":"Feature","geometry":{"type":"Point","coordinates":[-81.5812,41.455501]}},{"properties":{"CITY":"CLEVELAND","ZIP":"44110","X":"-81.568945","DATE":"4/8/2001","Y":"41.571449","APT":"DN","STATE":"OH","STREET":"385 E 160TH ST","CENSUSTRA":"1172.02","id":"a638007963xm","COUNTY":"CUYAHOGA"},"type":"Feature","geometry":{"type":"Point","coordinates":[-81.568945,41.571449]}},{"properties":{"CITY":"CLEVELAND","ZIP":"44128","X":"-81.583146","DATE":"4/8/2001","Y":"41.454192","APT":"","STATE":"OH","STREET":"3863 E 142ND ST","CENSUSTRA":"","id":"a63800bi0d0y","COUNTY":"CUYAHOGA"},"type":"Feature","geometry":{"type":"Point","coordinates":[-81.583146,41.454192]}},{"properties":{"CITY":"CLEVELAND","ZIP":"44109","X":"-81.705152","DATE":"4/8/2001","Y":"41.449076","APT":"DN","STATE":"OH","STREET":"3887 W 33RD ST","CENSUSTRA":"","id":"a6380093nvt5","COUNTY":"CUYAHOGA"},"type":"Feature","geometry":{"type":"Point","coordinates":[-81.705152,41.449076]}},{"properties":{"CITY":"CLEVELAND","ZIP":"44109","X":"-81.708880","DATE":"4/8/2001","Y":"41.449037","APT":"DN","STATE":"OH","STREET":"3889 W 37TH ST","CENSUSTRA":"","id":"a63800ev1dfb","COUNTY":"CUYAHOGA"},"type":"Feature","geometry":{"type":"Point","coordinates":[-81.70888,41.449037]}},{"properties":{"CITY":"CLEVELAND","ZIP":"44113","X":"-81.712803","DATE":"4/8/2001","Y":"41.480580","APT":"UP","STATE":"OH","STREET":"4004 LORAIN AVE","CENSUSTRA":"","id":"a638004xskht","COUNTY":"CUYAHOGA"},"type":"Feature","geometry":{"type":"Point","coordinates":[-81.712803,41.48058]}},{"properties":{"CITY":"CLEVELAND","ZIP":"44109","X":"-81.713172","DATE":"4/8/2001","Y":"41.438061","APT":"","STATE":"OH","STREET":"4115 SPOKANE AVE","CENSUSTRA":"","id":"a63800cr8pzy","COUNTY":"CUYAHOGA"},"type":"Feature","geometry":{"type":"Point","coordinates":[-81.713172,41.438061]}},{"properties":{"CITY":"CLEVELAND","ZIP":"44109","X":"-81.713080","DATE":"4/8/2001","Y":"41.451664","APT":"UP","STATE":"OH","STREET":"4117 DENISON AVE","CENSUSTRA":"1054.00","id":"a63800ad1z54","COUNTY":"CUYAHOGA"},"type":"Feature","geometry":{"type":"Point","coordinates":[-81.71308,41.451664]}},{"properties":{"CITY":"CLEVELAND","ZIP":"44105","X":"-81.613748","DATE":"4/8/2001","Y":"41.446049","APT":"","STATE":"OH","STREET":"4152 E 102ND ST","CENSUSTRA":"1213.00","id":"a63800itnmys","COUNTY":"CUYAHOGA"},"type":"Feature","geometry":{"type":"Point","coordinates":[-81.613748,41.446049]}},{"properties":{"CITY":"CLEVELAND","ZIP":"44105","X":"-81.596747","DATE":"4/8/2001","Y":"41.446752","APT":"UP","STATE":"OH","STREET":"4153 E 123RD ST","CENSUSTRA":"","id":"a63800hmh1j2","COUNTY":"CUYAHOGA"},"type":"Feature","geometry":{"type":"Point","coordinates":[-81.596747,41.446752]}},{"properties":{"CITY":"CLEVELAND","ZIP":"44109","X":"-81.714706","DATE":"4/8/2001","Y":"41.460751","APT":"","STATE":"OH","STREET":"4220 WOODBRIDGE AVE","CENSUSTRA":"","id":"a63800g9c38t","COUNTY":"CUYAHOGA"},"type":"Feature","geometry":{"type":"Point","coordinates":[-81.714706,41.460751]}},{"properties":{"CITY":"CLEVELAND","ZIP":"44105","X":"-81.603839","DATE":"4/8/2001","Y":"41.442790","APT":"","STATE":"OH","STREET":"4288 E 114TH ST","CENSUSTRA":"1213.00","id":"a6380058jghn","COUNTY":"CUYAHOGA"},"type":"Feature","geometry":{"type":"Point","coordinates":[-81.603839,41.44279]}},{"properties":{"CITY":"CLEVELAND","ZIP":"44113","X":"-81.715785","DATE":"4/8/2001","Y":"41.476751","APT":"","STATE":"OH","STREET":"4305 BAILEY AVE","CENSUSTRA":"","id":"a638009ldi7p","COUNTY":"CUYAHOGA"},"type":"Feature","geometry":{"type":"Point","coordinates":[-81.715785,41.476751]}},{"properties":{"CITY":"CLEVELAND","ZIP":"44109","X":"-81.715599","DATE":"4/8/2001","Y":"41.469651","APT":"UPFT","STATE":"OH","STREET":"4323 CLARK AVE","CENSUSTRA":"1028.00","id":"a63800azwgfn","COUNTY":"CUYAHOGA"},"type":"Feature","geometry":{"type":"Point","coordinates":[-81.715599,41.469651]}},{"properties":{"CITY":"CLEVELAND","ZIP":"44109","X":"-81.720225","DATE":"4/8/2001","Y":"41.423551","APT":"","STATE":"OH","STREET":"4806 BURGER AVE","CENSUSTRA":"1066.00","id":"a638004yu0wm","COUNTY":"CUYAHOGA"},"type":"Feature","geometry":{"type":"Point","coordinates":[-81.720225,41.423551]}},{"properties":{"CITY":"CLEVELAND","ZIP":"44113","X":"-81.682105","DATE":"4/8/2001","Y":"41.481932","APT":"DN","STATE":"OH","STREET":"483 MILLER CT","CENSUSTRA":"","id":"a63800e82on2","COUNTY":"CUYAHOGA"},"type":"Feature","geometry":{"type":"Point","coordinates":[-81.682105,41.481932]}},{"properties":{"CITY":"CLEVELAND","ZIP":"44104","X":"-81.653776","DATE":"4/8/2001","Y":"41.492095","APT":"1421","STATE":"OH","STREET":"4982 SCOVILL AVE","CENSUSTRA":"","id":"a63800jbff7c","COUNTY":"CUYAHOGA"},"type":"Feature","geometry":{"type":"Point","coordinates":[-81.653776,41.492095]}},{"properties":{"CITY":"CLEVELAND","ZIP":"44127","X":"-81.654249","DATE":"4/8/2001","Y":"41.467184","APT":"","STATE":"OH","STREET":"5200 BARKWILL AVE","CENSUSTRA":"","id":"a638005xbyem","COUNTY":"CUYAHOGA"},"type":"Feature","geometry":{"type":"Point","coordinates":[-81.654249,41.467184]}},{"properties":{"CITY":"CLEVELAND","ZIP":"44127","X":"-81.655096","DATE":"4/8/2001","Y":"41.469297","APT":"","STATE":"OH","STREET":"5205 DOLLOFF RD","CENSUSTRA":"1108.00","id":"a63800f3lwzs","COUNTY":"CUYAHOGA"},"type":"Feature","geometry":{"type":"Point","coordinates":[-81.655096,41.469297]}},{"properties":{"CITY":"CLEVELAND","ZIP":"44108","X":"-81.615348","DATE":"4/8/2001","Y":"41.54295","APT":"1","STATE":"OH","STREET":"531 E 105TH ST","CENSUSTRA":"1162.00","id":"a638006siqbc","COUNTY":"CUYAHOGA"},"type":"Feature","geometry":{"type":"Point","coordinates":[-81.615348,41.54295]}},{"properties":{"CITY":"CLEVELAND","ZIP":"44108","X":"-81.615348","DATE":"5/9/2001","Y":"41.54295","APT":"2","STATE":"OH","STREET":"531 E 105TH ST","CENSUSTRA":"1162.00","id":"a638008gzc6x","COUNTY":"CUYAHOGA"},"type":"Feature","geometry":{"type":"Point","coordinates":[-81.615348,41.54295]}},{"properties":{"CITY":"CLEVELAND","ZIP":"44108","X":"-81.615348","DATE":"5/9/2001","Y":"41.54295","APT":"3","STATE":"OH","STREET":"531 E 105TH ST","CENSUSTRA":"","id":"a638005qpjzi","COUNTY":"CUYAHOGA"},"type":"Feature","geometry":{"type":"Point","coordinates":[-81.615348,41.54295]}},{"properties":{"CITY":"CLEVELAND","ZIP":"44108","X":"-81.615348","DATE":"5/9/2001","Y":"41.54295","APT":"4","STATE":"OH","STREET":"531 E 105TH ST","CENSUSTRA":"","id":"a63800c3zmsa","COUNTY":"CUYAHOGA"},"type":"Feature","geometry":{"type":"Point","coordinates":[-81.615348,41.54295]}},{"properties":{"CITY":"CLEVELAND","ZIP":"44102","X":"-81.723799","DATE":"5/9/2001","Y":"41.47955","APT":"","STATE":"OH","STREET":"5410 COURTLAND CT","CENSUSTRA":"1034.00","id":"a638004ooaxs","COUNTY":"CUYAHOGA"},"type":"Feature","geometry":{"type":"Point","coordinates":[-81.723799,41.47955]}},{"properties":{"CITY":"CLEVELAND","ZIP":"44102","X":"-81.723806","DATE":"5/9/2001","Y":"41.48055","APT":"DN","STATE":"OH","STREET":"5413 BRIDGE AVE","CENSUSTRA":"","id":"a63800ia62u7","COUNTY":"CUYAHOGA"},"type":"Feature","geometry":{"type":"Point","coordinates":[-81.723806,41.48055]}},{"properties":{"CITY":"CLEVELAND","ZIP":"44108","X":"-81.608757","DATE":"5/9/2001","Y":"41.541240","APT":"UP","STATE":"OH","STREET":"560 E 110TH ST","CENSUSTRA":"","id":"a63800eq4o28","COUNTY":"CUYAHOGA"},"type":"Feature","geometry":{"type":"Point","coordinates":[-81.608757,41.54124]}},{"properties":{"CITY":"CLEVELAND","ZIP":"44103","X":"-81.650920","DATE":"5/9/2001","Y":"41.52105","APT":"","STATE":"OH","STREET":"5700 BONNA AVE","CENSUSTRA":"1112.00","id":"a63800jdwscv","COUNTY":"CUYAHOGA"},"type":"Feature","geometry":{"type":"Point","coordinates":[-81.65092,41.52105]}},{"properties":{"CITY":"CLEVELAND","ZIP":"44127","X":"-81.650222","DATE":"5/9/2001","Y":"41.478751","APT":"DN","STATE":"OH","STREET":"5707 FRANCIS AVE","CENSUSTRA":"1146.00","id":"a638005ilmbn","COUNTY":"CUYAHOGA"},"type":"Feature","geometry":{"type":"Point","coordinates":[-81.650222,41.478751]}},{"properties":{"CITY":"CLEVELAND","ZIP":"44127","X":"-81.650222","DATE":"5/9/2001","Y":"41.478751","APT":"UP","STATE":"OH","STREET":"5707 FRANCIS AVE","CENSUSTRA":"1146.00","id":"a63800f6zmmc","COUNTY":"CUYAHOGA"},"type":"Feature","geometry":{"type":"Point","coordinates":[-81.650222,41.478751]}},{"properties":{"CITY":"CLEVELAND","ZIP":"44108","X":"-81.619148","DATE":"5/9/2001","Y":"41.541182","APT":"","STATE":"OH","STREET":"590 E 101ST ST","CENSUSTRA":"","id":"a638005fwubv","COUNTY":"CUYAHOGA"},"type":"Feature","geometry":{"type":"Point","coordinates":[-81.619148,41.541182]}},{"properties":{"CITY":"CLEVELAND","ZIP":"44102","X":"-81.727018","DATE":"5/9/2001","Y":"41.47715","APT":"","STATE":"OH","STREET":"5912 MADISON AVE","CENSUSTRA":"1034.00","id":"a63800gula5i","COUNTY":"CUYAHOGA"},"type":"Feature","geometry":{"type":"Point","coordinates":[-81.727018,41.47715]}},{"properties":{"CITY":"CLEVELAND","ZIP":"44103","X":"-81.649733","DATE":"5/9/2001","Y":"41.51635","APT":"DN","STATE":"OH","STREET":"5913 LUTHER AVE","CENSUSTRA":"1112.00","id":"a63800gczjc3","COUNTY":"CUYAHOGA"},"type":"Feature","geometry":{"type":"Point","coordinates":[-81.649733,41.51635]}},{"properties":{"CITY":"CLEVELAND","ZIP":"44108","X":"-81.619148","DATE":"5/9/2001","Y":"41.541008","APT":"","STATE":"OH","STREET":"596 E 101ST ST","CENSUSTRA":"","id":"a638005t7csa","COUNTY":"CUYAHOGA"},"type":"Feature","geometry":{"type":"Point","coordinates":[-81.619148,41.541008]}},{"properties":{"CITY":"CLEVELAND","ZIP":"44127","X":"-81.645420","DATE":"5/9/2001","Y":"41.467779","APT":"","STATE":"OH","STREET":"5974 ENGEL AVE","CENSUSTRA":"","id":"a638004j0gpn","COUNTY":"CUYAHOGA"},"type":"Feature","geometry":{"type":"Point","coordinates":[-81.64542,41.467779]}},{"properties":{"CITY":"CLEVELAND","ZIP":"44105","X":"-81.646689","DATE":"5/9/2001","Y":"41.455179","APT":"DNFR","STATE":"OH","STREET":"6211 FULLERTON AVE","CENSUSTRA":"","id":"a63800ekg81q","COUNTY":"CUYAHOGA"},"type":"Feature","geometry":{"type":"Point","coordinates":[-81.646689,41.455179]}},{"properties":{"CITY":"CLEVELAND","ZIP":"44108","X":"-81.620498","DATE":"5/9/2001","Y":"41.5399","APT":"DN","STATE":"OH","STREET":"625 E 99TH ST","CENSUSTRA":"","id":"a63800cd0evw","COUNTY":"CUYAHOGA"},"type":"Feature","geometry":{"type":"Point","coordinates":[-81.620498,41.5399]}},{"properties":{"CITY":"CLEVELAND","ZIP":"44103","X":"-81.645247","DATE":"5/9/2001","Y":"41.521901","APT":"","STATE":"OH","STREET":"6330 CARL AVE","CENSUSTRA":"1115.00","id":"a638007fu7hg","COUNTY":"CUYAHOGA"},"type":"Feature","geometry":{"type":"Point","coordinates":[-81.645247,41.521901]}},{"properties":{"CITY":"CLEVELAND","ZIP":"44103","X":"-81.644270","DATE":"5/9/2001","Y":"41.522285","APT":"UP","STATE":"OH","STREET":"6412 CARL AVE","CENSUSTRA":"","id":"a63800gp2752","COUNTY":"CUYAHOGA"},"type":"Feature","geometry":{"type":"Point","coordinates":[-81.64427,41.522285]}},{"properties":{"CITY":"CLEVELAND","ZIP":"44103","X":"-81.645039","DATE":"5/9/2001","Y":"41.520410","APT":"DN","STATE":"OH","STREET":"6607 EDNA AVE","CENSUSTRA":"","id":"a638006j9wtz","COUNTY":"CUYAHOGA"},"type":"Feature","geometry":{"type":"Point","coordinates":[-81.645039,41.52041]}},{"properties":{"CITY":"CLEVELAND","ZIP":"44103","X":"-81.645039","DATE":"5/9/2001","Y":"41.520410","APT":"UP","STATE":"OH","STREET":"6607 EDNA AVE","CENSUSTRA":"","id":"a638004xrfwm","COUNTY":"CUYAHOGA"},"type":"Feature","geometry":{"type":"Point","coordinates":[-81.645039,41.52041]}},{"properties":{"CITY":"CLEVELAND","ZIP":"44108","X":"-81.602647","DATE":"5/9/2001","Y":"41.539394","APT":"","STATE":"OH","STREET":"661 E 118TH ST","CENSUSTRA":"1166.00","id":"a6380040m6hs","COUNTY":"CUYAHOGA"},"type":"Feature","geometry":{"type":"Point","coordinates":[-81.602647,41.539394]}},{"properties":{"CITY":"CLEVELAND","ZIP":"44105","X":"-81.643262","DATE":"5/9/2001","Y":"41.457116","APT":"2","STATE":"OH","STREET":"6628 SEBERT AVE","CENSUSTRA":"","id":"a63800bdloza","COUNTY":"CUYAHOGA"},"type":"Feature","geometry":{"type":"Point","coordinates":[-81.643262,41.457116]}},{"properties":{"CITY":"CLEVELAND","ZIP":"44127","X":"-81.643033","DATE":"5/9/2001","Y":"41.465951","APT":"UP","STATE":"OH","STREET":"6641 OVINGTON AVE","CENSUSTRA":"1149.00","id":"a638009eimgw","COUNTY":"CUYAHOGA"},"type":"Feature","geometry":{"type":"Point","coordinates":[-81.643033,41.465951]}},{"properties":{"CITY":"CLEVELAND","ZIP":"44108","X":"-81.623261","DATE":"5/9/2001","Y":"41.539209","APT":"","STATE":"OH","STREET":"665 E 94TH ST","CENSUSTRA":"","id":"a63800czy7q0","COUNTY":"CUYAHOGA"},"type":"Feature","geometry":{"type":"Point","coordinates":[-81.623261,41.539209]}},{"properties":{"CITY":"CLEVELAND","ZIP":"44103","X":"-81.64345","DATE":"5/9/2001","Y":"41.52635","APT":"","STATE":"OH","STREET":"6701 ST CLAIR AVE","CENSUSTRA":"1113.00","id":"a638009i9wee","COUNTY":"CUYAHOGA"},"type":"Feature","geometry":{"type":"Point","coordinates":[-81.64345,41.52635]}},{"properties":{"CITY":"CLEVELAND","ZIP":"44103","X":"-81.644031","DATE":"5/9/2001","Y":"41.520598","APT":"UP","STATE":"OH","STREET":"6716 EDNA AVE","CENSUSTRA":"1116.00","id":"a63800ar37l6","COUNTY":"CUYAHOGA"},"type":"Feature","geometry":{"type":"Point","coordinates":[-81.644031,41.520598]}},{"properties":{"CITY":"CLEVELAND","ZIP":"44103","X":"-81.644031","DATE":"5/9/2001","Y":"41.520598","APT":"DN","STATE":"OH","STREET":"6716 EDNA AVE","CENSUSTRA":"1116.00","id":"a63800564ubv","COUNTY":"CUYAHOGA"},"type":"Feature","geometry":{"type":"Point","coordinates":[-81.644031,41.520598]}},{"properties":{"CITY":"CLEVELAND","ZIP":"44103","X":"-81.641200","DATE":"6/7/2001","Y":"41.522607","APT":"UP","STATE":"OH","STREET":"6801 SCHAEFER AVE","CENSUSTRA":"1116.00","id":"a638006vih7k","COUNTY":"CUYAHOGA"},"type":"Feature","geometry":{"type":"Point","coordinates":[-81.6412,41.522607]}},{"properties":{"CITY":"CLEVELAND","ZIP":"44102","X":"-81.731870","DATE":"6/7/2001","Y":"41.475043","APT":"","STATE":"OH","STREET":"6804 COLGATE AVE","CENSUSTRA":"","id":"a63800g5y8jt","COUNTY":"CUYAHOGA"},"type":"Feature","geometry":{"type":"Point","coordinates":[-81.73187,41.475043]}},{"properties":{"CITY":"CLEVELAND","ZIP":"44105","X":"-81.640635","DATE":"6/7/2001","Y":"41.454489","APT":"DNFR","STATE":"OH","STREET":"6910 GERTRUDE AVE","CENSUSTRA":"","id":"a63800fqd1o4","COUNTY":"CUYAHOGA"},"type":"Feature","geometry":{"type":"Point","coordinates":[-81.640635,41.454489]}},{"properties":{"CITY":"CLEVELAND","ZIP":"44103","X":"-81.640694","DATE":"6/7/2001","Y":"41.521712","APT":"DNRR","STATE":"OH","STREET":"7004 HECKER AVE","CENSUSTRA":"","id":"a63800i69uxc","COUNTY":"CUYAHOGA"},"type":"Feature","geometry":{"type":"Point","coordinates":[-81.640694,41.521712]}},{"properties":{"CITY":"CLEVELAND","ZIP":"44103","X":"-81.639633","DATE":"6/7/2001","Y":"41.52805","APT":"1","STATE":"OH","STREET":"7016 ST CLAIR AVE","CENSUSTRA":"","id":"a638009tkni9","COUNTY":"CUYAHOGA"},"type":"Feature","geometry":{"type":"Point","coordinates":[-81.639633,41.52805]}},{"properties":{"CITY":"CLEVELAND","ZIP":"44102","X":"-81.734251","DATE":"6/7/2001","Y":"41.469417","APT":"1","STATE":"OH","STREET":"7100 CLARK AVE","CENSUSTRA":"","id":"a63800581wq9","COUNTY":"CUYAHOGA"},"type":"Feature","geometry":{"type":"Point","coordinates":[-81.734251,41.469417]}},{"properties":{"CITY":"CLEVELAND","ZIP":"44102","X":"-81.734454","DATE":"6/7/2001","Y":"41.46935","APT":"","STATE":"OH","STREET":"7101 CLARK AVE","CENSUSTRA":"","id":"a63800555ybn","COUNTY":"CUYAHOGA"},"type":"Feature","geometry":{"type":"Point","coordinates":[-81.734454,41.46935]}},{"properties":{"CITY":"CLEVELAND","ZIP":"44104","X":"-81.639033","DATE":"6/7/2001","Y":"41.481370","APT":"","STATE":"OH","STREET":"7106 COLFAX RD","CENSUSTRA":"1147.00","id":"a63800376xg3","COUNTY":"CUYAHOGA"},"type":"Feature","geometry":{"type":"Point","coordinates":[-81.639033,41.48137]}},{"properties":{"CITY":"CLEVELAND","ZIP":"44113","X":"-81.684198","DATE":"6/7/2001","Y":"41.481359","APT":"","STATE":"OH","STREET":"719 COLLEGE AVE","CENSUSTRA":"1043.00","id":"a63800a50725","COUNTY":"CUYAHOGA"},"type":"Feature","geometry":{"type":"Point","coordinates":[-81.684198,41.481359]}},{"properties":{"CITY":"CLEVELAND","ZIP":"44105","X":"-81.637637","DATE":"6/7/2001","Y":"41.463452","APT":"DN","STATE":"OH","STREET":"7215 UNION AVE","CENSUSTRA":"1149.00","id":"a63800e0oaur","COUNTY":"CUYAHOGA"},"type":"Feature","geometry":{"type":"Point","coordinates":[-81.637637,41.463452]}},{"properties":{"CITY":"CLEVELAND","ZIP":"44103","X":"-81.637788","DATE":"6/7/2001","Y":"41.521032","APT":"","STATE":"OH","STREET":"7225 LOCKYEAR AVE","CENSUSTRA":"1117.00","id":"a63800f9f65x","COUNTY":"CUYAHOGA"},"type":"Feature","geometry":{"type":"Point","coordinates":[-81.637788,41.521032]}},{"properties":{"CITY":"CLEVELAND","ZIP":"44127","X":"-81.636538","DATE":"6/7/2001","Y":"41.464352","APT":"UP","STATE":"OH","STREET":"7303 IVY AVE","CENSUSTRA":"","id":"a638007bfy91","COUNTY":"CUYAHOGA"},"type":"Feature","geometry":{"type":"Point","coordinates":[-81.636538,41.464352]}},{"properties":{"CITY":"CLEVELAND","ZIP":"44127","X":"-81.636538","DATE":"6/7/2001","Y":"41.464352","APT":"DN","STATE":"OH","STREET":"7303 IVY AVE","CENSUSTRA":"","id":"a63800af71su","COUNTY":"CUYAHOGA"},"type":"Feature","geometry":{"type":"Point","coordinates":[-81.636538,41.464352]}},{"properties":{"CITY":"CLEVELAND","ZIP":"44102","X":"-81.734982","DATE":"6/7/2001","Y":"41.474912","APT":"","STATE":"OH","STREET":"7317 ELTON AVE","CENSUSTRA":"1018.00","id":"a63800g2mh0g","COUNTY":"CUYAHOGA"},"type":"Feature","geometry":{"type":"Point","coordinates":[-81.734982,41.474912]}},{"properties":{"CITY":"CLEVELAND","ZIP":"44105","X":"-81.635049","DATE":"6/7/2001","Y":"41.445852","APT":"","STATE":"OH","STREET":"7501 PARK AVE","CENSUSTRA":"","id":"a63800ek19at","COUNTY":"CUYAHOGA"},"type":"Feature","geometry":{"type":"Point","coordinates":[-81.635049,41.445852]}},{"properties":{"CITY":"CLEVELAND","ZIP":"44105","X":"-81.635426","DATE":"6/7/2001","Y":"41.459254","APT":"DN","STATE":"OH","STREET":"7503 AETNA RD","CENSUSTRA":"","id":"a638007xpybc","COUNTY":"CUYAHOGA"},"type":"Feature","geometry":{"type":"Point","coordinates":[-81.635426,41.459254]}},{"properties":{"CITY":"CLEVELAND","ZIP":"44105","X":"-81.635426","DATE":"6/7/2001","Y":"41.459254","APT":"UP","STATE":"OH","STREET":"7503 AETNA RD","CENSUSTRA":"","id":"a638006aeda3","COUNTY":"CUYAHOGA"},"type":"Feature","geometry":{"type":"Point","coordinates":[-81.635426,41.459254]}},{"properties":{"CITY":"CLEVELAND","ZIP":"44108","X":"-81.624573","DATE":"6/7/2001","Y":"41.536041","APT":"","STATE":"OH","STREET":"756 E 91ST ST","CENSUSTRA":"","id":"a63800eewn07","COUNTY":"CUYAHOGA"},"type":"Feature","geometry":{"type":"Point","coordinates":[-81.624573,41.536041]}},{"properties":{"CITY":"CLEVELAND","ZIP":"44108","X":"-81.624549","DATE":"6/7/2001","Y":"41.535994","APT":"","STATE":"OH","STREET":"758 E 91ST ST","CENSUSTRA":"","id":"a63800c06t1n","COUNTY":"CUYAHOGA"},"type":"Feature","geometry":{"type":"Point","coordinates":[-81.624549,41.535994]}},{"properties":{"CITY":"CLEVELAND","ZIP":"44103","X":"-81.634996","DATE":"6/7/2001","Y":"41.506851","APT":"","STATE":"OH","STREET":"7611 HOME CT","CENSUSTRA":"","id":"a63800immkc4","COUNTY":"CUYAHOGA"},"type":"Feature","geometry":{"type":"Point","coordinates":[-81.634996,41.506851]}},{"properties":{"CITY":"CLEVELAND","ZIP":"44105","X":"-81.633800","DATE":"6/7/2001","Y":"41.457552","APT":"","STATE":"OH","STREET":"7617 OSAGE AVE","CENSUSTRA":"","id":"a63800au4xf0","COUNTY":"CUYAHOGA"},"type":"Feature","geometry":{"type":"Point","coordinates":[-81.6338,41.457552]}},{"properties":{"CITY":"CLEVELAND","ZIP":"44105","X":"-81.632397","DATE":"6/7/2001","Y":"41.436668","APT":"DN","STATE":"OH","STREET":"7705 VINEYARD AVE","CENSUSTRA":"1159.00","id":"a63800fmx52m","COUNTY":"CUYAHOGA"},"type":"Feature","geometry":{"type":"Point","coordinates":[-81.632397,41.436668]}},{"properties":{"CITY":"CLEVELAND","ZIP":"44105","X":"-81.632397","DATE":"6/7/2001","Y":"41.436668","APT":"UP","STATE":"OH","STREET":"7705 VINEYARD AVE","CENSUSTRA":"","id":"a63800j2er7i","COUNTY":"CUYAHOGA"},"type":"Feature","geometry":{"type":"Point","coordinates":[-81.632397,41.436668]}},{"properties":{"CITY":"CLEVELAND","ZIP":"44102","X":"-81.738763","DATE":"6/7/2001","Y":"41.47585","APT":"","STATE":"OH","STREET":"7710 LAWN AVE","CENSUSTRA":"","id":"a638007lxq4q","COUNTY":"CUYAHOGA"},"type":"Feature","geometry":{"type":"Point","coordinates":[-81.738763,41.47585]}},{"properties":{"CITY":"CLEVELAND","ZIP":"44103","X":"-81.635263","DATE":"7/12/200","Y":"41.529892","APT":"2","STATE":"OH","STREET":"7714 ST CLAIR AVE","CENSUSTRA":"1117.00","id":"a638003asab6","COUNTY":"CUYAHOGA"},"type":"Feature","geometry":{"type":"Point","coordinates":[-81.635263,41.529892]}},{"properties":{"CITY":"CLEVELAND","ZIP":"44103","X":"-81.635263","DATE":"7/12/200","Y":"41.529892","APT":"4","STATE":"OH","STREET":"7714 ST CLAIR AVE","CENSUSTRA":"1117.00","id":"a63800gtsknl","COUNTY":"CUYAHOGA"},"type":"Feature","geometry":{"type":"Point","coordinates":[-81.635263,41.529892]}},{"properties":{"CITY":"CLEVELAND","ZIP":"44103","X":"-81.635263","DATE":"7/12/200","Y":"41.529892","APT":"3","STATE":"OH","STREET":"7714 ST CLAIR AVE","CENSUSTRA":"","id":"a63800cmlbnn","COUNTY":"CUYAHOGA"},"type":"Feature","geometry":{"type":"Point","coordinates":[-81.635263,41.529892]}},{"properties":{"CITY":"CLEVELAND","ZIP":"44103","X":"-81.635263","DATE":"7/12/200","Y":"41.529892","APT":"1","STATE":"OH","STREET":"7714 ST CLAIR AVE","CENSUSTRA":"","id":"a63800hyx0id","COUNTY":"CUYAHOGA"},"type":"Feature","geometry":{"type":"Point","coordinates":[-81.635263,41.529892]}},{"properties":{"CITY":"CLEVELAND","ZIP":"44103","X":"-81.634097","DATE":"7/12/200","Y":"41.520350","APT":"","STATE":"OH","STREET":"7800 MYRON AVE","CENSUSTRA":"1118.00","id":"a638003f8180","COUNTY":"CUYAHOGA"},"type":"Feature","geometry":{"type":"Point","coordinates":[-81.634097,41.52035]}},{"properties":{"CITY":"CLEVELAND","ZIP":"44105","X":"-81.631377","DATE":"7/12/200","Y":"41.446825","APT":"","STATE":"OH","STREET":"7827 FINNEY AVE","CENSUSTRA":"","id":"a63800ct4b3f","COUNTY":"CUYAHOGA"},"type":"Feature","geometry":{"type":"Point","coordinates":[-81.631377,41.446825]}},{"properties":{"CITY":"CLEVELAND","ZIP":"44108","X":"-81.625413","DATE":"10/17/20","Y":"41.534707","APT":"1","STATE":"OH","STREET":"788 E 90TH ST","CENSUSTRA":"","id":"a63800ax3743","COUNTY":"CUYAHOGA"},"type":"Feature","geometry":{"type":"Point","coordinates":[-81.625413,41.534707]}},{"properties":{"CITY":"CLEVELAND","ZIP":"44104","X":"-81.632696","DATE":"10/17/20","Y":"41.494451","APT":"","STATE":"OH","STREET":"8003 AMOS AVE","CENSUSTRA":"1134.00","id":"a6380033t0fx","COUNTY":"CUYAHOGA"},"type":"Feature","geometry":{"type":"Point","coordinates":[-81.632696,41.494451]}},{"properties":{"CITY":"CLEVELAND","ZIP":"44103","X":"-81.632406","DATE":"10/17/20","Y":"41.526497","APT":"","STATE":"OH","STREET":"8019 KORMAN AVE","CENSUSTRA":"1119.02","id":"a63800dblhrw","COUNTY":"CUYAHOGA"},"type":"Feature","geometry":{"type":"Point","coordinates":[-81.632406,41.526497]}},{"properties":{"CITY":"CLEVELAND","ZIP":"44102","X":"-81.741084","DATE":"10/17/20","Y":"41.466339","APT":"","STATE":"OH","STREET":"8101 DEARBORN AVE","CENSUSTRA":"1024.02","id":"a63800fof8i9","COUNTY":"CUYAHOGA"},"type":"Feature","geometry":{"type":"Point","coordinates":[-81.741084,41.466339]}},{"properties":{"CITY":"CLEVELAND","ZIP":"44105","X":"-81.628583","DATE":"10/17/20","Y":"41.441552","APT":"","STATE":"OH","STREET":"8113 FORCE AVE","CENSUSTRA":"","id":"a63800dquy5o","COUNTY":"CUYAHOGA"},"type":"Feature","geometry":{"type":"Point","coordinates":[-81.628583,41.441552]}},{"properties":{"CITY":"CLEVELAND","ZIP":"44103","X":"-81.630485","DATE":"10/17/20","Y":"41.527327","APT":"DN","STATE":"OH","STREET":"8209 SIMON AVE","CENSUSTRA":"","id":"a63800fy7eys","COUNTY":"CUYAHOGA"},"type":"Feature","geometry":{"type":"Point","coordinates":[-81.630485,41.527327]}},{"properties":{"CITY":"CLEVELAND","ZIP":"44110","X":"-81.578856","DATE":"10/17/20","Y":"41.557304","APT":"DN","STATE":"OH","STREET":"821 E 147TH ST","CENSUSTRA":"","id":"a638008o40pk","COUNTY":"CUYAHOGA"},"type":"Feature","geometry":{"type":"Point","coordinates":[-81.578856,41.557304]}},{"properties":{"CITY":"CLEVELAND","ZIP":"44103","X":"-81.629879","DATE":"10/17/20","Y":"41.526612","APT":"","STATE":"OH","STREET":"8304 KORMAN AVE","CENSUSTRA":"","id":"a63800c3s3nz","COUNTY":"CUYAHOGA"},"type":"Feature","geometry":{"type":"Point","coordinates":[-81.629879,41.526612]}},{"properties":{"CITY":"CLEVELAND","ZIP":"44104","X":"-81.629586","DATE":"10/17/20","Y":"41.496367","APT":"2","STATE":"OH","STREET":"8316 CENTRAL AVE","CENSUSTRA":"","id":"a63800h8cj3j","COUNTY":"CUYAHOGA"},"type":"Feature","geometry":{"type":"Point","coordinates":[-81.629586,41.496367]}},{"properties":{"CITY":"CLEVELAND","ZIP":"44110","X":"-81.576362","DATE":"10/17/20","Y":"41.557074","APT":"","STATE":"OH","STREET":"833 E 150TH ST","CENSUSTRA":"1173.00","id":"a63800gagp35","COUNTY":"CUYAHOGA"},"type":"Feature","geometry":{"type":"Point","coordinates":[-81.576362,41.557074]}},{"properties":{"CITY":"CLEVELAND","ZIP":"44110","X":"-81.578866","DATE":"10/17/20","Y":"41.556759","APT":"UP","STATE":"OH","STREET":"841 E 147TH ST","CENSUSTRA":"","id":"a638003kwne1","COUNTY":"CUYAHOGA"},"type":"Feature","geometry":{"type":"Point","coordinates":[-81.578866,41.556759]}},{"properties":{"CITY":"CLEVELAND","ZIP":"44106","X":"-81.626262","DATE":"10/17/20","Y":"41.514671","APT":"","STATE":"OH","STREET":"8717 BLAINE AVE","CENSUSTRA":"1126.00","id":"a638004b3fo7","COUNTY":"CUYAHOGA"},"type":"Feature","geometry":{"type":"Point","coordinates":[-81.626262,41.514671]}},{"properties":{"CITY":"CLEVELAND","ZIP":"44102","X":"-81.744655","DATE":"10/17/20","Y":"41.47705","APT":"3","STATE":"OH","STREET":"8801 MADISON AVE","CENSUSTRA":"","id":"a63800jgyken","COUNTY":"CUYAHOGA"},"type":"Feature","geometry":{"type":"Point","coordinates":[-81.744655,41.47705]}},{"properties":{"CITY":"CLEVELAND","ZIP":"44105","X":"-81.623733","DATE":"10/17/20","Y":"41.438852","APT":"","STATE":"OH","STREET":"8802 MACOMB AVE","CENSUSTRA":"1159.00","id":"a63800gjuq3v","COUNTY":"CUYAHOGA"},"type":"Feature","geometry":{"type":"Point","coordinates":[-81.623733,41.438852]}},{"properties":{"CITY":"CLEVELAND","ZIP":"44102","X":"-81.744810","DATE":"10/17/20","Y":"41.480394","APT":"25","STATE":"OH","STREET":"8811 DETROIT AVE","CENSUSTRA":"1017.00","id":"a63800istu42","COUNTY":"CUYAHOGA"},"type":"Feature","geometry":{"type":"Point","coordinates":[-81.74481,41.480394]}},{"properties":{"CITY":"CLEVELAND","ZIP":"44108","X":"-81.626156","DATE":"10/17/20","Y":"41.535302","APT":"","STATE":"OH","STREET":"8905 ESTERBROOK AVE","CENSUSTRA":"1114.01","id":"a63800cruj2n","COUNTY":"CUYAHOGA"},"type":"Feature","geometry":{"type":"Point","coordinates":[-81.626156,41.535302]}},{"properties":{"CITY":"CLEVELAND","ZIP":"44108","X":"-81.626156","DATE":"10/17/20","Y":"41.535302","APT":"DN","STATE":"OH","STREET":"8905 ESTERBROOK AVE","CENSUSTRA":"","id":"a63800ftowy7","COUNTY":"CUYAHOGA"},"type":"Feature","geometry":{"type":"Point","coordinates":[-81.626156,41.535302]}},{"properties":{"CITY":"CLEVELAND","ZIP":"44108","X":"-81.626156","DATE":"10/17/20","Y":"41.535302","APT":"UP","STATE":"OH","STREET":"8905 ESTERBROOK AVE","CENSUSTRA":"","id":"a6380087p8ds","COUNTY":"CUYAHOGA"},"type":"Feature","geometry":{"type":"Point","coordinates":[-81.626156,41.535302]}},{"properties":{"CITY":"CLEVELAND","ZIP":"44108","X":"-81.626138","DATE":"10/17/20","Y":"41.535303","APT":"","STATE":"OH","STREET":"8907 ESTERBROOK AVE","CENSUSTRA":"1114.01","id":"a63800adepr0","COUNTY":"CUYAHOGA"},"type":"Feature","geometry":{"type":"Point","coordinates":[-81.626138,41.535303]}},{"properties":{"CITY":"CLEVELAND","ZIP":"44105","X":"-81.624390","DATE":"10/17/20","Y":"41.448870","APT":"DN","STATE":"OH","STREET":"9019 HARVARD AVE","CENSUSTRA":"","id":"a63800badl2r","COUNTY":"CUYAHOGA"},"type":"Feature","geometry":{"type":"Point","coordinates":[-81.62439,41.44887]}},{"properties":{"CITY":"CLEVELAND","ZIP":"44105","X":"-81.624390","DATE":"10/17/20","Y":"41.448870","APT":"UP","STATE":"OH","STREET":"9019 HARVARD AVE","CENSUSTRA":"","id":"a63800gr5jjt","COUNTY":"CUYAHOGA"},"type":"Feature","geometry":{"type":"Point","coordinates":[-81.62439,41.44887]}},{"properties":{"CITY":"CLEVELAND","ZIP":"44104","X":"-81.623003","DATE":"10/17/20","Y":"41.467875","APT":"","STATE":"OH","STREET":"9108 BESSEMER AVE","CENSUSTRA":"","id":"a638007heuby","COUNTY":"CUYAHOGA"},"type":"Feature","geometry":{"type":"Point","coordinates":[-81.623003,41.467875]}},{"properties":{"CITY":"CLEVELAND","ZIP":"44108","X":"-81.624067","DATE":"10/17/20","Y":"41.53225","APT":"","STATE":"OH","STREET":"9108 PARMELEE AVE","CENSUSTRA":"","id":"a63800b6482g","COUNTY":"CUYAHOGA"},"type":"Feature","geometry":{"type":"Point","coordinates":[-81.624067,41.53225]}},{"properties":{"CITY":"CLEVELAND","ZIP":"44108","X":"-81.623265","DATE":"10/17/20","Y":"41.53015","APT":"UP","STATE":"OH","STREET":"9219 ADAMS AVE","CENSUSTRA":"","id":"a63800f2wdhl","COUNTY":"CUYAHOGA"},"type":"Feature","geometry":{"type":"Point","coordinates":[-81.623265,41.53015]}},{"properties":{"CITY":"CLEVELAND","ZIP":"44108","X":"-81.595682","DATE":"10/17/20","Y":"41.532396","APT":"","STATE":"OH","STREET":"928 PAXTON RD","CENSUSTRA":"1168.00","id":"a63800cb4baw","COUNTY":"CUYAHOGA"},"type":"Feature","geometry":{"type":"Point","coordinates":[-81.595682,41.532396]}},{"properties":{"CITY":"CLEVELAND","ZIP":"44108","X":"-81.623010","DATE":"10/17/20","Y":"41.536973","APT":"","STATE":"OH","STREET":"9313 WRIGHT CT","CENSUSTRA":"","id":"a638007cyr3m","COUNTY":"CUYAHOGA"},"type":"Feature","geometry":{"type":"Point","coordinates":[-81.62301,41.536973]}},{"properties":{"CITY":"CLEVELAND","ZIP":"44105","X":"-81.621019","DATE":"10/17/20","Y":"41.461844","APT":"","STATE":"OH","STREET":"9325 BENHAM AVE","CENSUSTRA":"1204.00","id":"a63800jjm0di","COUNTY":"CUYAHOGA"},"type":"Feature","geometry":{"type":"Point","coordinates":[-81.621019,41.461844]}},{"properties":{"CITY":"CLEVELAND","ZIP":"44105","X":"-81.620103","DATE":"10/17/20","Y":"41.462352","APT":"UP","STATE":"OH","STREET":"9405 GIBSON AVE","CENSUSTRA":"1204.00","id":"a638004j2q2k","COUNTY":"CUYAHOGA"},"type":"Feature","geometry":{"type":"Point","coordinates":[-81.620103,41.462352]}},{"properties":{"CITY":"CLEVELAND","ZIP":"44105","X":"-81.620103","DATE":"10/17/20","Y":"41.462352","APT":"DN","STATE":"OH","STREET":"9405 GIBSON AVE","CENSUSTRA":"1204.00","id":"a6380039ps1a","COUNTY":"CUYAHOGA"},"type":"Feature","geometry":{"type":"Point","coordinates":[-81.620103,41.462352]}},{"properties":{"CITY":"CLEVELAND","ZIP":"44105","X":"-81.619382","DATE":"10/17/20","Y":"41.444257","APT":"","STATE":"OH","STREET":"9410 GORMAN AVE","CENSUSTRA":"","id":"a638005bje7g","COUNTY":"CUYAHOGA"},"type":"Feature","geometry":{"type":"Point","coordinates":[-81.619382,41.444257]}},{"properties":{"CITY":"CLEVELAND","ZIP":"44104","X":"-81.618145","DATE":"10/17/20","Y":"41.476328","APT":"UP","STATE":"OH","STREET":"9604 MT AUBURN AVE","CENSUSTRA":"","id":"a638004boo01","COUNTY":"CUYAHOGA"},"type":"Feature","geometry":{"type":"Point","coordinates":[-81.618145,41.476328]}},{"properties":{"CITY":"CLEVELAND","ZIP":"44104","X":"-81.618205","DATE":"10/17/20","Y":"41.473483","APT":"","STATE":"OH","STREET":"9605 HILGERT DR","CENSUSTRA":"1202.00","id":"a63800arg82y","COUNTY":"CUYAHOGA"},"type":"Feature","geometry":{"type":"Point","coordinates":[-81.618205,41.473483]}},{"properties":{"CITY":"CLEVELAND","ZIP":"44108","X":"-81.621700","DATE":"10/17/20","Y":"41.529482","APT":"UP","STATE":"OH","STREET":"9605 PIERPONT AVE","CENSUSTRA":"","id":"a638008ecpag","COUNTY":"CUYAHOGA"},"type":"Feature","geometry":{"type":"Point","coordinates":[-81.6217,41.529482]}},{"properties":{"CITY":"CLEVELAND","ZIP":"44104","X":"-81.618850","DATE":"10/17/20","Y":"41.479068","APT":"4","STATE":"OH","STREET":"9612 SOPHIA AVE","CENSUSTRA":"","id":"a63800i5bf36","COUNTY":"CUYAHOGA"},"type":"Feature","geometry":{"type":"Point","coordinates":[-81.61885,41.479068]}},{"properties":{"CITY":"CLEVELAND","ZIP":"44102","X":"-81.750069","DATE":"10/17/20","Y":"41.481525","APT":"","STATE":"OH","STREET":"9631 SILK AVE","CENSUSTRA":"","id":"a638007nbcwl","COUNTY":"CUYAHOGA"},"type":"Feature","geometry":{"type":"Point","coordinates":[-81.750069,41.481525]}},{"properties":{"CITY":"CLEVELAND","ZIP":"44108","X":"-81.621393","DATE":"10/17/20","Y":"41.529470","APT":"DN","STATE":"OH","STREET":"9710 PIERPONT AVE","CENSUSTRA":"","id":"a6380062jl30","COUNTY":"CUYAHOGA"},"type":"Feature","geometry":{"type":"Point","coordinates":[-81.621393,41.52947]}},{"properties":{"CITY":"CLEVELAND","ZIP":"44103","X":"-81.64195","DATE":"10/17/20","Y":"41.527533","APT":"UP","STATE":"OH","STREET":"978 E 69TH ST","CENSUSTRA":"1113.00","id":"a63800awjgyx","COUNTY":"CUYAHOGA"},"type":"Feature","geometry":{"type":"Point","coordinates":[-81.64195,41.527533]}},{"properties":{"CITY":"CLEVELAND","ZIP":"44108","X":"-81.64195","DATE":"10/17/20","Y":"41.527533","APT":"DN","STATE":"OH","STREET":"978 E 69TH ST","CENSUSTRA":"1113.00","id":"a638009kmmwz","COUNTY":"CUYAHOGA"},"type":"Feature","geometry":{"type":"Point","coordinates":[-81.64195,41.527533]}},{"properties":{"CITY":"CLEVELAND","ZIP":"44108","X":"-81.620649","DATE":"10/17/20","Y":"41.52715","APT":"","STATE":"OH","STREET":"9900 OSTEND AVE","CENSUSTRA":"1181.00","id":"a63800i71h24","COUNTY":"CUYAHOGA"},"type":"Feature","geometry":{"type":"Point","coordinates":[-81.620649,41.52715]}},{"properties":{"CITY":"CLEVELAND","ZIP":"44104","X":"-81.616523","DATE":"10/17/20","Y":"41.479109","APT":"UP","STATE":"OH","STREET":"9902 SOPHIA AVE","CENSUSTRA":"","id":"a6380053dsoi","COUNTY":"CUYAHOGA"},"type":"Feature","geometry":{"type":"Point","coordinates":[-81.616523,41.479109]}},{"properties":{"CITY":"CLEVELAND","ZIP":"44108","X":"-81.620595","DATE":"10/17/20","Y":"41.52715","APT":"","STATE":"OH","STREET":"9906 OSTEND AVE","CENSUSTRA":"1181.00","id":"a638003ysyza","COUNTY":"CUYAHOGA"},"type":"Feature","geometry":{"type":"Point","coordinates":[-81.620595,41.52715]}},{"properties":{"CITY":"CLEVELAND","ZIP":"44108","X":"-81.620667","DATE":"10/17/20","Y":"41.52355","APT":"DN","STATE":"OH","STREET":"9919 OLIVET AVE","CENSUSTRA":"1181.00","id":"a63800cpysk3","COUNTY":"CUYAHOGA"},"type":"Feature","geometry":{"type":"Point","coordinates":[-81.620667,41.52355]}},{"properties":{"CITY":"CLEVELAND","ZIP":"44104","X":"-81.617479","DATE":"10/17/20","Y":"41.486651","APT":"DN","STATE":"OH","STREET":"9922 CUMBERLAND AVE","CENSUSTRA":"","id":"a63800ailigy","COUNTY":"CUYAHOGA"},"type":"Feature","geometry":{"type":"Point","coordinates":[-81.617479,41.486651]}},{"properties":{"CITY":"CLEVELAND","ZIP":"44104","X":"-81.617479","DATE":"10/17/20","Y":"41.486651","APT":"UP","STATE":"OH","STREET":"9922 CUMBERLAND AVE","CENSUSTRA":"","id":"a638006y2xmr","COUNTY":"CUYAHOGA"},"type":"Feature","geometry":{"type":"Point","coordinates":[-81.617479,41.486651]}},{"properties":{"CITY":"CLEVELAND","ZIP":"44108","X":"-81.594844","DATE":"10/17/20","Y":"41.530745","APT":"UP","STATE":"OH","STREET":"994 EDDY RD","CENSUSTRA":"","id":"a63800b2k2g6","COUNTY":"CUYAHOGA"},"type":"Feature","geometry":{"type":"Point","coordinates":[-81.594844,41.530745]}},{"properties":{"CITY":"CLEVELAND","ZIP":"44110","X":"-81.582446","DATE":"10/17/20","Y":"41.551431","APT":"1","STATE":"OH","STREET":"999 E 143RD ST","CENSUSTRA":"1173.00","id":"a638005znh6v","COUNTY":"CUYAHOGA"},"type":"Feature","geometry":{"type":"Point","coordinates":[-81.582446,41.551431]}}],"is_temporal":false,"author":{"url":"","metadata":"","contact_name":"","contact_address":"","source":"","contact_phone":""},"source":"","pagination":{"sort":null,"start":0,"total":380,"limit":1000000},"state":"complete","tags":"2001 lead poisoning data,tag","published":"2014-08-10T16:22:43-04:00","id":13414}