{"type":"FeatureCollection","data_type":"Dataset","url_type":null,"permissions":[{"permissions":{"download":true,"view":true},"group_id":"everyone"}],"classification":null,"title":"CA PDL FOR OPENGEO3","count":500,"stream_id":134210,"contributor":{"url":"http://geocommons.com/users/508","name":"sgraves10"},"data_attributes":null,"calculation_params":null,"icon_link":null,"link":"http://geocommons.com/overlays/134210.json","extent":[-147.697,25.7634,-70.5798,64.8437],"geometry_types":["point"],"unique_name":null,"name":"CA PDL FOR OPENGEO3","feature_count":500,"description":"","next_feature":null,"is_raster":false,"short_classification":"Y","stats":{"lic_nbr":{"max":1004353,"mean":1002299.036,"variance":1832211.42555511,"stdev":1353.59204546832,"min":1000009,"median":1002453}},"features":[{"properties":{"city":"LOS ANGELES","zip":"90001","column_6":null,"geo_score":0.675,"lic_nbr":1000423,"id":"a69uwfes78yl","geo_precision":"range","address":"1457 E. FLORENCE AVE.","state":"CA"},"type":"Feature","geometry":{"type":"Point","coordinates":[-91.737978,33.686822]}},{"properties":{"city":"LOS ANGELES","zip":"90001","column_6":null,"geo_score":0.675,"lic_nbr":1000226,"id":"a69uwfcjdml9","geo_precision":"range","address":"1232 E. FLORENCE AVE.","state":"CA"},"type":"Feature","geometry":{"type":"Point","coordinates":[-91.74616,33.681123]}},{"properties":{"city":"LOS ANGELES","zip":"90001","column_6":null,"geo_score":0.401,"lic_nbr":1002978,"id":"a69uwfrsezxd","geo_precision":"city","address":"1401 E. GAGE","state":"CA"},"type":"Feature","geometry":{"type":"Point","coordinates":[-83.84909,36.744252]}},{"properties":{"city":"LOS ANGELES","zip":"90001","column_6":null,"geo_score":0.422,"lic_nbr":1002982,"id":"a69uwfn3epk0","geo_precision":"street","address":"7212 S. COMPTON AVENUE","state":"CA"},"type":"Feature","geometry":{"type":"Point","coordinates":[-86.518526,30.87351]}},{"properties":{"city":"LOS ANGELES","zip":"90002","column_6":null,"geo_score":0.335,"lic_nbr":1000427,"id":"a69uwfik30qr","geo_precision":"street","address":"1669 E. 103RD STREET","state":"CA"},"type":"Feature","geometry":{"type":"Point","coordinates":[-85.885559,31.60877]}},{"properties":{"city":"LOS ANGELES","zip":"90002","column_6":null,"geo_score":0.573,"lic_nbr":1002964,"id":"a69uwfo9dyoe","geo_precision":"street","address":"2278  FIRESTONE BOULEVARD","state":"CA"},"type":"Feature","geometry":{"type":"Point","coordinates":[-118.235191,33.960152]}},{"properties":{"city":"LOS ANGELES","zip":"90003","column_6":null,"geo_score":0.45,"lic_nbr":1000421,"id":"a69uwfgx6kf1","geo_precision":"city","address":"8565 S. BROADWAY","state":"CA"},"type":"Feature","geometry":{"type":"Point","coordinates":[-76.214654,41.247305]}},{"properties":{"city":"LOS ANGELES","zip":"90003","column_6":null,"geo_score":0.0,"lic_nbr":1001953,"id":"a69uwflbbeh3","geo_precision":"unmatched","address":"8501 S. FIGUEROA STREET","state":"CA"},"type":"Feature","geometry":null},{"properties":{"city":"LOS ANGELES","zip":"90003","column_6":null,"geo_score":0.436,"lic_nbr":1001894,"id":"a69uwfja5ogu","geo_precision":"city","address":"7200 SOUTH BROADWAY","state":"CA"},"type":"Feature","geometry":{"type":"Point","coordinates":[-76.214654,41.247305]}},{"properties":{"city":"LOS ANGELES","zip":"90003","column_6":null,"geo_score":0.0,"lic_nbr":1002943,"id":"a69uwfsec92p","geo_precision":"unmatched","address":"7205 S. FIGUEROA STREET","state":"CA"},"type":"Feature","geometry":null},{"properties":{"city":"LOS ANGELES","zip":"90003","column_6":null,"geo_score":0.484,"lic_nbr":1004060,"id":"a69uwfgaz4ik","geo_precision":"street","address":"454 W FLORENCE AVE.","state":"CA"},"type":"Feature","geometry":{"type":"Point","coordinates":[-91.78276,33.652789]}},{"properties":{"city":"LOS ANGELES","zip":"90004","column_6":null,"geo_score":0.419,"lic_nbr":1001178,"id":"a69uwfct47xf","geo_precision":"city","address":"4028 WEST BEVERLY BOULEVARD","state":"CA"},"type":"Feature","geometry":{"type":"Point","coordinates":[-90.990967,39.793381]}},{"properties":{"city":"LOS ANGELES","zip":"90004","column_6":null,"geo_score":0.452,"lic_nbr":1001193,"id":"a69uwfsep0i6","geo_precision":"street","address":"280 S. NORMANDIE AVE.","state":"CA"},"type":"Feature","geometry":{"type":"Point","coordinates":[-81.730634,30.309209]}},{"properties":{"city":"LOS ANGELES","zip":"90004","column_6":null,"geo_score":0.563,"lic_nbr":1003879,"id":"a69uwfgnqxnh","geo_precision":"street","address":"103 1/2 S. VERMONT AVE.","state":"CA"},"type":"Feature","geometry":{"type":"Point","coordinates":[-121.955158,38.278419]}},{"properties":{"city":"LOS ANGELES","zip":"90005","column_6":null,"geo_score":0.681,"lic_nbr":1000217,"id":"a69uwfni06j2","geo_precision":"street","address":"745 S. VERMONT AVE.","state":"CA"},"type":"Feature","geometry":{"type":"Point","coordinates":[-121.946411,38.275575]}},{"properties":{"city":"LOS ANGELES","zip":"90005","column_6":null,"geo_score":0.681,"lic_nbr":1000374,"id":"a69uwfgjryot","geo_precision":"street","address":"800 SOUTH VERMONT AVE.","state":"CA"},"type":"Feature","geometry":{"type":"Point","coordinates":[-121.946411,38.275575]}},{"properties":{"city":"LOS ANGELES","zip":"90006","column_6":null,"geo_score":0.682,"lic_nbr":1000234,"id":"a69uwfrq2sor","geo_precision":"street","address":"1514 S. VERMONT AVE.","state":"CA"},"type":"Feature","geometry":{"type":"Point","coordinates":[-121.954097,37.943812]}},{"properties":{"city":"LOS ANGELES","zip":"90006","column_6":null,"geo_score":0.423,"lic_nbr":1000392,"id":"a69uwfoqykhr","geo_precision":"city","address":"1890 S. WESTERN AVE.","state":"CA"},"type":"Feature","geometry":{"type":"Point","coordinates":[-104.997203,39.832208]}},{"properties":{"city":"LOS ANGELES","zip":"90006","column_6":null,"geo_score":0.213,"lic_nbr":1002179,"id":"a69uwfmccnih","geo_precision":"street","address":"1605 S. HOOVER","state":"CA"},"type":"Feature","geometry":{"type":"Point","coordinates":[-90.359862,35.352258]}},{"properties":{"city":"LOS ANGELES","zip":"90006","column_6":null,"geo_score":0.512,"lic_nbr":1003573,"id":"a69uwfg5b388","geo_precision":"street","address":"2261 W.  PICO BLVD","state":"CA"},"type":"Feature","geometry":{"type":"Point","coordinates":[-88.194188,34.808071]}},{"properties":{"city":"LOS ANGELES","zip":"90006","column_6":null,"geo_score":0.433,"lic_nbr":1003888,"id":"a69uwfm6emov","geo_precision":"street","address":"2411 W OLYMPIC BLVD","state":"CA"},"type":"Feature","geometry":{"type":"Point","coordinates":[-122.740614,47.697587]}},{"properties":{"city":"LOS ANGELES","zip":"90006","column_6":null,"geo_score":0.407,"lic_nbr":1003920,"id":"a69uwfj22ezg","geo_precision":"city","address":"1570 S. WESTERN","state":"CA"},"type":"Feature","geometry":{"type":"Point","coordinates":[-104.997203,39.832208]}},{"properties":{"city":"LOS ANGELES","zip":"90007","column_6":null,"geo_score":0.591,"lic_nbr":1001187,"id":"a69uwfjr21s6","geo_precision":"street","address":"1614 W.  WASHINGTON BOULEVARD","state":"CA"},"type":"Feature","geometry":{"type":"Point","coordinates":[-77.05012,38.901987]}},{"properties":{"city":"LOS ANGELES","zip":"90007","column_6":null,"geo_score":0.681,"lic_nbr":1001350,"id":"a69uwfcnaoto","geo_precision":"street","address":"3623 SOUTH VERMONT AVENUE","state":"CA"},"type":"Feature","geometry":{"type":"Point","coordinates":[-121.954097,37.943812]}},{"properties":{"city":"LOS ANGELES","zip":"90007","column_6":null,"geo_score":0.0,"lic_nbr":1003285,"id":"a69uwfky8bk1","geo_precision":"unmatched","address":"2530 SOUTH FIGUEROA STREET","state":"CA"},"type":"Feature","geometry":null},{"properties":{"city":"LOS ANGELES","zip":"90008","column_6":null,"geo_score":0.683,"lic_nbr":1000391,"id":"a69uwffxxab5","geo_precision":"street","address":"4050 S. VICTORIA AVE.","state":"CA"},"type":"Feature","geometry":{"type":"Point","coordinates":[-85.434721,31.246693]}},{"properties":{"city":"LOS ANGELES","zip":"90008","column_6":null,"geo_score":0.407,"lic_nbr":1001951,"id":"a69uwfrqe25t","geo_precision":"city","address":"4243 S. CRENSHAW BLVD.","state":"CA"},"type":"Feature","geometry":{"type":"Point","coordinates":[-104.413287,40.523037]}},{"properties":{"city":"LOS ANGELES","zip":"90008","column_6":null,"geo_score":0.404,"lic_nbr":1002998,"id":"a69uwfp7ht4o","geo_precision":"city","address":"3829 CRENSHAW BOULEVARD","state":"CA"},"type":"Feature","geometry":{"type":"Point","coordinates":[-104.413287,40.523037]}},{"properties":{"city":"LOS ANGELES","zip":"90010","column_6":null,"geo_score":0.433,"lic_nbr":1000889,"id":"a69uwfqvwz1i","geo_precision":"city","address":"3547  WILSHIRE BLVD.","state":"CA"},"type":"Feature","geometry":{"type":"Point","coordinates":[-75.51631,39.784835]}},{"properties":{"city":"LOS ANGELES","zip":"90011","column_6":null,"geo_score":0.707,"lic_nbr":1001186,"id":"a69uwfh40l7p","geo_precision":"street","address":"4373 S. CENTRAL AVE.","state":"CA"},"type":"Feature","geometry":{"type":"Point","coordinates":[-85.956471,32.942918]}},{"properties":{"city":"LOS ANGELES","zip":"90011","column_6":null,"geo_score":0.707,"lic_nbr":1000195,"id":"a69uwfgh5h1j","geo_precision":"street","address":"2524 S. CENTRAL AVE.","state":"CA"},"type":"Feature","geometry":{"type":"Point","coordinates":[-85.956471,32.942918]}},{"properties":{"city":"LOS ANGELES","zip":"90011","column_6":null,"geo_score":0.598,"lic_nbr":1001191,"id":"a69uwfp35gws","geo_precision":"range","address":"201 WEST ADAMS BLVD.","state":"CA"},"type":"Feature","geometry":{"type":"Point","coordinates":[-90.99136,39.792995]}},{"properties":{"city":"LOS ANGELES","zip":"90013","column_6":null,"geo_score":0.455,"lic_nbr":1000420,"id":"a69uwfgxteoo","geo_precision":"city","address":"400 S. BROADWAY","state":"CA"},"type":"Feature","geometry":{"type":"Point","coordinates":[-76.214654,41.247305]}},{"properties":{"city":"LOS ANGELES","zip":"90013","column_6":null,"geo_score":0.455,"lic_nbr":1000606,"id":"a69uwfq1icji","geo_precision":"city","address":"559 S. BROADWAY","state":"CA"},"type":"Feature","geometry":{"type":"Point","coordinates":[-76.214654,41.247305]}},{"properties":{"city":"LOS ANGELES","zip":"90014","column_6":null,"geo_score":0.455,"lic_nbr":1000406,"id":"a69uwfcvv4rt","geo_precision":"city","address":"862 S. BROADWAY","state":"CA"},"type":"Feature","geometry":{"type":"Point","coordinates":[-76.214654,41.247305]}},{"properties":{"city":"LOS ANGELES","zip":"90015","column_6":null,"geo_score":0.433,"lic_nbr":1004054,"id":"a69uwfq13bln","geo_precision":"street","address":"1730 W. OLYMPIC BLVD.","state":"CA"},"type":"Feature","geometry":{"type":"Point","coordinates":[-122.740614,47.697587]}},{"properties":{"city":"LOS ANGELES","zip":"90015","column_6":null,"geo_score":0.59,"lic_nbr":1000235,"id":"a69uwfgqx2wi","geo_precision":"street","address":"500 E. WASHINGTON BLVD.","state":"CA"},"type":"Feature","geometry":{"type":"Point","coordinates":[-77.05012,38.901987]}},{"properties":{"city":"LOS ANGELES","zip":"90015","column_6":null,"geo_score":0.577,"lic_nbr":1002977,"id":"a69uwfneo0le","geo_precision":"street","address":"1245 S. UNION AVENUE","state":"CA"},"type":"Feature","geometry":{"type":"Point","coordinates":[-87.223759,33.212845]}},{"properties":{"city":"LOS ANGELES","zip":"90015","column_6":null,"geo_score":0.621,"lic_nbr":1003215,"id":"a69uwfs6pha3","geo_precision":"range","address":"1721 S FLOWER STREET","state":"CA"},"type":"Feature","geometry":{"type":"Point","coordinates":[-90.837472,32.52574]}},{"properties":{"city":"LOS ANGELES","zip":"90015","column_6":null,"geo_score":0.512,"lic_nbr":1003959,"id":"a69uwfemx9fw","geo_precision":"street","address":"1545 W. PICO BLVD","state":"CA"},"type":"Feature","geometry":{"type":"Point","coordinates":[-88.194188,34.808071]}},{"properties":{"city":"LOS ANGELES","zip":"90016","column_6":null,"geo_score":0.409,"lic_nbr":1002694,"id":"a69uwfqoiz44","geo_precision":"city","address":"3739 SOUTH CRENSHAW BLVD.","state":"CA"},"type":"Feature","geometry":{"type":"Point","coordinates":[-104.413287,40.523037]}},{"properties":{"city":"LOS ANGELES","zip":"90016","column_6":null,"geo_score":0.377,"lic_nbr":1000393,"id":"a69uwfrekdig","geo_precision":"street","address":"5804 RODEO ROAD","state":"CA"},"type":"Feature","geometry":{"type":"Point","coordinates":[-87.036937,34.750391]}},{"properties":{"city":"LOS ANGELES","zip":"90016","column_6":null,"geo_score":0.503,"lic_nbr":1000527,"id":"a69uwfivy5bc","geo_precision":"street","address":"1902 S. LABREA AVE.","state":"CA"},"type":"Feature","geometry":{"type":"Point","coordinates":[-92.095747,35.807089]}},{"properties":{"city":"LOS ANGELES","zip":"90016","column_6":null,"geo_score":0.473,"lic_nbr":1000894,"id":"a69uwfmebpq6","geo_precision":"street","address":"3647 S LA BREA AVE","state":"CA"},"type":"Feature","geometry":{"type":"Point","coordinates":[-91.978669,34.221258]}},{"properties":{"city":"LOS ANGELES","zip":"90016","column_6":null,"geo_score":0.404,"lic_nbr":1002012,"id":"a69uwfhc29jg","geo_precision":"city","address":"2850 CRENSHAW BOULEVARD","state":"CA"},"type":"Feature","geometry":{"type":"Point","coordinates":[-104.413287,40.523037]}},{"properties":{"city":"LOS ANGELES","zip":"90016","column_6":null,"geo_score":0.644,"lic_nbr":1002968,"id":"a69uwfmxcrwk","geo_precision":"street","address":"4501 W. MARTIN LUTHER KING JR. BLVD.","state":"CA"},"type":"Feature","geometry":{"type":"Point","coordinates":[-88.709639,32.381628]}},{"properties":{"city":"LOS ANGELES","zip":"90016","column_6":null,"geo_score":0.346,"lic_nbr":1003200,"id":"a69uwfrzlic4","geo_precision":"street","address":"3411-3415 S. LA BREA AVENUE","state":"CA"},"type":"Feature","geometry":{"type":"Point","coordinates":[-91.978669,34.221258]}},{"properties":{"city":"LOS ANGELES","zip":"90016","column_6":null,"geo_score":0.473,"lic_nbr":1003530,"id":"a69uwfro8iy6","geo_precision":"street","address":"2601 S. LA BREA AVE","state":"CA"},"type":"Feature","geometry":{"type":"Point","coordinates":[-91.978669,34.221258]}},{"properties":{"city":"LOS ANGELES","zip":"90016","column_6":null,"geo_score":0.429,"lic_nbr":1004125,"id":"a69uwffysbl8","geo_precision":"street","address":"3560 S. LA CIENEGA BLVD.","state":"CA"},"type":"Feature","geometry":{"type":"Point","coordinates":[-105.9343,35.688242]}},{"properties":{"city":"LOS ANGELES","zip":"90018","column_6":null,"geo_score":0.592,"lic_nbr":1003720,"id":"a69uwfdhfi2e","geo_precision":"street","address":"2190 W. WASHINGTON BLVD.","state":"CA"},"type":"Feature","geometry":{"type":"Point","coordinates":[-77.05012,38.901987]}},{"properties":{"city":"LOS ANGELES","zip":"90018","column_6":null,"geo_score":0.61,"lic_nbr":1000389,"id":"a69uwfnbhv2i","geo_precision":"street","address":"4020 WASHINGTON BLVD.","state":"CA"},"type":"Feature","geometry":{"type":"Point","coordinates":[-77.050531,38.902096]}},{"properties":{"city":"LOS ANGELES","zip":"90018","column_6":null,"geo_score":0.687,"lic_nbr":1002643,"id":"a69uwfdq2gm5","geo_precision":"street","address":"1771 W. JEFFERSON BOULEVARD","state":"CA"},"type":"Feature","geometry":{"type":"Point","coordinates":[-86.774479,33.576423]}},{"properties":{"city":"LOS ANGELES","zip":"90018","column_6":null,"geo_score":0.591,"lic_nbr":1003155,"id":"a69uwfjo15u2","geo_precision":"street","address":"1910 W. WASHINGTON BOULEVARD","state":"CA"},"type":"Feature","geometry":{"type":"Point","coordinates":[-77.05012,38.901987]}},{"properties":{"city":"LOS ANGELES","zip":"90019","column_6":null,"geo_score":0.512,"lic_nbr":1000227,"id":"a69uwfkn3p3s","geo_precision":"street","address":"5151 W. PICO BLVD.","state":"CA"},"type":"Feature","geometry":{"type":"Point","coordinates":[-88.194188,34.808071]}},{"properties":{"city":"LOS ANGELES","zip":"90019","column_6":null,"geo_score":0.512,"lic_nbr":1000390,"id":"a69uwfkt9n4a","geo_precision":"street","address":"4201 WEST PICO BLVD.","state":"CA"},"type":"Feature","geometry":{"type":"Point","coordinates":[-88.194188,34.808071]}},{"properties":{"city":"LOS ANGELES","zip":"90019","column_6":null,"geo_score":0.469,"lic_nbr":1000734,"id":"a69uwfo7syvm","geo_precision":"street","address":"1293 S.  LA BREA BLVD.","state":"CA"},"type":"Feature","geometry":{"type":"Point","coordinates":[-91.978669,34.221258]}},{"properties":{"city":"LOS ANGELES","zip":"90019","column_6":null,"geo_score":0.512,"lic_nbr":1002954,"id":"a69uwfe1hr76","geo_precision":"street","address":"4948 W. PICO BLVD.","state":"CA"},"type":"Feature","geometry":{"type":"Point","coordinates":[-88.194188,34.808071]}},{"properties":{"city":"LOS ANGELES","zip":"90019","column_6":null,"geo_score":0.445,"lic_nbr":1002992,"id":"a69uwfg22xtw","geo_precision":"street","address":"1296 S. LA BREA AVENUE","state":"CA"},"type":"Feature","geometry":{"type":"Point","coordinates":[-91.978669,34.221258]}},{"properties":{"city":"LOS ANGELES","zip":"90019","column_6":null,"geo_score":0.289,"lic_nbr":1003773,"id":"a69uwfkzopjg","geo_precision":"street","address":"5604 SAN VICENTE BLVD.","state":"CA"},"type":"Feature","geometry":{"type":"Point","coordinates":[-89.489637,43.102335]}},{"properties":{"city":"LOS ANGELES","zip":"90020","column_6":null,"geo_score":0.707,"lic_nbr":1003135,"id":"a69uwfkxbt63","geo_precision":"range","address":"3525 WEST 3RD STREET","state":"CA"},"type":"Feature","geometry":{"type":"Point","coordinates":[-86.495247,32.742618]}},{"properties":{"city":"LOS ANGELES","zip":"90020","column_6":null,"geo_score":0.512,"lic_nbr":1000230,"id":"a69uwfixl6wz","geo_precision":"street","address":"4005 W. 3RD STREET","state":"CA"},"type":"Feature","geometry":{"type":"Point","coordinates":[-86.273181,31.716309]}},{"properties":{"city":"LOS ANGELES","zip":"90020","column_6":null,"geo_score":0.0,"lic_nbr":1002307,"id":"a69uwfq9wbrj","geo_precision":"unmatched","address":"3971 W. SIXTH STREET","state":"CA"},"type":"Feature","geometry":null},{"properties":{"city":"LOS ANGELES","zip":"90020","column_6":null,"geo_score":0.876,"lic_nbr":1003044,"id":"a69uwfs690dx","geo_precision":"range","address":"311 S. VERMONT AVENUE","state":"CA"},"type":"Feature","geometry":{"type":"Point","coordinates":[-121.950751,38.275194]}},{"properties":{"city":"LOS ANGELES","zip":"90022","column_6":null,"geo_score":0.537,"lic_nbr":1004315,"id":"a69uwfp03qag","geo_precision":"street","address":"4709 WHITTIER BLVD.","state":"CA"},"type":"Feature","geometry":{"type":"Point","coordinates":[-92.88635,35.11721]}},{"properties":{"city":"LOS ANGELES","zip":"90022","column_6":null,"geo_score":0.403,"lic_nbr":1002091,"id":"a69uwfp9bo9r","geo_precision":"street","address":"6600 E. OLYMPIC BOULEVARD","state":"CA"},"type":"Feature","geometry":{"type":"Point","coordinates":[-122.740614,47.697587]}},{"properties":{"city":"LOS ANGELES","zip":"90022","column_6":null,"geo_score":0.483,"lic_nbr":1002158,"id":"a69uwfnpqmzr","geo_precision":"street","address":"5161 POMONA BLVD.","state":"CA"},"type":"Feature","geometry":{"type":"Point","coordinates":[-84.283014,33.326228]}},{"properties":{"city":"LOS ANGELES","zip":"90022","column_6":null,"geo_score":0.586,"lic_nbr":1000841,"id":"a69uwflte74b","geo_precision":"street","address":"212 S ATLANTIC","state":"CA"},"type":"Feature","geometry":{"type":"Point","coordinates":[-84.397769,33.775323]}},{"properties":{"city":"LOS ANGELES","zip":"90022","column_6":null,"geo_score":0.537,"lic_nbr":1000403,"id":"a69uwfm2jgb7","geo_precision":"street","address":"5623 WHITTIER BLVD.","state":"CA"},"type":"Feature","geometry":{"type":"Point","coordinates":[-92.88635,35.11721]}},{"properties":{"city":"LOS ANGELES","zip":"90022","column_6":null,"geo_score":0.419,"lic_nbr":1002025,"id":"a69uwfkdpuip","geo_precision":"city","address":"6571 EAST OLYMPIC BOULEVARD","state":"CA"},"type":"Feature","geometry":{"type":"Point","coordinates":[-70.657835,43.733967]}},{"properties":{"city":"LOS ANGELES","zip":"90022","column_6":null,"geo_score":0.596,"lic_nbr":1002976,"id":"a69uwfemz9th","geo_precision":"street","address":"1439 S. ATLANTIC BOULEVARD","state":"CA"},"type":"Feature","geometry":{"type":"Point","coordinates":[-84.397635,33.789995]}},{"properties":{"city":"LOS ANGELES","zip":"90022","column_6":null,"geo_score":0.599,"lic_nbr":1003071,"id":"a69uwfcfxbqg","geo_precision":"street","address":"705 SOUTH ATLANTIC BOULEVARD","state":"CA"},"type":"Feature","geometry":{"type":"Point","coordinates":[-84.397769,33.775323]}},{"properties":{"city":"LOS ANGELES","zip":"90022","column_6":null,"geo_score":0.537,"lic_nbr":1004028,"id":"a69uwfj8yso0","geo_precision":"street","address":"4732 WHITTIER BLVD","state":"CA"},"type":"Feature","geometry":{"type":"Point","coordinates":[-92.88635,35.11721]}},{"properties":{"city":"EAST LOS ANGELES","zip":"90022","column_6":null,"geo_score":0.413,"lic_nbr":1004167,"id":"a69uwfraayap","geo_precision":"street","address":"5209 E. OLYMPIC BLVD.","state":"CA"},"type":"Feature","geometry":{"type":"Point","coordinates":[-122.740614,47.697587]}},{"properties":{"city":"LOS ANGELES","zip":"90022","column_6":null,"geo_score":0.537,"lic_nbr":1004174,"id":"a69uwfgqz261","geo_precision":"street","address":"4840 WHITTIER BLVD","state":"CA"},"type":"Feature","geometry":{"type":"Point","coordinates":[-92.88635,35.11721]}},{"properties":{"city":"LOS ANGELES","zip":"90022","column_6":null,"geo_score":0.537,"lic_nbr":1004280,"id":"a69uwfesi5pv","geo_precision":"street","address":"5201 WHITTIER BLVD.","state":"CA"},"type":"Feature","geometry":{"type":"Point","coordinates":[-92.88635,35.11721]}},{"properties":{"city":"LOS ANGELES","zip":"90022","column_6":null,"geo_score":0.413,"lic_nbr":1004285,"id":"a69uwfemsx8v","geo_precision":"street","address":"5050 E. OLYMPIC BLVD.","state":"CA"},"type":"Feature","geometry":{"type":"Point","coordinates":[-122.740614,47.697587]}},{"properties":{"city":"LOS ANGELES","zip":"90022","column_6":null,"geo_score":0.527,"lic_nbr":1004337,"id":"a69uwfcz87lw","geo_precision":"street","address":"5342 E. WHITTIER BLVD.","state":"CA"},"type":"Feature","geometry":{"type":"Point","coordinates":[-92.88635,35.11721]}},{"properties":{"city":"LOS ANGELES","zip":"90023","column_6":null,"geo_score":0.521,"lic_nbr":1002925,"id":"a69uwfh5o2gs","geo_precision":"street","address":"2324 WHITTIER AVENUE","state":"CA"},"type":"Feature","geometry":{"type":"Point","coordinates":[-92.206159,34.762285]}},{"properties":{"city":"LOS ANGELES","zip":"90023","column_6":null,"geo_score":0.537,"lic_nbr":1002960,"id":"a69uwfojy9t2","geo_precision":"street","address":"3359 WHITTIER BOULEVARD","state":"CA"},"type":"Feature","geometry":{"type":"Point","coordinates":[-92.88635,35.11721]}},{"properties":{"city":"LOS ANGELES","zip":"90023","column_6":null,"geo_score":0.402,"lic_nbr":1003136,"id":"a69uwfkbcqfk","geo_precision":"street","address":"3352 E. OLYMPIC BOULEVARD","state":"CA"},"type":"Feature","geometry":{"type":"Point","coordinates":[-122.740614,47.697587]}},{"properties":{"city":"LOS ANGELES","zip":"90023","column_6":null,"geo_score":0.537,"lic_nbr":1003276,"id":"a69uwfe6faov","geo_precision":"street","address":"3821 WHITTIER BOULEVARD","state":"CA"},"type":"Feature","geometry":{"type":"Point","coordinates":[-92.88635,35.11721]}},{"properties":{"city":"LOS ANGELES","zip":"90023","column_6":null,"geo_score":0.582,"lic_nbr":1003821,"id":"a69uwfi4uonq","geo_precision":"street","address":"1260 S. SOTO STREET","state":"CA"},"type":"Feature","geometry":{"type":"Point","coordinates":[-92.977413,34.647781]}},{"properties":{"city":"LOS ANGELES","zip":"90025","column_6":null,"geo_score":0.485,"lic_nbr":1003394,"id":"a69uwfnb3y7e","geo_precision":"street","address":"2180 WESTWOOD BOULEVARD","state":"CA"},"type":"Feature","geometry":{"type":"Point","coordinates":[-86.908546,33.576696]}},{"properties":{"city":"LOS ANGELES","zip":"90025","column_6":null,"geo_score":0.493,"lic_nbr":1000569,"id":"a69uwfrn3vyf","geo_precision":"street","address":"12101 SANTA MONICA BLVD.","state":"CA"},"type":"Feature","geometry":{"type":"Point","coordinates":[-111.839443,40.595352]}},{"properties":{"city":"LOS ANGELES","zip":"90025","column_6":null,"geo_score":0.493,"lic_nbr":1003298,"id":"a69uwfilf5hs","geo_precision":"street","address":"11300 SANTA MONICA BOULEVARD","state":"CA"},"type":"Feature","geometry":{"type":"Point","coordinates":[-111.839443,40.595352]}},{"properties":{"city":"LOS ANGELES","zip":"90025","column_6":null,"geo_score":0.493,"lic_nbr":1003375,"id":"a69uwfh45o14","geo_precision":"street","address":"12241 SANTA MONICA BOULEVARD","state":"CA"},"type":"Feature","geometry":{"type":"Point","coordinates":[-111.839443,40.595352]}},{"properties":{"city":"LOS ANGELES","zip":"90026","column_6":null,"geo_score":0.681,"lic_nbr":1000291,"id":"a69uwfnvl2vg","geo_precision":"street","address":"2134 W. SUNSET BLVD.","state":"CA"},"type":"Feature","geometry":{"type":"Point","coordinates":[-114.226003,33.568231]}},{"properties":{"city":"LOS ANGELES","zip":"90026","column_6":null,"geo_score":0.642,"lic_nbr":1002930,"id":"a69uwflsnop9","geo_precision":"street","address":"1561 W. SUNSET","state":"CA"},"type":"Feature","geometry":{"type":"Point","coordinates":[-114.219151,33.670547]}},{"properties":{"city":"LOS ANGELES","zip":"90026","column_6":null,"geo_score":0.681,"lic_nbr":1004169,"id":"a69uwff7300k","geo_precision":"street","address":"1720 W SUNSET BLVD.","state":"CA"},"type":"Feature","geometry":{"type":"Point","coordinates":[-114.226003,33.568231]}},{"properties":{"city":"LOS ANGELES","zip":"90027","column_6":null,"geo_score":0.681,"lic_nbr":1004266,"id":"a69uwfjfx7hp","geo_precision":"street","address":"5419 W. SUNSET BLVD","state":"CA"},"type":"Feature","geometry":{"type":"Point","coordinates":[-114.226019,33.568231]}},{"properties":{"city":"LOS ANGELES","zip":"90027","column_6":null,"geo_score":0.902,"lic_nbr":1000504,"id":"a69uwfdiake3","geo_precision":"range","address":"4481 HOLLYWOOD BLVD.","state":"CA"},"type":"Feature","geometry":{"type":"Point","coordinates":[-80.188276,26.010536]}},{"properties":{"city":"LOS ANGELES","zip":"90028","column_6":null,"geo_score":0.707,"lic_nbr":1000908,"id":"a69uwfqcfxvc","geo_precision":"street","address":"6767 SUNSET BLVD","state":"CA"},"type":"Feature","geometry":{"type":"Point","coordinates":[-114.226019,33.568231]}},{"properties":{"city":"HOLLYWOOD","zip":"90028","column_6":null,"geo_score":0.0,"lic_nbr":1000221,"id":"a69uwfg2qwo6","geo_precision":"unmatched","address":"1803 N. CAHUENGA BLVD.","state":"CA"},"type":"Feature","geometry":null},{"properties":{"city":"HOLLYWOOD","zip":"90028","column_6":null,"geo_score":0.681,"lic_nbr":1000287,"id":"a69uwfdrbwcs","geo_precision":"street","address":"5609 W. SUNSET BLVD.","state":"CA"},"type":"Feature","geometry":{"type":"Point","coordinates":[-114.226019,33.568231]}},{"properties":{"city":"HOLLYWOOD","zip":"90028","column_6":null,"geo_score":0.902,"lic_nbr":1000394,"id":"a69uwfrfesfm","geo_precision":"range","address":"6565 HOLLYWOOD BLVD.","state":"CA"},"type":"Feature","geometry":{"type":"Point","coordinates":[-80.219756,26.009917]}},{"properties":{"city":"HOLLYWOOD","zip":"90028","column_6":null,"geo_score":0.902,"lic_nbr":1000430,"id":"a69uwfd4wepx","geo_precision":"range","address":"6401 HOLLYWOOD BLVD.","state":"CA"},"type":"Feature","geometry":{"type":"Point","coordinates":[-80.215676,26.010009]}},{"properties":{"city":"LOS ANGELES","zip":"90028","column_6":null,"geo_score":0.681,"lic_nbr":1001286,"id":"a69uwfjxzwox","geo_precision":"street","address":"6106 W. SUNSET BLVD.","state":"CA"},"type":"Feature","geometry":{"type":"Point","coordinates":[-114.226003,33.568231]}},{"properties":{"city":"HOLLYWOOD","zip":"90028","column_6":null,"geo_score":0.681,"lic_nbr":1002470,"id":"a69uwfqeh5xh","geo_precision":"street","address":"6547 W. SUNSET BOULEVARD","state":"CA"},"type":"Feature","geometry":{"type":"Point","coordinates":[-114.226019,33.568231]}},{"properties":{"city":"HOLLYWOOD","zip":"90028","column_6":null,"geo_score":0.902,"lic_nbr":1004316,"id":"a69uwfeogbs2","geo_precision":"range","address":"6753 HOLLYWOOD BLVD.","state":"CA"},"type":"Feature","geometry":{"type":"Point","coordinates":[-80.222294,26.009855]}},{"properties":{"city":"LOS ANGELES","zip":"90029","column_6":null,"geo_score":0.423,"lic_nbr":1004163,"id":"a69uwflcysy1","geo_precision":"city","address":"1075 N WESTERN AVE.","state":"CA"},"type":"Feature","geometry":{"type":"Point","coordinates":[-104.997203,39.832208]}},{"properties":{"city":"LOS ANGELES","zip":"90029","column_6":null,"geo_score":0.0,"lic_nbr":1001362,"id":"a69uwfillyua","geo_precision":"unmatched","address":"1008 N VERMONT","state":"CA"},"type":"Feature","geometry":null},{"properties":{"city":"LOS ANGELES","zip":"90031","column_6":null,"geo_score":0.473,"lic_nbr":1000214,"id":"a69uwfhzyhyh","geo_precision":"street","address":"3025 N. BROADWAY","state":"CA"},"type":"Feature","geometry":{"type":"Point","coordinates":[-75.759281,41.3496]}},{"properties":{"city":"LOS ANGELES","zip":"90031","column_6":null,"geo_score":0.473,"lic_nbr":1001179,"id":"a69uwfqyvnnr","geo_precision":"street","address":"2430 NORTH BROADWAY","state":"CA"},"type":"Feature","geometry":{"type":"Point","coordinates":[-75.759281,41.3496]}},{"properties":{"city":"LINCOLN HEIGHTS","zip":"90031","column_6":null,"geo_score":0.473,"lic_nbr":1001356,"id":"a69uwfmk5l01","geo_precision":"street","address":"3020 N BROADWAY","state":"CA"},"type":"Feature","geometry":{"type":"Point","coordinates":[-75.759281,41.3496]}},{"properties":{"city":"LOS ANGELES","zip":"90031","column_6":null,"geo_score":0.54,"lic_nbr":1002339,"id":"a69uwfrxir7m","geo_precision":"street","address":"2409 N. DALY STREET","state":"CA"},"type":"Feature","geometry":{"type":"Point","coordinates":[-92.448404,42.415203]}},{"properties":{"city":"LOS ANGELES","zip":"90031","column_6":null,"geo_score":0.474,"lic_nbr":1002972,"id":"a69uwfo0wr3n","geo_precision":"street","address":"2534 DALY STREET","state":"CA"},"type":"Feature","geometry":{"type":"Point","coordinates":[-92.601439,34.546981]}},{"properties":{"city":"LOS ANGELES","zip":"90032","column_6":null,"geo_score":0.0,"lic_nbr":1002157,"id":"a69uwfs8uuda","geo_precision":"unmatched","address":"5150 HUNTINTON DRIVE","state":"CA"},"type":"Feature","geometry":null},{"properties":{"city":"LOS ANGELES","zip":"90033","column_6":null,"geo_score":0.512,"lic_nbr":1000196,"id":"a69uwfni744x","geo_precision":"street","address":"2401 E. 1ST ST.","state":"CA"},"type":"Feature","geometry":{"type":"Point","coordinates":[-93.332698,34.003074]}},{"properties":{"city":"LOS ANGELES","zip":"90033","column_6":null,"geo_score":0.47,"lic_nbr":1000399,"id":"a69uwfl2ensk","geo_precision":"street","address":"2417 E. CESAR E. CHAVEZ AVE.","state":"CA"},"type":"Feature","geometry":{"type":"Point","coordinates":[-86.259729,31.587532]}},{"properties":{"city":"LOS ANGELES","zip":"90033","column_6":null,"geo_score":0.473,"lic_nbr":1000461,"id":"a69uwfnf8cac","geo_precision":"street","address":"2132 E. CESAR CHAVEZ AVE.","state":"CA"},"type":"Feature","geometry":{"type":"Point","coordinates":[-86.278418,31.499119]}},{"properties":{"city":"LOS ANGELES","zip":"90033","column_6":null,"geo_score":0.328,"lic_nbr":1001198,"id":"a69uwfl73j1m","geo_precision":"street","address":"1510 EAST FIRST STREET","state":"CA"},"type":"Feature","geometry":{"type":"Point","coordinates":[-119.209337,36.308042]}},{"properties":{"city":"LOS ANGELES","zip":"90033","column_6":null,"geo_score":0.473,"lic_nbr":1002979,"id":"a69uwfcvfi9x","geo_precision":"street","address":"1955 E. CESAR CHAVEZ AVENUE","state":"CA"},"type":"Feature","geometry":{"type":"Point","coordinates":[-86.259729,31.587532]}},{"properties":{"city":"LOS ANGELES","zip":"90033","column_6":null,"geo_score":0.418,"lic_nbr":1003286,"id":"a69uwfr1f72o","geo_precision":"city","address":"1825 EAST CESAR CHAVEZ AVENUE","state":"CA"},"type":"Feature","geometry":{"type":"Point","coordinates":[-77.700825,38.617621]}},{"properties":{"city":"LOS ANGELES","zip":"90034","column_6":null,"geo_score":0.78,"lic_nbr":1001555,"id":"a69uwfdw45sy","geo_precision":"range","address":"10401 VENICE BOULEVARD","state":"CA"},"type":"Feature","geometry":{"type":"Point","coordinates":[-118.403827,34.0203]}},{"properties":{"city":"LOS ANGELES","zip":"90034","column_6":null,"geo_score":0.78,"lic_nbr":1000219,"id":"a69uwfgsmrhp","geo_precision":"range","address":"8905 VENICE BLVD.","state":"CA"},"type":"Feature","geometry":{"type":"Point","coordinates":[-118.388228,34.029163]}},{"properties":{"city":"LOS ANGELES","zip":"90034","column_6":null,"geo_score":0.429,"lic_nbr":1004090,"id":"a69uwfijfvqr","geo_precision":"street","address":"1976 S LA CIENEGA BLVD","state":"CA"},"type":"Feature","geometry":{"type":"Point","coordinates":[-105.9343,35.688242]}},{"properties":{"city":"LOS ANGELES","zip":"90034","column_6":null,"geo_score":0.78,"lic_nbr":1004110,"id":"a69uwfc202sw","geo_precision":"range","address":"9235 VENICE BLVD","state":"CA"},"type":"Feature","geometry":{"type":"Point","coordinates":[-118.393861,34.025994]}},{"properties":{"city":"LOS ANGELES","zip":"90037","column_6":null,"geo_score":0.0,"lic_nbr":1000524,"id":"a69uwffj2d18","geo_precision":"unmatched","address":"3998 S. FIGUEROA STREET","state":"CA"},"type":"Feature","geometry":null},{"properties":{"city":"LOS ANGELES","zip":"90037","column_6":null,"geo_score":0.0,"lic_nbr":1002273,"id":"a69uwffx8psj","geo_precision":"unmatched","address":"5401 S. FIGUEROA STREET","state":"CA"},"type":"Feature","geometry":null},{"properties":{"city":"LOS ANGELES","zip":"90037","column_6":null,"geo_score":0.681,"lic_nbr":1003517,"id":"a69uwflsmm53","geo_precision":"street","address":"5407 S. VERMONT AVE","state":"CA"},"type":"Feature","geometry":{"type":"Point","coordinates":[-121.954097,37.943812]}},{"properties":{"city":"LOS ANGELES","zip":"90037","column_6":null,"geo_score":0.681,"lic_nbr":1004011,"id":"a69uwfj3c1b6","geo_precision":"street","address":"4373 S. VERMONT AVE","state":"CA"},"type":"Feature","geometry":{"type":"Point","coordinates":[-121.954097,37.943812]}},{"properties":{"city":"LOS ANGELES","zip":"90038","column_6":null,"geo_score":0.493,"lic_nbr":1001195,"id":"a69uwff2vli8","geo_precision":"street","address":"5520 SANTA MONICA BOULEVARD","state":"CA"},"type":"Feature","geometry":{"type":"Point","coordinates":[-112.01902,41.076834]}},{"properties":{"city":"LOS ANGELES","zip":"90038","column_6":null,"geo_score":0.294,"lic_nbr":1000376,"id":"a69uwfrl88qs","geo_precision":"street","address":"1060 VINE STREET","state":"CA"},"type":"Feature","geometry":{"type":"Point","coordinates":[-87.860316,31.029321]}},{"properties":{"city":"ATWATER VILLAGE","zip":"90039","column_6":null,"geo_score":0.634,"lic_nbr":1001946,"id":"a69uwfkjn4i8","geo_precision":"street","address":"3100 GLENDALE BOULEVARD","state":"CA"},"type":"Feature","geometry":{"type":"Point","coordinates":[-112.272442,33.537009]}},{"properties":{"city":"LOS ANGELES","zip":"90039","column_6":null,"geo_score":0.634,"lic_nbr":1001332,"id":"a69uwfcitdfa","geo_precision":"street","address":"2556 GLENDALE BLVD","state":"CA"},"type":"Feature","geometry":{"type":"Point","coordinates":[-112.272442,33.537009]}},{"properties":{"city":"LOS ANGELES","zip":"90039","column_6":null,"geo_score":0.634,"lic_nbr":1004154,"id":"a69uwfhdauk4","geo_precision":"street","address":"3100 GLENDALE BLVD.","state":"CA"},"type":"Feature","geometry":{"type":"Point","coordinates":[-112.272442,33.537009]}},{"properties":{"city":"LOS ANGELES","zip":"90041","column_6":null,"geo_score":0.379,"lic_nbr":1003832,"id":"a69uwfmuj4tl","geo_precision":"street","address":"2750 COLORADO BLVD.","state":"CA"},"type":"Feature","geometry":{"type":"Point","coordinates":[-122.15818,37.881567]}},{"properties":{"city":"EAGLE ROCK","zip":"90041","column_6":null,"geo_score":0.378,"lic_nbr":1002863,"id":"a69uwfd3xq05","geo_precision":"street","address":"1753 COLORADO BOULEVARD","state":"CA"},"type":"Feature","geometry":{"type":"Point","coordinates":[-122.15818,37.881567]}},{"properties":{"city":"EAGLE ROCK","zip":"90041","column_6":null,"geo_score":0.428,"lic_nbr":1003894,"id":"a69uwfdnv6rl","geo_precision":"street","address":"4915 EAGLE ROCK BLVD","state":"CA"},"type":"Feature","geometry":{"type":"Point","coordinates":[-115.887728,47.657325]}},{"properties":{"city":"HIGHLAND PARK","zip":"90042","column_6":null,"geo_score":0.0,"lic_nbr":1001307,"id":"a69uwfkxunm0","geo_precision":"unmatched","address":"5441 N FIGUEROA STREET","state":"CA"},"type":"Feature","geometry":null},{"properties":{"city":"LOS ANGELES","zip":"90042","column_6":null,"geo_score":0.415,"lic_nbr":1003528,"id":"a69uwfbzsfkm","geo_precision":"city","address":"107 N.  AVENUE 64","state":"CA"},"type":"Feature","geometry":{"type":"Point","coordinates":[-84.883284,37.946186]}},{"properties":{"city":"LOS ANGELES","zip":"90042","column_6":null,"geo_score":0.0,"lic_nbr":1003504,"id":"a69uwfcysjqs","geo_precision":"unmatched","address":"6100 N FIGUEROA STREET","state":"CA"},"type":"Feature","geometry":null},{"properties":{"city":"LOS ANGELES","zip":"90042","column_6":null,"geo_score":0.0,"lic_nbr":1000216,"id":"a69uwflzzklw","geo_precision":"unmatched","address":"5803 N. FIGUEROA","state":"CA"},"type":"Feature","geometry":null},{"properties":{"city":"LOS ANGELES","zip":"90042","column_6":null,"geo_score":0.571,"lic_nbr":1001184,"id":"a69uwffxjno4","geo_precision":"range","address":"5401 1/2  NORTH FIGUEROA","state":"CA"},"type":"Feature","geometry":{"type":"Point","coordinates":[-76.344222,42.986571]}},{"properties":{"city":"HIGHLAND PARK","zip":"90042","column_6":null,"geo_score":0.0,"lic_nbr":1002936,"id":"a69uwfdr1xnn","geo_precision":"unmatched","address":"5136 N. FIGUEROA STREET","state":"CA"},"type":"Feature","geometry":null},{"properties":{"city":"HIGHLAND PARK","zip":"90042","column_6":null,"geo_score":0.0,"lic_nbr":1003797,"id":"a69uwfi1ob06","geo_precision":"unmatched","address":"6479 N. FIGUEROA","state":"CA"},"type":"Feature","geometry":null},{"properties":{"city":"LOS ANGELES","zip":"90043","column_6":null,"geo_score":0.0,"lic_nbr":1000424,"id":"a69uwfkbff6t","geo_precision":"unmatched","address":"3401 W. SLAUSON AVE.","state":"CA"},"type":"Feature","geometry":null},{"properties":{"city":"LOS ANGELES","zip":"90043","column_6":null,"geo_score":0.407,"lic_nbr":1004153,"id":"a69uwficwln2","geo_precision":"city","address":"6425 S. CRENSHAW BLVD.","state":"CA"},"type":"Feature","geometry":{"type":"Point","coordinates":[-104.413287,40.523037]}},{"properties":{"city":"LOS ANGELES","zip":"90043","column_6":null,"geo_score":0.48,"lic_nbr":1004202,"id":"a69uwfdmkars","geo_precision":"street","address":"3404 W.  FLORENCE AVE.","state":"CA"},"type":"Feature","geometry":{"type":"Point","coordinates":[-91.6373,33.753679]}},{"properties":{"city":"LOS ANGELES","zip":"90044","column_6":null,"geo_score":0.442,"lic_nbr":1004036,"id":"a69uwfcwnco6","geo_precision":"street","address":"11252 S. NORMANDIE AVENUE","state":"CA"},"type":"Feature","geometry":{"type":"Point","coordinates":[-81.772067,30.297051]}},{"properties":{"city":"LOS ANGELES","zip":"90044","column_6":null,"geo_score":0.681,"lic_nbr":1000426,"id":"a69uwfr8nfig","geo_precision":"street","address":"5860 S. VERMONT AVE.","state":"CA"},"type":"Feature","geometry":{"type":"Point","coordinates":[-121.954097,37.943812]}},{"properties":{"city":"LOS ANGELES","zip":"90044","column_6":null,"geo_score":0.563,"lic_nbr":1000596,"id":"a69uwfcex2pa","geo_precision":"street","address":"8608 1/2 S. VERMONT AVE.","state":"CA"},"type":"Feature","geometry":{"type":"Point","coordinates":[-121.955158,38.278419]}},{"properties":{"city":"LOS ANGELES","zip":"90044","column_6":null,"geo_score":0.0,"lic_nbr":1002970,"id":"a69uwfs0lpli","geo_precision":"unmatched","address":"6214 S. VERMONT","state":"CA"},"type":"Feature","geometry":null},{"properties":{"city":"LOS ANGELES","zip":"90044","column_6":null,"geo_score":0.464,"lic_nbr":1003883,"id":"a69uwfqfgv1u","geo_precision":"street","address":"700 W. IMPERIAL HIGHWAY","state":"CA"},"type":"Feature","geometry":{"type":"Point","coordinates":[-83.40972,33.339678]}},{"properties":{"city":"LOS ANGELES","zip":"90047","column_6":null,"geo_score":0.624,"lic_nbr":1002855,"id":"a69uwfcn3ayt","geo_precision":"street","address":"2107 WEST MANCHESTER AVENUE","state":"CA"},"type":"Feature","geometry":{"type":"Point","coordinates":[-71.442945,42.990176]}},{"properties":{"city":"LOS ANGELES","zip":"90047","column_6":null,"geo_score":0.0,"lic_nbr":1002948,"id":"a69uwfj8rmnu","geo_precision":"unmatched","address":"1754 W. SLAUSON AVENUE","state":"CA"},"type":"Feature","geometry":null},{"properties":{"city":"LOS ANGELES","zip":"90048","column_6":null,"geo_score":0.433,"lic_nbr":1004173,"id":"a69uwfeirmxz","geo_precision":"city","address":"6399 WILSHIRE BLVD.","state":"CA"},"type":"Feature","geometry":{"type":"Point","coordinates":[-75.51631,39.784835]}},{"properties":{"city":"LOS ANGELES","zip":"90048","column_6":null,"geo_score":0.285,"lic_nbr":1000897,"id":"a69uwfpg8nqo","geo_precision":"street","address":"418 S SAN VICENTE BLVD","state":"CA"},"type":"Feature","geometry":{"type":"Point","coordinates":[-89.489637,43.102335]}},{"properties":{"city":"LOS ANGELES","zip":"90048","column_6":null,"geo_score":0.455,"lic_nbr":1004216,"id":"a69uwffjirrv","geo_precision":"street","address":"372 N. LA CIENEGA","state":"CA"},"type":"Feature","geometry":{"type":"Point","coordinates":[-105.9343,35.688242]}},{"properties":{"city":"LOS ANGELES","zip":"90049","column_6":null,"geo_score":0.289,"lic_nbr":1003684,"id":"a69uwfik01j6","geo_precision":"street","address":"11661 SAN VICENTE BLVD","state":"CA"},"type":"Feature","geometry":{"type":"Point","coordinates":[-89.492953,43.102709]}},{"properties":{"city":"LOS ANGELES","zip":"90057","column_6":null,"geo_score":0.512,"lic_nbr":1003531,"id":"a69uwfgcw5a2","geo_precision":"street","address":"2065 W 6TH ST","state":"CA"},"type":"Feature","geometry":{"type":"Point","coordinates":[-93.692702,34.065284]}},{"properties":{"city":"LOS ANGELES","zip":"90057","column_6":null,"geo_score":0.613,"lic_nbr":1001189,"id":"a69uwffl2by3","geo_precision":"street","address":"264 S RAMPART BLVD","state":"CA"},"type":"Feature","geometry":{"type":"Point","coordinates":[-147.69686,64.843722]}},{"properties":{"city":"LOS ANGELES","zip":"90057","column_6":null,"geo_score":0.668,"lic_nbr":1000401,"id":"a69uwfhc56mz","geo_precision":"range","address":"2100 W. 7TH STREET","state":"CA"},"type":"Feature","geometry":{"type":"Point","coordinates":[-86.86285,31.737368]}},{"properties":{"city":"LOS ANGELES","zip":"90057","column_6":null,"geo_score":0.585,"lic_nbr":1004278,"id":"a69uwfib77ba","geo_precision":"street","address":"2550 W. 7TH ST.","state":"CA"},"type":"Feature","geometry":{"type":"Point","coordinates":[-93.143689,34.268399]}},{"properties":{"city":"LOS ANGELES","zip":"90058","column_6":null,"geo_score":0.433,"lic_nbr":1001182,"id":"a69uwfon6mcb","geo_precision":"city","address":"1901 SOUTH ALAMEDA","state":"CA"},"type":"Feature","geometry":{"type":"Point","coordinates":[-80.297551,25.763433]}},{"properties":{"city":"LOS ANGELES","zip":"90059","column_6":null,"geo_score":0.464,"lic_nbr":1003580,"id":"a69uwfj8h6zj","geo_precision":"street","address":"611 E. IMPERIAL HIGHWAY","state":"CA"},"type":"Feature","geometry":{"type":"Point","coordinates":[-83.40972,33.339678]}},{"properties":{"city":"LOS ANGELES","zip":"90059","column_6":null,"geo_score":0.707,"lic_nbr":1000425,"id":"a69uwfofgkf3","geo_precision":"street","address":"11712 WILMINGTON AVE.","state":"CA"},"type":"Feature","geometry":{"type":"Point","coordinates":[-75.598385,39.739439]}},{"properties":{"city":"LOS ANGELES","zip":"90062","column_6":null,"geo_score":0.428,"lic_nbr":1001957,"id":"a69uwfoyxrua","geo_precision":"city","address":"4417 S. WESTERN AVENUE","state":"CA"},"type":"Feature","geometry":{"type":"Point","coordinates":[-104.997203,39.832208]}},{"properties":{"city":"LOS ANGELES","zip":"90062","column_6":null,"geo_score":0.423,"lic_nbr":1000211,"id":"a69uwflsnjga","geo_precision":"city","address":"4003 S. WESTERN AVE.","state":"CA"},"type":"Feature","geometry":{"type":"Point","coordinates":[-104.997203,39.832208]}},{"properties":{"city":"LOS ANGELES","zip":"90062","column_6":null,"geo_score":0.43,"lic_nbr":1002029,"id":"a69uwfjri8kv","geo_precision":"city","address":"5323 WESTERN AVENUE","state":"CA"},"type":"Feature","geometry":{"type":"Point","coordinates":[-104.997203,39.832208]}},{"properties":{"city":"LOS ANGELES","zip":"90062","column_6":null,"geo_score":0.677,"lic_nbr":1000415,"id":"a69uwfhfv0m6","geo_precision":"street","address":"1675 W. MARTIN LUTHER KING","state":"CA"},"type":"Feature","geometry":{"type":"Point","coordinates":[-88.563062,33.106457]}},{"properties":{"city":"LOS ANGELES","zip":"90063","column_6":null,"geo_score":0.561,"lic_nbr":1002024,"id":"a69uwffbp98x","geo_precision":"street","address":"3657 EAST 1ST STREET","state":"CA"},"type":"Feature","geometry":{"type":"Point","coordinates":[-86.250557,31.716898]}},{"properties":{"city":"LOS ANGELES","zip":"90063","column_6":null,"geo_score":0.327,"lic_nbr":1002294,"id":"a69uwfkv3gkj","geo_precision":"street","address":"3517 EAST FIRST STREET","state":"CA"},"type":"Feature","geometry":{"type":"Point","coordinates":[-119.209337,36.308042]}},{"properties":{"city":"LOS ANGELES","zip":"90063","column_6":null,"geo_score":0.463,"lic_nbr":1002924,"id":"a69uwfsiffdx","geo_precision":"street","address":"3805 E. CESAR CHAVEZ","state":"CA"},"type":"Feature","geometry":{"type":"Point","coordinates":[-86.259729,31.587532]}},{"properties":{"city":"LOS ANGELES","zip":"90063","column_6":null,"geo_score":0.473,"lic_nbr":1004062,"id":"a69uwfitsg53","geo_precision":"street","address":"3447 E. CESAR CHAVEZ AVE.","state":"CA"},"type":"Feature","geometry":{"type":"Point","coordinates":[-86.259729,31.587532]}},{"properties":{"city":"LOS ANGELES","zip":"90063","column_6":null,"geo_score":0.512,"lic_nbr":1004307,"id":"a69uwfgo21l3","geo_precision":"street","address":"3581 E. 1ST ST.","state":"CA"},"type":"Feature","geometry":{"type":"Point","coordinates":[-93.332698,34.003074]}},{"properties":{"city":"LOS ANGELES","zip":"90064","column_6":null,"geo_score":0.512,"lic_nbr":1000907,"id":"a69uwfff86b6","geo_precision":"street","address":"11518 W PICO BLVD","state":"CA"},"type":"Feature","geometry":{"type":"Point","coordinates":[-88.194188,34.808071]}},{"properties":{"city":"LOS ANGELES","zip":"90064","column_6":null,"geo_score":0.675,"lic_nbr":1002953,"id":"a69uwffa4h49","geo_precision":"range","address":"11201 NATIONAL BLVD.","state":"CA"},"type":"Feature","geometry":{"type":"Point","coordinates":[-79.136613,39.696359]}},{"properties":{"city":"LOS ANGELES","zip":"90064","column_6":null,"geo_score":0.538,"lic_nbr":1003093,"id":"a69uwfjo57fn","geo_precision":"street","address":"2207 S. SEPULVEDA BOULEVARD","state":"CA"},"type":"Feature","geometry":{"type":"Point","coordinates":[-118.467726,34.221416]}},{"properties":{"city":"LOS ANGELES","zip":"90065","column_6":null,"geo_score":0.624,"lic_nbr":1002980,"id":"a69uwfo8sfvn","geo_precision":"street","address":"3027 N. SAN FERNANDO ROAD","state":"CA"},"type":"Feature","geometry":{"type":"Point","coordinates":[-122.47011,37.730308]}},{"properties":{"city":"LOS ANGELES","zip":"90065","column_6":null,"geo_score":0.624,"lic_nbr":1004200,"id":"a69uwfs77js3","geo_precision":"street","address":"3127 N. SAN FERNANDO RD.","state":"CA"},"type":"Feature","geometry":{"type":"Point","coordinates":[-122.47011,37.730308]}},{"properties":{"city":"LOS ANGELES","zip":"90065","column_6":null,"geo_score":0.0,"lic_nbr":1004224,"id":"a69uwfod655x","geo_precision":"unmatched","address":"520 W AVENUE 26","state":"CA"},"type":"Feature","geometry":null},{"properties":{"city":"BELL GARDENS","zip":"90201","column_6":null,"geo_score":0.494,"lic_nbr":1000405,"id":"a69uwfofbl9n","geo_precision":"street","address":"6821-A  EASTERN AVE.","state":"CA"},"type":"Feature","geometry":{"type":"Point","coordinates":[-85.364048,33.145772]}},{"properties":{"city":"CUDAHY","zip":"90201","column_6":null,"geo_score":0.654,"lic_nbr":1002931,"id":"a69uwffsk2an","geo_precision":"street","address":"7920 ATLANTIC AVENUE","state":"CA"},"type":"Feature","geometry":{"type":"Point","coordinates":[-84.412775,33.655303]}},{"properties":{"city":"BELL GARDENS","zip":"90201","column_6":null,"geo_score":0.488,"lic_nbr":1002987,"id":"a69uwffhxqpf","geo_precision":"city","address":"6000 FLORENCE","state":"CA"},"type":"Feature","geometry":{"type":"Point","coordinates":[-91.645683,33.765661]}},{"properties":{"city":"BEVERLY HILLS","zip":"90211","column_6":null,"geo_score":0.583,"lic_nbr":1004172,"id":"a69uwfe4lj6d","geo_precision":"street","address":"221 S. ROBERTSON BLVD.","state":"CA"},"type":"Feature","geometry":{"type":"Point","coordinates":[-87.518665,31.427937]}},{"properties":{"city":"COMPTON","zip":"90220","column_6":null,"geo_score":0.439,"lic_nbr":1000422,"id":"a69uwfh8dpdy","geo_precision":"street","address":"148 E. COMPTON BLVD.","state":"CA"},"type":"Feature","geometry":{"type":"Point","coordinates":[-86.518345,30.873405]}},{"properties":{"city":"COMPTON","zip":"90220","column_6":null,"geo_score":0.439,"lic_nbr":1001335,"id":"a69uwfo7ioe7","geo_precision":"street","address":"208 E. COMPTON BLVD.","state":"CA"},"type":"Feature","geometry":{"type":"Point","coordinates":[-86.518345,30.873405]}},{"properties":{"city":"COMPTON","zip":"90221","column_6":null,"geo_score":0.634,"lic_nbr":1002180,"id":"a69uwfn0q3iw","geo_precision":"street","address":"13022 S. ATLANTIC AVENUE","state":"CA"},"type":"Feature","geometry":{"type":"Point","coordinates":[-84.412775,33.655303]}},{"properties":{"city":"COMPTON","zip":"90221","column_6":null,"geo_score":0.402,"lic_nbr":1002963,"id":"a69uwfrdr5nd","geo_precision":"city","address":"1330 E. ALONDRA BLVD.","state":"CA"},"type":"Feature","geometry":{"type":"Point","coordinates":[-76.386628,40.156206]}},{"properties":{"city":"COMPTON","zip":"90221","column_6":null,"geo_score":0.902,"lic_nbr":1003197,"id":"a69uwfnp2xls","geo_precision":"range","address":"930 N. LONG BEACH BOULEVARD","state":"CA"},"type":"Feature","geometry":{"type":"Point","coordinates":[-118.189363,33.778296]}},{"properties":{"city":"COMPTON","zip":"90222","column_6":null,"geo_score":0.421,"lic_nbr":1000396,"id":"a69uwfqy56ur","geo_precision":"city","address":"739 W. ROSECRANS AVE.","state":"CA"},"type":"Feature","geometry":{"type":"Point","coordinates":[-114.59023,32.781434]}},{"properties":{"city":"COMPTON","zip":"90222","column_6":null,"geo_score":0.42,"lic_nbr":1001949,"id":"a69uwfkzw23q","geo_precision":"city","address":"809 W. ROSECRANS","state":"CA"},"type":"Feature","geometry":{"type":"Point","coordinates":[-114.59023,32.781434]}},{"properties":{"city":"CULVER CITY","zip":"90230","column_6":null,"geo_score":0.554,"lic_nbr":1000292,"id":"a69uwfrngcx6","geo_precision":"street","address":"4911 S. SEPULVEDA BLVD.","state":"CA"},"type":"Feature","geometry":{"type":"Point","coordinates":[-118.467726,34.221416]}},{"properties":{"city":"CULVER CITY","zip":"90230","column_6":null,"geo_score":0.617,"lic_nbr":1003661,"id":"a69uwfilib12","geo_precision":"street","address":"4738 INGLEWOOD BLVD.","state":"CA"},"type":"Feature","geometry":{"type":"Point","coordinates":[-95.996718,41.15864]}},{"properties":{"city":"CULVER CITY","zip":"90232","column_6":null,"geo_score":0.902,"lic_nbr":1001263,"id":"a69uwfdcgbx9","geo_precision":"range","address":"10200 VENICE BLVD.","state":"CA"},"type":"Feature","geometry":{"type":"Point","coordinates":[-118.401713,34.021505]}},{"properties":{"city":"CULVER CITY","zip":"90232","column_6":null,"geo_score":0.0,"lic_nbr":1000438,"id":"a69uwfo0ualx","geo_precision":"unmatched","address":"10716 W. WASHINGTON","state":"CA"},"type":"Feature","geometry":null},{"properties":{"city":"CULVER CITY","zip":"90232","column_6":null,"geo_score":0.902,"lic_nbr":1000855,"id":"a69uwfgaquth","geo_precision":"range","address":"10404 VENICE BLVD","state":"CA"},"type":"Feature","geometry":{"type":"Point","coordinates":[-118.403853,34.020283]}},{"properties":{"city":"CULVER CITY","zip":"90232","column_6":null,"geo_score":0.902,"lic_nbr":1001475,"id":"a69uwfdxrqod","geo_precision":"range","address":"9008 VENICE BLVD","state":"CA"},"type":"Feature","geometry":{"type":"Point","coordinates":[-118.392699,34.026368]}},{"properties":{"city":"DOWNEY","zip":"90240","column_6":null,"geo_score":0.425,"lic_nbr":1000940,"id":"a69uwflbbida","geo_precision":"city","address":"8516 PARAMOUNT BLVD.","state":"CA"},"type":"Feature","geometry":{"type":"Point","coordinates":[-86.679727,40.467536]}},{"properties":{"city":"DOWNEY","zip":"90240","column_6":null,"geo_score":0.488,"lic_nbr":1001333,"id":"a69uwfpzwv12","geo_precision":"street","address":"7433  FLORENCE AVENUE","state":"CA"},"type":"Feature","geometry":{"type":"Point","coordinates":[-91.6373,33.753679]}},{"properties":{"city":"DOWNEY","zip":"90241","column_6":null,"geo_score":0.425,"lic_nbr":1002152,"id":"a69uwfhvdewg","geo_precision":"city","address":"9907 PARAMOUNT BLVD.","state":"CA"},"type":"Feature","geometry":{"type":"Point","coordinates":[-86.679727,40.467536]}},{"properties":{"city":"DOWNEY","zip":"90241","column_6":null,"geo_score":0.467,"lic_nbr":1003180,"id":"a69uwfqqeo15","geo_precision":"street","address":"7402 E. FLORENCE AVENUE","state":"CA"},"type":"Feature","geometry":{"type":"Point","coordinates":[-91.6373,33.753679]}},{"properties":{"city":"DOWNEY","zip":"90242","column_6":null,"geo_score":0.503,"lic_nbr":1000857,"id":"a69uwfn6rgq6","geo_precision":"street","address":"8847 IMPERIAL HWY.","state":"CA"},"type":"Feature","geometry":{"type":"Point","coordinates":[-83.40972,33.339678]}},{"properties":{"city":"EL SEGUNDO","zip":"90245","column_6":null,"geo_score":0.453,"lic_nbr":1004149,"id":"a69uwfhcta29","geo_precision":"street","address":"630 N SEPULVEDA BLVD","state":"CA"},"type":"Feature","geometry":{"type":"Point","coordinates":[-118.467629,34.231498]}},{"properties":{"city":"GARDENA","zip":"90247","column_6":null,"geo_score":0.315,"lic_nbr":1000881,"id":"a69uwfhelg5o","geo_precision":"street","address":"1124 REDONDO BEACH BLVD.","state":"CA"},"type":"Feature","geometry":{"type":"Point","coordinates":[-87.793179,31.962591]}},{"properties":{"city":"GARDENA","zip":"90247","column_6":null,"geo_score":0.421,"lic_nbr":1000854,"id":"a69uwfmavps0","geo_precision":"city","address":"857 W ROSECRANS AVE","state":"CA"},"type":"Feature","geometry":{"type":"Point","coordinates":[-114.59023,32.781434]}},{"properties":{"city":"GARDENA","zip":"90247","column_6":null,"geo_score":0.309,"lic_nbr":1000885,"id":"a69uwfen3caz","geo_precision":"street","address":"1124-D REDONDO BEACH BLVD","state":"CA"},"type":"Feature","geometry":{"type":"Point","coordinates":[-87.793179,31.962591]}},{"properties":{"city":"GARDENA","zip":"90247","column_6":null,"geo_score":0.681,"lic_nbr":1004077,"id":"a69uwfnn3tzs","geo_precision":"street","address":"14137 S. VERMONT AVE.","state":"CA"},"type":"Feature","geometry":{"type":"Point","coordinates":[-121.954097,37.943812]}},{"properties":{"city":"GARDENA","zip":"90247","column_6":null,"geo_score":0.419,"lic_nbr":1004079,"id":"a69uwfocbm9k","geo_precision":"city","address":"1088 W. ROSECRANS AVE","state":"CA"},"type":"Feature","geometry":{"type":"Point","coordinates":[-114.59023,32.781434]}},{"properties":{"city":"GARDENA","zip":"90249","column_6":null,"geo_score":0.421,"lic_nbr":1000879,"id":"a69uwfewxdvf","geo_precision":"city","address":"15324 S WESTERN AVE","state":"CA"},"type":"Feature","geometry":{"type":"Point","coordinates":[-104.997203,39.832208]}},{"properties":{"city":"GARDENA","zip":"90249","column_6":null,"geo_score":0.42,"lic_nbr":1002111,"id":"a69uwfn5z7i8","geo_precision":"city","address":"2249 W. ROSECRANS AVENUE","state":"CA"},"type":"Feature","geometry":{"type":"Point","coordinates":[-114.59023,32.781434]}},{"properties":{"city":"HAWTHORNE","zip":"90250","column_6":null,"geo_score":0.64,"lic_nbr":1002113,"id":"a69uwfq6iako","geo_precision":"street","address":"12920 HAWTHORNE BOULEVARD","state":"CA"},"type":"Feature","geometry":{"type":"Point","coordinates":[-87.913046,30.494446]}},{"properties":{"city":"HAWTHORNE","zip":"90250","column_6":null,"geo_score":0.418,"lic_nbr":1000228,"id":"a69uwforr4c3","geo_precision":"city","address":"3928 W. ROSECRANS","state":"CA"},"type":"Feature","geometry":{"type":"Point","coordinates":[-114.59023,32.781434]}},{"properties":{"city":"HAWTHORNE","zip":"90250","column_6":null,"geo_score":0.64,"lic_nbr":1000586,"id":"a69uwfhiuthu","geo_precision":"street","address":"11816 HAWTHORNE BLVD.","state":"CA"},"type":"Feature","geometry":{"type":"Point","coordinates":[-87.913046,30.494446]}},{"properties":{"city":"HAWTHORNE","zip":"90250","column_6":null,"geo_score":0.42,"lic_nbr":1001348,"id":"a69uwfpnf8a7","geo_precision":"city","address":"3937 ROSECRANS","state":"CA"},"type":"Feature","geometry":{"type":"Point","coordinates":[-114.59023,32.781434]}},{"properties":{"city":"HAWTHORNE","zip":"90250","column_6":null,"geo_score":0.407,"lic_nbr":1002958,"id":"a69uwfp1xcy0","geo_precision":"city","address":"4744 W. EL SEGUNDO BOULEVARD","state":"CA"},"type":"Feature","geometry":{"type":"Point","coordinates":[-92.896003,35.902299]}},{"properties":{"city":"HAWTHORNE","zip":"90250","column_6":null,"geo_score":0.64,"lic_nbr":1003714,"id":"a69uwfe9rmee","geo_precision":"street","address":"12829 HAWTHORNE BLVD","state":"CA"},"type":"Feature","geometry":{"type":"Point","coordinates":[-87.913046,30.494446]}},{"properties":{"city":"HAWTHORNE","zip":"90250","column_6":null,"geo_score":0.419,"lic_nbr":1004078,"id":"a69uwfdxlvr4","geo_precision":"city","address":"3103 W. ROSECRANS AVE.","state":"CA"},"type":"Feature","geometry":{"type":"Point","coordinates":[-114.59023,32.781434]}},{"properties":{"city":"HAWTHORNE","zip":"90250","column_6":null,"geo_score":0.407,"lic_nbr":1004317,"id":"a69uwfi8yets","geo_precision":"city","address":"12801 S. CRENSHAW BLVD","state":"CA"},"type":"Feature","geometry":{"type":"Point","coordinates":[-104.413287,40.523037]}},{"properties":{"city":"HUNTINGTON PARK","zip":"90255","column_6":null,"geo_score":0.675,"lic_nbr":1000617,"id":"a69uwfkpdnzo","geo_precision":"range","address":"2658 E FLORENCE AVE","state":"CA"},"type":"Feature","geometry":{"type":"Point","coordinates":[-91.664073,33.736186]}},{"properties":{"city":"HUNTINGTON PARK","zip":"90255","column_6":null,"geo_score":0.659,"lic_nbr":1000763,"id":"a69uwfhvmhv4","geo_precision":"street","address":"4137 SANTA ANA ST","state":"CA"},"type":"Feature","geometry":{"type":"Point","coordinates":[-112.036151,41.149924]}},{"properties":{"city":"HUNTINGTON PARK","zip":"90255","column_6":null,"geo_score":0.675,"lic_nbr":1001183,"id":"a69uwfopbirv","geo_precision":"range","address":"2688 E. FLORENCE AVE.","state":"CA"},"type":"Feature","geometry":{"type":"Point","coordinates":[-91.662187,33.73854]}},{"properties":{"city":"HUNTINGTON PARK","zip":"90255","column_6":null,"geo_score":0.512,"lic_nbr":1001192,"id":"a69uwfdn47rq","geo_precision":"street","address":"2576 CLARENDON AVE","state":"CA"},"type":"Feature","geometry":{"type":"Point","coordinates":[-84.865383,42.072461]}},{"properties":{"city":"HUNTINGTON PARK","zip":"90255","column_6":null,"geo_score":0.576,"lic_nbr":1002840,"id":"a69uwfgd3wng","geo_precision":"range","address":"7006 SANTA FE AVENUE","state":"CA"},"type":"Feature","geometry":{"type":"Point","coordinates":[-112.00681,40.584287]}},{"properties":{"city":"HUNTINGTON PARK","zip":"90255","column_6":null,"geo_score":0.467,"lic_nbr":1002937,"id":"a69uwfqdsp8m","geo_precision":"street","address":"7201 PACIFIC BOULEVARD","state":"CA"},"type":"Feature","geometry":{"type":"Point","coordinates":[-117.229842,32.818708]}},{"properties":{"city":"HUNTINGTON PARK","zip":"90255","column_6":null,"geo_score":0.683,"lic_nbr":1003265,"id":"a69uwfl59fod","geo_precision":"street","address":"3217 EAST FLORENCE AVENUE","state":"CA"},"type":"Feature","geometry":{"type":"Point","coordinates":[-87.649221,34.757449]}},{"properties":{"city":"HUNTINGTON PARK","zip":"90255","column_6":null,"geo_score":0.39,"lic_nbr":1003995,"id":"a69uwff9q9w4","geo_precision":"street","address":"2451 E. FLORENCE","state":"CA"},"type":"Feature","geometry":{"type":"Point","coordinates":[-91.45325,33.708746]}},{"properties":{"city":"HUNTINGTON PARK","zip":"90255","column_6":null,"geo_score":0.553,"lic_nbr":1004144,"id":"a69uwfqxq9wj","geo_precision":"range","address":"2400 E. FLORENCE AVE","state":"CA"},"type":"Feature","geometry":{"type":"Point","coordinates":[-91.688735,33.727847]}},{"properties":{"city":"LAWNDALE","zip":"90260","column_6":null,"geo_score":0.64,"lic_nbr":1000594,"id":"a69uwfos7ij2","geo_precision":"street","address":"16200 HAWTHORNE BLVD.","state":"CA"},"type":"Feature","geometry":{"type":"Point","coordinates":[-87.913046,30.494446]}},{"properties":{"city":"LAWNDALE","zip":"90260","column_6":null,"geo_score":0.64,"lic_nbr":1000616,"id":"a69uwfmizp29","geo_precision":"street","address":"16916 HAWTHORNE BLVD","state":"CA"},"type":"Feature","geometry":{"type":"Point","coordinates":[-87.913046,30.494446]}},{"properties":{"city":"LAWNDALE","zip":"90260","column_6":null,"geo_score":0.582,"lic_nbr":1001135,"id":"a69uwfiuqy2y","geo_precision":"street","address":"14408 A HAWTHORNE BLVD","state":"CA"},"type":"Feature","geometry":{"type":"Point","coordinates":[-85.905155,33.661853]}},{"properties":{"city":"LAWNDALE","zip":"90260","column_6":null,"geo_score":0.307,"lic_nbr":1002822,"id":"a69uwfe2o0tm","geo_precision":"street","address":"4443 REDONDO BEACH BOULEVARD","state":"CA"},"type":"Feature","geometry":{"type":"Point","coordinates":[-87.873708,32.015817]}},{"properties":{"city":"HAWTHORNE","zip":"90260","column_6":null,"geo_score":0.524,"lic_nbr":1003962,"id":"a69uwfc5u24m","geo_precision":"street","address":"15039 S. PRAIRIE","state":"CA"},"type":"Feature","geometry":{"type":"Point","coordinates":[-85.258551,34.013267]}},{"properties":{"city":"LYNWOOD","zip":"90262","column_6":null,"geo_score":0.686,"lic_nbr":1003081,"id":"a69uwfs6qc9x","geo_precision":"street","address":"10900 LONG BEACH BOULEVARD","state":"CA"},"type":"Feature","geometry":{"type":"Point","coordinates":[-118.20485,33.881322]}},{"properties":{"city":"LYNWOOD","zip":"90262","column_6":null,"geo_score":0.634,"lic_nbr":1002092,"id":"a69uwfexq43m","geo_precision":"street","address":"11098 S. ATLANTIC AVENUE","state":"CA"},"type":"Feature","geometry":{"type":"Point","coordinates":[-84.412775,33.655303]}},{"properties":{"city":"LYNWOOD","zip":"90262","column_6":null,"geo_score":0.654,"lic_nbr":1003805,"id":"a69uwfecbms0","geo_precision":"street","address":"10721 ATLANTIC AVE.","state":"CA"},"type":"Feature","geometry":{"type":"Point","coordinates":[-84.412775,33.655303]}},{"properties":{"city":"LYNWOOD","zip":"90262","column_6":null,"geo_score":0.686,"lic_nbr":1000890,"id":"a69uwfnkwt96","geo_precision":"street","address":"11130 LONG BEACH BLVD","state":"CA"},"type":"Feature","geometry":{"type":"Point","coordinates":[-118.20485,33.881322]}},{"properties":{"city":"LYNWOOD","zip":"90262","column_6":null,"geo_score":0.654,"lic_nbr":1001188,"id":"a69uwfdvh9g2","geo_precision":"street","address":"3448 MARTIN LUTHER KING JR. BLVD.","state":"CA"},"type":"Feature","geometry":{"type":"Point","coordinates":[-88.709639,32.381628]}},{"properties":{"city":"LYNWOOD","zip":"90262","column_6":null,"geo_score":0.654,"lic_nbr":1002989,"id":"a69uwfkekkjd","geo_precision":"street","address":"3797 MARTIN LUTHER KING JR. BLVD.","state":"CA"},"type":"Feature","geometry":{"type":"Point","coordinates":[-88.709639,32.381628]}},{"properties":{"city":"LYNWOOD","zip":"90262","column_6":null,"geo_score":0.686,"lic_nbr":1003284,"id":"a69uwfmu2izh","geo_precision":"street","address":"11301 LONG BEACH BOULEVARD","state":"CA"},"type":"Feature","geometry":{"type":"Point","coordinates":[-118.20485,33.881322]}},{"properties":{"city":"LYNWOOD","zip":"90262","column_6":null,"geo_score":0.654,"lic_nbr":1004197,"id":"a69uwfhs23qs","geo_precision":"street","address":"3618 MARTIN LUTHER KING JR BLVD.","state":"CA"},"type":"Feature","geometry":{"type":"Point","coordinates":[-88.709639,32.381628]}},{"properties":{"city":"MAYWOOD","zip":"90270","column_6":null,"geo_score":0.61,"lic_nbr":1004170,"id":"a69uwfctln3y","geo_precision":"street","address":"6048 ATLANTIC BLVD.","state":"CA"},"type":"Feature","geometry":{"type":"Point","coordinates":[-84.397635,33.789995]}},{"properties":{"city":"MAYWOOD","zip":"90270","column_6":null,"geo_score":0.61,"lic_nbr":1002748,"id":"a69uwfl96e0e","geo_precision":"street","address":"5810 ATLANTIC BOULEVARD","state":"CA"},"type":"Feature","geometry":{"type":"Point","coordinates":[-84.397635,33.789995]}},{"properties":{"city":"MAYWOOD","zip":"90270","column_6":null,"geo_score":0.0,"lic_nbr":1004233,"id":"a69uwfqzzxo7","geo_precision":"unmatched","address":"4457 SLAUSON AVE.","state":"CA"},"type":"Feature","geometry":null},{"properties":{"city":"RANCHO PALOS VERDES","zip":"90275","column_6":null,"geo_score":0.426,"lic_nbr":1002705,"id":"a69uwfk839ft","geo_precision":"city","address":"29135 S. WESTERN AVENUE","state":"CA"},"type":"Feature","geometry":{"type":"Point","coordinates":[-104.997203,39.832208]}},{"properties":{"city":"SOUTH GATE","zip":"90280","column_6":null,"geo_score":0.259,"lic_nbr":1004321,"id":"a69uwffd2v7u","geo_precision":"street","address":"4149 TWEEDY BLVD.","state":"CA"},"type":"Feature","geometry":{"type":"Point","coordinates":[-72.479756,42.359778]}},{"properties":{"city":"SOUTH GATE","zip":"90280","column_6":null,"geo_score":0.259,"lic_nbr":1001928,"id":"a69uwfrhw1xi","geo_precision":"street","address":"4181 TWEEDY BLVD.","state":"CA"},"type":"Feature","geometry":{"type":"Point","coordinates":[-72.479756,42.359778]}},{"properties":{"city":"SOUTH GATE","zip":"90280","column_6":null,"geo_score":0.687,"lic_nbr":1000397,"id":"a69uwfj6d2nz","geo_precision":"street","address":"8116 LONG BEACH BLVD.","state":"CA"},"type":"Feature","geometry":{"type":"Point","coordinates":[-118.20485,33.881322]}},{"properties":{"city":"VENICE","zip":"90291","column_6":null,"geo_score":0.796,"lic_nbr":1000434,"id":"a69uwfqdqy9t","geo_precision":"range","address":"303 LINCOLN BLVD.","state":"CA"},"type":"Feature","geometry":{"type":"Point","coordinates":[-96.591869,40.72537]}},{"properties":{"city":"VENICE","zip":"90291","column_6":null,"geo_score":0.601,"lic_nbr":1002984,"id":"a69uwfseysh7","geo_precision":"street","address":"2489 LINCOLN BOULEVARD","state":"CA"},"type":"Feature","geometry":{"type":"Point","coordinates":[-96.701191,40.80808]}},{"properties":{"city":"LOS ANGELES","zip":"90292","column_6":null,"geo_score":0.601,"lic_nbr":1000899,"id":"a69uwfse9pft","geo_precision":"street","address":"4004 LINCOLN BLVD","state":"CA"},"type":"Feature","geometry":{"type":"Point","coordinates":[-96.701191,40.80808]}},{"properties":{"city":"INGLEWOOD","zip":"90301","column_6":null,"geo_score":0.474,"lic_nbr":1000891,"id":"a69uwfec7w4r","geo_precision":"street","address":"1275 S. LA BREA AVE.","state":"CA"},"type":"Feature","geometry":{"type":"Point","coordinates":[-91.978669,34.221258]}},{"properties":{"city":"INGLEWOOD","zip":"90301","column_6":null,"geo_score":0.63,"lic_nbr":1000735,"id":"a69uwfeu00mx","geo_precision":"street","address":"420 E MANCHESTER BLVD","state":"CA"},"type":"Feature","geometry":{"type":"Point","coordinates":[-71.391241,43.005205]}},{"properties":{"city":"INGLEWOOD","zip":"90301","column_6":null,"geo_score":0.606,"lic_nbr":1001327,"id":"a69uwfcmk4gm","geo_precision":"range","address":"240 N MARKET STREET","state":"CA"},"type":"Feature","geometry":{"type":"Point","coordinates":[-86.532474,33.58462]}},{"properties":{"city":"INGLEWOOD","zip":"90301","column_6":null,"geo_score":0.61,"lic_nbr":1004152,"id":"a69uwfgnyx5r","geo_precision":"range","address":"229 E. SPRUCE AVE.","state":"CA"},"type":"Feature","geometry":{"type":"Point","coordinates":[-104.499569,37.169614]}},{"properties":{"city":"INGLEWOOD","zip":"90301","column_6":null,"geo_score":0.547,"lic_nbr":1004201,"id":"a69uwfp44131","geo_precision":"street","address":"1101 S. LA BREA DR.","state":"CA"},"type":"Feature","geometry":{"type":"Point","coordinates":[-91.978669,34.221258]}},{"properties":{"city":"INGLEWOOD","zip":"90302","column_6":null,"geo_score":0.61,"lic_nbr":1001474,"id":"a69uwfneh9iw","geo_precision":"range","address":"903 N LA BREA","state":"CA"},"type":"Feature","geometry":{"type":"Point","coordinates":[-91.979941,34.221107]}},{"properties":{"city":"INGLEWOOD","zip":"90302","column_6":null,"geo_score":0.663,"lic_nbr":1004300,"id":"a69uwfoz5om6","geo_precision":"range","address":"901 N. LA BREA BLVD.","state":"CA"},"type":"Feature","geometry":{"type":"Point","coordinates":[-91.979962,34.221107]}},{"properties":{"city":"INGLEWOOD","zip":"90303","column_6":null,"geo_score":0.407,"lic_nbr":1000429,"id":"a69uwfefgj93","geo_precision":"city","address":"11220  CRENSHAW BLVD.","state":"CA"},"type":"Feature","geometry":{"type":"Point","coordinates":[-104.413287,40.523037]}},{"properties":{"city":"INGLEWOOD","zip":"90304","column_6":null,"geo_score":0.585,"lic_nbr":1003179,"id":"a69uwfenha6q","geo_precision":"street","address":"5138 W. CENTURY BOULEVARD","state":"CA"},"type":"Feature","geometry":{"type":"Point","coordinates":[-87.794958,33.934483]}},{"properties":{"city":"INGLEWOOD","zip":"90304","column_6":null,"geo_score":0.64,"lic_nbr":1003960,"id":"a69uwfom8cx2","geo_precision":"street","address":"10048 HAWTHORNE BLVD","state":"CA"},"type":"Feature","geometry":{"type":"Point","coordinates":[-87.913046,30.494446]}},{"properties":{"city":"INGLEWOOD","zip":"90305","column_6":null,"geo_score":0.629,"lic_nbr":1000418,"id":"a69uwfrsayt9","geo_precision":"street","address":"2401 W. MANCHESTER BLVD.","state":"CA"},"type":"Feature","geometry":{"type":"Point","coordinates":[-71.391241,43.005205]}},{"properties":{"city":"SANTA MONICA","zip":"90404","column_6":null,"geo_score":0.601,"lic_nbr":1004236,"id":"a69uwfcwih3l","geo_precision":"street","address":"1865 LINCOLN BLVD","state":"CA"},"type":"Feature","geometry":{"type":"Point","coordinates":[-96.701191,40.80808]}},{"properties":{"city":"SANTA MONICA","zip":"90405","column_6":null,"geo_score":0.601,"lic_nbr":1000733,"id":"a69uwforwx7a","geo_precision":"street","address":"1914 LINCOLN BLVD","state":"CA"},"type":"Feature","geometry":{"type":"Point","coordinates":[-96.701191,40.80808]}},{"properties":{"city":"SANTA MONICA","zip":"90405","column_6":null,"geo_score":0.488,"lic_nbr":1000928,"id":"a69uwffasuki","geo_precision":"street","address":"1705 PICO BLVD.","state":"CA"},"type":"Feature","geometry":{"type":"Point","coordinates":[-88.487212,33.997834]}},{"properties":{"city":"TORRANCE","zip":"90501","column_6":null,"geo_score":0.425,"lic_nbr":1000229,"id":"a69uwfj47dzi","geo_precision":"city","address":"1648 W. CARSON STREET","state":"CA"},"type":"Feature","geometry":{"type":"Point","coordinates":[-87.941389,31.472387]}},{"properties":{"city":"TORRANCE","zip":"90501","column_6":null,"geo_score":0.429,"lic_nbr":1000736,"id":"a69uwfob0mfj","geo_precision":"city","address":"1667 W CARSON BLVD","state":"CA"},"type":"Feature","geometry":{"type":"Point","coordinates":[-87.941389,31.472387]}},{"properties":{"city":"TORRANCE","zip":"90502","column_6":null,"geo_score":0.681,"lic_nbr":1004025,"id":"a69uwfjq8f69","geo_precision":"street","address":"21720 S. VERMONT AVE.","state":"CA"},"type":"Feature","geometry":{"type":"Point","coordinates":[-121.954097,37.943812]}},{"properties":{"city":"TORRANCE","zip":"90502","column_6":null,"geo_score":0.435,"lic_nbr":1000813,"id":"a69uwfd54i7f","geo_precision":"city","address":"1223 W CARSON ST","state":"CA"},"type":"Feature","geometry":{"type":"Point","coordinates":[-87.941389,31.472387]}},{"properties":{"city":"TORRANCE","zip":"90502","column_6":null,"geo_score":0.554,"lic_nbr":1003763,"id":"a69uwfja3o6d","geo_precision":"street","address":"1247 W. SEPULVEDA BLVD","state":"CA"},"type":"Feature","geometry":{"type":"Point","coordinates":[-118.467726,34.221416]}},{"properties":{"city":"TORRANCE","zip":"90503","column_6":null,"geo_score":0.902,"lic_nbr":1001614,"id":"a69uwfcsxwis","geo_precision":"range","address":"4685 TORRANCE BLVD","state":"CA"},"type":"Feature","geometry":{"type":"Point","coordinates":[-118.36351,33.837591]}},{"properties":{"city":"TORRANCE","zip":"90504","column_6":null,"geo_score":0.46,"lic_nbr":1000592,"id":"a69uwfdhni7z","geo_precision":"street","address":"3025 WEST ARTESIA BLVD.","state":"CA"},"type":"Feature","geometry":{"type":"Point","coordinates":[-109.690662,32.68651]}},{"properties":{"city":"TORRANCE","zip":"90504","column_6":null,"geo_score":0.449,"lic_nbr":1002135,"id":"a69uwfkrduxk","geo_precision":"street","address":"3957 ARTESIA BOULEVARD","state":"CA"},"type":"Feature","geometry":{"type":"Point","coordinates":[-109.690662,32.68651]}},{"properties":{"city":"WHITTIER","zip":"90601","column_6":null,"geo_score":0.537,"lic_nbr":1002818,"id":"a69uwfgwk5co","geo_precision":"street","address":"11875 WHITTIER BOULEVARD","state":"CA"},"type":"Feature","geometry":{"type":"Point","coordinates":[-92.403892,34.566733]}},{"properties":{"city":"WHITTIER","zip":"90602","column_6":null,"geo_score":0.62,"lic_nbr":1000589,"id":"a69uwffmu4a5","geo_precision":"street","address":"8806 PAINTER AVENUE","state":"CA"},"type":"Feature","geometry":{"type":"Point","coordinates":[-86.445999,34.10451]}},{"properties":{"city":"WHITTIER","zip":"90602","column_6":null,"geo_score":0.527,"lic_nbr":1000950,"id":"a69uwfnq7p9p","geo_precision":"street","address":"13205-B WHITTIER BLVD.","state":"CA"},"type":"Feature","geometry":{"type":"Point","coordinates":[-92.403892,34.566733]}},{"properties":{"city":"WHITTIER","zip":"90605","column_6":null,"geo_score":0.488,"lic_nbr":1000883,"id":"a69uwfc09sg0","geo_precision":"street","address":"13517-A TELEGRAPH RD","state":"CA"},"type":"Feature","geometry":{"type":"Point","coordinates":[-85.364048,33.145772]}},{"properties":{"city":"WHITTIER","zip":"90605","column_6":null,"geo_score":0.439,"lic_nbr":1002087,"id":"a69uwfejdrxq","geo_precision":"city","address":"13423 TELEGRAPH ROAD","state":"CA"},"type":"Feature","geometry":{"type":"Point","coordinates":[-99.906181,30.327416]}},{"properties":{"city":"WHITTIER","zip":"90606","column_6":null,"geo_score":0.61,"lic_nbr":1000416,"id":"a69uwfdq755u","geo_precision":"street","address":"11515  WASHINGTON BLVD.","state":"CA"},"type":"Feature","geometry":{"type":"Point","coordinates":[-77.04945,38.902526]}},{"properties":{"city":"SANTA FE SPRINGS","zip":"90606","column_6":null,"geo_score":0.424,"lic_nbr":1002014,"id":"a69uwfrxbtqh","geo_precision":"city","address":"7916 NORWALK BOULEVARD","state":"CA"},"type":"Feature","geometry":{"type":"Point","coordinates":[-70.579783,44.213403]}},{"properties":{"city":"WHITTIER","zip":"90606","column_6":null,"geo_score":0.0,"lic_nbr":1004029,"id":"a69uwfs7rg1m","geo_precision":"unmatched","address":"11522 SLAUSON AVE","state":"CA"},"type":"Feature","geometry":null},{"properties":{"city":"BUENA PARK","zip":"90620","column_6":null,"geo_score":0.292,"lic_nbr":1000661,"id":"a69uwfmzveaj","geo_precision":"street","address":"6565 KNOTT AVENUE","state":"CA"},"type":"Feature","geometry":{"type":"Point","coordinates":[-118.23019,33.967281]}},{"properties":{"city":"BUENA PARK","zip":"90620","column_6":null,"geo_score":0.477,"lic_nbr":1002058,"id":"a69uwfghpp73","geo_precision":"street","address":"6965 LA PALMA AVENUE","state":"CA"},"type":"Feature","geometry":{"type":"Point","coordinates":[-111.756937,32.932635]}},{"properties":{"city":"BUENA PARK","zip":"90620","column_6":null,"geo_score":0.463,"lic_nbr":1002107,"id":"a69uwflqrsn9","geo_precision":"street","address":"8431 LA PALMA","state":"CA"},"type":"Feature","geometry":{"type":"Point","coordinates":[-111.756937,32.932635]}},{"properties":{"city":"BUENA PARK","zip":"90620","column_6":null,"geo_score":0.292,"lic_nbr":1002833,"id":"a69uwfkagze5","geo_precision":"street","address":"8952 KNOTT AVENUE","state":"CA"},"type":"Feature","geometry":{"type":"Point","coordinates":[-118.23019,33.967281]}},{"properties":{"city":"BUENA PARK","zip":"90621","column_6":null,"geo_score":0.0,"lic_nbr":1004148,"id":"a69uwfjuirxf","geo_precision":"unmatched","address":"7301 ORANGETHORPE","state":"CA"},"type":"Feature","geometry":null},{"properties":{"city":"CYPRESS","zip":"90630","column_6":null,"geo_score":0.478,"lic_nbr":1003020,"id":"a69uwfjklxkj","geo_precision":"street","address":"10063 VALLEY VIEW","state":"CA"},"type":"Feature","geometry":{"type":"Point","coordinates":[-92.88883,33.587959]}},{"properties":{"city":"CYPRESS","zip":"90630","column_6":null,"geo_score":0.366,"lic_nbr":1001530,"id":"a69uwfs6xd0l","geo_precision":"street","address":"5008 BALL ROAD","state":"CA"},"type":"Feature","geometry":{"type":"Point","coordinates":[-86.255534,31.272274]}},{"properties":{"city":"CYPRESS","zip":"90630","column_6":null,"geo_score":0.502,"lic_nbr":1001537,"id":"a69uwfpg6yq4","geo_precision":"street","address":"6932 KATELLA AVE","state":"CA"},"type":"Feature","geometry":{"type":"Point","coordinates":[-91.837946,35.64531]}},{"properties":{"city":"LA HABRA","zip":"90631","column_6":null,"geo_score":0.338,"lic_nbr":1001786,"id":"a69uwfnjwbfh","geo_precision":"street","address":"935 N HARBOR BLVD","state":"CA"},"type":"Feature","geometry":{"type":"Point","coordinates":[-80.396304,41.029059]}},{"properties":{"city":"LA HABRA","zip":"90631","column_6":null,"geo_score":0.527,"lic_nbr":1002016,"id":"a69uwflwsmpf","geo_precision":"street","address":"1571 W. WHITTIER BOULEVARD","state":"CA"},"type":"Feature","geometry":{"type":"Point","coordinates":[-92.88635,35.11721]}},{"properties":{"city":"LA HABRA","zip":"90631","column_6":null,"geo_score":0.537,"lic_nbr":1002060,"id":"a69uwfmbxdgr","geo_precision":"street","address":"1502 WHITTIER BOULEVARD","state":"CA"},"type":"Feature","geometry":{"type":"Point","coordinates":[-92.88635,35.11721]}},{"properties":{"city":"LA HABRA","zip":"90631","column_6":null,"geo_score":0.488,"lic_nbr":1002817,"id":"a69uwfczp03e","geo_precision":"street","address":"2030 W. LA HABRA BOULEVARD","state":"CA"},"type":"Feature","geometry":{"type":"Point","coordinates":[-122.974058,45.827496]}},{"properties":{"city":"LA MIRADA","zip":"90637","column_6":null,"geo_score":0.503,"lic_nbr":1001534,"id":"a69uwfiwplor","geo_precision":"street","address":"15735 IMPERIAL HWY","state":"CA"},"type":"Feature","geometry":{"type":"Point","coordinates":[-83.40972,33.339678]}},{"properties":{"city":"LA MIRADA","zip":"90638","column_6":null,"geo_score":0.478,"lic_nbr":1001363,"id":"a69uwfkxxhc3","geo_precision":"street","address":"12823 VALLEY VIEW","state":"CA"},"type":"Feature","geometry":{"type":"Point","coordinates":[-92.88883,33.587959]}},{"properties":{"city":"LA MIRADA","zip":"90638","column_6":null,"geo_score":0.436,"lic_nbr":1002814,"id":"a69uwfjcou9c","geo_precision":"city","address":"14557 E. TELEGRAPH ROAD","state":"CA"},"type":"Feature","geometry":{"type":"Point","coordinates":[-99.906181,30.327416]}},{"properties":{"city":"LA MIRADA","zip":"90638","column_6":null,"geo_score":0.505,"lic_nbr":1003397,"id":"a69uwfk5h8r6","geo_precision":"street","address":"12226 S LA MIRADA BLVD.","state":"CA"},"type":"Feature","geometry":{"type":"Point","coordinates":[-84.50777,33.939432]}},{"properties":{"city":"LA MIRADA","zip":"90638","column_6":null,"geo_score":0.488,"lic_nbr":1004023,"id":"a69uwfqljf3b","geo_precision":"street","address":"12760 LA MIRADA BLVD.","state":"CA"},"type":"Feature","geometry":{"type":"Point","coordinates":[-83.931899,34.052179]}},{"properties":{"city":"MONTEBELLO","zip":"90640","column_6":null,"geo_score":0.61,"lic_nbr":1004161,"id":"a69uwfcl2his","geo_precision":"street","address":"1100 WASHINGTON BLVD.","state":"CA"},"type":"Feature","geometry":{"type":"Point","coordinates":[-77.05012,38.901987]}},{"properties":{"city":"MONTEBELLO","zip":"90640","column_6":null,"geo_score":0.527,"lic_nbr":1001908,"id":"a69uwfh9mtub","geo_precision":"street","address":"1001 W. WHITTIER BOULEVARD","state":"CA"},"type":"Feature","geometry":{"type":"Point","coordinates":[-92.88635,35.11721]}},{"properties":{"city":"MONTEBELLO","zip":"90640","column_6":null,"geo_score":0.433,"lic_nbr":1002985,"id":"a69uwfovsdym","geo_precision":"city","address":"2900 W. BEVERLY BLVD.","state":"CA"},"type":"Feature","geometry":{"type":"Point","coordinates":[-90.990967,39.793381]}},{"properties":{"city":"MONTEBELLO","zip":"90640","column_6":null,"geo_score":0.59,"lic_nbr":1002068,"id":"a69uwfcwkugf","geo_precision":"street","address":"518 N. MONTEBELLO BOULEVARD","state":"CA"},"type":"Feature","geometry":{"type":"Point","coordinates":[-121.025975,37.680796]}},{"properties":{"city":"MONTEBELLO","zip":"90640","column_6":null,"geo_score":0.537,"lic_nbr":1002621,"id":"a69uwfl57n1l","geo_precision":"street","address":"1411 W. WHITTER BOULEVARD","state":"CA"},"type":"Feature","geometry":{"type":"Point","coordinates":[-92.88635,35.11721]}},{"properties":{"city":"MONTEBELLO","zip":"90640","column_6":null,"geo_score":0.423,"lic_nbr":1002747,"id":"a69uwff8q8qv","geo_precision":"city","address":"1026 W. BEVERLY BOULEVARD","state":"CA"},"type":"Feature","geometry":{"type":"Point","coordinates":[-90.990967,39.793381]}},{"properties":{"city":"MONTEBELLO","zip":"90640","column_6":null,"geo_score":0.442,"lic_nbr":1003829,"id":"a69uwfs9u0a2","geo_precision":"city","address":"1204 S. GREENWOOD AVE","state":"CA"},"type":"Feature","geometry":{"type":"Point","coordinates":[-88.510048,34.217885]}},{"properties":{"city":"MONTEBELLO","zip":"90640","column_6":null,"geo_score":0.527,"lic_nbr":1004351,"id":"a69uwfqmorn6","geo_precision":"street","address":"2400 W. WHITTIER BLVD.","state":"CA"},"type":"Feature","geometry":{"type":"Point","coordinates":[-92.88635,35.11721]}},{"properties":{"city":"MONTEBELLO","zip":"90640","column_6":null,"geo_score":0.61,"lic_nbr":1004353,"id":"a69uwfkc98nn","geo_precision":"street","address":"483 WASHINGTON BLVD.","state":"CA"},"type":"Feature","geometry":{"type":"Point","coordinates":[-77.050215,38.903058]}},{"properties":{"city":"NORWALK","zip":"90650","column_6":null,"geo_score":0.419,"lic_nbr":1003715,"id":"a69uwfey1uoq","geo_precision":"city","address":"13001 ROSECRANS AVE.","state":"CA"},"type":"Feature","geometry":{"type":"Point","coordinates":[-114.59023,32.781434]}},{"properties":{"city":"NORWALK","zip":"90650","column_6":null,"geo_score":0.628,"lic_nbr":1000440,"id":"a69uwfrd2c7w","geo_precision":"street","address":"12854 PIONEER BLVD.","state":"CA"},"type":"Feature","geometry":{"type":"Point","coordinates":[-81.675871,31.826881]}},{"properties":{"city":"NORWALK","zip":"90650","column_6":null,"geo_score":0.419,"lic_nbr":1000591,"id":"a69uwfn1us04","geo_precision":"city","address":"11037 ROSECRANS AVE.","state":"CA"},"type":"Feature","geometry":{"type":"Point","coordinates":[-114.59023,32.781434]}},{"properties":{"city":"NORWALK","zip":"90650","column_6":null,"geo_score":0.503,"lic_nbr":1000882,"id":"a69uwfiozqun","geo_precision":"street","address":"10649 IMPERIAL HWY","state":"CA"},"type":"Feature","geometry":{"type":"Point","coordinates":[-83.40972,33.339678]}},{"properties":{"city":"NORWALK","zip":"90650","column_6":null,"geo_score":0.628,"lic_nbr":1001314,"id":"a69uwfri3xme","geo_precision":"street","address":"13937 PIONEER BLVD","state":"CA"},"type":"Feature","geometry":{"type":"Point","coordinates":[-81.675871,31.826881]}},{"properties":{"city":"NORWALK","zip":"90650","column_6":null,"geo_score":0.42,"lic_nbr":1001622,"id":"a69uwfgefpuf","geo_precision":"city","address":"11479 ROSECRANS AVENUE","state":"CA"},"type":"Feature","geometry":{"type":"Point","coordinates":[-114.59023,32.781434]}},{"properties":{"city":"NORWALK","zip":"90650","column_6":null,"geo_score":0.484,"lic_nbr":1002986,"id":"a69uwfrzamj9","geo_precision":"street","address":"11755 IMPERIAL HIGHWAY","state":"CA"},"type":"Feature","geometry":{"type":"Point","coordinates":[-83.40972,33.339678]}},{"properties":{"city":"NORWALK","zip":"90650","column_6":null,"geo_score":0.421,"lic_nbr":1003216,"id":"a69uwfr4ahpp","geo_precision":"city","address":"12801 NORWALK BLVD","state":"CA"},"type":"Feature","geometry":{"type":"Point","coordinates":[-70.579783,44.213403]}},{"properties":{"city":"NORWALK","zip":"90650","column_6":null,"geo_score":0.503,"lic_nbr":1003291,"id":"a69uwfpa3ats","geo_precision":"street","address":"10948 IMPERIAL HWY","state":"CA"},"type":"Feature","geometry":{"type":"Point","coordinates":[-83.40972,33.339678]}},{"properties":{"city":"PICO RIVERA","zip":"90660","column_6":null,"geo_score":0.537,"lic_nbr":1003468,"id":"a69uwfov1j12","geo_precision":"street","address":"8745 WHITTIER BLVD.","state":"CA"},"type":"Feature","geometry":{"type":"Point","coordinates":[-92.88635,35.11721]}},{"properties":{"city":"PICO RIVERA","zip":"90660","column_6":null,"geo_score":0.439,"lic_nbr":1002988,"id":"a69uwfl0f34m","geo_precision":"city","address":"8543 ROSEMEAD BLVD.","state":"CA"},"type":"Feature","geometry":{"type":"Point","coordinates":[-76.866064,36.180157]}},{"properties":{"city":"PICO RIVERA","zip":"90660","column_6":null,"geo_score":0.59,"lic_nbr":1000861,"id":"a69uwfe6ve9g","geo_precision":"street","address":"8701 E WASHINGTON BLVD","state":"CA"},"type":"Feature","geometry":{"type":"Point","coordinates":[-77.04945,38.902526]}},{"properties":{"city":"PICO RIVERA","zip":"90660","column_6":null,"geo_score":0.505,"lic_nbr":1001185,"id":"a69uwfd4a4as","geo_precision":"street","address":"9211 EAST WHITTIER BLVD","state":"CA"},"type":"Feature","geometry":{"type":"Point","coordinates":[-73.26095,43.405634]}},{"properties":{"city":"PICO RIVERA","zip":"90660","column_6":null,"geo_score":0.537,"lic_nbr":1001329,"id":"a69uwfgij4jj","geo_precision":"street","address":"9320 WHITTIER BLVD","state":"CA"},"type":"Feature","geometry":{"type":"Point","coordinates":[-92.88635,35.11721]}},{"properties":{"city":"PICO RIVERA","zip":"90660","column_6":null,"geo_score":0.537,"lic_nbr":1001554,"id":"a69uwfcqbkwm","geo_precision":"street","address":"8832 WHITTIER BOULEVARD","state":"CA"},"type":"Feature","geometry":{"type":"Point","coordinates":[-92.88635,35.11721]}},{"properties":{"city":"PICO RIVERA","zip":"90660","column_6":null,"geo_score":0.61,"lic_nbr":1002866,"id":"a69uwfoqedhp","geo_precision":"street","address":"8986 WASHINGTON BOULEVARD","state":"CA"},"type":"Feature","geometry":{"type":"Point","coordinates":[-77.050531,38.902096]}},{"properties":{"city":"PICO RIVERA","zip":"90660","column_6":null,"geo_score":0.0,"lic_nbr":1002901,"id":"a69uwfq7nf8h","geo_precision":"unmatched","address":"9335 S. SLAUSON AVENUE","state":"CA"},"type":"Feature","geometry":null},{"properties":{"city":"SANTA FE SPRINGS","zip":"90670","column_6":null,"geo_score":0.437,"lic_nbr":1000964,"id":"a69uwfmfv8ot","geo_precision":"street","address":"10805 ORR &amp; DAY ROAD","state":"CA"},"type":"Feature","geometry":{"type":"Point","coordinates":[-91.626607,36.237466]}},{"properties":{"city":"SANTA FE SPRINGS","zip":"90670","column_6":null,"geo_score":0.439,"lic_nbr":1003443,"id":"a69uwffxhc47","geo_precision":"city","address":"11510 TELEGRAPH ROAD","state":"CA"},"type":"Feature","geometry":{"type":"Point","coordinates":[-99.906181,30.327416]}},{"properties":{"city":"STANTON","zip":"90680","column_6":null,"geo_score":0.382,"lic_nbr":1000484,"id":"a69uwfrjeue5","geo_precision":"street","address":"12001 BEACH BLVD.","state":"CA"},"type":"Feature","geometry":{"type":"Point","coordinates":[-87.790791,31.959968]}},{"properties":{"city":"STANTON","zip":"90680","column_6":null,"geo_score":0.382,"lic_nbr":1000860,"id":"a69uwfj0u1yz","geo_precision":"street","address":"10972 BEACH BLVD","state":"CA"},"type":"Feature","geometry":{"type":"Point","coordinates":[-87.873708,32.015817]}},{"properties":{"city":"STANTON","zip":"90680","column_6":null,"geo_score":0.281,"lic_nbr":1004260,"id":"a69uwfjmoido","geo_precision":"street","address":"10512 KNOTT AVE.","state":"CA"},"type":"Feature","geometry":{"type":"Point","coordinates":[-118.23019,33.967281]}},{"properties":{"city":"BELLFLOWER","zip":"90706","column_6":null,"geo_score":0.61,"lic_nbr":1000607,"id":"a69uwfs1mq63","geo_precision":"street","address":"13542 LAKEWOOD BLVD.","state":"CA"},"type":"Feature","geometry":{"type":"Point","coordinates":[-87.570844,34.841521]}},{"properties":{"city":"BELLFLOWER","zip":"90706","column_6":null,"geo_score":0.777,"lic_nbr":1000590,"id":"a69uwfjzydog","geo_precision":"range","address":"15790 BELLFLOWER BLVD.","state":"CA"},"type":"Feature","geometry":{"type":"Point","coordinates":[-118.125275,33.890344]}},{"properties":{"city":"BELLFLOWER","zip":"90706","column_6":null,"geo_score":0.61,"lic_nbr":1001136,"id":"a69uwfebvs20","geo_precision":"street","address":"17413 S BELLFLOWER BLVD","state":"CA"},"type":"Feature","geometry":{"type":"Point","coordinates":[-77.416651,43.106228]}},{"properties":{"city":"BELLFLOWER","zip":"90706","column_6":null,"geo_score":0.41,"lic_nbr":1001324,"id":"a69uwfgurqbf","geo_precision":"city","address":"9020 ALONDRA BLVD.","state":"CA"},"type":"Feature","geometry":{"type":"Point","coordinates":[-95.643435,43.415305]}},{"properties":{"city":"BELLFLOWER","zip":"90706","column_6":null,"geo_score":0.707,"lic_nbr":1001557,"id":"a69uwfixl77p","geo_precision":"street","address":"14341 CLARK AVENUE","state":"CA"},"type":"Feature","geometry":{"type":"Point","coordinates":[-81.94927,29.81882]}},{"properties":{"city":"BELLFLOWER","zip":"90706","column_6":null,"geo_score":0.466,"lic_nbr":1001948,"id":"a69uwfdz1gov","geo_precision":"street","address":"17161-3 BELLFLOWER BOULEVARD","state":"CA"},"type":"Feature","geometry":{"type":"Point","coordinates":[-118.12536,33.909769]}},{"properties":{"city":"BELLFLOWER","zip":"90706","column_6":null,"geo_score":0.417,"lic_nbr":1001954,"id":"a69uwfecxwc8","geo_precision":"city","address":"9206 ALONDRA","state":"CA"},"type":"Feature","geometry":{"type":"Point","coordinates":[-95.643435,43.415305]}},{"properties":{"city":"BELLFLOWER","zip":"90706","column_6":null,"geo_score":0.415,"lic_nbr":1002048,"id":"a69uwff3qctc","geo_precision":"city","address":"9345 ALONDRA BOULEVARD","state":"CA"},"type":"Feature","geometry":{"type":"Point","coordinates":[-95.643435,43.415305]}},{"properties":{"city":"BELLFLOWER","zip":"90706","column_6":null,"geo_score":0.759,"lic_nbr":1002106,"id":"a69uwffxo96l","geo_precision":"range","address":"14217 BELLFLOWER BOULEVARD","state":"CA"},"type":"Feature","geometry":{"type":"Point","coordinates":[-118.125314,33.902745]}},{"properties":{"city":"BELLFLOWER","zip":"90706","column_6":null,"geo_score":0.479,"lic_nbr":1002269,"id":"a69uwfesanra","geo_precision":"street","address":"9000 E. ARTESIA BOULEVARD","state":"CA"},"type":"Feature","geometry":{"type":"Point","coordinates":[-109.690662,32.68651]}},{"properties":{"city":"BELLFLOWER","zip":"90706","column_6":null,"geo_score":0.448,"lic_nbr":1002955,"id":"a69uwfr79rhl","geo_precision":"street","address":"9000 ARTESIA BOULEVARD","state":"CA"},"type":"Feature","geometry":{"type":"Point","coordinates":[-109.690662,32.68651]}},{"properties":{"city":"HARBOR CITY","zip":"90710","column_6":null,"geo_score":0.454,"lic_nbr":1001981,"id":"a69uwfji7h2i","geo_precision":"street","address":"1685 PACIFIC COAST HIGHWAY","state":"CA"},"type":"Feature","geometry":{"type":"Point","coordinates":[-85.856713,34.003713]}},{"properties":{"city":"HARBOR CITY","zip":"90710","column_6":null,"geo_score":0.405,"lic_nbr":1000892,"id":"a69uwfpypejf","geo_precision":"city","address":"1204 W PACIFIC COAST HWY","state":"CA"},"type":"Feature","geometry":{"type":"Point","coordinates":[-91.134592,41.010591]}},{"properties":{"city":"HARBOR CITY","zip":"90710","column_6":null,"geo_score":0.591,"lic_nbr":1002270,"id":"a69uwfr8avmx","geo_precision":"street","address":"1212 W. ANAHEIM STREET","state":"CA"},"type":"Feature","geometry":{"type":"Point","coordinates":[-117.90527,33.806646]}},{"properties":{"city":"HARBOR CITY","zip":"90710","column_6":null,"geo_score":0.561,"lic_nbr":1002820,"id":"a69uwfhm8cwz","geo_precision":"street","address":"1658 SEPULVEDA BOULEVARD","state":"CA"},"type":"Feature","geometry":{"type":"Point","coordinates":[-118.467726,34.221416]}},{"properties":{"city":"HARBOR CITY","zip":"90710","column_6":null,"geo_score":0.454,"lic_nbr":1002946,"id":"a69uwfr7ngt8","geo_precision":"street","address":"1333 PACIFIC COAST HIGHWAY","state":"CA"},"type":"Feature","geometry":{"type":"Point","coordinates":[-85.663556,34.146308]}},{"properties":{"city":"LAKEWOOD","zip":"90712","column_6":null,"geo_score":0.442,"lic_nbr":1002116,"id":"a69uwffeskpz","geo_precision":"city","address":"4100 SOUTH STREET","state":"CA"},"type":"Feature","geometry":{"type":"Point","coordinates":[-88.825074,41.124478]}},{"properties":{"city":"LAKEWOOD","zip":"90712","column_6":null,"geo_score":0.417,"lic_nbr":1002272,"id":"a69uwfm2ppqa","geo_precision":"city","address":"4142 PARAMOUNT BOULEVARD","state":"CA"},"type":"Feature","geometry":{"type":"Point","coordinates":[-86.679727,40.467536]}},{"properties":{"city":"LAKEWOOD","zip":"90712","column_6":null,"geo_score":0.434,"lic_nbr":1002811,"id":"a69uwfdplllr","geo_precision":"city","address":"4073 HARDWICK STREET","state":"CA"},"type":"Feature","geometry":{"type":"Point","coordinates":[-119.718744,36.401339]}},{"properties":{"city":"LAKEWOOD","zip":"90713","column_6":null,"geo_score":0.734,"lic_nbr":1000896,"id":"a69uwfkh3dmg","geo_precision":"range","address":"5515 E DELAMO BLVD","state":"CA"},"type":"Feature","geometry":{"type":"Point","coordinates":[-118.373303,33.84856]}},{"properties":{"city":"LAKEWOOD","zip":"90713","column_6":null,"geo_score":0.477,"lic_nbr":1001625,"id":"a69uwfrrtywa","geo_precision":"street","address":"5539 WOODRUFF AVE","state":"CA"},"type":"Feature","geometry":{"type":"Point","coordinates":[-112.21958,42.033907]}},{"properties":{"city":"LAKEWOOD","zip":"90713","column_6":null,"geo_score":0.32,"lic_nbr":1003370,"id":"a69uwfpmdj0e","geo_precision":"street","address":"6411 DEL AMO BOULEVARD","state":"CA"},"type":"Feature","geometry":{"type":"Point","coordinates":[-92.806202,33.57345]}},{"properties":{"city":"HAWAIIAN GARDENS","zip":"90716","column_6":null,"geo_score":0.432,"lic_nbr":1001624,"id":"a69uwfcef34i","geo_precision":"city","address":"12105 E CARSON ST","state":"CA"},"type":"Feature","geometry":{"type":"Point","coordinates":[-87.941389,31.472387]}},{"properties":{"city":"HAWAIIAN GARDENS","zip":"90716","column_6":null,"geo_score":0.675,"lic_nbr":1002753,"id":"a69uwfs12v3x","geo_precision":"street","address":"12140 EAST CARSON STREET","state":"CA"},"type":"Feature","geometry":{"type":"Point","coordinates":[-121.846537,36.600747]}},{"properties":{"city":"LOMITA","zip":"90717","column_6":null,"geo_score":0.405,"lic_nbr":1004207,"id":"a69uwfe03hqj","geo_precision":"city","address":"25001 S. WESTERN","state":"CA"},"type":"Feature","geometry":{"type":"Point","coordinates":[-104.997203,39.832208]}},{"properties":{"city":"LOS ALAMITOS","zip":"90720","column_6":null,"geo_score":0.503,"lic_nbr":1000945,"id":"a69uwfktnr9w","geo_precision":"street","address":"3259 KATELLA AVE.","state":"CA"},"type":"Feature","geometry":{"type":"Point","coordinates":[-91.837946,35.64531]}},{"properties":{"city":"PARAMOUNT","zip":"90723","column_6":null,"geo_score":0.421,"lic_nbr":1004289,"id":"a69uwfelxsgu","geo_precision":"city","address":"8505 ROSECRANS AVE.","state":"CA"},"type":"Feature","geometry":{"type":"Point","coordinates":[-114.59023,32.781434]}},{"properties":{"city":"SAN PEDRO","zip":"90731","column_6":null,"geo_score":0.542,"lic_nbr":1002947,"id":"a69uwfgvohd8","geo_precision":"street","address":"1330 S. PACIFIC AVENUE","state":"CA"},"type":"Feature","geometry":{"type":"Point","coordinates":[-122.48404,37.632235]}},{"properties":{"city":"SAN PEDRO","zip":"90731","column_6":null,"geo_score":0.531,"lic_nbr":1003827,"id":"a69uwfi7c0v1","geo_precision":"street","address":"605 SOUTH PACIFIC AVENUE","state":"CA"},"type":"Feature","geometry":{"type":"Point","coordinates":[-122.48404,37.632235]}},{"properties":{"city":"SAN PEDRO","zip":"90731","column_6":null,"geo_score":0.545,"lic_nbr":1000858,"id":"a69uwfl2rdu8","geo_precision":"street","address":"904 S GAFFEY ST","state":"CA"},"type":"Feature","geometry":{"type":"Point","coordinates":[-110.315701,31.96718]}},{"properties":{"city":"SAN PEDRO","zip":"90731","column_6":null,"geo_score":0.514,"lic_nbr":1002973,"id":"a69uwfhpk0cb","geo_precision":"street","address":"699 SOUTH GAFFEY STREET","state":"CA"},"type":"Feature","geometry":{"type":"Point","coordinates":[-110.313193,31.967174]}},{"properties":{"city":"SAN PEDRO","zip":"90731","column_6":null,"geo_score":0.542,"lic_nbr":1003124,"id":"a69uwfjzjhxq","geo_precision":"street","address":"736 S. PACIFIC AVENUE","state":"CA"},"type":"Feature","geometry":{"type":"Point","coordinates":[-122.48404,37.632235]}},{"properties":{"city":"SAN PEDRO","zip":"90732","column_6":null,"geo_score":0.573,"lic_nbr":1003882,"id":"a69uwfidug5o","geo_precision":"street","address":"316 NORTH WESTERN AVE.","state":"CA"},"type":"Feature","geometry":{"type":"Point","coordinates":[-73.382706,41.614468]}},{"properties":{"city":"WILMINGTON","zip":"90744","column_6":null,"geo_score":0.59,"lic_nbr":1004156,"id":"a69uwfc8a3u0","geo_precision":"street","address":"220 W ANAHEIM ST.","state":"CA"},"type":"Feature","geometry":{"type":"Point","coordinates":[-117.90527,33.806646]}},{"properties":{"city":"WILMINGTON","zip":"90744","column_6":null,"geo_score":0.59,"lic_nbr":1000231,"id":"a69uwfflj3y7","geo_precision":"street","address":"104 W. ANAHEIM STREET","state":"CA"},"type":"Feature","geometry":{"type":"Point","coordinates":[-117.90527,33.806646]}},{"properties":{"city":"WILMINGTON","zip":"90744","column_6":null,"geo_score":0.406,"lic_nbr":1000009,"id":"a69uwfd3faay","geo_precision":"city","address":"849 W PACIFIC COAST HWY","state":"CA"},"type":"Feature","geometry":{"type":"Point","coordinates":[-91.134592,41.010591]}},{"properties":{"city":"WILMINGTON","zip":"90744","column_6":null,"geo_score":0.281,"lic_nbr":1001137,"id":"a69uwfcum2uv","geo_precision":"street","address":"1330 G WEST PACIFIC COAST HWY","state":"CA"},"type":"Feature","geometry":{"type":"Point","coordinates":[-85.663556,34.146308]}},{"properties":{"city":"WILMINGTON","zip":"90744","column_6":null,"geo_score":0.591,"lic_nbr":1002965,"id":"a69uwfi5flbf","geo_precision":"street","address":"1010 W. ANAHEIM STREET","state":"CA"},"type":"Feature","geometry":{"type":"Point","coordinates":[-117.90527,33.806646]}},{"properties":{"city":"CARSON","zip":"90745","column_6":null,"geo_score":0.42,"lic_nbr":1002844,"id":"a69uwfrqulee","geo_precision":"city","address":"22005 AVALON BOULEVARD","state":"CA"},"type":"Feature","geometry":{"type":"Point","coordinates":[-75.621872,39.730668]}},{"properties":{"city":"CARSON","zip":"90745","column_6":null,"geo_score":0.427,"lic_nbr":1001342,"id":"a69uwfcwx558","geo_precision":"city","address":"114 W CARSON STREET","state":"CA"},"type":"Feature","geometry":{"type":"Point","coordinates":[-87.941389,31.472387]}},{"properties":{"city":"CARSON","zip":"90745","column_6":null,"geo_score":0.554,"lic_nbr":1001386,"id":"a69uwfen82sx","geo_precision":"street","address":"280 E SEPULVEDA BLVD","state":"CA"},"type":"Feature","geometry":{"type":"Point","coordinates":[-118.467726,34.221416]}},{"properties":{"city":"CARSON","zip":"90745","column_6":null,"geo_score":0.429,"lic_nbr":1002148,"id":"a69uwfeyowf2","geo_precision":"city","address":"23561 AVALON BLVD.","state":"CA"},"type":"Feature","geometry":{"type":"Point","coordinates":[-75.621872,39.730668]}},{"properties":{"city":"CARSON","zip":"90745","column_6":null,"geo_score":0.439,"lic_nbr":1004010,"id":"a69uwfg8lxp2","geo_precision":"city","address":"198 E. CARSON ST.","state":"CA"},"type":"Feature","geometry":{"type":"Point","coordinates":[-87.941389,31.472387]}},{"properties":{"city":"CARSON","zip":"90745","column_6":null,"geo_score":0.429,"lic_nbr":1004209,"id":"a69uwfct4i1f","geo_precision":"city","address":"23914 AVALON BLVD.","state":"CA"},"type":"Feature","geometry":{"type":"Point","coordinates":[-75.621872,39.730668]}},{"properties":{"city":"CARSON","zip":"90746","column_6":null,"geo_score":0.88,"lic_nbr":1003770,"id":"a69uwfkl83q1","geo_precision":"range","address":"603 E. UNIVERSITY DRIVE","state":"CA"},"type":"Feature","geometry":{"type":"Point","coordinates":[-117.866469,33.648435]}},{"properties":{"city":"CARSON","zip":"90746","column_6":null,"geo_score":0.418,"lic_nbr":1002109,"id":"a69uwfkh67ug","geo_precision":"city","address":"20771 S. AVALON BOULEVARD","state":"CA"},"type":"Feature","geometry":{"type":"Point","coordinates":[-75.621872,39.730668]}},{"properties":{"city":"CARSON","zip":"90747","column_6":null,"geo_score":0.418,"lic_nbr":1001955,"id":"a69uwfettax0","geo_precision":"city","address":"17952 S. AVALON BOULEVARD","state":"CA"},"type":"Feature","geometry":{"type":"Point","coordinates":[-75.621872,39.730668]}},{"properties":{"city":"LONG BEACH","zip":"90802","column_6":null,"geo_score":0.882,"lic_nbr":1000436,"id":"a69uwffzbfdb","geo_precision":"range","address":"237 LONG BEACH BLVD.","state":"CA"},"type":"Feature","geometry":{"type":"Point","coordinates":[-118.189373,33.769951]}},{"properties":{"city":"LONG BEACH","zip":"90804","column_6":null,"geo_score":0.668,"lic_nbr":1002446,"id":"a69uwfrggqg2","geo_precision":"range","address":"2211 E. 7TH STREET","state":"CA"},"type":"Feature","geometry":{"type":"Point","coordinates":[-86.838753,31.85342]}},{"properties":{"city":"LONG BEACH","zip":"90804","column_6":null,"geo_score":0.59,"lic_nbr":1000884,"id":"a69uwff3hduf","geo_precision":"street","address":"3747 E ANAHEIM ST","state":"CA"},"type":"Feature","geometry":{"type":"Point","coordinates":[-117.8938,33.796127]}},{"properties":{"city":"LONG BEACH","zip":"90804","column_6":null,"geo_score":0.59,"lic_nbr":1002951,"id":"a69uwfhqzqcr","geo_precision":"street","address":"3401 E. ANAHEIM STREET","state":"CA"},"type":"Feature","geometry":{"type":"Point","coordinates":[-117.8938,33.796127]}},{"properties":{"city":"LONG BEACH","zip":"90805","column_6":null,"geo_score":0.496,"lic_nbr":1000439,"id":"a69uwfd2gdrt","geo_precision":"street","address":"3461 E. ARTESIA BLVD.","state":"CA"},"type":"Feature","geometry":{"type":"Point","coordinates":[-109.690662,32.68651]}},{"properties":{"city":"LONG BEACH","zip":"90805","column_6":null,"geo_score":0.431,"lic_nbr":1003682,"id":"a69uwfqnp4zq","geo_precision":"city","address":"2185 EAST SOUTH STREET","state":"CA"},"type":"Feature","geometry":{"type":"Point","coordinates":[-88.825074,41.124478]}},{"properties":{"city":"LONG BEACH","zip":"90805","column_6":null,"geo_score":0.46,"lic_nbr":1003944,"id":"a69uwfr0qoso","geo_precision":"street","address":"6640 CHERRY AVE","state":"CA"},"type":"Feature","geometry":{"type":"Point","coordinates":[-112.224618,34.520683]}},{"properties":{"city":"LONG BEACH","zip":"90805","column_6":null,"geo_score":0.431,"lic_nbr":1004230,"id":"a69uwfqfef4z","geo_precision":"city","address":"2001 EAST SOUTH STREET","state":"CA"},"type":"Feature","geometry":{"type":"Point","coordinates":[-88.825074,41.124478]}},{"properties":{"city":"LONG BEACH","zip":"90806","column_6":null,"geo_score":0.882,"lic_nbr":1000593,"id":"a69uwff01q3j","geo_precision":"range","address":"2295 LONG BEACH BLVD.","state":"CA"},"type":"Feature","geometry":{"type":"Point","coordinates":[-118.189372,33.798864]}},{"properties":{"city":"LONG BEACH","zip":"90806","column_6":null,"geo_score":0.405,"lic_nbr":1000525,"id":"a69uwfjoun7u","geo_precision":"city","address":"1001 E. PACIFIC COAST HWY.","state":"CA"},"type":"Feature","geometry":{"type":"Point","coordinates":[-91.134592,41.010591]}},{"properties":{"city":"LONG BEACH","zip":"90807","column_6":null,"geo_score":0.654,"lic_nbr":1002120,"id":"a69uwfgorlco","geo_precision":"street","address":"4200 ATLANTIC AVENUE","state":"CA"},"type":"Feature","geometry":{"type":"Point","coordinates":[-84.412775,33.655303]}},{"properties":{"city":"LONG BEACH","zip":"90807","column_6":null,"geo_score":0.882,"lic_nbr":1003775,"id":"a69uwfdrucoj","geo_precision":"range","address":"3389 LONG BEACH BLVD","state":"CA"},"type":"Feature","geometry":{"type":"Point","coordinates":[-118.189359,33.818582]}},{"properties":{"city":"LONG BEACH","zip":"90808","column_6":null,"geo_score":0.675,"lic_nbr":1002819,"id":"a69uwfqm9w5o","geo_precision":"street","address":"6537 E. SPRING STREET","state":"CA"},"type":"Feature","geometry":{"type":"Point","coordinates":[-72.589181,42.108902]}},{"properties":{"city":"LONG BEACH","zip":"90813","column_6":null,"geo_score":0.882,"lic_nbr":1000432,"id":"a69uwfdod0q7","geo_precision":"range","address":"1301 LONG BEACH BLVD.","state":"CA"},"type":"Feature","geometry":{"type":"Point","coordinates":[-118.189376,33.782589]}},{"properties":{"city":"LONG BEACH","zip":"90813","column_6":null,"geo_score":0.512,"lic_nbr":1000437,"id":"a69uwfc359nt","geo_precision":"street","address":"335 EAST 7TH STREET","state":"CA"},"type":"Feature","geometry":{"type":"Point","coordinates":[-86.530312,32.769396]}},{"properties":{"city":"LONG BEACH","zip":"90813","column_6":null,"geo_score":0.882,"lic_nbr":1002843,"id":"a69uwfrs278b","geo_precision":"range","address":"1706 LONG BEACH BOULEVARD","state":"CA"},"type":"Feature","geometry":{"type":"Point","coordinates":[-118.189373,33.788173]}},{"properties":{"city":"LONG BEACH","zip":"90813","column_6":null,"geo_score":0.591,"lic_nbr":1004155,"id":"a69uwfoktk0f","geo_precision":"street","address":"730 PACIFIC AVE.","state":"CA"},"type":"Feature","geometry":{"type":"Point","coordinates":[-122.48404,37.632235]}},{"properties":{"city":"ALTADENA","zip":"91001","column_6":null,"geo_score":0.373,"lic_nbr":1002853,"id":"a69uwfne5cyi","geo_precision":"street","address":"1920 NORTH LAKE AVENUE","state":"CA"},"type":"Feature","geometry":{"type":"Point","coordinates":[-85.125832,31.916048]}},{"properties":{"city":"ALTADENA","zip":"91001","column_6":null,"geo_score":0.61,"lic_nbr":1002181,"id":"a69uwfh10kb1","geo_precision":"street","address":"2087 N. FAIROAKS AVENUE","state":"CA"},"type":"Feature","geometry":{"type":"Point","coordinates":[-87.546988,33.240072]}},{"properties":{"city":"ALTADENA","zip":"91001","column_6":null,"geo_score":0.373,"lic_nbr":1003826,"id":"a69uwfqw8yue","geo_precision":"street","address":"2340 NORTH LAKE AVENUE","state":"CA"},"type":"Feature","geometry":{"type":"Point","coordinates":[-85.125832,31.916048]}},{"properties":{"city":"DUARTE","zip":"91010","column_6":null,"geo_score":0.854,"lic_nbr":1001536,"id":"a69uwfm4oc6w","geo_precision":"range","address":"1229 HUNTINGTON DR","state":"CA"},"type":"Feature","geometry":{"type":"Point","coordinates":[-117.99508,33.667853]}},{"properties":{"city":"DUARTE","zip":"91010","column_6":null,"geo_score":0.835,"lic_nbr":1002838,"id":"a69uwfmc6okk","geo_precision":"range","address":"1104 E. HUNTINGTON DRIVE","state":"CA"},"type":"Feature","geometry":{"type":"Point","coordinates":[-117.995061,33.666726]}},{"properties":{"city":"DUARTE","zip":"91010","column_6":null,"geo_score":0.854,"lic_nbr":1003591,"id":"a69uwfpupd3l","geo_precision":"range","address":"1040 HUNTINGTON DRIVE","state":"CA"},"type":"Feature","geometry":{"type":"Point","coordinates":[-117.995053,33.666157]}},{"properties":{"city":"SUNLAND","zip":"91040","column_6":null,"geo_score":0.461,"lic_nbr":1002083,"id":"a69uwfgwo7q7","geo_precision":"street","address":"8521 FOOTHILL BOULEVARD","state":"CA"},"type":"Feature","geometry":{"type":"Point","coordinates":[-111.822478,40.734384]}},{"properties":{"city":"PASADENA","zip":"91101","column_6":null,"geo_score":0.381,"lic_nbr":1000904,"id":"a69uwfl00so0","geo_precision":"street","address":"641 N LAKE AVE","state":"CA"},"type":"Feature","geometry":{"type":"Point","coordinates":[-85.13702,31.917033]}},{"properties":{"city":"PASADENA","zip":"91104","column_6":null,"geo_score":0.38,"lic_nbr":1003731,"id":"a69uwformt74","geo_precision":"street","address":"887 N. LAKE AVE.","state":"CA"},"type":"Feature","geometry":{"type":"Point","coordinates":[-85.13315,31.917046]}},{"properties":{"city":"PASADENA","zip":"91104","column_6":null,"geo_score":0.616,"lic_nbr":1000413,"id":"a69uwfd0wf14","geo_precision":"street","address":"447 E. ORANGE GROVE BLVD.","state":"CA"},"type":"Feature","geometry":{"type":"Point","coordinates":[-117.789646,33.679708]}},{"properties":{"city":"PASADENA","zip":"91104","column_6":null,"geo_score":0.38,"lic_nbr":1000431,"id":"a69uwfgnhh4d","geo_precision":"street","address":"1298 N. LAKE AVE.","state":"CA"},"type":"Feature","geometry":{"type":"Point","coordinates":[-85.125832,31.916048]}},{"properties":{"city":"PASADENA","zip":"91104","column_6":null,"geo_score":0.57,"lic_nbr":1003016,"id":"a69uwfek2sxp","geo_precision":"range","address":"711 N. LAKE AVENUE","state":"CA"},"type":"Feature","geometry":{"type":"Point","coordinates":[-85.136681,31.917034]}},{"properties":{"city":"PASADENA","zip":"91104","column_6":null,"geo_score":0.257,"lic_nbr":1004071,"id":"a69uwfqqm93o","geo_precision":"street","address":"1399 N. LAKE AVE.","state":"CA"},"type":"Feature","geometry":{"type":"Point","coordinates":[-85.125832,31.916048]}},{"properties":{"city":"PASADENA","zip":"91105","column_6":null,"geo_score":0.418,"lic_nbr":1002749,"id":"a69uwfgjef6e","geo_precision":"city","address":"143 W.  CALIFORNIA BOULEVARD","state":"CA"},"type":"Feature","geometry":{"type":"Point","coordinates":[-118.528697,34.235281]}},{"properties":{"city":"PASADENA","zip":"91106","column_6":null,"geo_score":0.317,"lic_nbr":1001287,"id":"a69uwfq3wili","geo_precision":"street","address":"950 E COLORADO AVE","state":"CA"},"type":"Feature","geometry":{"type":"Point","coordinates":[-122.165882,37.861687]}},{"properties":{"city":"PASADENA","zip":"91107","column_6":null,"geo_score":0.439,"lic_nbr":1000570,"id":"a69uwffvn7x8","geo_precision":"city","address":"215 S. ROSEMEAD BLVD.","state":"CA"},"type":"Feature","geometry":{"type":"Point","coordinates":[-76.866064,36.180157]}},{"properties":{"city":"PASADENA","zip":"91107","column_6":null,"geo_score":0.439,"lic_nbr":1000898,"id":"a69uwfmebzm9","geo_precision":"city","address":"328 S ROSEMEAD BLVD","state":"CA"},"type":"Feature","geometry":{"type":"Point","coordinates":[-76.866064,36.180157]}},{"properties":{"city":"PASADENA","zip":"91107","column_6":null,"geo_score":0.617,"lic_nbr":1001646,"id":"a69uwfobep0t","geo_precision":"street","address":"3683 EAST COLORADO BLVD.","state":"CA"},"type":"Feature","geometry":{"type":"Point","coordinates":[-87.653069,34.811814]}},{"properties":{"city":"PASADENA","zip":"91107","column_6":null,"geo_score":0.354,"lic_nbr":1002837,"id":"a69uwff0ru6x","geo_precision":"street","address":"2385 E. COLORADO BOULEVARD","state":"CA"},"type":"Feature","geometry":{"type":"Point","coordinates":[-122.15818,37.881567]}},{"properties":{"city":"PASADENA","zip":"91107","column_6":null,"geo_score":0.355,"lic_nbr":1004270,"id":"a69uwfo8bzr2","geo_precision":"street","address":"2723 E. COLORADO BLVD.","state":"CA"},"type":"Feature","geometry":{"type":"Point","coordinates":[-122.15818,37.881567]}},{"properties":{"city":"GLENDALE","zip":"91201","column_6":null,"geo_score":0.645,"lic_nbr":1003975,"id":"a69uwfgatgzl","geo_precision":"street","address":"6501 SAN FERNANDO RD","state":"CA"},"type":"Feature","geometry":{"type":"Point","coordinates":[-122.47011,37.730308]}},{"properties":{"city":"GLENDALE","zip":"91201","column_6":null,"geo_score":0.645,"lic_nbr":1002941,"id":"a69uwfgz18u3","geo_precision":"street","address":"6344 SAN FERNANDO ROAD","state":"CA"},"type":"Feature","geometry":{"type":"Point","coordinates":[-122.47011,37.730308]}},{"properties":{"city":"GLENDALE","zip":"91204","column_6":null,"geo_score":0.532,"lic_nbr":1000433,"id":"a69uwfkk83ca","geo_precision":"street","address":"1023 S. BRAND BLVD.","state":"CA"},"type":"Feature","geometry":{"type":"Point","coordinates":[-114.414672,32.667888]}},{"properties":{"city":"GLENDALE","zip":"91204","column_6":null,"geo_score":0.61,"lic_nbr":1000312,"id":"a69uwfq4ukf2","geo_precision":"street","address":"1101 SOUTH CENTRAL AVE.","state":"CA"},"type":"Feature","geometry":{"type":"Point","coordinates":[-86.534185,41.712552]}},{"properties":{"city":"GLENDALE","zip":"91204","column_6":null,"geo_score":0.455,"lic_nbr":1004013,"id":"a69uwfetk9px","geo_precision":"city","address":"506 W. BROADWAY","state":"CA"},"type":"Feature","geometry":{"type":"Point","coordinates":[-76.214654,41.247305]}},{"properties":{"city":"GLENDALE","zip":"91205","column_6":null,"geo_score":0.642,"lic_nbr":1001562,"id":"a69uwfcbwjqe","geo_precision":"street","address":"625 EAST COLORADO STREET","state":"CA"},"type":"Feature","geometry":{"type":"Point","coordinates":[-104.814712,38.833377]}},{"properties":{"city":"CALABASAS","zip":"91302","column_6":null,"geo_score":0.78,"lic_nbr":1004112,"id":"a69uwfnn8qd4","geo_precision":"range","address":"26560 AGOURA RD","state":"CA"},"type":"Feature","geometry":{"type":"Point","coordinates":[-118.702174,34.142946]}},{"properties":{"city":"CANOGA PARK","zip":"91303","column_6":null,"geo_score":0.707,"lic_nbr":1002544,"id":"a69uwflnqbvm","geo_precision":"range","address":"6750 DESOTO AVENUE","state":"CA"},"type":"Feature","geometry":{"type":"Point","coordinates":[-111.478469,35.233715]}},{"properties":{"city":"CANOGA PARK","zip":"91303","column_6":null,"geo_score":0.62,"lic_nbr":1000464,"id":"a69uwfe7j25n","geo_precision":"street","address":"6840 DE SOTO AVE.","state":"CA"},"type":"Feature","geometry":{"type":"Point","coordinates":[-92.979188,34.667972]}},{"properties":{"city":"CANOGA PARK","zip":"91303","column_6":null,"geo_score":0.48,"lic_nbr":1003588,"id":"a69uwfr9fwxa","geo_precision":"street","address":"7204 CANOGA AVE","state":"CA"},"type":"Feature","geometry":{"type":"Point","coordinates":[-86.173715,34.183482]}},{"properties":{"city":"CANOGA PARK","zip":"91303","column_6":null,"geo_score":0.552,"lic_nbr":1003862,"id":"a69uwfk5ezk6","geo_precision":"street","address":"7239 TOPANGA CANYON BLVD.","state":"CA"},"type":"Feature","geometry":{"type":"Point","coordinates":[-121.953624,37.592385]}},{"properties":{"city":"CANOGA PARK","zip":"91303","column_6":null,"geo_score":0.62,"lic_nbr":1004231,"id":"a69uwfg5gfbt","geo_precision":"street","address":"21211 SHERMAN WAY","state":"CA"},"type":"Feature","geometry":{"type":"Point","coordinates":[-93.923735,33.872444]}},{"properties":{"city":"CANOGA PARK","zip":"91304","column_6":null,"geo_score":0.552,"lic_nbr":1003819,"id":"a69uwfey2e2k","geo_precision":"street","address":"8352 TOPANGA CANYON BLVD","state":"CA"},"type":"Feature","geometry":{"type":"Point","coordinates":[-121.953624,37.592385]}},{"properties":{"city":"CANOGA PARK","zip":"91304","column_6":null,"geo_score":0.513,"lic_nbr":1004024,"id":"a69uwflxtyl8","geo_precision":"street","address":"8231 DESOTO AVE","state":"CA"},"type":"Feature","geometry":{"type":"Point","coordinates":[-111.478492,35.237445]}},{"properties":{"city":"CANOGA PARK","zip":"91306","column_6":null,"geo_score":0.62,"lic_nbr":1000220,"id":"a69uwfegyebp","geo_precision":"street","address":"20469 SHERMAN WAY","state":"CA"},"type":"Feature","geometry":{"type":"Point","coordinates":[-93.923735,33.872444]}},{"properties":{"city":"WINNETKA","zip":"91306","column_6":null,"geo_score":0.407,"lic_nbr":1000717,"id":"a69uwfgc81o8","geo_precision":"city","address":"20246 SATICOY STREET","state":"CA"},"type":"Feature","geometry":{"type":"Point","coordinates":[-122.321791,47.45371]}},{"properties":{"city":"CANOGA PARK","zip":"91306","column_6":null,"geo_score":0.498,"lic_nbr":1002834,"id":"a69uwfdtdirv","geo_precision":"street","address":"19754 SHERMAN WAY","state":"CA"},"type":"Feature","geometry":{"type":"Point","coordinates":[-93.923735,33.872444]}},{"properties":{"city":"WINNETKA","zip":"91306","column_6":null,"geo_score":0.411,"lic_nbr":1003665,"id":"a69uwfqppibp","geo_precision":"city","address":"20115 SATICOY ST.","state":"CA"},"type":"Feature","geometry":{"type":"Point","coordinates":[-122.321791,47.45371]}},{"properties":{"city":"PACOIMA","zip":"91311","column_6":null,"geo_score":0.48,"lic_nbr":1004205,"id":"a69uwfc3ow0t","geo_precision":"street","address":"10750 GLENOAKS BLVD.","state":"CA"},"type":"Feature","geometry":{"type":"Point","coordinates":[-86.938209,33.456891]}},{"properties":{"city":"CHATSWORTH","zip":"91311","column_6":null,"geo_score":0.512,"lic_nbr":1003479,"id":"a69uwfj6w9ek","geo_precision":"street","address":"9866 DESOTO AVE","state":"CA"},"type":"Feature","geometry":{"type":"Point","coordinates":[-111.478492,35.237445]}},{"properties":{"city":"NEWHALL","zip":"91321","column_6":null,"geo_score":0.421,"lic_nbr":1002222,"id":"a69uwfh0s3pr","geo_precision":"city","address":"23354 LYONS AVENUE","state":"CA"},"type":"Feature","geometry":{"type":"Point","coordinates":[-90.186238,41.867251]}},{"properties":{"city":"NORTHRIDGE","zip":"91324","column_6":null,"geo_score":0.464,"lic_nbr":1000588,"id":"a69uwfe73v1y","geo_precision":"street","address":"18455-1/2 ROSCOE BLVD.","state":"CA"},"type":"Feature","geometry":{"type":"Point","coordinates":[-84.800645,33.392308]}},{"properties":{"city":"NORTHRIDGE","zip":"91324","column_6":null,"geo_score":0.483,"lic_nbr":1001628,"id":"a69uwfltkabx","geo_precision":"street","address":"18539 ROSCOE BLVD","state":"CA"},"type":"Feature","geometry":{"type":"Point","coordinates":[-84.813401,33.511266]}},{"properties":{"city":"NORTHRIDGE","zip":"91324","column_6":null,"geo_score":0.0,"lic_nbr":1002852,"id":"a69uwfkucr72","geo_precision":"unmatched","address":"19240 NORDHOFF STREET","state":"CA"},"type":"Feature","geometry":null},{"properties":{"city":"NORTHRIDGE","zip":"91324","column_6":null,"geo_score":0.577,"lic_nbr":1004229,"id":"a69uwfg5x4me","geo_precision":"street","address":"8715 CORBIN AVE.","state":"CA"},"type":"Feature","geometry":{"type":"Point","coordinates":[-121.457514,37.717569]}},{"properties":{"city":"PACOIMA","zip":"91331","column_6":null,"geo_score":0.561,"lic_nbr":1003043,"id":"a69uwfp8yxqw","geo_precision":"street","address":"9745 LAUREL CANYON BLVD.","state":"CA"},"type":"Feature","geometry":{"type":"Point","coordinates":[-76.910832,38.932973]}},{"properties":{"city":"ARLETA","zip":"91331","column_6":null,"geo_score":0.62,"lic_nbr":1002812,"id":"a69uwfr1oim9","geo_precision":"street","address":"9700 WOODMAN AVENUE","state":"CA"},"type":"Feature","geometry":{"type":"Point","coordinates":[-70.937071,42.881644]}},{"properties":{"city":"ARLETA","zip":"91331","column_6":null,"geo_score":0.62,"lic_nbr":1000222,"id":"a69uwfibk6sy","geo_precision":"street","address":"8652 WOODMAN AVE.","state":"CA"},"type":"Feature","geometry":{"type":"Point","coordinates":[-70.937071,42.881644]}},{"properties":{"city":"PACOIMA","zip":"91331","column_6":null,"geo_score":0.581,"lic_nbr":1000435,"id":"a69uwfndrfay","geo_precision":"street","address":"12773 VAN NUYS BLVD.","state":"CA"},"type":"Feature","geometry":{"type":"Point","coordinates":[-118.317778,33.916454]}},{"properties":{"city":"ARLETA","zip":"91331","column_6":null,"geo_score":0.62,"lic_nbr":1001299,"id":"a69uwfcm1uw0","geo_precision":"street","address":"9063 WOODMAN AVENUE","state":"CA"},"type":"Feature","geometry":{"type":"Point","coordinates":[-70.937071,42.881644]}},{"properties":{"city":"PACOIMA","zip":"91331","column_6":null,"geo_score":0.48,"lic_nbr":1001304,"id":"a69uwfj6m9co","geo_precision":"street","address":"11256 GLENOAKS BLVD","state":"CA"},"type":"Feature","geometry":{"type":"Point","coordinates":[-86.938209,33.456891]}},{"properties":{"city":"ARLETA","zip":"91331","column_6":null,"geo_score":0.488,"lic_nbr":1002923,"id":"a69uwflxhjr7","geo_precision":"city","address":"9714 WOODMAN","state":"CA"},"type":"Feature","geometry":{"type":"Point","coordinates":[-70.982843,43.634801]}},{"properties":{"city":"RESEDA","zip":"91335","column_6":null,"geo_score":0.488,"lic_nbr":1002991,"id":"a69uwfi34s4e","geo_precision":"street","address":"7550 TAMPA AVENUE","state":"CA"},"type":"Feature","geometry":{"type":"Point","coordinates":[-111.895217,33.420375]}},{"properties":{"city":"RESEDA","zip":"91335","column_6":null,"geo_score":0.561,"lic_nbr":1000856,"id":"a69uwfq5o714","geo_precision":"range","address":"6740 RESEDA BLVD","state":"CA"},"type":"Feature","geometry":{"type":"Point","coordinates":[-105.331245,38.098969]}},{"properties":{"city":"RESEDA","zip":"91335","column_6":null,"geo_score":0.415,"lic_nbr":1001318,"id":"a69uwfim1hmp","geo_precision":"street","address":"19315-F SATICOY","state":"CA"},"type":"Feature","geometry":{"type":"Point","coordinates":[-122.399068,47.697013]}},{"properties":{"city":"RESEDA","zip":"91335","column_6":null,"geo_score":0.498,"lic_nbr":1002504,"id":"a69uwfhkr8sn","geo_precision":"street","address":"19638  SHERMAN WAY","state":"CA"},"type":"Feature","geometry":{"type":"Point","coordinates":[-93.923735,33.872444]}},{"properties":{"city":"RESEDA","zip":"91335","column_6":null,"geo_score":0.551,"lic_nbr":1002933,"id":"a69uwfixfich","geo_precision":"range","address":"7160 RESEDA BOULEVARD","state":"CA"},"type":"Feature","geometry":{"type":"Point","coordinates":[-105.330544,38.103106]}},{"properties":{"city":"RESEDA","zip":"91335","column_6":null,"geo_score":0.551,"lic_nbr":1003382,"id":"a69uwfeu8320","geo_precision":"range","address":"7151 RESEDA BOULEVARD","state":"CA"},"type":"Feature","geometry":{"type":"Point","coordinates":[-105.330592,38.102792]}},{"properties":{"city":"RESEDA","zip":"91335","column_6":null,"geo_score":0.561,"lic_nbr":1004166,"id":"a69uwfcg1d3n","geo_precision":"range","address":"7144 RESEDA BLVD.","state":"CA"},"type":"Feature","geometry":{"type":"Point","coordinates":[-105.330634,38.102903]}},{"properties":{"city":"RESEDA","zip":"91335","column_6":null,"geo_score":0.601,"lic_nbr":1004352,"id":"a69uwfqhapbn","geo_precision":"street","address":"18503 VICTORY BLVD.","state":"CA"},"type":"Feature","geometry":{"type":"Point","coordinates":[-85.434721,31.246693]}},{"properties":{"city":"SAN FERNANDO","zip":"91340","column_6":null,"geo_score":0.461,"lic_nbr":1002836,"id":"a69uwfe2dd7j","geo_precision":"street","address":"12940 FOOTHILL BOULEVARD","state":"CA"},"type":"Feature","geometry":{"type":"Point","coordinates":[-111.814959,40.725992]}},{"properties":{"city":"SAN FERNANDO","zip":"91340","column_6":null,"geo_score":0.69,"lic_nbr":1001351,"id":"a69uwffrsmca","geo_precision":"range","address":"55-B NORTH MACLAY AVENUE","state":"CA"},"type":"Feature","geometry":{"type":"Point","coordinates":[-92.403407,34.828809]}},{"properties":{"city":"SAN FERNANDO","zip":"91340","column_6":null,"geo_score":0.601,"lic_nbr":1002938,"id":"a69uwfc4m3li","geo_precision":"street","address":"1013 TRUMAN STREET","state":"CA"},"type":"Feature","geometry":{"type":"Point","coordinates":[-111.703932,33.363552]}},{"properties":{"city":"SYLMAR","zip":"91342","column_6":null,"geo_score":0.461,"lic_nbr":1002957,"id":"a69uwfmyzox4","geo_precision":"street","address":"13711 FOOTHILL BOULEVARD","state":"CA"},"type":"Feature","geometry":{"type":"Point","coordinates":[-111.822478,40.734384]}},{"properties":{"city":"SYLMAR","zip":"91342","column_6":null,"geo_score":0.48,"lic_nbr":1001158,"id":"a69uwfc9bv0b","geo_precision":"street","address":"13711 FOOTHILL BLVD","state":"CA"},"type":"Feature","geometry":{"type":"Point","coordinates":[-111.822478,40.734384]}},{"properties":{"city":"SYLMAR","zip":"91342","column_6":null,"geo_score":0.168,"lic_nbr":1002688,"id":"a69uwfqr62eg","geo_precision":"street","address":"13633 1/2 FOOTHILL BOULEVARD","state":"CA"},"type":"Feature","geometry":{"type":"Point","coordinates":[-111.833066,40.754234]}},{"properties":{"city":"SYLMAR","zip":"91342","column_6":null,"geo_score":0.48,"lic_nbr":1004160,"id":"a69uwfgnmyv1","geo_precision":"street","address":"11980 FOOTHILL BLVD.","state":"CA"},"type":"Feature","geometry":{"type":"Point","coordinates":[-111.814959,40.725992]}},{"properties":{"city":"NORTH HILLS","zip":"91343","column_6":null,"geo_score":0.463,"lic_nbr":1002945,"id":"a69uwfolq1xa","geo_precision":"street","address":"15759 ROSCOE BOULEVARD","state":"CA"},"type":"Feature","geometry":{"type":"Point","coordinates":[-84.813401,33.511266]}},{"properties":{"city":"NORTH HILLS","zip":"91343","column_6":null,"geo_score":0.756,"lic_nbr":1002538,"id":"a69uwfe11157","geo_precision":"range","address":"9046 SEPULVEDA BOULEVARD","state":"CA"},"type":"Feature","geometry":{"type":"Point","coordinates":[-118.467504,34.234574]}},{"properties":{"city":"NORTH HILLS","zip":"91343","column_6":null,"geo_score":0.0,"lic_nbr":1002564,"id":"a69uwfogxyje","geo_precision":"unmatched","address":"16134 NORDHOFF","state":"CA"},"type":"Feature","geometry":null},{"properties":{"city":"NORTH HILLS","zip":"91343","column_6":null,"geo_score":0.0,"lic_nbr":1003407,"id":"a69uwffa134n","geo_precision":"unmatched","address":"15425 PARTHENIA STREET","state":"CA"},"type":"Feature","geometry":null},{"properties":{"city":"NORTH HILLS","zip":"91343","column_6":null,"geo_score":0.0,"lic_nbr":1004273,"id":"a69uwfr2ly8m","geo_precision":"unmatched","address":"15400 NORDHOFF ST.","state":"CA"},"type":"Feature","geometry":null},{"properties":{"city":"GRANADA HILLS","zip":"91344","column_6":null,"geo_score":0.298,"lic_nbr":1001538,"id":"a69uwfoewco5","geo_precision":"street","address":"11145 WOODLEY AVE","state":"CA"},"type":"Feature","geometry":{"type":"Point","coordinates":[-123.787631,40.309435]}},{"properties":{"city":"GRANADA HILLS","zip":"91344","column_6":null,"geo_score":0.502,"lic_nbr":1002033,"id":"a69uwfj4hhve","geo_precision":"street","address":"11057 BALBOA BOULEVARD","state":"CA"},"type":"Feature","geometry":{"type":"Point","coordinates":[-80.027344,39.702431]}},{"properties":{"city":"GRANADA HILLS","zip":"91344","column_6":null,"geo_score":0.502,"lic_nbr":1004210,"id":"a69uwfeghhzl","geo_precision":"street","address":"10670 BALBOA BLVD.","state":"CA"},"type":"Feature","geometry":{"type":"Point","coordinates":[-80.023964,39.688974]}},{"properties":{"city":"MISSION HILLS","zip":"91345","column_6":null,"geo_score":0.488,"lic_nbr":1002900,"id":"a69uwfk9u06q","geo_precision":"city","address":"10223 SEPULVEDA","state":"CA"},"type":"Feature","geometry":{"type":"Point","coordinates":[-118.484722,34.236389]}},{"properties":{"city":"MISSION HILLS","zip":"91345","column_6":null,"geo_score":0.683,"lic_nbr":1001484,"id":"a69uwfd82gdh","geo_precision":"street","address":"15416 DEVONSHIRE ST","state":"CA"},"type":"Feature","geometry":{"type":"Point","coordinates":[-75.631486,39.763624]}},{"properties":{"city":"CANYON COUNTRY","zip":"91351","column_6":null,"geo_score":0.616,"lic_nbr":1002453,"id":"a69uwfdr4tcl","geo_precision":"street","address":"18520 W. SOLEDAD CANYON ROAD","state":"CA"},"type":"Feature","geometry":{"type":"Point","coordinates":[-121.953624,37.592385]}},{"properties":{"city":"CANYON COUNTRY","zip":"91351","column_6":null,"geo_score":0.629,"lic_nbr":1001379,"id":"a69uwfm5q28g","geo_precision":"street","address":"19357 SOLEDAD CANYON RD","state":"CA"},"type":"Feature","geometry":{"type":"Point","coordinates":[-121.953624,37.592385]}},{"properties":{"city":"SANTA CLARITA","zip":"91351","column_6":null,"geo_score":0.642,"lic_nbr":1001541,"id":"a69uwfqyllga","geo_precision":"street","address":"18553 SOLEDAD CANYON","state":"CA"},"type":"Feature","geometry":{"type":"Point","coordinates":[-121.947118,37.712388]}},{"properties":{"city":"CANYON COUNTRY","zip":"91351","column_6":null,"geo_score":0.629,"lic_nbr":1002108,"id":"a69uwff65wx7","geo_precision":"street","address":"18829 SOLEDAD CANYON ROAD","state":"CA"},"type":"Feature","geometry":{"type":"Point","coordinates":[-121.953624,37.592385]}},{"properties":{"city":"SUN VALLEY","zip":"91352","column_6":null,"geo_score":0.442,"lic_nbr":1000412,"id":"a69uwfi6no83","geo_precision":"city","address":"8026 VINELAND AVE.","state":"CA"},"type":"Feature","geometry":{"type":"Point","coordinates":[-86.994716,33.439831]}},{"properties":{"city":"SUN VALLEY","zip":"91352","column_6":null,"geo_score":0.561,"lic_nbr":1002831,"id":"a69uwfgakp1p","geo_precision":"street","address":"8305 LAUREL CANYON BOULEVARD","state":"CA"},"type":"Feature","geometry":{"type":"Point","coordinates":[-76.910832,38.932973]}},{"properties":{"city":"TARZANA","zip":"91356","column_6":null,"geo_score":0.551,"lic_nbr":1003125,"id":"a69uwfopbyfx","geo_precision":"range","address":"5585 RESEDA BOULEVARD","state":"CA"},"type":"Feature","geometry":{"type":"Point","coordinates":[-105.349807,38.091909]}},{"properties":{"city":"TARZANA","zip":"91356","column_6":null,"geo_score":0.409,"lic_nbr":1004212,"id":"a69uwfs9ysin","geo_precision":"city","address":"19225 VENTURA BLVD.","state":"CA"},"type":"Feature","geometry":{"type":"Point","coordinates":[-134.895833,58.256389]}},{"properties":{"city":"THOUSAND OAKS","zip":"91360","column_6":null,"geo_score":0.403,"lic_nbr":1004246,"id":"a69uwfshfnf8","geo_precision":"city","address":"1050 AVENIDA DE LOS ARBOLES","state":"CA"},"type":"Feature","geometry":{"type":"Point","coordinates":[-95.992775,36.153982]}},{"properties":{"city":"WESTLAKE VILLAGE","zip":"91361","column_6":null,"geo_score":0.524,"lic_nbr":1004303,"id":"a69uwfc6m6tk","geo_precision":"street","address":"660 HAMPSHIRE ROAD","state":"CA"},"type":"Feature","geometry":{"type":"Point","coordinates":[-76.976755,39.010467]}},{"properties":{"city":"VAN NUYS","zip":"91401","column_6":null,"geo_score":0.601,"lic_nbr":1002136,"id":"a69uwfg5bj75","geo_precision":"street","address":"14103 VICTORY BOULEVARD","state":"CA"},"type":"Feature","geometry":{"type":"Point","coordinates":[-85.434721,31.246693]}},{"properties":{"city":"VAN NUYS","zip":"91401","column_6":null,"geo_score":0.601,"lic_nbr":1002944,"id":"a69uwfjrf9ry","geo_precision":"street","address":"13667 VICTORY BLVD.","state":"CA"},"type":"Feature","geometry":{"type":"Point","coordinates":[-85.434721,31.246693]}},{"properties":{"city":"VAN NUYS","zip":"91401","column_6":null,"geo_score":0.574,"lic_nbr":1004164,"id":"a69uwfhrggsz","geo_precision":"street","address":"6405 VAN NUYS BLVD.","state":"CA"},"type":"Feature","geometry":{"type":"Point","coordinates":[-118.394272,34.026116]}},{"properties":{"city":"VAN NUYS","zip":"91401","column_6":null,"geo_score":0.574,"lic_nbr":1004312,"id":"a69uwfmieidp","geo_precision":"street","address":"6582 VAN NUYS BLVD.","state":"CA"},"type":"Feature","geometry":{"type":"Point","coordinates":[-118.388058,34.02928]}},{"properties":{"city":"PANORAMA CITY","zip":"91402","column_6":null,"geo_score":0.769,"lic_nbr":1000417,"id":"a69uwfmvh32u","geo_precision":"range","address":"9100 VAN NUYS BLVD.","state":"CA"},"type":"Feature","geometry":{"type":"Point","coordinates":[-118.393673,34.026064]}},{"properties":{"city":"VAN NUYS","zip":"91402","column_6":null,"geo_score":0.574,"lic_nbr":1000463,"id":"a69uwfkrkvso","geo_precision":"street","address":"8006 VAN NUYS BLVD.","state":"CA"},"type":"Feature","geometry":{"type":"Point","coordinates":[-118.388058,34.02928]}},{"properties":{"city":"VAN NUYS","zip":"91402","column_6":null,"geo_score":0.461,"lic_nbr":1000587,"id":"a69uwfrtry80","geo_precision":"street","address":"8243-1/2 SEPULVEDA BLVD.","state":"CA"},"type":"Feature","geometry":{"type":"Point","coordinates":[-118.467726,34.221416]}},{"properties":{"city":"PANORAMA CITY","zip":"91402","column_6":null,"geo_score":0.561,"lic_nbr":1002962,"id":"a69uwfpl6yjl","geo_precision":"street","address":"8318 VAN NUYS","state":"CA"},"type":"Feature","geometry":{"type":"Point","coordinates":[-118.317778,33.916454]}},{"properties":{"city":"PANORAMA CITY","zip":"91402","column_6":null,"geo_score":0.483,"lic_nbr":1003860,"id":"a69uwfhobral","geo_precision":"street","address":"13801 ROSCOE BLVD.","state":"CA"},"type":"Feature","geometry":{"type":"Point","coordinates":[-84.813401,33.511266]}},{"properties":{"city":"PANORAMA CITY","zip":"91402","column_6":null,"geo_score":0.464,"lic_nbr":1003864,"id":"a69uwfglkpaa","geo_precision":"street","address":"13758 1/2 ROSCOE BLVD","state":"CA"},"type":"Feature","geometry":{"type":"Point","coordinates":[-84.800645,33.392308]}},{"properties":{"city":"SHERMAN OAKS","zip":"91403","column_6":null,"geo_score":0.574,"lic_nbr":1003837,"id":"a69uwfd8036z","geo_precision":"street","address":"4645 VAN NUYS BLVD","state":"CA"},"type":"Feature","geometry":{"type":"Point","coordinates":[-118.446258,33.997142]}},{"properties":{"city":"SHERMAN OAKS","zip":"91403","column_6":null,"geo_score":0.574,"lic_nbr":1003383,"id":"a69uwfhlg0a0","geo_precision":"street","address":"4465 VAN NUYS BOULEVARD","state":"CA"},"type":"Feature","geometry":{"type":"Point","coordinates":[-118.446258,33.997142]}},{"properties":{"city":"VAN NUYS","zip":"91405","column_6":null,"geo_score":0.574,"lic_nbr":1004168,"id":"a69uwfjyl7xy","geo_precision":"street","address":"7203 VAN NUYS BLVD.","state":"CA"},"type":"Feature","geometry":{"type":"Point","coordinates":[-118.394272,34.026116]}},{"properties":{"city":"VAN NUYS","zip":"91405","column_6":null,"geo_score":0.574,"lic_nbr":1000233,"id":"a69uwfq59n9f","geo_precision":"street","address":"7335 VAN NUYS BLVD.","state":"CA"},"type":"Feature","geometry":{"type":"Point","coordinates":[-118.394272,34.026116]}},{"properties":{"city":"VAN NUYS","zip":"91405","column_6":null,"geo_score":0.574,"lic_nbr":1001323,"id":"a69uwfilepd0","geo_precision":"street","address":"7403 VAN NUYS BLVD","state":"CA"},"type":"Feature","geometry":{"type":"Point","coordinates":[-118.394272,34.026116]}},{"properties":{"city":"VAN NUYS","zip":"91405","column_6":null,"geo_score":0.498,"lic_nbr":1002934,"id":"a69uwfd571ev","geo_precision":"street","address":"14526 SHERMAN WAY","state":"CA"},"type":"Feature","geometry":{"type":"Point","coordinates":[-93.923735,33.872444]}},{"properties":{"city":"VAN NUYS","zip":"91405","column_6":null,"geo_score":0.0,"lic_nbr":1003822,"id":"a69uwfffs9pf","geo_precision":"unmatched","address":"15226 VANOWEN ST","state":"CA"},"type":"Feature","geometry":null},{"properties":{"city":"VAN NUYS","zip":"91405","column_6":null,"geo_score":0.58,"lic_nbr":1003861,"id":"a69uwfs015ra","geo_precision":"street","address":"7143 SEPULVEDA BLVD","state":"CA"},"type":"Feature","geometry":{"type":"Point","coordinates":[-118.467726,34.221416]}},{"properties":{"city":"VAN NUYS","zip":"91406","column_6":null,"geo_score":0.62,"lic_nbr":1004247,"id":"a69uwflxxi8i","geo_precision":"street","address":"15333 SHERMAN WAY","state":"CA"},"type":"Feature","geometry":{"type":"Point","coordinates":[-93.923735,33.872444]}},{"properties":{"city":"VAN NUYS","zip":"91406","column_6":null,"geo_score":0.498,"lic_nbr":1002566,"id":"a69uwfhld6vx","geo_precision":"street","address":"16900 SHERMAN WAY","state":"CA"},"type":"Feature","geometry":{"type":"Point","coordinates":[-93.923735,33.872444]}},{"properties":{"city":"VAN NUYS","zip":"91406","column_6":null,"geo_score":0.502,"lic_nbr":1000888,"id":"a69uwfq563xg","geo_precision":"street","address":"6800 BALBOA BLVD","state":"CA"},"type":"Feature","geometry":{"type":"Point","coordinates":[-80.023964,39.688974]}},{"properties":{"city":"VAN NUYS","zip":"91406","column_6":null,"geo_score":0.0,"lic_nbr":1001268,"id":"a69uwfd6ae1n","geo_precision":"unmatched","address":"15713 1/2 VANOWEN STREET","state":"CA"},"type":"Feature","geometry":null},{"properties":{"city":"VAN NUYS","zip":"91406","column_6":null,"geo_score":0.407,"lic_nbr":1003411,"id":"a69uwfs5gxvj","geo_precision":"city","address":"17236 SATICOY STREET","state":"CA"},"type":"Feature","geometry":{"type":"Point","coordinates":[-122.321791,47.45371]}},{"properties":{"city":"BURBANK","zip":"91504","column_6":null,"geo_score":0.616,"lic_nbr":1002290,"id":"a69uwfhom2ox","geo_precision":"street","address":"1212 N. SAN FERNANDO BLVD.","state":"CA"},"type":"Feature","geometry":{"type":"Point","coordinates":[-122.47011,37.730308]}},{"properties":{"city":"BURBANK","zip":"91505","column_6":null,"geo_score":0.586,"lic_nbr":1000585,"id":"a69uwfco0qqt","geo_precision":"street","address":"2501 W. VICTORY BLVD.","state":"CA"},"type":"Feature","geometry":{"type":"Point","coordinates":[-85.434721,31.246693]}},{"properties":{"city":"BURBANK","zip":"91506","column_6":null,"geo_score":0.902,"lic_nbr":1002942,"id":"a69uwfd8jci7","geo_precision":"range","address":"916 W. BURBANK BLVD.","state":"CA"},"type":"Feature","geometry":{"type":"Point","coordinates":[-118.322088,34.184095]}},{"properties":{"city":"BURBANK","zip":"91506","column_6":null,"geo_score":0.436,"lic_nbr":1001481,"id":"a69uwfptpbjm","geo_precision":"city","address":"1052 W ALAMEDA AVE","state":"CA"},"type":"Feature","geometry":{"type":"Point","coordinates":[-80.297551,25.763433]}},{"properties":{"city":"NORTH HOLLYWOOD","zip":"91601","column_6":null,"geo_score":0.617,"lic_nbr":1002869,"id":"a69uwfh3q6oe","geo_precision":"street","address":"11002 WEST MAGNOLIA BOULEVARD","state":"CA"},"type":"Feature","geometry":{"type":"Point","coordinates":[-86.956491,31.415958]}},{"properties":{"city":"NORTH HOLLYWOOD","zip":"91601","column_6":null,"geo_score":0.442,"lic_nbr":1001305,"id":"a69uwfq14nka","geo_precision":"city","address":"5160 VINELAND AVE","state":"CA"},"type":"Feature","geometry":{"type":"Point","coordinates":[-86.994716,33.439831]}}],"is_temporal":false,"author":{"url":"","metadata":"","contact_name":"","contact_address":"","source":"","contact_phone":""},"source":"","pagination":{"sort":null,"start":0,"total":500,"limit":1000000},"state":"complete","tags":"","published":"2014-08-13T02:29:51-04:00","id":134210}