{"type":"FeatureCollection","data_type":"Dataset","url_type":null,"permissions":[{"permissions":{"download":true,"view":true},"group_id":"everyone"}],"classification":null,"title":"CA PDL FOR OPENGEO3","count":500,"stream_id":134937,"contributor":{"url":"http://geocommons.com/users/185","name":"emily"},"data_attributes":null,"calculation_params":null,"icon_link":null,"link":"http://geocommons.com/overlays/134937.json","extent":[-147.697,25.7634,-70.5798,64.8437],"geometry_types":["point"],"unique_name":"","name":"CA PDL FOR OPENGEO3","feature_count":500,"description":"test","next_feature":null,"is_raster":false,"short_classification":"Y","stats":{"lic_nbr":{"max":1004353,"mean":1002299.036,"variance":1832211.42555511,"stdev":1353.59204546832,"min":1000009,"median":1002453}},"features":[{"properties":{"city":"LOS ANGELES","zip":"90001","geo_score":0.675,"lic_nbr":1000423,"id":"a6e2jrd0h6se","geo_precision":"range","address":"1457 E. FLORENCE AVE.","state":"CA"},"type":"Feature","geometry":{"type":"Point","coordinates":[-91.737978,33.686822]}},{"properties":{"city":"LOS ANGELES","zip":"90001","geo_score":0.675,"lic_nbr":1000226,"id":"a6e2jre2vvvn","geo_precision":"range","address":"1232 E. FLORENCE AVE.","state":"CA"},"type":"Feature","geometry":{"type":"Point","coordinates":[-91.74616,33.681123]}},{"properties":{"city":"LOS ANGELES","zip":"90001","geo_score":0.401,"lic_nbr":1002978,"id":"a6e2jrl9wcau","geo_precision":"city","address":"1401 E. GAGE","state":"CA"},"type":"Feature","geometry":{"type":"Point","coordinates":[-83.84909,36.744252]}},{"properties":{"city":"LOS ANGELES","zip":"90001","geo_score":0.422,"lic_nbr":1002982,"id":"a6e2jrk4urnp","geo_precision":"street","address":"7212 S. COMPTON AVENUE","state":"CA"},"type":"Feature","geometry":{"type":"Point","coordinates":[-86.518526,30.87351]}},{"properties":{"city":"LOS ANGELES","zip":"90002","geo_score":0.335,"lic_nbr":1000427,"id":"a6e2jrls7jge","geo_precision":"street","address":"1669 E. 103RD STREET","state":"CA"},"type":"Feature","geometry":{"type":"Point","coordinates":[-85.885559,31.60877]}},{"properties":{"city":"LOS ANGELES","zip":"90002","geo_score":0.573,"lic_nbr":1002964,"id":"a6e2jrhkyps5","geo_precision":"street","address":"2278  FIRESTONE BOULEVARD","state":"CA"},"type":"Feature","geometry":{"type":"Point","coordinates":[-118.235191,33.960152]}},{"properties":{"city":"LOS ANGELES","zip":"90003","geo_score":0.45,"lic_nbr":1000421,"id":"a6e2jrjbfkhj","geo_precision":"city","address":"8565 S. BROADWAY","state":"CA"},"type":"Feature","geometry":{"type":"Point","coordinates":[-76.214654,41.247305]}},{"properties":{"city":"LOS ANGELES","zip":"90003","geo_score":0.0,"lic_nbr":1001953,"id":"a6e2jrdmlhtw","geo_precision":"unmatched","address":"8501 S. FIGUEROA STREET","state":"CA"},"type":"Feature","geometry":null},{"properties":{"city":"LOS ANGELES","zip":"90003","geo_score":0.436,"lic_nbr":1001894,"id":"a6e2jrdifoqe","geo_precision":"city","address":"7200 SOUTH BROADWAY","state":"CA"},"type":"Feature","geometry":{"type":"Point","coordinates":[-76.214654,41.247305]}},{"properties":{"city":"LOS ANGELES","zip":"90003","geo_score":0.0,"lic_nbr":1002943,"id":"a6e2jrnc87hz","geo_precision":"unmatched","address":"7205 S. FIGUEROA STREET","state":"CA"},"type":"Feature","geometry":null},{"properties":{"city":"LOS ANGELES","zip":"90003","geo_score":0.484,"lic_nbr":1004060,"id":"a6e2jrdk85e2","geo_precision":"street","address":"454 W FLORENCE AVE.","state":"CA"},"type":"Feature","geometry":{"type":"Point","coordinates":[-91.78276,33.652789]}},{"properties":{"city":"LOS ANGELES","zip":"90004","geo_score":0.419,"lic_nbr":1001178,"id":"a6e2jrm9yrob","geo_precision":"city","address":"4028 WEST BEVERLY BOULEVARD","state":"CA"},"type":"Feature","geometry":{"type":"Point","coordinates":[-90.990967,39.793381]}},{"properties":{"city":"LOS ANGELES","zip":"90004","geo_score":0.452,"lic_nbr":1001193,"id":"a6e2jrqy7jpr","geo_precision":"street","address":"280 S. NORMANDIE AVE.","state":"CA"},"type":"Feature","geometry":{"type":"Point","coordinates":[-81.730634,30.309209]}},{"properties":{"city":"LOS ANGELES","zip":"90004","geo_score":0.563,"lic_nbr":1003879,"id":"a6e2jrdiw3ys","geo_precision":"street","address":"103 1/2 S. VERMONT AVE.","state":"CA"},"type":"Feature","geometry":{"type":"Point","coordinates":[-121.955158,38.278419]}},{"properties":{"city":"LOS ANGELES","zip":"90005","geo_score":0.681,"lic_nbr":1000217,"id":"a6e2jrlfd5gm","geo_precision":"street","address":"745 S. VERMONT AVE.","state":"CA"},"type":"Feature","geometry":{"type":"Point","coordinates":[-121.946411,38.275575]}},{"properties":{"city":"LOS ANGELES","zip":"90005","geo_score":0.681,"lic_nbr":1000374,"id":"a6e2jrome8l2","geo_precision":"street","address":"800 SOUTH VERMONT AVE.","state":"CA"},"type":"Feature","geometry":{"type":"Point","coordinates":[-121.946411,38.275575]}},{"properties":{"city":"LOS ANGELES","zip":"90006","geo_score":0.682,"lic_nbr":1000234,"id":"a6e2jrb1yzh3","geo_precision":"street","address":"1514 S. VERMONT AVE.","state":"CA"},"type":"Feature","geometry":{"type":"Point","coordinates":[-121.954097,37.943812]}},{"properties":{"city":"LOS ANGELES","zip":"90006","geo_score":0.423,"lic_nbr":1000392,"id":"a6e2jrc9kgx7","geo_precision":"city","address":"1890 S. WESTERN AVE.","state":"CA"},"type":"Feature","geometry":{"type":"Point","coordinates":[-104.997203,39.832208]}},{"properties":{"city":"LOS ANGELES","zip":"90006","geo_score":0.213,"lic_nbr":1002179,"id":"a6e2jrpmi04n","geo_precision":"street","address":"1605 S. HOOVER","state":"CA"},"type":"Feature","geometry":{"type":"Point","coordinates":[-90.359862,35.352258]}},{"properties":{"city":"LOS ANGELES","zip":"90006","geo_score":0.512,"lic_nbr":1003573,"id":"a6e2jrk8zqv8","geo_precision":"street","address":"2261 W.  PICO BLVD","state":"CA"},"type":"Feature","geometry":{"type":"Point","coordinates":[-88.194188,34.808071]}},{"properties":{"city":"LOS ANGELES","zip":"90006","geo_score":0.433,"lic_nbr":1003888,"id":"a6e2jre5btbh","geo_precision":"street","address":"2411 W OLYMPIC BLVD","state":"CA"},"type":"Feature","geometry":{"type":"Point","coordinates":[-122.740614,47.697587]}},{"properties":{"city":"LOS ANGELES","zip":"90006","geo_score":0.407,"lic_nbr":1003920,"id":"a6e2jrhzastx","geo_precision":"city","address":"1570 S. WESTERN","state":"CA"},"type":"Feature","geometry":{"type":"Point","coordinates":[-104.997203,39.832208]}},{"properties":{"city":"LOS ANGELES","zip":"90007","geo_score":0.591,"lic_nbr":1001187,"id":"a6e2jrl2bog2","geo_precision":"street","address":"1614 W.  WASHINGTON BOULEVARD","state":"CA"},"type":"Feature","geometry":{"type":"Point","coordinates":[-77.05012,38.901987]}},{"properties":{"city":"LOS ANGELES","zip":"90007","geo_score":0.681,"lic_nbr":1001350,"id":"a6e2jrdr1dx7","geo_precision":"street","address":"3623 SOUTH VERMONT AVENUE","state":"CA"},"type":"Feature","geometry":{"type":"Point","coordinates":[-121.954097,37.943812]}},{"properties":{"city":"LOS ANGELES","zip":"90007","geo_score":0.0,"lic_nbr":1003285,"id":"a6e2jrbyh0ji","geo_precision":"unmatched","address":"2530 SOUTH FIGUEROA STREET","state":"CA"},"type":"Feature","geometry":null},{"properties":{"city":"LOS ANGELES","zip":"90008","geo_score":0.683,"lic_nbr":1000391,"id":"a6e2jro0cmqu","geo_precision":"street","address":"4050 S. VICTORIA AVE.","state":"CA"},"type":"Feature","geometry":{"type":"Point","coordinates":[-85.434721,31.246693]}},{"properties":{"city":"LOS ANGELES","zip":"90008","geo_score":0.407,"lic_nbr":1001951,"id":"a6e2jrb1qxum","geo_precision":"city","address":"4243 S. CRENSHAW BLVD.","state":"CA"},"type":"Feature","geometry":{"type":"Point","coordinates":[-104.413287,40.523037]}},{"properties":{"city":"LOS ANGELES","zip":"90008","geo_score":0.404,"lic_nbr":1002998,"id":"a6e2jrfor5xk","geo_precision":"city","address":"3829 CRENSHAW BOULEVARD","state":"CA"},"type":"Feature","geometry":{"type":"Point","coordinates":[-104.413287,40.523037]}},{"properties":{"city":"LOS ANGELES","zip":"90010","geo_score":0.433,"lic_nbr":1000889,"id":"a6e2jrj2eet8","geo_precision":"city","address":"3547  WILSHIRE BLVD.","state":"CA"},"type":"Feature","geometry":{"type":"Point","coordinates":[-75.51631,39.784835]}},{"properties":{"city":"LOS ANGELES","zip":"90011","geo_score":0.707,"lic_nbr":1001186,"id":"a6e2jrbug3rt","geo_precision":"street","address":"4373 S. CENTRAL AVE.","state":"CA"},"type":"Feature","geometry":{"type":"Point","coordinates":[-85.956471,32.942918]}},{"properties":{"city":"LOS ANGELES","zip":"90011","geo_score":0.707,"lic_nbr":1000195,"id":"a6e2jrn5deu6","geo_precision":"street","address":"2524 S. CENTRAL AVE.","state":"CA"},"type":"Feature","geometry":{"type":"Point","coordinates":[-85.956471,32.942918]}},{"properties":{"city":"LOS ANGELES","zip":"90011","geo_score":0.598,"lic_nbr":1001191,"id":"a6e2jrbtkxzj","geo_precision":"range","address":"201 WEST ADAMS BLVD.","state":"CA"},"type":"Feature","geometry":{"type":"Point","coordinates":[-90.99136,39.792995]}},{"properties":{"city":"LOS ANGELES","zip":"90013","geo_score":0.455,"lic_nbr":1000420,"id":"a6e2jrhlu850","geo_precision":"city","address":"400 S. BROADWAY","state":"CA"},"type":"Feature","geometry":{"type":"Point","coordinates":[-76.214654,41.247305]}},{"properties":{"city":"LOS ANGELES","zip":"90013","geo_score":0.455,"lic_nbr":1000606,"id":"a6e2jrqtx0ge","geo_precision":"city","address":"559 S. BROADWAY","state":"CA"},"type":"Feature","geometry":{"type":"Point","coordinates":[-76.214654,41.247305]}},{"properties":{"city":"LOS ANGELES","zip":"90014","geo_score":0.455,"lic_nbr":1000406,"id":"a6e2jroooayd","geo_precision":"city","address":"862 S. BROADWAY","state":"CA"},"type":"Feature","geometry":{"type":"Point","coordinates":[-76.214654,41.247305]}},{"properties":{"city":"LOS ANGELES","zip":"90015","geo_score":0.433,"lic_nbr":1004054,"id":"a6e2jre7xkjl","geo_precision":"street","address":"1730 W. OLYMPIC BLVD.","state":"CA"},"type":"Feature","geometry":{"type":"Point","coordinates":[-122.740614,47.697587]}},{"properties":{"city":"LOS ANGELES","zip":"90015","geo_score":0.59,"lic_nbr":1000235,"id":"a6e2jrqhvzgy","geo_precision":"street","address":"500 E. WASHINGTON BLVD.","state":"CA"},"type":"Feature","geometry":{"type":"Point","coordinates":[-77.05012,38.901987]}},{"properties":{"city":"LOS ANGELES","zip":"90015","geo_score":0.577,"lic_nbr":1002977,"id":"a6e2jrpee8o7","geo_precision":"street","address":"1245 S. UNION AVENUE","state":"CA"},"type":"Feature","geometry":{"type":"Point","coordinates":[-87.223759,33.212845]}},{"properties":{"city":"LOS ANGELES","zip":"90015","geo_score":0.621,"lic_nbr":1003215,"id":"a6e2jrpdl1t8","geo_precision":"range","address":"1721 S FLOWER STREET","state":"CA"},"type":"Feature","geometry":{"type":"Point","coordinates":[-90.837472,32.52574]}},{"properties":{"city":"LOS ANGELES","zip":"90015","geo_score":0.512,"lic_nbr":1003959,"id":"a6e2jrpjbdtu","geo_precision":"street","address":"1545 W. PICO BLVD","state":"CA"},"type":"Feature","geometry":{"type":"Point","coordinates":[-88.194188,34.808071]}},{"properties":{"city":"LOS ANGELES","zip":"90016","geo_score":0.409,"lic_nbr":1002694,"id":"a6e2jrk174cx","geo_precision":"city","address":"3739 SOUTH CRENSHAW BLVD.","state":"CA"},"type":"Feature","geometry":{"type":"Point","coordinates":[-104.413287,40.523037]}},{"properties":{"city":"LOS ANGELES","zip":"90016","geo_score":0.377,"lic_nbr":1000393,"id":"a6e2jrgbt0b5","geo_precision":"street","address":"5804 RODEO ROAD","state":"CA"},"type":"Feature","geometry":{"type":"Point","coordinates":[-87.036937,34.750391]}},{"properties":{"city":"LOS ANGELES","zip":"90016","geo_score":0.503,"lic_nbr":1000527,"id":"a6e2jrnjfa43","geo_precision":"street","address":"1902 S. LABREA AVE.","state":"CA"},"type":"Feature","geometry":{"type":"Point","coordinates":[-92.095747,35.807089]}},{"properties":{"city":"LOS ANGELES","zip":"90016","geo_score":0.473,"lic_nbr":1000894,"id":"a6e2jrdivr8z","geo_precision":"street","address":"3647 S LA BREA AVE","state":"CA"},"type":"Feature","geometry":{"type":"Point","coordinates":[-91.978669,34.221258]}},{"properties":{"city":"LOS ANGELES","zip":"90016","geo_score":0.404,"lic_nbr":1002012,"id":"a6e2jrcpv5tw","geo_precision":"city","address":"2850 CRENSHAW BOULEVARD","state":"CA"},"type":"Feature","geometry":{"type":"Point","coordinates":[-104.413287,40.523037]}},{"properties":{"city":"LOS ANGELES","zip":"90016","geo_score":0.644,"lic_nbr":1002968,"id":"a6e2jrjid6bz","geo_precision":"street","address":"4501 W. MARTIN LUTHER KING JR. BLVD.","state":"CA"},"type":"Feature","geometry":{"type":"Point","coordinates":[-88.709639,32.381628]}},{"properties":{"city":"LOS ANGELES","zip":"90016","geo_score":0.346,"lic_nbr":1003200,"id":"a6e2jrk4yr80","geo_precision":"street","address":"3411-3415 S. LA BREA AVENUE","state":"CA"},"type":"Feature","geometry":{"type":"Point","coordinates":[-91.978669,34.221258]}},{"properties":{"city":"LOS ANGELES","zip":"90016","geo_score":0.473,"lic_nbr":1003530,"id":"a6e2jrbzx3h5","geo_precision":"street","address":"2601 S. LA BREA AVE","state":"CA"},"type":"Feature","geometry":{"type":"Point","coordinates":[-91.978669,34.221258]}},{"properties":{"city":"LOS ANGELES","zip":"90016","geo_score":0.429,"lic_nbr":1004125,"id":"a6e2jrc99aq2","geo_precision":"street","address":"3560 S. LA CIENEGA BLVD.","state":"CA"},"type":"Feature","geometry":{"type":"Point","coordinates":[-105.9343,35.688242]}},{"properties":{"city":"LOS ANGELES","zip":"90018","geo_score":0.592,"lic_nbr":1003720,"id":"a6e2jrcb0c52","geo_precision":"street","address":"2190 W. WASHINGTON BLVD.","state":"CA"},"type":"Feature","geometry":{"type":"Point","coordinates":[-77.05012,38.901987]}},{"properties":{"city":"LOS ANGELES","zip":"90018","geo_score":0.61,"lic_nbr":1000389,"id":"a6e2jrp68red","geo_precision":"street","address":"4020 WASHINGTON BLVD.","state":"CA"},"type":"Feature","geometry":{"type":"Point","coordinates":[-77.050531,38.902096]}},{"properties":{"city":"LOS ANGELES","zip":"90018","geo_score":0.687,"lic_nbr":1002643,"id":"a6e2jrfq8g4k","geo_precision":"street","address":"1771 W. JEFFERSON BOULEVARD","state":"CA"},"type":"Feature","geometry":{"type":"Point","coordinates":[-86.774479,33.576423]}},{"properties":{"city":"LOS ANGELES","zip":"90018","geo_score":0.591,"lic_nbr":1003155,"id":"a6e2jrep30km","geo_precision":"street","address":"1910 W. WASHINGTON BOULEVARD","state":"CA"},"type":"Feature","geometry":{"type":"Point","coordinates":[-77.05012,38.901987]}},{"properties":{"city":"LOS ANGELES","zip":"90019","geo_score":0.512,"lic_nbr":1000227,"id":"a6e2jrkz21ym","geo_precision":"street","address":"5151 W. PICO BLVD.","state":"CA"},"type":"Feature","geometry":{"type":"Point","coordinates":[-88.194188,34.808071]}},{"properties":{"city":"LOS ANGELES","zip":"90019","geo_score":0.512,"lic_nbr":1000390,"id":"a6e2jrf5kz6g","geo_precision":"street","address":"4201 WEST PICO BLVD.","state":"CA"},"type":"Feature","geometry":{"type":"Point","coordinates":[-88.194188,34.808071]}},{"properties":{"city":"LOS ANGELES","zip":"90019","geo_score":0.469,"lic_nbr":1000734,"id":"a6e2jrlzsi65","geo_precision":"street","address":"1293 S.  LA BREA BLVD.","state":"CA"},"type":"Feature","geometry":{"type":"Point","coordinates":[-91.978669,34.221258]}},{"properties":{"city":"LOS ANGELES","zip":"90019","geo_score":0.512,"lic_nbr":1002954,"id":"a6e2jrgwhkzs","geo_precision":"street","address":"4948 W. PICO BLVD.","state":"CA"},"type":"Feature","geometry":{"type":"Point","coordinates":[-88.194188,34.808071]}},{"properties":{"city":"LOS ANGELES","zip":"90019","geo_score":0.445,"lic_nbr":1002992,"id":"a6e2jrkeug52","geo_precision":"street","address":"1296 S. LA BREA AVENUE","state":"CA"},"type":"Feature","geometry":{"type":"Point","coordinates":[-91.978669,34.221258]}},{"properties":{"city":"LOS ANGELES","zip":"90019","geo_score":0.289,"lic_nbr":1003773,"id":"a6e2jrgcesvl","geo_precision":"street","address":"5604 SAN VICENTE BLVD.","state":"CA"},"type":"Feature","geometry":{"type":"Point","coordinates":[-89.489637,43.102335]}},{"properties":{"city":"LOS ANGELES","zip":"90020","geo_score":0.707,"lic_nbr":1003135,"id":"a6e2jrp8rasm","geo_precision":"range","address":"3525 WEST 3RD STREET","state":"CA"},"type":"Feature","geometry":{"type":"Point","coordinates":[-86.495247,32.742618]}},{"properties":{"city":"LOS ANGELES","zip":"90020","geo_score":0.512,"lic_nbr":1000230,"id":"a6e2jrdq3nfs","geo_precision":"street","address":"4005 W. 3RD STREET","state":"CA"},"type":"Feature","geometry":{"type":"Point","coordinates":[-86.273181,31.716309]}},{"properties":{"city":"LOS ANGELES","zip":"90020","geo_score":0.0,"lic_nbr":1002307,"id":"a6e2jrk16qlo","geo_precision":"unmatched","address":"3971 W. SIXTH STREET","state":"CA"},"type":"Feature","geometry":null},{"properties":{"city":"LOS ANGELES","zip":"90020","geo_score":0.876,"lic_nbr":1003044,"id":"a6e2jrghjhe3","geo_precision":"range","address":"311 S. VERMONT AVENUE","state":"CA"},"type":"Feature","geometry":{"type":"Point","coordinates":[-121.950751,38.275194]}},{"properties":{"city":"LOS ANGELES","zip":"90022","geo_score":0.537,"lic_nbr":1004315,"id":"a6e2jrmx8nlk","geo_precision":"street","address":"4709 WHITTIER BLVD.","state":"CA"},"type":"Feature","geometry":{"type":"Point","coordinates":[-92.88635,35.11721]}},{"properties":{"city":"LOS ANGELES","zip":"90022","geo_score":0.403,"lic_nbr":1002091,"id":"a6e2jrcftkmy","geo_precision":"street","address":"6600 E. OLYMPIC BOULEVARD","state":"CA"},"type":"Feature","geometry":{"type":"Point","coordinates":[-122.740614,47.697587]}},{"properties":{"city":"LOS ANGELES","zip":"90022","geo_score":0.483,"lic_nbr":1002158,"id":"a6e2jraxwzjv","geo_precision":"street","address":"5161 POMONA BLVD.","state":"CA"},"type":"Feature","geometry":{"type":"Point","coordinates":[-84.283014,33.326228]}},{"properties":{"city":"LOS ANGELES","zip":"90022","geo_score":0.586,"lic_nbr":1000841,"id":"a6e2jrpqlfcz","geo_precision":"street","address":"212 S ATLANTIC","state":"CA"},"type":"Feature","geometry":{"type":"Point","coordinates":[-84.397769,33.775323]}},{"properties":{"city":"LOS ANGELES","zip":"90022","geo_score":0.537,"lic_nbr":1000403,"id":"a6e2jrooij92","geo_precision":"street","address":"5623 WHITTIER BLVD.","state":"CA"},"type":"Feature","geometry":{"type":"Point","coordinates":[-92.88635,35.11721]}},{"properties":{"city":"LOS ANGELES","zip":"90022","geo_score":0.419,"lic_nbr":1002025,"id":"a6e2jriwtdlx","geo_precision":"city","address":"6571 EAST OLYMPIC BOULEVARD","state":"CA"},"type":"Feature","geometry":{"type":"Point","coordinates":[-70.657835,43.733967]}},{"properties":{"city":"LOS ANGELES","zip":"90022","geo_score":0.596,"lic_nbr":1002976,"id":"a6e2jrfvs782","geo_precision":"street","address":"1439 S. ATLANTIC BOULEVARD","state":"CA"},"type":"Feature","geometry":{"type":"Point","coordinates":[-84.397635,33.789995]}},{"properties":{"city":"LOS ANGELES","zip":"90022","geo_score":0.599,"lic_nbr":1003071,"id":"a6e2jrqb8oe4","geo_precision":"street","address":"705 SOUTH ATLANTIC BOULEVARD","state":"CA"},"type":"Feature","geometry":{"type":"Point","coordinates":[-84.397769,33.775323]}},{"properties":{"city":"LOS ANGELES","zip":"90022","geo_score":0.537,"lic_nbr":1004028,"id":"a6e2jrduiocv","geo_precision":"street","address":"4732 WHITTIER BLVD","state":"CA"},"type":"Feature","geometry":{"type":"Point","coordinates":[-92.88635,35.11721]}},{"properties":{"city":"EAST LOS ANGELES","zip":"90022","geo_score":0.413,"lic_nbr":1004167,"id":"a6e2jrprr9em","geo_precision":"street","address":"5209 E. OLYMPIC BLVD.","state":"CA"},"type":"Feature","geometry":{"type":"Point","coordinates":[-122.740614,47.697587]}},{"properties":{"city":"LOS ANGELES","zip":"90022","geo_score":0.537,"lic_nbr":1004174,"id":"a6e2jrqv2yrh","geo_precision":"street","address":"4840 WHITTIER BLVD","state":"CA"},"type":"Feature","geometry":{"type":"Point","coordinates":[-92.88635,35.11721]}},{"properties":{"city":"LOS ANGELES","zip":"90022","geo_score":0.537,"lic_nbr":1004280,"id":"a6e2jrpartdw","geo_precision":"street","address":"5201 WHITTIER BLVD.","state":"CA"},"type":"Feature","geometry":{"type":"Point","coordinates":[-92.88635,35.11721]}},{"properties":{"city":"LOS ANGELES","zip":"90022","geo_score":0.413,"lic_nbr":1004285,"id":"a6e2jrk238zj","geo_precision":"street","address":"5050 E. OLYMPIC BLVD.","state":"CA"},"type":"Feature","geometry":{"type":"Point","coordinates":[-122.740614,47.697587]}},{"properties":{"city":"LOS ANGELES","zip":"90022","geo_score":0.527,"lic_nbr":1004337,"id":"a6e2jrdmmn5k","geo_precision":"street","address":"5342 E. WHITTIER BLVD.","state":"CA"},"type":"Feature","geometry":{"type":"Point","coordinates":[-92.88635,35.11721]}},{"properties":{"city":"LOS ANGELES","zip":"90023","geo_score":0.521,"lic_nbr":1002925,"id":"a6e2jrjkqnv1","geo_precision":"street","address":"2324 WHITTIER AVENUE","state":"CA"},"type":"Feature","geometry":{"type":"Point","coordinates":[-92.206159,34.762285]}},{"properties":{"city":"LOS ANGELES","zip":"90023","geo_score":0.537,"lic_nbr":1002960,"id":"a6e2jrexon65","geo_precision":"street","address":"3359 WHITTIER BOULEVARD","state":"CA"},"type":"Feature","geometry":{"type":"Point","coordinates":[-92.88635,35.11721]}},{"properties":{"city":"LOS ANGELES","zip":"90023","geo_score":0.402,"lic_nbr":1003136,"id":"a6e2jrjbqpsz","geo_precision":"street","address":"3352 E. OLYMPIC BOULEVARD","state":"CA"},"type":"Feature","geometry":{"type":"Point","coordinates":[-122.740614,47.697587]}},{"properties":{"city":"LOS ANGELES","zip":"90023","geo_score":0.537,"lic_nbr":1003276,"id":"a6e2jrq4an4v","geo_precision":"street","address":"3821 WHITTIER BOULEVARD","state":"CA"},"type":"Feature","geometry":{"type":"Point","coordinates":[-92.88635,35.11721]}},{"properties":{"city":"LOS ANGELES","zip":"90023","geo_score":0.582,"lic_nbr":1003821,"id":"a6e2jrbxkpt4","geo_precision":"street","address":"1260 S. SOTO STREET","state":"CA"},"type":"Feature","geometry":{"type":"Point","coordinates":[-92.977413,34.647781]}},{"properties":{"city":"LOS ANGELES","zip":"90025","geo_score":0.485,"lic_nbr":1003394,"id":"a6e2jrpug3u0","geo_precision":"street","address":"2180 WESTWOOD BOULEVARD","state":"CA"},"type":"Feature","geometry":{"type":"Point","coordinates":[-86.908546,33.576696]}},{"properties":{"city":"LOS ANGELES","zip":"90025","geo_score":0.493,"lic_nbr":1000569,"id":"a6e2jrg9qg5i","geo_precision":"street","address":"12101 SANTA MONICA BLVD.","state":"CA"},"type":"Feature","geometry":{"type":"Point","coordinates":[-111.839443,40.595352]}},{"properties":{"city":"LOS ANGELES","zip":"90025","geo_score":0.493,"lic_nbr":1003298,"id":"a6e2jreyvsy6","geo_precision":"street","address":"11300 SANTA MONICA BOULEVARD","state":"CA"},"type":"Feature","geometry":{"type":"Point","coordinates":[-111.839443,40.595352]}},{"properties":{"city":"LOS ANGELES","zip":"90025","geo_score":0.493,"lic_nbr":1003375,"id":"a6e2jrckcc6g","geo_precision":"street","address":"12241 SANTA MONICA BOULEVARD","state":"CA"},"type":"Feature","geometry":{"type":"Point","coordinates":[-111.839443,40.595352]}},{"properties":{"city":"LOS ANGELES","zip":"90026","geo_score":0.681,"lic_nbr":1000291,"id":"a6e2jrlwz89o","geo_precision":"street","address":"2134 W. SUNSET BLVD.","state":"CA"},"type":"Feature","geometry":{"type":"Point","coordinates":[-114.226003,33.568231]}},{"properties":{"city":"LOS ANGELES","zip":"90026","geo_score":0.642,"lic_nbr":1002930,"id":"a6e2jrk41b26","geo_precision":"street","address":"1561 W. SUNSET","state":"CA"},"type":"Feature","geometry":{"type":"Point","coordinates":[-114.219151,33.670547]}},{"properties":{"city":"LOS ANGELES","zip":"90026","geo_score":0.681,"lic_nbr":1004169,"id":"a6e2jrbmacbj","geo_precision":"street","address":"1720 W SUNSET BLVD.","state":"CA"},"type":"Feature","geometry":{"type":"Point","coordinates":[-114.226003,33.568231]}},{"properties":{"city":"LOS ANGELES","zip":"90027","geo_score":0.681,"lic_nbr":1004266,"id":"a6e2jrgpsfsg","geo_precision":"street","address":"5419 W. SUNSET BLVD","state":"CA"},"type":"Feature","geometry":{"type":"Point","coordinates":[-114.226019,33.568231]}},{"properties":{"city":"LOS ANGELES","zip":"90027","geo_score":0.902,"lic_nbr":1000504,"id":"a6e2jrihi4mq","geo_precision":"range","address":"4481 HOLLYWOOD BLVD.","state":"CA"},"type":"Feature","geometry":{"type":"Point","coordinates":[-80.188276,26.010536]}},{"properties":{"city":"LOS ANGELES","zip":"90028","geo_score":0.707,"lic_nbr":1000908,"id":"a6e2jrb1udx4","geo_precision":"street","address":"6767 SUNSET BLVD","state":"CA"},"type":"Feature","geometry":{"type":"Point","coordinates":[-114.226019,33.568231]}},{"properties":{"city":"HOLLYWOOD","zip":"90028","geo_score":0.0,"lic_nbr":1000221,"id":"a6e2jrm1x2he","geo_precision":"unmatched","address":"1803 N. CAHUENGA BLVD.","state":"CA"},"type":"Feature","geometry":null},{"properties":{"city":"HOLLYWOOD","zip":"90028","geo_score":0.681,"lic_nbr":1000287,"id":"a6e2jrdftogx","geo_precision":"street","address":"5609 W. SUNSET BLVD.","state":"CA"},"type":"Feature","geometry":{"type":"Point","coordinates":[-114.226019,33.568231]}},{"properties":{"city":"HOLLYWOOD","zip":"90028","geo_score":0.902,"lic_nbr":1000394,"id":"a6e2jrebrnrv","geo_precision":"range","address":"6565 HOLLYWOOD BLVD.","state":"CA"},"type":"Feature","geometry":{"type":"Point","coordinates":[-80.219756,26.009917]}},{"properties":{"city":"HOLLYWOOD","zip":"90028","geo_score":0.902,"lic_nbr":1000430,"id":"a6e2jrgusp98","geo_precision":"range","address":"6401 HOLLYWOOD BLVD.","state":"CA"},"type":"Feature","geometry":{"type":"Point","coordinates":[-80.215676,26.010009]}},{"properties":{"city":"LOS ANGELES","zip":"90028","geo_score":0.681,"lic_nbr":1001286,"id":"a6e2jrha55r7","geo_precision":"street","address":"6106 W. SUNSET BLVD.","state":"CA"},"type":"Feature","geometry":{"type":"Point","coordinates":[-114.226003,33.568231]}},{"properties":{"city":"HOLLYWOOD","zip":"90028","geo_score":0.681,"lic_nbr":1002470,"id":"a6e2jropwasr","geo_precision":"street","address":"6547 W. SUNSET BOULEVARD","state":"CA"},"type":"Feature","geometry":{"type":"Point","coordinates":[-114.226019,33.568231]}},{"properties":{"city":"HOLLYWOOD","zip":"90028","geo_score":0.902,"lic_nbr":1004316,"id":"a6e2jrf9nnma","geo_precision":"range","address":"6753 HOLLYWOOD BLVD.","state":"CA"},"type":"Feature","geometry":{"type":"Point","coordinates":[-80.222294,26.009855]}},{"properties":{"city":"LOS ANGELES","zip":"90029","geo_score":0.423,"lic_nbr":1004163,"id":"a6e2jrahze3o","geo_precision":"city","address":"1075 N WESTERN AVE.","state":"CA"},"type":"Feature","geometry":{"type":"Point","coordinates":[-104.997203,39.832208]}},{"properties":{"city":"LOS ANGELES","zip":"90029","geo_score":0.0,"lic_nbr":1001362,"id":"a6e2jrmoroa4","geo_precision":"unmatched","address":"1008 N VERMONT","state":"CA"},"type":"Feature","geometry":null},{"properties":{"city":"LOS ANGELES","zip":"90031","geo_score":0.473,"lic_nbr":1000214,"id":"a6e2jrjp5lu1","geo_precision":"street","address":"3025 N. BROADWAY","state":"CA"},"type":"Feature","geometry":{"type":"Point","coordinates":[-75.759281,41.3496]}},{"properties":{"city":"LOS ANGELES","zip":"90031","geo_score":0.473,"lic_nbr":1001179,"id":"a6e2jrjr6xr6","geo_precision":"street","address":"2430 NORTH BROADWAY","state":"CA"},"type":"Feature","geometry":{"type":"Point","coordinates":[-75.759281,41.3496]}},{"properties":{"city":"LINCOLN HEIGHTS","zip":"90031","geo_score":0.473,"lic_nbr":1001356,"id":"a6e2jrdxsn4n","geo_precision":"street","address":"3020 N BROADWAY","state":"CA"},"type":"Feature","geometry":{"type":"Point","coordinates":[-75.759281,41.3496]}},{"properties":{"city":"LOS ANGELES","zip":"90031","geo_score":0.54,"lic_nbr":1002339,"id":"a6e2jrfpumgk","geo_precision":"street","address":"2409 N. DALY STREET","state":"CA"},"type":"Feature","geometry":{"type":"Point","coordinates":[-92.448404,42.415203]}},{"properties":{"city":"LOS ANGELES","zip":"90031","geo_score":0.474,"lic_nbr":1002972,"id":"a6e2jrnn7uh7","geo_precision":"street","address":"2534 DALY STREET","state":"CA"},"type":"Feature","geometry":{"type":"Point","coordinates":[-92.601439,34.546981]}},{"properties":{"city":"LOS ANGELES","zip":"90032","geo_score":0.0,"lic_nbr":1002157,"id":"a6e2jrlkrrn0","geo_precision":"unmatched","address":"5150 HUNTINTON DRIVE","state":"CA"},"type":"Feature","geometry":null},{"properties":{"city":"LOS ANGELES","zip":"90033","geo_score":0.512,"lic_nbr":1000196,"id":"a6e2jreuxbod","geo_precision":"street","address":"2401 E. 1ST ST.","state":"CA"},"type":"Feature","geometry":{"type":"Point","coordinates":[-93.332698,34.003074]}},{"properties":{"city":"LOS ANGELES","zip":"90033","geo_score":0.47,"lic_nbr":1000399,"id":"a6e2jrh3m9tr","geo_precision":"street","address":"2417 E. CESAR E. CHAVEZ AVE.","state":"CA"},"type":"Feature","geometry":{"type":"Point","coordinates":[-86.259729,31.587532]}},{"properties":{"city":"LOS ANGELES","zip":"90033","geo_score":0.473,"lic_nbr":1000461,"id":"a6e2jrevfeef","geo_precision":"street","address":"2132 E. CESAR CHAVEZ AVE.","state":"CA"},"type":"Feature","geometry":{"type":"Point","coordinates":[-86.278418,31.499119]}},{"properties":{"city":"LOS ANGELES","zip":"90033","geo_score":0.328,"lic_nbr":1001198,"id":"a6e2jrmyxe8q","geo_precision":"street","address":"1510 EAST FIRST STREET","state":"CA"},"type":"Feature","geometry":{"type":"Point","coordinates":[-119.209337,36.308042]}},{"properties":{"city":"LOS ANGELES","zip":"90033","geo_score":0.473,"lic_nbr":1002979,"id":"a6e2jrjw75zc","geo_precision":"street","address":"1955 E. CESAR CHAVEZ AVENUE","state":"CA"},"type":"Feature","geometry":{"type":"Point","coordinates":[-86.259729,31.587532]}},{"properties":{"city":"LOS ANGELES","zip":"90033","geo_score":0.418,"lic_nbr":1003286,"id":"a6e2jrdsjqxk","geo_precision":"city","address":"1825 EAST CESAR CHAVEZ AVENUE","state":"CA"},"type":"Feature","geometry":{"type":"Point","coordinates":[-77.700825,38.617621]}},{"properties":{"city":"LOS ANGELES","zip":"90034","geo_score":0.78,"lic_nbr":1001555,"id":"a6e2jrnv50pp","geo_precision":"range","address":"10401 VENICE BOULEVARD","state":"CA"},"type":"Feature","geometry":{"type":"Point","coordinates":[-118.403827,34.0203]}},{"properties":{"city":"LOS ANGELES","zip":"90034","geo_score":0.78,"lic_nbr":1000219,"id":"a6e2jrm7j3av","geo_precision":"range","address":"8905 VENICE BLVD.","state":"CA"},"type":"Feature","geometry":{"type":"Point","coordinates":[-118.388228,34.029163]}},{"properties":{"city":"LOS ANGELES","zip":"90034","geo_score":0.429,"lic_nbr":1004090,"id":"a6e2jrcpslk3","geo_precision":"street","address":"1976 S LA CIENEGA BLVD","state":"CA"},"type":"Feature","geometry":{"type":"Point","coordinates":[-105.9343,35.688242]}},{"properties":{"city":"LOS ANGELES","zip":"90034","geo_score":0.78,"lic_nbr":1004110,"id":"a6e2jrifbxzt","geo_precision":"range","address":"9235 VENICE BLVD","state":"CA"},"type":"Feature","geometry":{"type":"Point","coordinates":[-118.393861,34.025994]}},{"properties":{"city":"LOS ANGELES","zip":"90037","geo_score":0.0,"lic_nbr":1000524,"id":"a6e2jravgp5e","geo_precision":"unmatched","address":"3998 S. FIGUEROA STREET","state":"CA"},"type":"Feature","geometry":null},{"properties":{"city":"LOS ANGELES","zip":"90037","geo_score":0.0,"lic_nbr":1002273,"id":"a6e2jrknz3cc","geo_precision":"unmatched","address":"5401 S. FIGUEROA STREET","state":"CA"},"type":"Feature","geometry":null},{"properties":{"city":"LOS ANGELES","zip":"90037","geo_score":0.681,"lic_nbr":1003517,"id":"a6e2jrcratx8","geo_precision":"street","address":"5407 S. VERMONT AVE","state":"CA"},"type":"Feature","geometry":{"type":"Point","coordinates":[-121.954097,37.943812]}},{"properties":{"city":"LOS ANGELES","zip":"90037","geo_score":0.681,"lic_nbr":1004011,"id":"a6e2jrf0k565","geo_precision":"street","address":"4373 S. VERMONT AVE","state":"CA"},"type":"Feature","geometry":{"type":"Point","coordinates":[-121.954097,37.943812]}},{"properties":{"city":"LOS ANGELES","zip":"90038","geo_score":0.493,"lic_nbr":1001195,"id":"a6e2jrlkwtar","geo_precision":"street","address":"5520 SANTA MONICA BOULEVARD","state":"CA"},"type":"Feature","geometry":{"type":"Point","coordinates":[-112.01902,41.076834]}},{"properties":{"city":"LOS ANGELES","zip":"90038","geo_score":0.294,"lic_nbr":1000376,"id":"a6e2jrq53u50","geo_precision":"street","address":"1060 VINE STREET","state":"CA"},"type":"Feature","geometry":{"type":"Point","coordinates":[-87.860316,31.029321]}},{"properties":{"city":"ATWATER VILLAGE","zip":"90039","geo_score":0.634,"lic_nbr":1001946,"id":"a6e2jrns5cgb","geo_precision":"street","address":"3100 GLENDALE BOULEVARD","state":"CA"},"type":"Feature","geometry":{"type":"Point","coordinates":[-112.272442,33.537009]}},{"properties":{"city":"LOS ANGELES","zip":"90039","geo_score":0.634,"lic_nbr":1001332,"id":"a6e2jrquvqai","geo_precision":"street","address":"2556 GLENDALE BLVD","state":"CA"},"type":"Feature","geometry":{"type":"Point","coordinates":[-112.272442,33.537009]}},{"properties":{"city":"LOS ANGELES","zip":"90039","geo_score":0.634,"lic_nbr":1004154,"id":"a6e2jrc0grir","geo_precision":"street","address":"3100 GLENDALE BLVD.","state":"CA"},"type":"Feature","geometry":{"type":"Point","coordinates":[-112.272442,33.537009]}},{"properties":{"city":"LOS ANGELES","zip":"90041","geo_score":0.379,"lic_nbr":1003832,"id":"a6e2jrk9bend","geo_precision":"street","address":"2750 COLORADO BLVD.","state":"CA"},"type":"Feature","geometry":{"type":"Point","coordinates":[-122.15818,37.881567]}},{"properties":{"city":"EAGLE ROCK","zip":"90041","geo_score":0.378,"lic_nbr":1002863,"id":"a6e2jrduf5eh","geo_precision":"street","address":"1753 COLORADO BOULEVARD","state":"CA"},"type":"Feature","geometry":{"type":"Point","coordinates":[-122.15818,37.881567]}},{"properties":{"city":"EAGLE ROCK","zip":"90041","geo_score":0.428,"lic_nbr":1003894,"id":"a6e2jrh0o8bh","geo_precision":"street","address":"4915 EAGLE ROCK BLVD","state":"CA"},"type":"Feature","geometry":{"type":"Point","coordinates":[-115.887728,47.657325]}},{"properties":{"city":"HIGHLAND PARK","zip":"90042","geo_score":0.0,"lic_nbr":1001307,"id":"a6e2jrnn7az9","geo_precision":"unmatched","address":"5441 N FIGUEROA STREET","state":"CA"},"type":"Feature","geometry":null},{"properties":{"city":"LOS ANGELES","zip":"90042","geo_score":0.415,"lic_nbr":1003528,"id":"a6e2jrnr0uli","geo_precision":"city","address":"107 N.  AVENUE 64","state":"CA"},"type":"Feature","geometry":{"type":"Point","coordinates":[-84.883284,37.946186]}},{"properties":{"city":"LOS ANGELES","zip":"90042","geo_score":0.0,"lic_nbr":1003504,"id":"a6e2jrptniqt","geo_precision":"unmatched","address":"6100 N FIGUEROA STREET","state":"CA"},"type":"Feature","geometry":null},{"properties":{"city":"LOS ANGELES","zip":"90042","geo_score":0.0,"lic_nbr":1000216,"id":"a6e2jrf450xq","geo_precision":"unmatched","address":"5803 N. FIGUEROA","state":"CA"},"type":"Feature","geometry":null},{"properties":{"city":"LOS ANGELES","zip":"90042","geo_score":0.571,"lic_nbr":1001184,"id":"a6e2jreitrpk","geo_precision":"range","address":"5401 1/2  NORTH FIGUEROA","state":"CA"},"type":"Feature","geometry":{"type":"Point","coordinates":[-76.344222,42.986571]}},{"properties":{"city":"HIGHLAND PARK","zip":"90042","geo_score":0.0,"lic_nbr":1002936,"id":"a6e2jrbevrcj","geo_precision":"unmatched","address":"5136 N. FIGUEROA STREET","state":"CA"},"type":"Feature","geometry":null},{"properties":{"city":"HIGHLAND PARK","zip":"90042","geo_score":0.0,"lic_nbr":1003797,"id":"a6e2jrn4r5ev","geo_precision":"unmatched","address":"6479 N. FIGUEROA","state":"CA"},"type":"Feature","geometry":null},{"properties":{"city":"LOS ANGELES","zip":"90043","geo_score":0.0,"lic_nbr":1000424,"id":"a6e2jrj9cf0c","geo_precision":"unmatched","address":"3401 W. SLAUSON AVE.","state":"CA"},"type":"Feature","geometry":null},{"properties":{"city":"LOS ANGELES","zip":"90043","geo_score":0.407,"lic_nbr":1004153,"id":"a6e2jrishv4g","geo_precision":"city","address":"6425 S. CRENSHAW BLVD.","state":"CA"},"type":"Feature","geometry":{"type":"Point","coordinates":[-104.413287,40.523037]}},{"properties":{"city":"LOS ANGELES","zip":"90043","geo_score":0.48,"lic_nbr":1004202,"id":"a6e2jroqprdh","geo_precision":"street","address":"3404 W.  FLORENCE AVE.","state":"CA"},"type":"Feature","geometry":{"type":"Point","coordinates":[-91.6373,33.753679]}},{"properties":{"city":"LOS ANGELES","zip":"90044","geo_score":0.442,"lic_nbr":1004036,"id":"a6e2jrf0v4pp","geo_precision":"street","address":"11252 S. NORMANDIE AVENUE","state":"CA"},"type":"Feature","geometry":{"type":"Point","coordinates":[-81.772067,30.297051]}},{"properties":{"city":"LOS ANGELES","zip":"90044","geo_score":0.681,"lic_nbr":1000426,"id":"a6e2jrio1fbm","geo_precision":"street","address":"5860 S. VERMONT AVE.","state":"CA"},"type":"Feature","geometry":{"type":"Point","coordinates":[-121.954097,37.943812]}},{"properties":{"city":"LOS ANGELES","zip":"90044","geo_score":0.563,"lic_nbr":1000596,"id":"a6e2jrhwhy2k","geo_precision":"street","address":"8608 1/2 S. VERMONT AVE.","state":"CA"},"type":"Feature","geometry":{"type":"Point","coordinates":[-121.955158,38.278419]}},{"properties":{"city":"LOS ANGELES","zip":"90044","geo_score":0.0,"lic_nbr":1002970,"id":"a6e2jrmdaefq","geo_precision":"unmatched","address":"6214 S. VERMONT","state":"CA"},"type":"Feature","geometry":null},{"properties":{"city":"LOS ANGELES","zip":"90044","geo_score":0.464,"lic_nbr":1003883,"id":"a6e2jrnkaggv","geo_precision":"street","address":"700 W. IMPERIAL HIGHWAY","state":"CA"},"type":"Feature","geometry":{"type":"Point","coordinates":[-83.40972,33.339678]}},{"properties":{"city":"LOS ANGELES","zip":"90047","geo_score":0.624,"lic_nbr":1002855,"id":"a6e2jrik6wa1","geo_precision":"street","address":"2107 WEST MANCHESTER AVENUE","state":"CA"},"type":"Feature","geometry":{"type":"Point","coordinates":[-71.442945,42.990176]}},{"properties":{"city":"LOS ANGELES","zip":"90047","geo_score":0.0,"lic_nbr":1002948,"id":"a6e2jrmzc7be","geo_precision":"unmatched","address":"1754 W. SLAUSON AVENUE","state":"CA"},"type":"Feature","geometry":null},{"properties":{"city":"LOS ANGELES","zip":"90048","geo_score":0.433,"lic_nbr":1004173,"id":"a6e2jrlxgy85","geo_precision":"city","address":"6399 WILSHIRE BLVD.","state":"CA"},"type":"Feature","geometry":{"type":"Point","coordinates":[-75.51631,39.784835]}},{"properties":{"city":"LOS ANGELES","zip":"90048","geo_score":0.285,"lic_nbr":1000897,"id":"a6e2jrn4jc4m","geo_precision":"street","address":"418 S SAN VICENTE BLVD","state":"CA"},"type":"Feature","geometry":{"type":"Point","coordinates":[-89.489637,43.102335]}},{"properties":{"city":"LOS ANGELES","zip":"90048","geo_score":0.455,"lic_nbr":1004216,"id":"a6e2jrbn0t6l","geo_precision":"street","address":"372 N. LA CIENEGA","state":"CA"},"type":"Feature","geometry":{"type":"Point","coordinates":[-105.9343,35.688242]}},{"properties":{"city":"LOS ANGELES","zip":"90049","geo_score":0.289,"lic_nbr":1003684,"id":"a6e2jrcp1cdd","geo_precision":"street","address":"11661 SAN VICENTE BLVD","state":"CA"},"type":"Feature","geometry":{"type":"Point","coordinates":[-89.492953,43.102709]}},{"properties":{"city":"LOS ANGELES","zip":"90057","geo_score":0.512,"lic_nbr":1003531,"id":"a6e2jrja4dv0","geo_precision":"street","address":"2065 W 6TH ST","state":"CA"},"type":"Feature","geometry":{"type":"Point","coordinates":[-93.692702,34.065284]}},{"properties":{"city":"LOS ANGELES","zip":"90057","geo_score":0.613,"lic_nbr":1001189,"id":"a6e2jrci7r00","geo_precision":"street","address":"264 S RAMPART BLVD","state":"CA"},"type":"Feature","geometry":{"type":"Point","coordinates":[-147.69686,64.843722]}},{"properties":{"city":"LOS ANGELES","zip":"90057","geo_score":0.668,"lic_nbr":1000401,"id":"a6e2jrdru736","geo_precision":"range","address":"2100 W. 7TH STREET","state":"CA"},"type":"Feature","geometry":{"type":"Point","coordinates":[-86.86285,31.737368]}},{"properties":{"city":"LOS ANGELES","zip":"90057","geo_score":0.585,"lic_nbr":1004278,"id":"a6e2jrmulct3","geo_precision":"street","address":"2550 W. 7TH ST.","state":"CA"},"type":"Feature","geometry":{"type":"Point","coordinates":[-93.143689,34.268399]}},{"properties":{"city":"LOS ANGELES","zip":"90058","geo_score":0.433,"lic_nbr":1001182,"id":"a6e2jrba78fh","geo_precision":"city","address":"1901 SOUTH ALAMEDA","state":"CA"},"type":"Feature","geometry":{"type":"Point","coordinates":[-80.297551,25.763433]}},{"properties":{"city":"LOS ANGELES","zip":"90059","geo_score":0.464,"lic_nbr":1003580,"id":"a6e2jrk2q0c9","geo_precision":"street","address":"611 E. IMPERIAL HIGHWAY","state":"CA"},"type":"Feature","geometry":{"type":"Point","coordinates":[-83.40972,33.339678]}},{"properties":{"city":"LOS ANGELES","zip":"90059","geo_score":0.707,"lic_nbr":1000425,"id":"a6e2jrimh09p","geo_precision":"street","address":"11712 WILMINGTON AVE.","state":"CA"},"type":"Feature","geometry":{"type":"Point","coordinates":[-75.598385,39.739439]}},{"properties":{"city":"LOS ANGELES","zip":"90062","geo_score":0.428,"lic_nbr":1001957,"id":"a6e2jrhfyu1b","geo_precision":"city","address":"4417 S. WESTERN AVENUE","state":"CA"},"type":"Feature","geometry":{"type":"Point","coordinates":[-104.997203,39.832208]}},{"properties":{"city":"LOS ANGELES","zip":"90062","geo_score":0.423,"lic_nbr":1000211,"id":"a6e2jrg9u0es","geo_precision":"city","address":"4003 S. WESTERN AVE.","state":"CA"},"type":"Feature","geometry":{"type":"Point","coordinates":[-104.997203,39.832208]}},{"properties":{"city":"LOS ANGELES","zip":"90062","geo_score":0.43,"lic_nbr":1002029,"id":"a6e2jrcpcdie","geo_precision":"city","address":"5323 WESTERN AVENUE","state":"CA"},"type":"Feature","geometry":{"type":"Point","coordinates":[-104.997203,39.832208]}},{"properties":{"city":"LOS ANGELES","zip":"90062","geo_score":0.677,"lic_nbr":1000415,"id":"a6e2jrlde0gz","geo_precision":"street","address":"1675 W. MARTIN LUTHER KING","state":"CA"},"type":"Feature","geometry":{"type":"Point","coordinates":[-88.563062,33.106457]}},{"properties":{"city":"LOS ANGELES","zip":"90063","geo_score":0.561,"lic_nbr":1002024,"id":"a6e2jrnlk325","geo_precision":"street","address":"3657 EAST 1ST STREET","state":"CA"},"type":"Feature","geometry":{"type":"Point","coordinates":[-86.250557,31.716898]}},{"properties":{"city":"LOS ANGELES","zip":"90063","geo_score":0.327,"lic_nbr":1002294,"id":"a6e2jrp4z17g","geo_precision":"street","address":"3517 EAST FIRST STREET","state":"CA"},"type":"Feature","geometry":{"type":"Point","coordinates":[-119.209337,36.308042]}},{"properties":{"city":"LOS ANGELES","zip":"90063","geo_score":0.463,"lic_nbr":1002924,"id":"a6e2jreor6m1","geo_precision":"street","address":"3805 E. CESAR CHAVEZ","state":"CA"},"type":"Feature","geometry":{"type":"Point","coordinates":[-86.259729,31.587532]}},{"properties":{"city":"LOS ANGELES","zip":"90063","geo_score":0.473,"lic_nbr":1004062,"id":"a6e2jre5va2y","geo_precision":"street","address":"3447 E. CESAR CHAVEZ AVE.","state":"CA"},"type":"Feature","geometry":{"type":"Point","coordinates":[-86.259729,31.587532]}},{"properties":{"city":"LOS ANGELES","zip":"90063","geo_score":0.512,"lic_nbr":1004307,"id":"a6e2jropkwie","geo_precision":"street","address":"3581 E. 1ST ST.","state":"CA"},"type":"Feature","geometry":{"type":"Point","coordinates":[-93.332698,34.003074]}},{"properties":{"city":"LOS ANGELES","zip":"90064","geo_score":0.512,"lic_nbr":1000907,"id":"a6e2jrdmfj0i","geo_precision":"street","address":"11518 W PICO BLVD","state":"CA"},"type":"Feature","geometry":{"type":"Point","coordinates":[-88.194188,34.808071]}},{"properties":{"city":"LOS ANGELES","zip":"90064","geo_score":0.675,"lic_nbr":1002953,"id":"a6e2jrqpz450","geo_precision":"range","address":"11201 NATIONAL BLVD.","state":"CA"},"type":"Feature","geometry":{"type":"Point","coordinates":[-79.136613,39.696359]}},{"properties":{"city":"LOS ANGELES","zip":"90064","geo_score":0.538,"lic_nbr":1003093,"id":"a6e2jrg5ha41","geo_precision":"street","address":"2207 S. SEPULVEDA BOULEVARD","state":"CA"},"type":"Feature","geometry":{"type":"Point","coordinates":[-118.467726,34.221416]}},{"properties":{"city":"LOS ANGELES","zip":"90065","geo_score":0.624,"lic_nbr":1002980,"id":"a6e2jrmpdkk3","geo_precision":"street","address":"3027 N. SAN FERNANDO ROAD","state":"CA"},"type":"Feature","geometry":{"type":"Point","coordinates":[-122.47011,37.730308]}},{"properties":{"city":"LOS ANGELES","zip":"90065","geo_score":0.624,"lic_nbr":1004200,"id":"a6e2jrk8g17b","geo_precision":"street","address":"3127 N. SAN FERNANDO RD.","state":"CA"},"type":"Feature","geometry":{"type":"Point","coordinates":[-122.47011,37.730308]}},{"properties":{"city":"LOS ANGELES","zip":"90065","geo_score":0.0,"lic_nbr":1004224,"id":"a6e2jrelb971","geo_precision":"unmatched","address":"520 W AVENUE 26","state":"CA"},"type":"Feature","geometry":null},{"properties":{"city":"BELL GARDENS","zip":"90201","geo_score":0.494,"lic_nbr":1000405,"id":"a6e2jrjgoje4","geo_precision":"street","address":"6821-A  EASTERN AVE.","state":"CA"},"type":"Feature","geometry":{"type":"Point","coordinates":[-85.364048,33.145772]}},{"properties":{"city":"CUDAHY","zip":"90201","geo_score":0.654,"lic_nbr":1002931,"id":"a6e2jrlj7wgf","geo_precision":"street","address":"7920 ATLANTIC AVENUE","state":"CA"},"type":"Feature","geometry":{"type":"Point","coordinates":[-84.412775,33.655303]}},{"properties":{"city":"BELL GARDENS","zip":"90201","geo_score":0.488,"lic_nbr":1002987,"id":"a6e2jrggg19i","geo_precision":"city","address":"6000 FLORENCE","state":"CA"},"type":"Feature","geometry":{"type":"Point","coordinates":[-91.645683,33.765661]}},{"properties":{"city":"BEVERLY HILLS","zip":"90211","geo_score":0.583,"lic_nbr":1004172,"id":"a6e2jrog8r7z","geo_precision":"street","address":"221 S. ROBERTSON BLVD.","state":"CA"},"type":"Feature","geometry":{"type":"Point","coordinates":[-87.518665,31.427937]}},{"properties":{"city":"COMPTON","zip":"90220","geo_score":0.439,"lic_nbr":1000422,"id":"a6e2jrhtesrg","geo_precision":"street","address":"148 E. COMPTON BLVD.","state":"CA"},"type":"Feature","geometry":{"type":"Point","coordinates":[-86.518345,30.873405]}},{"properties":{"city":"COMPTON","zip":"90220","geo_score":0.439,"lic_nbr":1001335,"id":"a6e2jrblhako","geo_precision":"street","address":"208 E. COMPTON BLVD.","state":"CA"},"type":"Feature","geometry":{"type":"Point","coordinates":[-86.518345,30.873405]}},{"properties":{"city":"COMPTON","zip":"90221","geo_score":0.634,"lic_nbr":1002180,"id":"a6e2jrq24w1p","geo_precision":"street","address":"13022 S. ATLANTIC AVENUE","state":"CA"},"type":"Feature","geometry":{"type":"Point","coordinates":[-84.412775,33.655303]}},{"properties":{"city":"COMPTON","zip":"90221","geo_score":0.402,"lic_nbr":1002963,"id":"a6e2jriie2mk","geo_precision":"city","address":"1330 E. ALONDRA BLVD.","state":"CA"},"type":"Feature","geometry":{"type":"Point","coordinates":[-76.386628,40.156206]}},{"properties":{"city":"COMPTON","zip":"90221","geo_score":0.902,"lic_nbr":1003197,"id":"a6e2jrpcwk88","geo_precision":"range","address":"930 N. LONG BEACH BOULEVARD","state":"CA"},"type":"Feature","geometry":{"type":"Point","coordinates":[-118.189363,33.778296]}},{"properties":{"city":"COMPTON","zip":"90222","geo_score":0.421,"lic_nbr":1000396,"id":"a6e2jrcdratr","geo_precision":"city","address":"739 W. ROSECRANS AVE.","state":"CA"},"type":"Feature","geometry":{"type":"Point","coordinates":[-114.59023,32.781434]}},{"properties":{"city":"COMPTON","zip":"90222","geo_score":0.42,"lic_nbr":1001949,"id":"a6e2jraycf6x","geo_precision":"city","address":"809 W. ROSECRANS","state":"CA"},"type":"Feature","geometry":{"type":"Point","coordinates":[-114.59023,32.781434]}},{"properties":{"city":"CULVER CITY","zip":"90230","geo_score":0.554,"lic_nbr":1000292,"id":"a6e2jre9ugui","geo_precision":"street","address":"4911 S. SEPULVEDA BLVD.","state":"CA"},"type":"Feature","geometry":{"type":"Point","coordinates":[-118.467726,34.221416]}},{"properties":{"city":"CULVER CITY","zip":"90230","geo_score":0.617,"lic_nbr":1003661,"id":"a6e2jrovqiwg","geo_precision":"street","address":"4738 INGLEWOOD BLVD.","state":"CA"},"type":"Feature","geometry":{"type":"Point","coordinates":[-95.996718,41.15864]}},{"properties":{"city":"CULVER CITY","zip":"90232","geo_score":0.902,"lic_nbr":1001263,"id":"a6e2jrjjhu3q","geo_precision":"range","address":"10200 VENICE BLVD.","state":"CA"},"type":"Feature","geometry":{"type":"Point","coordinates":[-118.401713,34.021505]}},{"properties":{"city":"CULVER CITY","zip":"90232","geo_score":0.0,"lic_nbr":1000438,"id":"a6e2jrqiyxs1","geo_precision":"unmatched","address":"10716 W. WASHINGTON","state":"CA"},"type":"Feature","geometry":null},{"properties":{"city":"CULVER CITY","zip":"90232","geo_score":0.902,"lic_nbr":1000855,"id":"a6e2jrbixwta","geo_precision":"range","address":"10404 VENICE BLVD","state":"CA"},"type":"Feature","geometry":{"type":"Point","coordinates":[-118.403853,34.020283]}},{"properties":{"city":"CULVER CITY","zip":"90232","geo_score":0.902,"lic_nbr":1001475,"id":"a6e2jrdyc1o3","geo_precision":"range","address":"9008 VENICE BLVD","state":"CA"},"type":"Feature","geometry":{"type":"Point","coordinates":[-118.392699,34.026368]}},{"properties":{"city":"DOWNEY","zip":"90240","geo_score":0.425,"lic_nbr":1000940,"id":"a6e2jrhj5llx","geo_precision":"city","address":"8516 PARAMOUNT BLVD.","state":"CA"},"type":"Feature","geometry":{"type":"Point","coordinates":[-86.679727,40.467536]}},{"properties":{"city":"DOWNEY","zip":"90240","geo_score":0.488,"lic_nbr":1001333,"id":"a6e2jrk97qdz","geo_precision":"street","address":"7433  FLORENCE AVENUE","state":"CA"},"type":"Feature","geometry":{"type":"Point","coordinates":[-91.6373,33.753679]}},{"properties":{"city":"DOWNEY","zip":"90241","geo_score":0.425,"lic_nbr":1002152,"id":"a6e2jrhsjwoz","geo_precision":"city","address":"9907 PARAMOUNT BLVD.","state":"CA"},"type":"Feature","geometry":{"type":"Point","coordinates":[-86.679727,40.467536]}},{"properties":{"city":"DOWNEY","zip":"90241","geo_score":0.467,"lic_nbr":1003180,"id":"a6e2jrbvl8a2","geo_precision":"street","address":"7402 E. FLORENCE AVENUE","state":"CA"},"type":"Feature","geometry":{"type":"Point","coordinates":[-91.6373,33.753679]}},{"properties":{"city":"DOWNEY","zip":"90242","geo_score":0.503,"lic_nbr":1000857,"id":"a6e2jrbjr3f9","geo_precision":"street","address":"8847 IMPERIAL HWY.","state":"CA"},"type":"Feature","geometry":{"type":"Point","coordinates":[-83.40972,33.339678]}},{"properties":{"city":"EL SEGUNDO","zip":"90245","geo_score":0.453,"lic_nbr":1004149,"id":"a6e2jrnpisf1","geo_precision":"street","address":"630 N SEPULVEDA BLVD","state":"CA"},"type":"Feature","geometry":{"type":"Point","coordinates":[-118.467629,34.231498]}},{"properties":{"city":"GARDENA","zip":"90247","geo_score":0.315,"lic_nbr":1000881,"id":"a6e2jre3e6cq","geo_precision":"street","address":"1124 REDONDO BEACH BLVD.","state":"CA"},"type":"Feature","geometry":{"type":"Point","coordinates":[-87.793179,31.962591]}},{"properties":{"city":"GARDENA","zip":"90247","geo_score":0.421,"lic_nbr":1000854,"id":"a6e2jrk2xcbg","geo_precision":"city","address":"857 W ROSECRANS AVE","state":"CA"},"type":"Feature","geometry":{"type":"Point","coordinates":[-114.59023,32.781434]}},{"properties":{"city":"GARDENA","zip":"90247","geo_score":0.309,"lic_nbr":1000885,"id":"a6e2jrm28sdp","geo_precision":"street","address":"1124-D REDONDO BEACH BLVD","state":"CA"},"type":"Feature","geometry":{"type":"Point","coordinates":[-87.793179,31.962591]}},{"properties":{"city":"GARDENA","zip":"90247","geo_score":0.681,"lic_nbr":1004077,"id":"a6e2jrge25le","geo_precision":"street","address":"14137 S. VERMONT AVE.","state":"CA"},"type":"Feature","geometry":{"type":"Point","coordinates":[-121.954097,37.943812]}},{"properties":{"city":"GARDENA","zip":"90247","geo_score":0.419,"lic_nbr":1004079,"id":"a6e2jrjesdqs","geo_precision":"city","address":"1088 W. ROSECRANS AVE","state":"CA"},"type":"Feature","geometry":{"type":"Point","coordinates":[-114.59023,32.781434]}},{"properties":{"city":"GARDENA","zip":"90249","geo_score":0.421,"lic_nbr":1000879,"id":"a6e2jrmop5kr","geo_precision":"city","address":"15324 S WESTERN AVE","state":"CA"},"type":"Feature","geometry":{"type":"Point","coordinates":[-104.997203,39.832208]}},{"properties":{"city":"GARDENA","zip":"90249","geo_score":0.42,"lic_nbr":1002111,"id":"a6e2jrcb9rzz","geo_precision":"city","address":"2249 W. ROSECRANS AVENUE","state":"CA"},"type":"Feature","geometry":{"type":"Point","coordinates":[-114.59023,32.781434]}},{"properties":{"city":"HAWTHORNE","zip":"90250","geo_score":0.64,"lic_nbr":1002113,"id":"a6e2jrjwpcw6","geo_precision":"street","address":"12920 HAWTHORNE BOULEVARD","state":"CA"},"type":"Feature","geometry":{"type":"Point","coordinates":[-87.913046,30.494446]}},{"properties":{"city":"HAWTHORNE","zip":"90250","geo_score":0.418,"lic_nbr":1000228,"id":"a6e2jrg9hytt","geo_precision":"city","address":"3928 W. ROSECRANS","state":"CA"},"type":"Feature","geometry":{"type":"Point","coordinates":[-114.59023,32.781434]}},{"properties":{"city":"HAWTHORNE","zip":"90250","geo_score":0.64,"lic_nbr":1000586,"id":"a6e2jrbh9kir","geo_precision":"street","address":"11816 HAWTHORNE BLVD.","state":"CA"},"type":"Feature","geometry":{"type":"Point","coordinates":[-87.913046,30.494446]}},{"properties":{"city":"HAWTHORNE","zip":"90250","geo_score":0.42,"lic_nbr":1001348,"id":"a6e2jrghjfma","geo_precision":"city","address":"3937 ROSECRANS","state":"CA"},"type":"Feature","geometry":{"type":"Point","coordinates":[-114.59023,32.781434]}},{"properties":{"city":"HAWTHORNE","zip":"90250","geo_score":0.407,"lic_nbr":1002958,"id":"a6e2jrlvvt4a","geo_precision":"city","address":"4744 W. EL SEGUNDO BOULEVARD","state":"CA"},"type":"Feature","geometry":{"type":"Point","coordinates":[-92.896003,35.902299]}},{"properties":{"city":"HAWTHORNE","zip":"90250","geo_score":0.64,"lic_nbr":1003714,"id":"a6e2jrqto5y0","geo_precision":"street","address":"12829 HAWTHORNE BLVD","state":"CA"},"type":"Feature","geometry":{"type":"Point","coordinates":[-87.913046,30.494446]}},{"properties":{"city":"HAWTHORNE","zip":"90250","geo_score":0.419,"lic_nbr":1004078,"id":"a6e2jral7r4h","geo_precision":"city","address":"3103 W. ROSECRANS AVE.","state":"CA"},"type":"Feature","geometry":{"type":"Point","coordinates":[-114.59023,32.781434]}},{"properties":{"city":"HAWTHORNE","zip":"90250","geo_score":0.407,"lic_nbr":1004317,"id":"a6e2jrkkv6pe","geo_precision":"city","address":"12801 S. CRENSHAW BLVD","state":"CA"},"type":"Feature","geometry":{"type":"Point","coordinates":[-104.413287,40.523037]}},{"properties":{"city":"HUNTINGTON PARK","zip":"90255","geo_score":0.675,"lic_nbr":1000617,"id":"a6e2jrqkhgsq","geo_precision":"range","address":"2658 E FLORENCE AVE","state":"CA"},"type":"Feature","geometry":{"type":"Point","coordinates":[-91.664073,33.736186]}},{"properties":{"city":"HUNTINGTON PARK","zip":"90255","geo_score":0.659,"lic_nbr":1000763,"id":"a6e2jrltu7l7","geo_precision":"street","address":"4137 SANTA ANA ST","state":"CA"},"type":"Feature","geometry":{"type":"Point","coordinates":[-112.036151,41.149924]}},{"properties":{"city":"HUNTINGTON PARK","zip":"90255","geo_score":0.675,"lic_nbr":1001183,"id":"a6e2jrdy33ua","geo_precision":"range","address":"2688 E. FLORENCE AVE.","state":"CA"},"type":"Feature","geometry":{"type":"Point","coordinates":[-91.662187,33.73854]}},{"properties":{"city":"HUNTINGTON PARK","zip":"90255","geo_score":0.512,"lic_nbr":1001192,"id":"a6e2jrbozip0","geo_precision":"street","address":"2576 CLARENDON AVE","state":"CA"},"type":"Feature","geometry":{"type":"Point","coordinates":[-84.865383,42.072461]}},{"properties":{"city":"HUNTINGTON PARK","zip":"90255","geo_score":0.576,"lic_nbr":1002840,"id":"a6e2jripd54o","geo_precision":"range","address":"7006 SANTA FE AVENUE","state":"CA"},"type":"Feature","geometry":{"type":"Point","coordinates":[-112.00681,40.584287]}},{"properties":{"city":"HUNTINGTON PARK","zip":"90255","geo_score":0.467,"lic_nbr":1002937,"id":"a6e2jrfrlr7d","geo_precision":"street","address":"7201 PACIFIC BOULEVARD","state":"CA"},"type":"Feature","geometry":{"type":"Point","coordinates":[-117.229842,32.818708]}},{"properties":{"city":"HUNTINGTON PARK","zip":"90255","geo_score":0.683,"lic_nbr":1003265,"id":"a6e2jrcua325","geo_precision":"street","address":"3217 EAST FLORENCE AVENUE","state":"CA"},"type":"Feature","geometry":{"type":"Point","coordinates":[-87.649221,34.757449]}},{"properties":{"city":"HUNTINGTON PARK","zip":"90255","geo_score":0.39,"lic_nbr":1003995,"id":"a6e2jrof3uq8","geo_precision":"street","address":"2451 E. FLORENCE","state":"CA"},"type":"Feature","geometry":{"type":"Point","coordinates":[-91.45325,33.708746]}},{"properties":{"city":"HUNTINGTON PARK","zip":"90255","geo_score":0.553,"lic_nbr":1004144,"id":"a6e2jrd3hv8i","geo_precision":"range","address":"2400 E. FLORENCE AVE","state":"CA"},"type":"Feature","geometry":{"type":"Point","coordinates":[-91.688735,33.727847]}},{"properties":{"city":"LAWNDALE","zip":"90260","geo_score":0.64,"lic_nbr":1000594,"id":"a6e2jrkzbyu5","geo_precision":"street","address":"16200 HAWTHORNE BLVD.","state":"CA"},"type":"Feature","geometry":{"type":"Point","coordinates":[-87.913046,30.494446]}},{"properties":{"city":"LAWNDALE","zip":"90260","geo_score":0.64,"lic_nbr":1000616,"id":"a6e2jrqpql0b","geo_precision":"street","address":"16916 HAWTHORNE BLVD","state":"CA"},"type":"Feature","geometry":{"type":"Point","coordinates":[-87.913046,30.494446]}},{"properties":{"city":"LAWNDALE","zip":"90260","geo_score":0.582,"lic_nbr":1001135,"id":"a6e2jrqr3758","geo_precision":"street","address":"14408 A HAWTHORNE BLVD","state":"CA"},"type":"Feature","geometry":{"type":"Point","coordinates":[-85.905155,33.661853]}},{"properties":{"city":"LAWNDALE","zip":"90260","geo_score":0.307,"lic_nbr":1002822,"id":"a6e2jrguqxj5","geo_precision":"street","address":"4443 REDONDO BEACH BOULEVARD","state":"CA"},"type":"Feature","geometry":{"type":"Point","coordinates":[-87.873708,32.015817]}},{"properties":{"city":"HAWTHORNE","zip":"90260","geo_score":0.524,"lic_nbr":1003962,"id":"a6e2jrcz5eay","geo_precision":"street","address":"15039 S. PRAIRIE","state":"CA"},"type":"Feature","geometry":{"type":"Point","coordinates":[-85.258551,34.013267]}},{"properties":{"city":"LYNWOOD","zip":"90262","geo_score":0.686,"lic_nbr":1003081,"id":"a6e2jrb5gax8","geo_precision":"street","address":"10900 LONG BEACH BOULEVARD","state":"CA"},"type":"Feature","geometry":{"type":"Point","coordinates":[-118.20485,33.881322]}},{"properties":{"city":"LYNWOOD","zip":"90262","geo_score":0.634,"lic_nbr":1002092,"id":"a6e2jrhy17mf","geo_precision":"street","address":"11098 S. ATLANTIC AVENUE","state":"CA"},"type":"Feature","geometry":{"type":"Point","coordinates":[-84.412775,33.655303]}},{"properties":{"city":"LYNWOOD","zip":"90262","geo_score":0.654,"lic_nbr":1003805,"id":"a6e2jrbuglgb","geo_precision":"street","address":"10721 ATLANTIC AVE.","state":"CA"},"type":"Feature","geometry":{"type":"Point","coordinates":[-84.412775,33.655303]}},{"properties":{"city":"LYNWOOD","zip":"90262","geo_score":0.686,"lic_nbr":1000890,"id":"a6e2jraw20k1","geo_precision":"street","address":"11130 LONG BEACH BLVD","state":"CA"},"type":"Feature","geometry":{"type":"Point","coordinates":[-118.20485,33.881322]}},{"properties":{"city":"LYNWOOD","zip":"90262","geo_score":0.654,"lic_nbr":1001188,"id":"a6e2jrhumyxu","geo_precision":"street","address":"3448 MARTIN LUTHER KING JR. BLVD.","state":"CA"},"type":"Feature","geometry":{"type":"Point","coordinates":[-88.709639,32.381628]}},{"properties":{"city":"LYNWOOD","zip":"90262","geo_score":0.654,"lic_nbr":1002989,"id":"a6e2jrqx5ae5","geo_precision":"street","address":"3797 MARTIN LUTHER KING JR. BLVD.","state":"CA"},"type":"Feature","geometry":{"type":"Point","coordinates":[-88.709639,32.381628]}},{"properties":{"city":"LYNWOOD","zip":"90262","geo_score":0.686,"lic_nbr":1003284,"id":"a6e2jrlu34wc","geo_precision":"street","address":"11301 LONG BEACH BOULEVARD","state":"CA"},"type":"Feature","geometry":{"type":"Point","coordinates":[-118.20485,33.881322]}},{"properties":{"city":"LYNWOOD","zip":"90262","geo_score":0.654,"lic_nbr":1004197,"id":"a6e2jrp4sfvs","geo_precision":"street","address":"3618 MARTIN LUTHER KING JR BLVD.","state":"CA"},"type":"Feature","geometry":{"type":"Point","coordinates":[-88.709639,32.381628]}},{"properties":{"city":"MAYWOOD","zip":"90270","geo_score":0.61,"lic_nbr":1004170,"id":"a6e2jrkqatpz","geo_precision":"street","address":"6048 ATLANTIC BLVD.","state":"CA"},"type":"Feature","geometry":{"type":"Point","coordinates":[-84.397635,33.789995]}},{"properties":{"city":"MAYWOOD","zip":"90270","geo_score":0.61,"lic_nbr":1002748,"id":"a6e2jrgog3vq","geo_precision":"street","address":"5810 ATLANTIC BOULEVARD","state":"CA"},"type":"Feature","geometry":{"type":"Point","coordinates":[-84.397635,33.789995]}},{"properties":{"city":"MAYWOOD","zip":"90270","geo_score":0.0,"lic_nbr":1004233,"id":"a6e2jrn7r1ox","geo_precision":"unmatched","address":"4457 SLAUSON AVE.","state":"CA"},"type":"Feature","geometry":null},{"properties":{"city":"RANCHO PALOS VERDES","zip":"90275","geo_score":0.426,"lic_nbr":1002705,"id":"a6e2jrdw41y9","geo_precision":"city","address":"29135 S. WESTERN AVENUE","state":"CA"},"type":"Feature","geometry":{"type":"Point","coordinates":[-104.997203,39.832208]}},{"properties":{"city":"SOUTH GATE","zip":"90280","geo_score":0.259,"lic_nbr":1004321,"id":"a6e2jropdu9s","geo_precision":"street","address":"4149 TWEEDY BLVD.","state":"CA"},"type":"Feature","geometry":{"type":"Point","coordinates":[-72.479756,42.359778]}},{"properties":{"city":"SOUTH GATE","zip":"90280","geo_score":0.259,"lic_nbr":1001928,"id":"a6e2jrc6tf22","geo_precision":"street","address":"4181 TWEEDY BLVD.","state":"CA"},"type":"Feature","geometry":{"type":"Point","coordinates":[-72.479756,42.359778]}},{"properties":{"city":"SOUTH GATE","zip":"90280","geo_score":0.687,"lic_nbr":1000397,"id":"a6e2jrqi9p0p","geo_precision":"street","address":"8116 LONG BEACH BLVD.","state":"CA"},"type":"Feature","geometry":{"type":"Point","coordinates":[-118.20485,33.881322]}},{"properties":{"city":"VENICE","zip":"90291","geo_score":0.796,"lic_nbr":1000434,"id":"a6e2jrq8v96b","geo_precision":"range","address":"303 LINCOLN BLVD.","state":"CA"},"type":"Feature","geometry":{"type":"Point","coordinates":[-96.591869,40.72537]}},{"properties":{"city":"VENICE","zip":"90291","geo_score":0.601,"lic_nbr":1002984,"id":"a6e2jrgl06bk","geo_precision":"street","address":"2489 LINCOLN BOULEVARD","state":"CA"},"type":"Feature","geometry":{"type":"Point","coordinates":[-96.701191,40.80808]}},{"properties":{"city":"LOS ANGELES","zip":"90292","geo_score":0.601,"lic_nbr":1000899,"id":"a6e2jrpnp7xb","geo_precision":"street","address":"4004 LINCOLN BLVD","state":"CA"},"type":"Feature","geometry":{"type":"Point","coordinates":[-96.701191,40.80808]}},{"properties":{"city":"INGLEWOOD","zip":"90301","geo_score":0.474,"lic_nbr":1000891,"id":"a6e2jravnwjh","geo_precision":"street","address":"1275 S. LA BREA AVE.","state":"CA"},"type":"Feature","geometry":{"type":"Point","coordinates":[-91.978669,34.221258]}},{"properties":{"city":"INGLEWOOD","zip":"90301","geo_score":0.63,"lic_nbr":1000735,"id":"a6e2jrptuvq5","geo_precision":"street","address":"420 E MANCHESTER BLVD","state":"CA"},"type":"Feature","geometry":{"type":"Point","coordinates":[-71.391241,43.005205]}},{"properties":{"city":"INGLEWOOD","zip":"90301","geo_score":0.606,"lic_nbr":1001327,"id":"a6e2jrntmmij","geo_precision":"range","address":"240 N MARKET STREET","state":"CA"},"type":"Feature","geometry":{"type":"Point","coordinates":[-86.532474,33.58462]}},{"properties":{"city":"INGLEWOOD","zip":"90301","geo_score":0.61,"lic_nbr":1004152,"id":"a6e2jrmyyb0k","geo_precision":"range","address":"229 E. SPRUCE AVE.","state":"CA"},"type":"Feature","geometry":{"type":"Point","coordinates":[-104.499569,37.169614]}},{"properties":{"city":"INGLEWOOD","zip":"90301","geo_score":0.547,"lic_nbr":1004201,"id":"a6e2jrk9slur","geo_precision":"street","address":"1101 S. LA BREA DR.","state":"CA"},"type":"Feature","geometry":{"type":"Point","coordinates":[-91.978669,34.221258]}},{"properties":{"city":"INGLEWOOD","zip":"90302","geo_score":0.61,"lic_nbr":1001474,"id":"a6e2jrkbr3db","geo_precision":"range","address":"903 N LA BREA","state":"CA"},"type":"Feature","geometry":{"type":"Point","coordinates":[-91.979941,34.221107]}},{"properties":{"city":"INGLEWOOD","zip":"90302","geo_score":0.663,"lic_nbr":1004300,"id":"a6e2jrbjm7bq","geo_precision":"range","address":"901 N. LA BREA BLVD.","state":"CA"},"type":"Feature","geometry":{"type":"Point","coordinates":[-91.979962,34.221107]}},{"properties":{"city":"INGLEWOOD","zip":"90303","geo_score":0.407,"lic_nbr":1000429,"id":"a6e2jrb1vy51","geo_precision":"city","address":"11220  CRENSHAW BLVD.","state":"CA"},"type":"Feature","geometry":{"type":"Point","coordinates":[-104.413287,40.523037]}},{"properties":{"city":"INGLEWOOD","zip":"90304","geo_score":0.585,"lic_nbr":1003179,"id":"a6e2jrhqvbfk","geo_precision":"street","address":"5138 W. CENTURY BOULEVARD","state":"CA"},"type":"Feature","geometry":{"type":"Point","coordinates":[-87.794958,33.934483]}},{"properties":{"city":"INGLEWOOD","zip":"90304","geo_score":0.64,"lic_nbr":1003960,"id":"a6e2jri2jgk7","geo_precision":"street","address":"10048 HAWTHORNE BLVD","state":"CA"},"type":"Feature","geometry":{"type":"Point","coordinates":[-87.913046,30.494446]}},{"properties":{"city":"INGLEWOOD","zip":"90305","geo_score":0.629,"lic_nbr":1000418,"id":"a6e2jrgyvmyj","geo_precision":"street","address":"2401 W. MANCHESTER BLVD.","state":"CA"},"type":"Feature","geometry":{"type":"Point","coordinates":[-71.391241,43.005205]}},{"properties":{"city":"SANTA MONICA","zip":"90404","geo_score":0.601,"lic_nbr":1004236,"id":"a6e2jrkdseim","geo_precision":"street","address":"1865 LINCOLN BLVD","state":"CA"},"type":"Feature","geometry":{"type":"Point","coordinates":[-96.701191,40.80808]}},{"properties":{"city":"SANTA MONICA","zip":"90405","geo_score":0.601,"lic_nbr":1000733,"id":"a6e2jrfonvex","geo_precision":"street","address":"1914 LINCOLN BLVD","state":"CA"},"type":"Feature","geometry":{"type":"Point","coordinates":[-96.701191,40.80808]}},{"properties":{"city":"SANTA MONICA","zip":"90405","geo_score":0.488,"lic_nbr":1000928,"id":"a6e2jrq79okd","geo_precision":"street","address":"1705 PICO BLVD.","state":"CA"},"type":"Feature","geometry":{"type":"Point","coordinates":[-88.487212,33.997834]}},{"properties":{"city":"TORRANCE","zip":"90501","geo_score":0.425,"lic_nbr":1000229,"id":"a6e2jrg0lcwt","geo_precision":"city","address":"1648 W. CARSON STREET","state":"CA"},"type":"Feature","geometry":{"type":"Point","coordinates":[-87.941389,31.472387]}},{"properties":{"city":"TORRANCE","zip":"90501","geo_score":0.429,"lic_nbr":1000736,"id":"a6e2jrh0bitn","geo_precision":"city","address":"1667 W CARSON BLVD","state":"CA"},"type":"Feature","geometry":{"type":"Point","coordinates":[-87.941389,31.472387]}},{"properties":{"city":"TORRANCE","zip":"90502","geo_score":0.681,"lic_nbr":1004025,"id":"a6e2jrjwzeez","geo_precision":"street","address":"21720 S. VERMONT AVE.","state":"CA"},"type":"Feature","geometry":{"type":"Point","coordinates":[-121.954097,37.943812]}},{"properties":{"city":"TORRANCE","zip":"90502","geo_score":0.435,"lic_nbr":1000813,"id":"a6e2jrm551nh","geo_precision":"city","address":"1223 W CARSON ST","state":"CA"},"type":"Feature","geometry":{"type":"Point","coordinates":[-87.941389,31.472387]}},{"properties":{"city":"TORRANCE","zip":"90502","geo_score":0.554,"lic_nbr":1003763,"id":"a6e2jrpjhbym","geo_precision":"street","address":"1247 W. SEPULVEDA BLVD","state":"CA"},"type":"Feature","geometry":{"type":"Point","coordinates":[-118.467726,34.221416]}},{"properties":{"city":"TORRANCE","zip":"90503","geo_score":0.902,"lic_nbr":1001614,"id":"a6e2jrc7n8i2","geo_precision":"range","address":"4685 TORRANCE BLVD","state":"CA"},"type":"Feature","geometry":{"type":"Point","coordinates":[-118.36351,33.837591]}},{"properties":{"city":"TORRANCE","zip":"90504","geo_score":0.46,"lic_nbr":1000592,"id":"a6e2jrkjycdh","geo_precision":"street","address":"3025 WEST ARTESIA BLVD.","state":"CA"},"type":"Feature","geometry":{"type":"Point","coordinates":[-109.690662,32.68651]}},{"properties":{"city":"TORRANCE","zip":"90504","geo_score":0.449,"lic_nbr":1002135,"id":"a6e2jrj82827","geo_precision":"street","address":"3957 ARTESIA BOULEVARD","state":"CA"},"type":"Feature","geometry":{"type":"Point","coordinates":[-109.690662,32.68651]}},{"properties":{"city":"WHITTIER","zip":"90601","geo_score":0.537,"lic_nbr":1002818,"id":"a6e2jrqnblhy","geo_precision":"street","address":"11875 WHITTIER BOULEVARD","state":"CA"},"type":"Feature","geometry":{"type":"Point","coordinates":[-92.403892,34.566733]}},{"properties":{"city":"WHITTIER","zip":"90602","geo_score":0.62,"lic_nbr":1000589,"id":"a6e2jrjmis2c","geo_precision":"street","address":"8806 PAINTER AVENUE","state":"CA"},"type":"Feature","geometry":{"type":"Point","coordinates":[-86.445999,34.10451]}},{"properties":{"city":"WHITTIER","zip":"90602","geo_score":0.527,"lic_nbr":1000950,"id":"a6e2jrajh41p","geo_precision":"street","address":"13205-B WHITTIER BLVD.","state":"CA"},"type":"Feature","geometry":{"type":"Point","coordinates":[-92.403892,34.566733]}},{"properties":{"city":"WHITTIER","zip":"90605","geo_score":0.488,"lic_nbr":1000883,"id":"a6e2jrlbmqso","geo_precision":"street","address":"13517-A TELEGRAPH RD","state":"CA"},"type":"Feature","geometry":{"type":"Point","coordinates":[-85.364048,33.145772]}},{"properties":{"city":"WHITTIER","zip":"90605","geo_score":0.439,"lic_nbr":1002087,"id":"a6e2jrff6s25","geo_precision":"city","address":"13423 TELEGRAPH ROAD","state":"CA"},"type":"Feature","geometry":{"type":"Point","coordinates":[-99.906181,30.327416]}},{"properties":{"city":"WHITTIER","zip":"90606","geo_score":0.61,"lic_nbr":1000416,"id":"a6e2jriqde6i","geo_precision":"street","address":"11515  WASHINGTON BLVD.","state":"CA"},"type":"Feature","geometry":{"type":"Point","coordinates":[-77.04945,38.902526]}},{"properties":{"city":"SANTA FE SPRINGS","zip":"90606","geo_score":0.424,"lic_nbr":1002014,"id":"a6e2jre9164v","geo_precision":"city","address":"7916 NORWALK BOULEVARD","state":"CA"},"type":"Feature","geometry":{"type":"Point","coordinates":[-70.579783,44.213403]}},{"properties":{"city":"WHITTIER","zip":"90606","geo_score":0.0,"lic_nbr":1004029,"id":"a6e2jrpd4gzx","geo_precision":"unmatched","address":"11522 SLAUSON AVE","state":"CA"},"type":"Feature","geometry":null},{"properties":{"city":"BUENA PARK","zip":"90620","geo_score":0.292,"lic_nbr":1000661,"id":"a6e2jrdzg04w","geo_precision":"street","address":"6565 KNOTT AVENUE","state":"CA"},"type":"Feature","geometry":{"type":"Point","coordinates":[-118.23019,33.967281]}},{"properties":{"city":"BUENA PARK","zip":"90620","geo_score":0.477,"lic_nbr":1002058,"id":"a6e2jrnnnf35","geo_precision":"street","address":"6965 LA PALMA AVENUE","state":"CA"},"type":"Feature","geometry":{"type":"Point","coordinates":[-111.756937,32.932635]}},{"properties":{"city":"BUENA PARK","zip":"90620","geo_score":0.463,"lic_nbr":1002107,"id":"a6e2jrb4x1y8","geo_precision":"street","address":"8431 LA PALMA","state":"CA"},"type":"Feature","geometry":{"type":"Point","coordinates":[-111.756937,32.932635]}},{"properties":{"city":"BUENA PARK","zip":"90620","geo_score":0.292,"lic_nbr":1002833,"id":"a6e2jreaeeol","geo_precision":"street","address":"8952 KNOTT AVENUE","state":"CA"},"type":"Feature","geometry":{"type":"Point","coordinates":[-118.23019,33.967281]}},{"properties":{"city":"BUENA PARK","zip":"90621","geo_score":0.0,"lic_nbr":1004148,"id":"a6e2jrkvmmns","geo_precision":"unmatched","address":"7301 ORANGETHORPE","state":"CA"},"type":"Feature","geometry":null},{"properties":{"city":"CYPRESS","zip":"90630","geo_score":0.478,"lic_nbr":1003020,"id":"a6e2jrnzqd1w","geo_precision":"street","address":"10063 VALLEY VIEW","state":"CA"},"type":"Feature","geometry":{"type":"Point","coordinates":[-92.88883,33.587959]}},{"properties":{"city":"CYPRESS","zip":"90630","geo_score":0.366,"lic_nbr":1001530,"id":"a6e2jrilzfxs","geo_precision":"street","address":"5008 BALL ROAD","state":"CA"},"type":"Feature","geometry":{"type":"Point","coordinates":[-86.255534,31.272274]}},{"properties":{"city":"CYPRESS","zip":"90630","geo_score":0.502,"lic_nbr":1001537,"id":"a6e2jrctkqaj","geo_precision":"street","address":"6932 KATELLA AVE","state":"CA"},"type":"Feature","geometry":{"type":"Point","coordinates":[-91.837946,35.64531]}},{"properties":{"city":"LA HABRA","zip":"90631","geo_score":0.338,"lic_nbr":1001786,"id":"a6e2jrflj0b9","geo_precision":"street","address":"935 N HARBOR BLVD","state":"CA"},"type":"Feature","geometry":{"type":"Point","coordinates":[-80.396304,41.029059]}},{"properties":{"city":"LA HABRA","zip":"90631","geo_score":0.527,"lic_nbr":1002016,"id":"a6e2jraw2xaw","geo_precision":"street","address":"1571 W. WHITTIER BOULEVARD","state":"CA"},"type":"Feature","geometry":{"type":"Point","coordinates":[-92.88635,35.11721]}},{"properties":{"city":"LA HABRA","zip":"90631","geo_score":0.537,"lic_nbr":1002060,"id":"a6e2jrn2074z","geo_precision":"street","address":"1502 WHITTIER BOULEVARD","state":"CA"},"type":"Feature","geometry":{"type":"Point","coordinates":[-92.88635,35.11721]}},{"properties":{"city":"LA HABRA","zip":"90631","geo_score":0.488,"lic_nbr":1002817,"id":"a6e2jrb4xm0t","geo_precision":"street","address":"2030 W. LA HABRA BOULEVARD","state":"CA"},"type":"Feature","geometry":{"type":"Point","coordinates":[-122.974058,45.827496]}},{"properties":{"city":"LA MIRADA","zip":"90637","geo_score":0.503,"lic_nbr":1001534,"id":"a6e2jrcloym6","geo_precision":"street","address":"15735 IMPERIAL HWY","state":"CA"},"type":"Feature","geometry":{"type":"Point","coordinates":[-83.40972,33.339678]}},{"properties":{"city":"LA MIRADA","zip":"90638","geo_score":0.478,"lic_nbr":1001363,"id":"a6e2jrqg8fm2","geo_precision":"street","address":"12823 VALLEY VIEW","state":"CA"},"type":"Feature","geometry":{"type":"Point","coordinates":[-92.88883,33.587959]}},{"properties":{"city":"LA MIRADA","zip":"90638","geo_score":0.436,"lic_nbr":1002814,"id":"a6e2jrpe1r7a","geo_precision":"city","address":"14557 E. TELEGRAPH ROAD","state":"CA"},"type":"Feature","geometry":{"type":"Point","coordinates":[-99.906181,30.327416]}},{"properties":{"city":"LA MIRADA","zip":"90638","geo_score":0.505,"lic_nbr":1003397,"id":"a6e2jrbp5u0k","geo_precision":"street","address":"12226 S LA MIRADA BLVD.","state":"CA"},"type":"Feature","geometry":{"type":"Point","coordinates":[-84.50777,33.939432]}},{"properties":{"city":"LA MIRADA","zip":"90638","geo_score":0.488,"lic_nbr":1004023,"id":"a6e2jrneono4","geo_precision":"street","address":"12760 LA MIRADA BLVD.","state":"CA"},"type":"Feature","geometry":{"type":"Point","coordinates":[-83.931899,34.052179]}},{"properties":{"city":"MONTEBELLO","zip":"90640","geo_score":0.61,"lic_nbr":1004161,"id":"a6e2jrf490o8","geo_precision":"street","address":"1100 WASHINGTON BLVD.","state":"CA"},"type":"Feature","geometry":{"type":"Point","coordinates":[-77.05012,38.901987]}},{"properties":{"city":"MONTEBELLO","zip":"90640","geo_score":0.527,"lic_nbr":1001908,"id":"a6e2jrn64i8k","geo_precision":"street","address":"1001 W. WHITTIER BOULEVARD","state":"CA"},"type":"Feature","geometry":{"type":"Point","coordinates":[-92.88635,35.11721]}},{"properties":{"city":"MONTEBELLO","zip":"90640","geo_score":0.433,"lic_nbr":1002985,"id":"a6e2jrqi2p34","geo_precision":"city","address":"2900 W. BEVERLY BLVD.","state":"CA"},"type":"Feature","geometry":{"type":"Point","coordinates":[-90.990967,39.793381]}},{"properties":{"city":"MONTEBELLO","zip":"90640","geo_score":0.59,"lic_nbr":1002068,"id":"a6e2jrewfqqp","geo_precision":"street","address":"518 N. MONTEBELLO BOULEVARD","state":"CA"},"type":"Feature","geometry":{"type":"Point","coordinates":[-121.025975,37.680796]}},{"properties":{"city":"MONTEBELLO","zip":"90640","geo_score":0.537,"lic_nbr":1002621,"id":"a6e2jrbii58e","geo_precision":"street","address":"1411 W. WHITTER BOULEVARD","state":"CA"},"type":"Feature","geometry":{"type":"Point","coordinates":[-92.88635,35.11721]}},{"properties":{"city":"MONTEBELLO","zip":"90640","geo_score":0.423,"lic_nbr":1002747,"id":"a6e2jrmhbgzd","geo_precision":"city","address":"1026 W. BEVERLY BOULEVARD","state":"CA"},"type":"Feature","geometry":{"type":"Point","coordinates":[-90.990967,39.793381]}},{"properties":{"city":"MONTEBELLO","zip":"90640","geo_score":0.442,"lic_nbr":1003829,"id":"a6e2jrkir24e","geo_precision":"city","address":"1204 S. GREENWOOD AVE","state":"CA"},"type":"Feature","geometry":{"type":"Point","coordinates":[-88.510048,34.217885]}},{"properties":{"city":"MONTEBELLO","zip":"90640","geo_score":0.527,"lic_nbr":1004351,"id":"a6e2jriquo32","geo_precision":"street","address":"2400 W. WHITTIER BLVD.","state":"CA"},"type":"Feature","geometry":{"type":"Point","coordinates":[-92.88635,35.11721]}},{"properties":{"city":"MONTEBELLO","zip":"90640","geo_score":0.61,"lic_nbr":1004353,"id":"a6e2jrley34y","geo_precision":"street","address":"483 WASHINGTON BLVD.","state":"CA"},"type":"Feature","geometry":{"type":"Point","coordinates":[-77.050215,38.903058]}},{"properties":{"city":"NORWALK","zip":"90650","geo_score":0.419,"lic_nbr":1003715,"id":"a6e2jrh61665","geo_precision":"city","address":"13001 ROSECRANS AVE.","state":"CA"},"type":"Feature","geometry":{"type":"Point","coordinates":[-114.59023,32.781434]}},{"properties":{"city":"NORWALK","zip":"90650","geo_score":0.628,"lic_nbr":1000440,"id":"a6e2jrcc6fmc","geo_precision":"street","address":"12854 PIONEER BLVD.","state":"CA"},"type":"Feature","geometry":{"type":"Point","coordinates":[-81.675871,31.826881]}},{"properties":{"city":"NORWALK","zip":"90650","geo_score":0.419,"lic_nbr":1000591,"id":"a6e2jrqackbg","geo_precision":"city","address":"11037 ROSECRANS AVE.","state":"CA"},"type":"Feature","geometry":{"type":"Point","coordinates":[-114.59023,32.781434]}},{"properties":{"city":"NORWALK","zip":"90650","geo_score":0.503,"lic_nbr":1000882,"id":"a6e2jrlvx1fz","geo_precision":"street","address":"10649 IMPERIAL HWY","state":"CA"},"type":"Feature","geometry":{"type":"Point","coordinates":[-83.40972,33.339678]}},{"properties":{"city":"NORWALK","zip":"90650","geo_score":0.628,"lic_nbr":1001314,"id":"a6e2jrcgrws9","geo_precision":"street","address":"13937 PIONEER BLVD","state":"CA"},"type":"Feature","geometry":{"type":"Point","coordinates":[-81.675871,31.826881]}},{"properties":{"city":"NORWALK","zip":"90650","geo_score":0.42,"lic_nbr":1001622,"id":"a6e2jrms6b31","geo_precision":"city","address":"11479 ROSECRANS AVENUE","state":"CA"},"type":"Feature","geometry":{"type":"Point","coordinates":[-114.59023,32.781434]}},{"properties":{"city":"NORWALK","zip":"90650","geo_score":0.484,"lic_nbr":1002986,"id":"a6e2jrqafmm5","geo_precision":"street","address":"11755 IMPERIAL HIGHWAY","state":"CA"},"type":"Feature","geometry":{"type":"Point","coordinates":[-83.40972,33.339678]}},{"properties":{"city":"NORWALK","zip":"90650","geo_score":0.421,"lic_nbr":1003216,"id":"a6e2jrau4vdo","geo_precision":"city","address":"12801 NORWALK BLVD","state":"CA"},"type":"Feature","geometry":{"type":"Point","coordinates":[-70.579783,44.213403]}},{"properties":{"city":"NORWALK","zip":"90650","geo_score":0.503,"lic_nbr":1003291,"id":"a6e2jrbwct7v","geo_precision":"street","address":"10948 IMPERIAL HWY","state":"CA"},"type":"Feature","geometry":{"type":"Point","coordinates":[-83.40972,33.339678]}},{"properties":{"city":"PICO RIVERA","zip":"90660","geo_score":0.537,"lic_nbr":1003468,"id":"a6e2jrmkg9i0","geo_precision":"street","address":"8745 WHITTIER BLVD.","state":"CA"},"type":"Feature","geometry":{"type":"Point","coordinates":[-92.88635,35.11721]}},{"properties":{"city":"PICO RIVERA","zip":"90660","geo_score":0.439,"lic_nbr":1002988,"id":"a6e2jrkfh1we","geo_precision":"city","address":"8543 ROSEMEAD BLVD.","state":"CA"},"type":"Feature","geometry":{"type":"Point","coordinates":[-76.866064,36.180157]}},{"properties":{"city":"PICO RIVERA","zip":"90660","geo_score":0.59,"lic_nbr":1000861,"id":"a6e2jrqh13my","geo_precision":"street","address":"8701 E WASHINGTON BLVD","state":"CA"},"type":"Feature","geometry":{"type":"Point","coordinates":[-77.04945,38.902526]}},{"properties":{"city":"PICO RIVERA","zip":"90660","geo_score":0.505,"lic_nbr":1001185,"id":"a6e2jrm9v7jh","geo_precision":"street","address":"9211 EAST WHITTIER BLVD","state":"CA"},"type":"Feature","geometry":{"type":"Point","coordinates":[-73.26095,43.405634]}},{"properties":{"city":"PICO RIVERA","zip":"90660","geo_score":0.537,"lic_nbr":1001329,"id":"a6e2jrlzkm57","geo_precision":"street","address":"9320 WHITTIER BLVD","state":"CA"},"type":"Feature","geometry":{"type":"Point","coordinates":[-92.88635,35.11721]}},{"properties":{"city":"PICO RIVERA","zip":"90660","geo_score":0.537,"lic_nbr":1001554,"id":"a6e2jrd6jbrr","geo_precision":"street","address":"8832 WHITTIER BOULEVARD","state":"CA"},"type":"Feature","geometry":{"type":"Point","coordinates":[-92.88635,35.11721]}},{"properties":{"city":"PICO RIVERA","zip":"90660","geo_score":0.61,"lic_nbr":1002866,"id":"a6e2jrlcbj7u","geo_precision":"street","address":"8986 WASHINGTON BOULEVARD","state":"CA"},"type":"Feature","geometry":{"type":"Point","coordinates":[-77.050531,38.902096]}},{"properties":{"city":"PICO RIVERA","zip":"90660","geo_score":0.0,"lic_nbr":1002901,"id":"a6e2jrid52rp","geo_precision":"unmatched","address":"9335 S. SLAUSON AVENUE","state":"CA"},"type":"Feature","geometry":null},{"properties":{"city":"SANTA FE SPRINGS","zip":"90670","geo_score":0.437,"lic_nbr":1000964,"id":"a6e2jrf8rbgt","geo_precision":"street","address":"10805 ORR &amp; DAY ROAD","state":"CA"},"type":"Feature","geometry":{"type":"Point","coordinates":[-91.626607,36.237466]}},{"properties":{"city":"SANTA FE SPRINGS","zip":"90670","geo_score":0.439,"lic_nbr":1003443,"id":"a6e2jrak0b99","geo_precision":"city","address":"11510 TELEGRAPH ROAD","state":"CA"},"type":"Feature","geometry":{"type":"Point","coordinates":[-99.906181,30.327416]}},{"properties":{"city":"STANTON","zip":"90680","geo_score":0.382,"lic_nbr":1000484,"id":"a6e2jrinl3en","geo_precision":"street","address":"12001 BEACH BLVD.","state":"CA"},"type":"Feature","geometry":{"type":"Point","coordinates":[-87.790791,31.959968]}},{"properties":{"city":"STANTON","zip":"90680","geo_score":0.382,"lic_nbr":1000860,"id":"a6e2jrp0qjta","geo_precision":"street","address":"10972 BEACH BLVD","state":"CA"},"type":"Feature","geometry":{"type":"Point","coordinates":[-87.873708,32.015817]}},{"properties":{"city":"STANTON","zip":"90680","geo_score":0.281,"lic_nbr":1004260,"id":"a6e2jrlbclt1","geo_precision":"street","address":"10512 KNOTT AVE.","state":"CA"},"type":"Feature","geometry":{"type":"Point","coordinates":[-118.23019,33.967281]}},{"properties":{"city":"BELLFLOWER","zip":"90706","geo_score":0.61,"lic_nbr":1000607,"id":"a6e2jrljpsrt","geo_precision":"street","address":"13542 LAKEWOOD BLVD.","state":"CA"},"type":"Feature","geometry":{"type":"Point","coordinates":[-87.570844,34.841521]}},{"properties":{"city":"BELLFLOWER","zip":"90706","geo_score":0.777,"lic_nbr":1000590,"id":"a6e2jrqydvlg","geo_precision":"range","address":"15790 BELLFLOWER BLVD.","state":"CA"},"type":"Feature","geometry":{"type":"Point","coordinates":[-118.125275,33.890344]}},{"properties":{"city":"BELLFLOWER","zip":"90706","geo_score":0.61,"lic_nbr":1001136,"id":"a6e2jrjliqfu","geo_precision":"street","address":"17413 S BELLFLOWER BLVD","state":"CA"},"type":"Feature","geometry":{"type":"Point","coordinates":[-77.416651,43.106228]}},{"properties":{"city":"BELLFLOWER","zip":"90706","geo_score":0.41,"lic_nbr":1001324,"id":"a6e2jrmw4jfh","geo_precision":"city","address":"9020 ALONDRA BLVD.","state":"CA"},"type":"Feature","geometry":{"type":"Point","coordinates":[-95.643435,43.415305]}},{"properties":{"city":"BELLFLOWER","zip":"90706","geo_score":0.707,"lic_nbr":1001557,"id":"a6e2jrmdwmsx","geo_precision":"street","address":"14341 CLARK AVENUE","state":"CA"},"type":"Feature","geometry":{"type":"Point","coordinates":[-81.94927,29.81882]}},{"properties":{"city":"BELLFLOWER","zip":"90706","geo_score":0.466,"lic_nbr":1001948,"id":"a6e2jreh2gjy","geo_precision":"street","address":"17161-3 BELLFLOWER BOULEVARD","state":"CA"},"type":"Feature","geometry":{"type":"Point","coordinates":[-118.12536,33.909769]}},{"properties":{"city":"BELLFLOWER","zip":"90706","geo_score":0.417,"lic_nbr":1001954,"id":"a6e2jriio07x","geo_precision":"city","address":"9206 ALONDRA","state":"CA"},"type":"Feature","geometry":{"type":"Point","coordinates":[-95.643435,43.415305]}},{"properties":{"city":"BELLFLOWER","zip":"90706","geo_score":0.415,"lic_nbr":1002048,"id":"a6e2jromb0q5","geo_precision":"city","address":"9345 ALONDRA BOULEVARD","state":"CA"},"type":"Feature","geometry":{"type":"Point","coordinates":[-95.643435,43.415305]}},{"properties":{"city":"BELLFLOWER","zip":"90706","geo_score":0.759,"lic_nbr":1002106,"id":"a6e2jre5xmbf","geo_precision":"range","address":"14217 BELLFLOWER BOULEVARD","state":"CA"},"type":"Feature","geometry":{"type":"Point","coordinates":[-118.125314,33.902745]}},{"properties":{"city":"BELLFLOWER","zip":"90706","geo_score":0.479,"lic_nbr":1002269,"id":"a6e2jrfj994d","geo_precision":"street","address":"9000 E. ARTESIA BOULEVARD","state":"CA"},"type":"Feature","geometry":{"type":"Point","coordinates":[-109.690662,32.68651]}},{"properties":{"city":"BELLFLOWER","zip":"90706","geo_score":0.448,"lic_nbr":1002955,"id":"a6e2jrccyd1g","geo_precision":"street","address":"9000 ARTESIA BOULEVARD","state":"CA"},"type":"Feature","geometry":{"type":"Point","coordinates":[-109.690662,32.68651]}},{"properties":{"city":"HARBOR CITY","zip":"90710","geo_score":0.454,"lic_nbr":1001981,"id":"a6e2jrizweqv","geo_precision":"street","address":"1685 PACIFIC COAST HIGHWAY","state":"CA"},"type":"Feature","geometry":{"type":"Point","coordinates":[-85.856713,34.003713]}},{"properties":{"city":"HARBOR CITY","zip":"90710","geo_score":0.405,"lic_nbr":1000892,"id":"a6e2jrfkx0r7","geo_precision":"city","address":"1204 W PACIFIC COAST HWY","state":"CA"},"type":"Feature","geometry":{"type":"Point","coordinates":[-91.134592,41.010591]}},{"properties":{"city":"HARBOR CITY","zip":"90710","geo_score":0.591,"lic_nbr":1002270,"id":"a6e2jrme8aky","geo_precision":"street","address":"1212 W. ANAHEIM STREET","state":"CA"},"type":"Feature","geometry":{"type":"Point","coordinates":[-117.90527,33.806646]}},{"properties":{"city":"HARBOR CITY","zip":"90710","geo_score":0.561,"lic_nbr":1002820,"id":"a6e2jrgldb57","geo_precision":"street","address":"1658 SEPULVEDA BOULEVARD","state":"CA"},"type":"Feature","geometry":{"type":"Point","coordinates":[-118.467726,34.221416]}},{"properties":{"city":"HARBOR CITY","zip":"90710","geo_score":0.454,"lic_nbr":1002946,"id":"a6e2jrn6vcl8","geo_precision":"street","address":"1333 PACIFIC COAST HIGHWAY","state":"CA"},"type":"Feature","geometry":{"type":"Point","coordinates":[-85.663556,34.146308]}},{"properties":{"city":"LAKEWOOD","zip":"90712","geo_score":0.442,"lic_nbr":1002116,"id":"a6e2jrm5rxtx","geo_precision":"city","address":"4100 SOUTH STREET","state":"CA"},"type":"Feature","geometry":{"type":"Point","coordinates":[-88.825074,41.124478]}},{"properties":{"city":"LAKEWOOD","zip":"90712","geo_score":0.417,"lic_nbr":1002272,"id":"a6e2jrd22uel","geo_precision":"city","address":"4142 PARAMOUNT BOULEVARD","state":"CA"},"type":"Feature","geometry":{"type":"Point","coordinates":[-86.679727,40.467536]}},{"properties":{"city":"LAKEWOOD","zip":"90712","geo_score":0.434,"lic_nbr":1002811,"id":"a6e2jrakff6q","geo_precision":"city","address":"4073 HARDWICK STREET","state":"CA"},"type":"Feature","geometry":{"type":"Point","coordinates":[-119.718744,36.401339]}},{"properties":{"city":"LAKEWOOD","zip":"90713","geo_score":0.734,"lic_nbr":1000896,"id":"a6e2jref2qrr","geo_precision":"range","address":"5515 E DELAMO BLVD","state":"CA"},"type":"Feature","geometry":{"type":"Point","coordinates":[-118.373303,33.84856]}},{"properties":{"city":"LAKEWOOD","zip":"90713","geo_score":0.477,"lic_nbr":1001625,"id":"a6e2jrhk8q6f","geo_precision":"street","address":"5539 WOODRUFF AVE","state":"CA"},"type":"Feature","geometry":{"type":"Point","coordinates":[-112.21958,42.033907]}},{"properties":{"city":"LAKEWOOD","zip":"90713","geo_score":0.32,"lic_nbr":1003370,"id":"a6e2jrlgij3l","geo_precision":"street","address":"6411 DEL AMO BOULEVARD","state":"CA"},"type":"Feature","geometry":{"type":"Point","coordinates":[-92.806202,33.57345]}},{"properties":{"city":"HAWAIIAN GARDENS","zip":"90716","geo_score":0.432,"lic_nbr":1001624,"id":"a6e2jrgv5auf","geo_precision":"city","address":"12105 E CARSON ST","state":"CA"},"type":"Feature","geometry":{"type":"Point","coordinates":[-87.941389,31.472387]}},{"properties":{"city":"HAWAIIAN GARDENS","zip":"90716","geo_score":0.675,"lic_nbr":1002753,"id":"a6e2jrpny1ql","geo_precision":"street","address":"12140 EAST CARSON STREET","state":"CA"},"type":"Feature","geometry":{"type":"Point","coordinates":[-121.846537,36.600747]}},{"properties":{"city":"LOMITA","zip":"90717","geo_score":0.405,"lic_nbr":1004207,"id":"a6e2jrdqhf9z","geo_precision":"city","address":"25001 S. WESTERN","state":"CA"},"type":"Feature","geometry":{"type":"Point","coordinates":[-104.997203,39.832208]}},{"properties":{"city":"LOS ALAMITOS","zip":"90720","geo_score":0.503,"lic_nbr":1000945,"id":"a6e2jrkxij50","geo_precision":"street","address":"3259 KATELLA AVE.","state":"CA"},"type":"Feature","geometry":{"type":"Point","coordinates":[-91.837946,35.64531]}},{"properties":{"city":"PARAMOUNT","zip":"90723","geo_score":0.421,"lic_nbr":1004289,"id":"a6e2jrg5rkhu","geo_precision":"city","address":"8505 ROSECRANS AVE.","state":"CA"},"type":"Feature","geometry":{"type":"Point","coordinates":[-114.59023,32.781434]}},{"properties":{"city":"SAN PEDRO","zip":"90731","geo_score":0.542,"lic_nbr":1002947,"id":"a6e2jroxgfk8","geo_precision":"street","address":"1330 S. PACIFIC AVENUE","state":"CA"},"type":"Feature","geometry":{"type":"Point","coordinates":[-122.48404,37.632235]}},{"properties":{"city":"SAN PEDRO","zip":"90731","geo_score":0.531,"lic_nbr":1003827,"id":"a6e2jrfk0v0b","geo_precision":"street","address":"605 SOUTH PACIFIC AVENUE","state":"CA"},"type":"Feature","geometry":{"type":"Point","coordinates":[-122.48404,37.632235]}},{"properties":{"city":"SAN PEDRO","zip":"90731","geo_score":0.545,"lic_nbr":1000858,"id":"a6e2jrb0dgig","geo_precision":"street","address":"904 S GAFFEY ST","state":"CA"},"type":"Feature","geometry":{"type":"Point","coordinates":[-110.315701,31.96718]}},{"properties":{"city":"SAN PEDRO","zip":"90731","geo_score":0.514,"lic_nbr":1002973,"id":"a6e2jrkoka1e","geo_precision":"street","address":"699 SOUTH GAFFEY STREET","state":"CA"},"type":"Feature","geometry":{"type":"Point","coordinates":[-110.313193,31.967174]}},{"properties":{"city":"SAN PEDRO","zip":"90731","geo_score":0.542,"lic_nbr":1003124,"id":"a6e2jrmq02ef","geo_precision":"street","address":"736 S. PACIFIC AVENUE","state":"CA"},"type":"Feature","geometry":{"type":"Point","coordinates":[-122.48404,37.632235]}},{"properties":{"city":"SAN PEDRO","zip":"90732","geo_score":0.573,"lic_nbr":1003882,"id":"a6e2jrprrhum","geo_precision":"street","address":"316 NORTH WESTERN AVE.","state":"CA"},"type":"Feature","geometry":{"type":"Point","coordinates":[-73.382706,41.614468]}},{"properties":{"city":"WILMINGTON","zip":"90744","geo_score":0.59,"lic_nbr":1004156,"id":"a6e2jroqtyk8","geo_precision":"street","address":"220 W ANAHEIM ST.","state":"CA"},"type":"Feature","geometry":{"type":"Point","coordinates":[-117.90527,33.806646]}},{"properties":{"city":"WILMINGTON","zip":"90744","geo_score":0.59,"lic_nbr":1000231,"id":"a6e2jrg97alw","geo_precision":"street","address":"104 W. ANAHEIM STREET","state":"CA"},"type":"Feature","geometry":{"type":"Point","coordinates":[-117.90527,33.806646]}},{"properties":{"city":"WILMINGTON","zip":"90744","geo_score":0.406,"lic_nbr":1000009,"id":"a6e2jrqeggug","geo_precision":"city","address":"849 W PACIFIC COAST HWY","state":"CA"},"type":"Feature","geometry":{"type":"Point","coordinates":[-91.134592,41.010591]}},{"properties":{"city":"WILMINGTON","zip":"90744","geo_score":0.281,"lic_nbr":1001137,"id":"a6e2jrkjke02","geo_precision":"street","address":"1330 G WEST PACIFIC COAST HWY","state":"CA"},"type":"Feature","geometry":{"type":"Point","coordinates":[-85.663556,34.146308]}},{"properties":{"city":"WILMINGTON","zip":"90744","geo_score":0.591,"lic_nbr":1002965,"id":"a6e2jrbcfc6p","geo_precision":"street","address":"1010 W. ANAHEIM STREET","state":"CA"},"type":"Feature","geometry":{"type":"Point","coordinates":[-117.90527,33.806646]}},{"properties":{"city":"CARSON","zip":"90745","geo_score":0.42,"lic_nbr":1002844,"id":"a6e2jrjp5ww0","geo_precision":"city","address":"22005 AVALON BOULEVARD","state":"CA"},"type":"Feature","geometry":{"type":"Point","coordinates":[-75.621872,39.730668]}},{"properties":{"city":"CARSON","zip":"90745","geo_score":0.427,"lic_nbr":1001342,"id":"a6e2jron0x81","geo_precision":"city","address":"114 W CARSON STREET","state":"CA"},"type":"Feature","geometry":{"type":"Point","coordinates":[-87.941389,31.472387]}},{"properties":{"city":"CARSON","zip":"90745","geo_score":0.554,"lic_nbr":1001386,"id":"a6e2jrick68d","geo_precision":"street","address":"280 E SEPULVEDA BLVD","state":"CA"},"type":"Feature","geometry":{"type":"Point","coordinates":[-118.467726,34.221416]}},{"properties":{"city":"CARSON","zip":"90745","geo_score":0.429,"lic_nbr":1002148,"id":"a6e2jriul4d4","geo_precision":"city","address":"23561 AVALON BLVD.","state":"CA"},"type":"Feature","geometry":{"type":"Point","coordinates":[-75.621872,39.730668]}},{"properties":{"city":"CARSON","zip":"90745","geo_score":0.439,"lic_nbr":1004010,"id":"a6e2jrconf7m","geo_precision":"city","address":"198 E. CARSON ST.","state":"CA"},"type":"Feature","geometry":{"type":"Point","coordinates":[-87.941389,31.472387]}},{"properties":{"city":"CARSON","zip":"90745","geo_score":0.429,"lic_nbr":1004209,"id":"a6e2jrpfkejz","geo_precision":"city","address":"23914 AVALON BLVD.","state":"CA"},"type":"Feature","geometry":{"type":"Point","coordinates":[-75.621872,39.730668]}},{"properties":{"city":"CARSON","zip":"90746","geo_score":0.88,"lic_nbr":1003770,"id":"a6e2jrgn0hj1","geo_precision":"range","address":"603 E. UNIVERSITY DRIVE","state":"CA"},"type":"Feature","geometry":{"type":"Point","coordinates":[-117.866469,33.648435]}},{"properties":{"city":"CARSON","zip":"90746","geo_score":0.418,"lic_nbr":1002109,"id":"a6e2jrn7ssow","geo_precision":"city","address":"20771 S. AVALON BOULEVARD","state":"CA"},"type":"Feature","geometry":{"type":"Point","coordinates":[-75.621872,39.730668]}},{"properties":{"city":"CARSON","zip":"90747","geo_score":0.418,"lic_nbr":1001955,"id":"a6e2jrg9efe9","geo_precision":"city","address":"17952 S. AVALON BOULEVARD","state":"CA"},"type":"Feature","geometry":{"type":"Point","coordinates":[-75.621872,39.730668]}},{"properties":{"city":"LONG BEACH","zip":"90802","geo_score":0.882,"lic_nbr":1000436,"id":"a6e2jrpn3ovc","geo_precision":"range","address":"237 LONG BEACH BLVD.","state":"CA"},"type":"Feature","geometry":{"type":"Point","coordinates":[-118.189373,33.769951]}},{"properties":{"city":"LONG BEACH","zip":"90804","geo_score":0.668,"lic_nbr":1002446,"id":"a6e2jrkvquux","geo_precision":"range","address":"2211 E. 7TH STREET","state":"CA"},"type":"Feature","geometry":{"type":"Point","coordinates":[-86.838753,31.85342]}},{"properties":{"city":"LONG BEACH","zip":"90804","geo_score":0.59,"lic_nbr":1000884,"id":"a6e2jrdfg29w","geo_precision":"street","address":"3747 E ANAHEIM ST","state":"CA"},"type":"Feature","geometry":{"type":"Point","coordinates":[-117.8938,33.796127]}},{"properties":{"city":"LONG BEACH","zip":"90804","geo_score":0.59,"lic_nbr":1002951,"id":"a6e2jrn64ksd","geo_precision":"street","address":"3401 E. ANAHEIM STREET","state":"CA"},"type":"Feature","geometry":{"type":"Point","coordinates":[-117.8938,33.796127]}},{"properties":{"city":"LONG BEACH","zip":"90805","geo_score":0.496,"lic_nbr":1000439,"id":"a6e2jre0fg54","geo_precision":"street","address":"3461 E. ARTESIA BLVD.","state":"CA"},"type":"Feature","geometry":{"type":"Point","coordinates":[-109.690662,32.68651]}},{"properties":{"city":"LONG BEACH","zip":"90805","geo_score":0.431,"lic_nbr":1003682,"id":"a6e2jrdjrtwc","geo_precision":"city","address":"2185 EAST SOUTH STREET","state":"CA"},"type":"Feature","geometry":{"type":"Point","coordinates":[-88.825074,41.124478]}},{"properties":{"city":"LONG BEACH","zip":"90805","geo_score":0.46,"lic_nbr":1003944,"id":"a6e2jre8dska","geo_precision":"street","address":"6640 CHERRY AVE","state":"CA"},"type":"Feature","geometry":{"type":"Point","coordinates":[-112.224618,34.520683]}},{"properties":{"city":"LONG BEACH","zip":"90805","geo_score":0.431,"lic_nbr":1004230,"id":"a6e2jrnpwvpe","geo_precision":"city","address":"2001 EAST SOUTH STREET","state":"CA"},"type":"Feature","geometry":{"type":"Point","coordinates":[-88.825074,41.124478]}},{"properties":{"city":"LONG BEACH","zip":"90806","geo_score":0.882,"lic_nbr":1000593,"id":"a6e2jrclqrq5","geo_precision":"range","address":"2295 LONG BEACH BLVD.","state":"CA"},"type":"Feature","geometry":{"type":"Point","coordinates":[-118.189372,33.798864]}},{"properties":{"city":"LONG BEACH","zip":"90806","geo_score":0.405,"lic_nbr":1000525,"id":"a6e2jrnqgfzt","geo_precision":"city","address":"1001 E. PACIFIC COAST HWY.","state":"CA"},"type":"Feature","geometry":{"type":"Point","coordinates":[-91.134592,41.010591]}},{"properties":{"city":"LONG BEACH","zip":"90807","geo_score":0.654,"lic_nbr":1002120,"id":"a6e2jre7s7a5","geo_precision":"street","address":"4200 ATLANTIC AVENUE","state":"CA"},"type":"Feature","geometry":{"type":"Point","coordinates":[-84.412775,33.655303]}},{"properties":{"city":"LONG BEACH","zip":"90807","geo_score":0.882,"lic_nbr":1003775,"id":"a6e2jrenfs8q","geo_precision":"range","address":"3389 LONG BEACH BLVD","state":"CA"},"type":"Feature","geometry":{"type":"Point","coordinates":[-118.189359,33.818582]}},{"properties":{"city":"LONG BEACH","zip":"90808","geo_score":0.675,"lic_nbr":1002819,"id":"a6e2jrfwbs9d","geo_precision":"street","address":"6537 E. SPRING STREET","state":"CA"},"type":"Feature","geometry":{"type":"Point","coordinates":[-72.589181,42.108902]}},{"properties":{"city":"LONG BEACH","zip":"90813","geo_score":0.882,"lic_nbr":1000432,"id":"a6e2jrkaswho","geo_precision":"range","address":"1301 LONG BEACH BLVD.","state":"CA"},"type":"Feature","geometry":{"type":"Point","coordinates":[-118.189376,33.782589]}},{"properties":{"city":"LONG BEACH","zip":"90813","geo_score":0.512,"lic_nbr":1000437,"id":"a6e2jrj38nam","geo_precision":"street","address":"335 EAST 7TH STREET","state":"CA"},"type":"Feature","geometry":{"type":"Point","coordinates":[-86.530312,32.769396]}},{"properties":{"city":"LONG BEACH","zip":"90813","geo_score":0.882,"lic_nbr":1002843,"id":"a6e2jrpz7zpv","geo_precision":"range","address":"1706 LONG BEACH BOULEVARD","state":"CA"},"type":"Feature","geometry":{"type":"Point","coordinates":[-118.189373,33.788173]}},{"properties":{"city":"LONG BEACH","zip":"90813","geo_score":0.591,"lic_nbr":1004155,"id":"a6e2jraqzqpw","geo_precision":"street","address":"730 PACIFIC AVE.","state":"CA"},"type":"Feature","geometry":{"type":"Point","coordinates":[-122.48404,37.632235]}},{"properties":{"city":"ALTADENA","zip":"91001","geo_score":0.373,"lic_nbr":1002853,"id":"a6e2jrmhaw62","geo_precision":"street","address":"1920 NORTH LAKE AVENUE","state":"CA"},"type":"Feature","geometry":{"type":"Point","coordinates":[-85.125832,31.916048]}},{"properties":{"city":"ALTADENA","zip":"91001","geo_score":0.61,"lic_nbr":1002181,"id":"a6e2jro8byd3","geo_precision":"street","address":"2087 N. FAIROAKS AVENUE","state":"CA"},"type":"Feature","geometry":{"type":"Point","coordinates":[-87.546988,33.240072]}},{"properties":{"city":"ALTADENA","zip":"91001","geo_score":0.373,"lic_nbr":1003826,"id":"a6e2jrjf1ess","geo_precision":"street","address":"2340 NORTH LAKE AVENUE","state":"CA"},"type":"Feature","geometry":{"type":"Point","coordinates":[-85.125832,31.916048]}},{"properties":{"city":"DUARTE","zip":"91010","geo_score":0.854,"lic_nbr":1001536,"id":"a6e2jriv7q1z","geo_precision":"range","address":"1229 HUNTINGTON DR","state":"CA"},"type":"Feature","geometry":{"type":"Point","coordinates":[-117.99508,33.667853]}},{"properties":{"city":"DUARTE","zip":"91010","geo_score":0.835,"lic_nbr":1002838,"id":"a6e2jrj8glxe","geo_precision":"range","address":"1104 E. HUNTINGTON DRIVE","state":"CA"},"type":"Feature","geometry":{"type":"Point","coordinates":[-117.995061,33.666726]}},{"properties":{"city":"DUARTE","zip":"91010","geo_score":0.854,"lic_nbr":1003591,"id":"a6e2jrjhivwg","geo_precision":"range","address":"1040 HUNTINGTON DRIVE","state":"CA"},"type":"Feature","geometry":{"type":"Point","coordinates":[-117.995053,33.666157]}},{"properties":{"city":"SUNLAND","zip":"91040","geo_score":0.461,"lic_nbr":1002083,"id":"a6e2jrjbu46h","geo_precision":"street","address":"8521 FOOTHILL BOULEVARD","state":"CA"},"type":"Feature","geometry":{"type":"Point","coordinates":[-111.822478,40.734384]}},{"properties":{"city":"PASADENA","zip":"91101","geo_score":0.381,"lic_nbr":1000904,"id":"a6e2jrjfhq5l","geo_precision":"street","address":"641 N LAKE AVE","state":"CA"},"type":"Feature","geometry":{"type":"Point","coordinates":[-85.13702,31.917033]}},{"properties":{"city":"PASADENA","zip":"91104","geo_score":0.38,"lic_nbr":1003731,"id":"a6e2jrhw10qe","geo_precision":"street","address":"887 N. LAKE AVE.","state":"CA"},"type":"Feature","geometry":{"type":"Point","coordinates":[-85.13315,31.917046]}},{"properties":{"city":"PASADENA","zip":"91104","geo_score":0.616,"lic_nbr":1000413,"id":"a6e2jrqrrd6h","geo_precision":"street","address":"447 E. ORANGE GROVE BLVD.","state":"CA"},"type":"Feature","geometry":{"type":"Point","coordinates":[-117.789646,33.679708]}},{"properties":{"city":"PASADENA","zip":"91104","geo_score":0.38,"lic_nbr":1000431,"id":"a6e2jrajuazy","geo_precision":"street","address":"1298 N. LAKE AVE.","state":"CA"},"type":"Feature","geometry":{"type":"Point","coordinates":[-85.125832,31.916048]}},{"properties":{"city":"PASADENA","zip":"91104","geo_score":0.57,"lic_nbr":1003016,"id":"a6e2jrpv9hfn","geo_precision":"range","address":"711 N. LAKE AVENUE","state":"CA"},"type":"Feature","geometry":{"type":"Point","coordinates":[-85.136681,31.917034]}},{"properties":{"city":"PASADENA","zip":"91104","geo_score":0.257,"lic_nbr":1004071,"id":"a6e2jrokz3ky","geo_precision":"street","address":"1399 N. LAKE AVE.","state":"CA"},"type":"Feature","geometry":{"type":"Point","coordinates":[-85.125832,31.916048]}},{"properties":{"city":"PASADENA","zip":"91105","geo_score":0.418,"lic_nbr":1002749,"id":"a6e2jrclztee","geo_precision":"city","address":"143 W.  CALIFORNIA BOULEVARD","state":"CA"},"type":"Feature","geometry":{"type":"Point","coordinates":[-118.528697,34.235281]}},{"properties":{"city":"PASADENA","zip":"91106","geo_score":0.317,"lic_nbr":1001287,"id":"a6e2jrhb3tj5","geo_precision":"street","address":"950 E COLORADO AVE","state":"CA"},"type":"Feature","geometry":{"type":"Point","coordinates":[-122.165882,37.861687]}},{"properties":{"city":"PASADENA","zip":"91107","geo_score":0.439,"lic_nbr":1000570,"id":"a6e2jrki73fy","geo_precision":"city","address":"215 S. ROSEMEAD BLVD.","state":"CA"},"type":"Feature","geometry":{"type":"Point","coordinates":[-76.866064,36.180157]}},{"properties":{"city":"PASADENA","zip":"91107","geo_score":0.439,"lic_nbr":1000898,"id":"a6e2jrpcgsu4","geo_precision":"city","address":"328 S ROSEMEAD BLVD","state":"CA"},"type":"Feature","geometry":{"type":"Point","coordinates":[-76.866064,36.180157]}},{"properties":{"city":"PASADENA","zip":"91107","geo_score":0.617,"lic_nbr":1001646,"id":"a6e2jrj8p7an","geo_precision":"street","address":"3683 EAST COLORADO BLVD.","state":"CA"},"type":"Feature","geometry":{"type":"Point","coordinates":[-87.653069,34.811814]}},{"properties":{"city":"PASADENA","zip":"91107","geo_score":0.354,"lic_nbr":1002837,"id":"a6e2jrkf11fn","geo_precision":"street","address":"2385 E. COLORADO BOULEVARD","state":"CA"},"type":"Feature","geometry":{"type":"Point","coordinates":[-122.15818,37.881567]}},{"properties":{"city":"PASADENA","zip":"91107","geo_score":0.355,"lic_nbr":1004270,"id":"a6e2jrm3qw9a","geo_precision":"street","address":"2723 E. COLORADO BLVD.","state":"CA"},"type":"Feature","geometry":{"type":"Point","coordinates":[-122.15818,37.881567]}},{"properties":{"city":"GLENDALE","zip":"91201","geo_score":0.645,"lic_nbr":1003975,"id":"a6e2jrfzin2u","geo_precision":"street","address":"6501 SAN FERNANDO RD","state":"CA"},"type":"Feature","geometry":{"type":"Point","coordinates":[-122.47011,37.730308]}},{"properties":{"city":"GLENDALE","zip":"91201","geo_score":0.645,"lic_nbr":1002941,"id":"a6e2jrlqeb8r","geo_precision":"street","address":"6344 SAN FERNANDO ROAD","state":"CA"},"type":"Feature","geometry":{"type":"Point","coordinates":[-122.47011,37.730308]}},{"properties":{"city":"GLENDALE","zip":"91204","geo_score":0.532,"lic_nbr":1000433,"id":"a6e2jrk2vzio","geo_precision":"street","address":"1023 S. BRAND BLVD.","state":"CA"},"type":"Feature","geometry":{"type":"Point","coordinates":[-114.414672,32.667888]}},{"properties":{"city":"GLENDALE","zip":"91204","geo_score":0.61,"lic_nbr":1000312,"id":"a6e2jrclrpvl","geo_precision":"street","address":"1101 SOUTH CENTRAL AVE.","state":"CA"},"type":"Feature","geometry":{"type":"Point","coordinates":[-86.534185,41.712552]}},{"properties":{"city":"GLENDALE","zip":"91204","geo_score":0.455,"lic_nbr":1004013,"id":"a6e2jrdkvzxh","geo_precision":"city","address":"506 W. BROADWAY","state":"CA"},"type":"Feature","geometry":{"type":"Point","coordinates":[-76.214654,41.247305]}},{"properties":{"city":"GLENDALE","zip":"91205","geo_score":0.642,"lic_nbr":1001562,"id":"a6e2jrgi2d7g","geo_precision":"street","address":"625 EAST COLORADO STREET","state":"CA"},"type":"Feature","geometry":{"type":"Point","coordinates":[-104.814712,38.833377]}},{"properties":{"city":"CALABASAS","zip":"91302","geo_score":0.78,"lic_nbr":1004112,"id":"a6e2jrlldqpt","geo_precision":"range","address":"26560 AGOURA RD","state":"CA"},"type":"Feature","geometry":{"type":"Point","coordinates":[-118.702174,34.142946]}},{"properties":{"city":"CANOGA PARK","zip":"91303","geo_score":0.707,"lic_nbr":1002544,"id":"a6e2jrnu88db","geo_precision":"range","address":"6750 DESOTO AVENUE","state":"CA"},"type":"Feature","geometry":{"type":"Point","coordinates":[-111.478469,35.233715]}},{"properties":{"city":"CANOGA PARK","zip":"91303","geo_score":0.62,"lic_nbr":1000464,"id":"a6e2jrfyf8ki","geo_precision":"street","address":"6840 DE SOTO AVE.","state":"CA"},"type":"Feature","geometry":{"type":"Point","coordinates":[-92.979188,34.667972]}},{"properties":{"city":"CANOGA PARK","zip":"91303","geo_score":0.48,"lic_nbr":1003588,"id":"a6e2jrautcwk","geo_precision":"street","address":"7204 CANOGA AVE","state":"CA"},"type":"Feature","geometry":{"type":"Point","coordinates":[-86.173715,34.183482]}},{"properties":{"city":"CANOGA PARK","zip":"91303","geo_score":0.552,"lic_nbr":1003862,"id":"a6e2jrkqvu1y","geo_precision":"street","address":"7239 TOPANGA CANYON BLVD.","state":"CA"},"type":"Feature","geometry":{"type":"Point","coordinates":[-121.953624,37.592385]}},{"properties":{"city":"CANOGA PARK","zip":"91303","geo_score":0.62,"lic_nbr":1004231,"id":"a6e2jrf5bxxr","geo_precision":"street","address":"21211 SHERMAN WAY","state":"CA"},"type":"Feature","geometry":{"type":"Point","coordinates":[-93.923735,33.872444]}},{"properties":{"city":"CANOGA PARK","zip":"91304","geo_score":0.552,"lic_nbr":1003819,"id":"a6e2jroxwt9l","geo_precision":"street","address":"8352 TOPANGA CANYON BLVD","state":"CA"},"type":"Feature","geometry":{"type":"Point","coordinates":[-121.953624,37.592385]}},{"properties":{"city":"CANOGA PARK","zip":"91304","geo_score":0.513,"lic_nbr":1004024,"id":"a6e2jrkxafg9","geo_precision":"street","address":"8231 DESOTO AVE","state":"CA"},"type":"Feature","geometry":{"type":"Point","coordinates":[-111.478492,35.237445]}},{"properties":{"city":"CANOGA PARK","zip":"91306","geo_score":0.62,"lic_nbr":1000220,"id":"a6e2jrmkremi","geo_precision":"street","address":"20469 SHERMAN WAY","state":"CA"},"type":"Feature","geometry":{"type":"Point","coordinates":[-93.923735,33.872444]}},{"properties":{"city":"WINNETKA","zip":"91306","geo_score":0.407,"lic_nbr":1000717,"id":"a6e2jrmn4hic","geo_precision":"city","address":"20246 SATICOY STREET","state":"CA"},"type":"Feature","geometry":{"type":"Point","coordinates":[-122.321791,47.45371]}},{"properties":{"city":"CANOGA PARK","zip":"91306","geo_score":0.498,"lic_nbr":1002834,"id":"a6e2jrmh5ppw","geo_precision":"street","address":"19754 SHERMAN WAY","state":"CA"},"type":"Feature","geometry":{"type":"Point","coordinates":[-93.923735,33.872444]}},{"properties":{"city":"WINNETKA","zip":"91306","geo_score":0.411,"lic_nbr":1003665,"id":"a6e2jrj1i2kc","geo_precision":"city","address":"20115 SATICOY ST.","state":"CA"},"type":"Feature","geometry":{"type":"Point","coordinates":[-122.321791,47.45371]}},{"properties":{"city":"PACOIMA","zip":"91311","geo_score":0.48,"lic_nbr":1004205,"id":"a6e2jredb6v9","geo_precision":"street","address":"10750 GLENOAKS BLVD.","state":"CA"},"type":"Feature","geometry":{"type":"Point","coordinates":[-86.938209,33.456891]}},{"properties":{"city":"CHATSWORTH","zip":"91311","geo_score":0.512,"lic_nbr":1003479,"id":"a6e2jrfdllmu","geo_precision":"street","address":"9866 DESOTO AVE","state":"CA"},"type":"Feature","geometry":{"type":"Point","coordinates":[-111.478492,35.237445]}},{"properties":{"city":"NEWHALL","zip":"91321","geo_score":0.421,"lic_nbr":1002222,"id":"a6e2jrb54nxq","geo_precision":"city","address":"23354 LYONS AVENUE","state":"CA"},"type":"Feature","geometry":{"type":"Point","coordinates":[-90.186238,41.867251]}},{"properties":{"city":"NORTHRIDGE","zip":"91324","geo_score":0.464,"lic_nbr":1000588,"id":"a6e2jrcjaaga","geo_precision":"street","address":"18455-1/2 ROSCOE BLVD.","state":"CA"},"type":"Feature","geometry":{"type":"Point","coordinates":[-84.800645,33.392308]}},{"properties":{"city":"NORTHRIDGE","zip":"91324","geo_score":0.483,"lic_nbr":1001628,"id":"a6e2jrlmx6uq","geo_precision":"street","address":"18539 ROSCOE BLVD","state":"CA"},"type":"Feature","geometry":{"type":"Point","coordinates":[-84.813401,33.511266]}},{"properties":{"city":"NORTHRIDGE","zip":"91324","geo_score":0.0,"lic_nbr":1002852,"id":"a6e2jrbv8z6z","geo_precision":"unmatched","address":"19240 NORDHOFF STREET","state":"CA"},"type":"Feature","geometry":null},{"properties":{"city":"NORTHRIDGE","zip":"91324","geo_score":0.577,"lic_nbr":1004229,"id":"a6e2jrgldtbk","geo_precision":"street","address":"8715 CORBIN AVE.","state":"CA"},"type":"Feature","geometry":{"type":"Point","coordinates":[-121.457514,37.717569]}},{"properties":{"city":"PACOIMA","zip":"91331","geo_score":0.561,"lic_nbr":1003043,"id":"a6e2jrjsp4fu","geo_precision":"street","address":"9745 LAUREL CANYON BLVD.","state":"CA"},"type":"Feature","geometry":{"type":"Point","coordinates":[-76.910832,38.932973]}},{"properties":{"city":"ARLETA","zip":"91331","geo_score":0.62,"lic_nbr":1002812,"id":"a6e2jrj4elkz","geo_precision":"street","address":"9700 WOODMAN AVENUE","state":"CA"},"type":"Feature","geometry":{"type":"Point","coordinates":[-70.937071,42.881644]}},{"properties":{"city":"ARLETA","zip":"91331","geo_score":0.62,"lic_nbr":1000222,"id":"a6e2jrku8b0q","geo_precision":"street","address":"8652 WOODMAN AVE.","state":"CA"},"type":"Feature","geometry":{"type":"Point","coordinates":[-70.937071,42.881644]}},{"properties":{"city":"PACOIMA","zip":"91331","geo_score":0.581,"lic_nbr":1000435,"id":"a6e2jrognbzu","geo_precision":"street","address":"12773 VAN NUYS BLVD.","state":"CA"},"type":"Feature","geometry":{"type":"Point","coordinates":[-118.317778,33.916454]}},{"properties":{"city":"ARLETA","zip":"91331","geo_score":0.62,"lic_nbr":1001299,"id":"a6e2jrf1rbrv","geo_precision":"street","address":"9063 WOODMAN AVENUE","state":"CA"},"type":"Feature","geometry":{"type":"Point","coordinates":[-70.937071,42.881644]}},{"properties":{"city":"PACOIMA","zip":"91331","geo_score":0.48,"lic_nbr":1001304,"id":"a6e2jroto7iq","geo_precision":"street","address":"11256 GLENOAKS BLVD","state":"CA"},"type":"Feature","geometry":{"type":"Point","coordinates":[-86.938209,33.456891]}},{"properties":{"city":"ARLETA","zip":"91331","geo_score":0.488,"lic_nbr":1002923,"id":"a6e2jrc5x3ex","geo_precision":"city","address":"9714 WOODMAN","state":"CA"},"type":"Feature","geometry":{"type":"Point","coordinates":[-70.982843,43.634801]}},{"properties":{"city":"RESEDA","zip":"91335","geo_score":0.488,"lic_nbr":1002991,"id":"a6e2jrh47092","geo_precision":"street","address":"7550 TAMPA AVENUE","state":"CA"},"type":"Feature","geometry":{"type":"Point","coordinates":[-111.895217,33.420375]}},{"properties":{"city":"RESEDA","zip":"91335","geo_score":0.561,"lic_nbr":1000856,"id":"a6e2jrb5m17a","geo_precision":"range","address":"6740 RESEDA BLVD","state":"CA"},"type":"Feature","geometry":{"type":"Point","coordinates":[-105.331245,38.098969]}},{"properties":{"city":"RESEDA","zip":"91335","geo_score":0.415,"lic_nbr":1001318,"id":"a6e2jregh612","geo_precision":"street","address":"19315-F SATICOY","state":"CA"},"type":"Feature","geometry":{"type":"Point","coordinates":[-122.399068,47.697013]}},{"properties":{"city":"RESEDA","zip":"91335","geo_score":0.498,"lic_nbr":1002504,"id":"a6e2jrgk88x3","geo_precision":"street","address":"19638  SHERMAN WAY","state":"CA"},"type":"Feature","geometry":{"type":"Point","coordinates":[-93.923735,33.872444]}},{"properties":{"city":"RESEDA","zip":"91335","geo_score":0.551,"lic_nbr":1002933,"id":"a6e2jrq6p8wd","geo_precision":"range","address":"7160 RESEDA BOULEVARD","state":"CA"},"type":"Feature","geometry":{"type":"Point","coordinates":[-105.330544,38.103106]}},{"properties":{"city":"RESEDA","zip":"91335","geo_score":0.551,"lic_nbr":1003382,"id":"a6e2jriwx3io","geo_precision":"range","address":"7151 RESEDA BOULEVARD","state":"CA"},"type":"Feature","geometry":{"type":"Point","coordinates":[-105.330592,38.102792]}},{"properties":{"city":"RESEDA","zip":"91335","geo_score":0.561,"lic_nbr":1004166,"id":"a6e2jrkf3k2q","geo_precision":"range","address":"7144 RESEDA BLVD.","state":"CA"},"type":"Feature","geometry":{"type":"Point","coordinates":[-105.330634,38.102903]}},{"properties":{"city":"RESEDA","zip":"91335","geo_score":0.601,"lic_nbr":1004352,"id":"a6e2jrdifynf","geo_precision":"street","address":"18503 VICTORY BLVD.","state":"CA"},"type":"Feature","geometry":{"type":"Point","coordinates":[-85.434721,31.246693]}},{"properties":{"city":"SAN FERNANDO","zip":"91340","geo_score":0.461,"lic_nbr":1002836,"id":"a6e2jrlvujjb","geo_precision":"street","address":"12940 FOOTHILL BOULEVARD","state":"CA"},"type":"Feature","geometry":{"type":"Point","coordinates":[-111.814959,40.725992]}},{"properties":{"city":"SAN FERNANDO","zip":"91340","geo_score":0.69,"lic_nbr":1001351,"id":"a6e2jrpx0kp4","geo_precision":"range","address":"55-B NORTH MACLAY AVENUE","state":"CA"},"type":"Feature","geometry":{"type":"Point","coordinates":[-92.403407,34.828809]}},{"properties":{"city":"SAN FERNANDO","zip":"91340","geo_score":0.601,"lic_nbr":1002938,"id":"a6e2jrfgpbux","geo_precision":"street","address":"1013 TRUMAN STREET","state":"CA"},"type":"Feature","geometry":{"type":"Point","coordinates":[-111.703932,33.363552]}},{"properties":{"city":"SYLMAR","zip":"91342","geo_score":0.461,"lic_nbr":1002957,"id":"a6e2jrikwfsz","geo_precision":"street","address":"13711 FOOTHILL BOULEVARD","state":"CA"},"type":"Feature","geometry":{"type":"Point","coordinates":[-111.822478,40.734384]}},{"properties":{"city":"SYLMAR","zip":"91342","geo_score":0.48,"lic_nbr":1001158,"id":"a6e2jre0qgli","geo_precision":"street","address":"13711 FOOTHILL BLVD","state":"CA"},"type":"Feature","geometry":{"type":"Point","coordinates":[-111.822478,40.734384]}},{"properties":{"city":"SYLMAR","zip":"91342","geo_score":0.168,"lic_nbr":1002688,"id":"a6e2jrq23z80","geo_precision":"street","address":"13633 1/2 FOOTHILL BOULEVARD","state":"CA"},"type":"Feature","geometry":{"type":"Point","coordinates":[-111.833066,40.754234]}},{"properties":{"city":"SYLMAR","zip":"91342","geo_score":0.48,"lic_nbr":1004160,"id":"a6e2jri424t4","geo_precision":"street","address":"11980 FOOTHILL BLVD.","state":"CA"},"type":"Feature","geometry":{"type":"Point","coordinates":[-111.814959,40.725992]}},{"properties":{"city":"NORTH HILLS","zip":"91343","geo_score":0.463,"lic_nbr":1002945,"id":"a6e2jrmicrv0","geo_precision":"street","address":"15759 ROSCOE BOULEVARD","state":"CA"},"type":"Feature","geometry":{"type":"Point","coordinates":[-84.813401,33.511266]}},{"properties":{"city":"NORTH HILLS","zip":"91343","geo_score":0.756,"lic_nbr":1002538,"id":"a6e2jrh3sc75","geo_precision":"range","address":"9046 SEPULVEDA BOULEVARD","state":"CA"},"type":"Feature","geometry":{"type":"Point","coordinates":[-118.467504,34.234574]}},{"properties":{"city":"NORTH HILLS","zip":"91343","geo_score":0.0,"lic_nbr":1002564,"id":"a6e2jri8ugmn","geo_precision":"unmatched","address":"16134 NORDHOFF","state":"CA"},"type":"Feature","geometry":null},{"properties":{"city":"NORTH HILLS","zip":"91343","geo_score":0.0,"lic_nbr":1003407,"id":"a6e2jrmvuiev","geo_precision":"unmatched","address":"15425 PARTHENIA STREET","state":"CA"},"type":"Feature","geometry":null},{"properties":{"city":"NORTH HILLS","zip":"91343","geo_score":0.0,"lic_nbr":1004273,"id":"a6e2jrdqojaw","geo_precision":"unmatched","address":"15400 NORDHOFF ST.","state":"CA"},"type":"Feature","geometry":null},{"properties":{"city":"GRANADA HILLS","zip":"91344","geo_score":0.298,"lic_nbr":1001538,"id":"a6e2jrke05fe","geo_precision":"street","address":"11145 WOODLEY AVE","state":"CA"},"type":"Feature","geometry":{"type":"Point","coordinates":[-123.787631,40.309435]}},{"properties":{"city":"GRANADA HILLS","zip":"91344","geo_score":0.502,"lic_nbr":1002033,"id":"a6e2jre4ofpq","geo_precision":"street","address":"11057 BALBOA BOULEVARD","state":"CA"},"type":"Feature","geometry":{"type":"Point","coordinates":[-80.027344,39.702431]}},{"properties":{"city":"GRANADA HILLS","zip":"91344","geo_score":0.502,"lic_nbr":1004210,"id":"a6e2jrq6xx7j","geo_precision":"street","address":"10670 BALBOA BLVD.","state":"CA"},"type":"Feature","geometry":{"type":"Point","coordinates":[-80.023964,39.688974]}},{"properties":{"city":"MISSION HILLS","zip":"91345","geo_score":0.488,"lic_nbr":1002900,"id":"a6e2jro2lzif","geo_precision":"city","address":"10223 SEPULVEDA","state":"CA"},"type":"Feature","geometry":{"type":"Point","coordinates":[-118.484722,34.236389]}},{"properties":{"city":"MISSION HILLS","zip":"91345","geo_score":0.683,"lic_nbr":1001484,"id":"a6e2jrmi7kkm","geo_precision":"street","address":"15416 DEVONSHIRE ST","state":"CA"},"type":"Feature","geometry":{"type":"Point","coordinates":[-75.631486,39.763624]}},{"properties":{"city":"CANYON COUNTRY","zip":"91351","geo_score":0.616,"lic_nbr":1002453,"id":"a6e2jrolchw5","geo_precision":"street","address":"18520 W. SOLEDAD CANYON ROAD","state":"CA"},"type":"Feature","geometry":{"type":"Point","coordinates":[-121.953624,37.592385]}},{"properties":{"city":"CANYON COUNTRY","zip":"91351","geo_score":0.629,"lic_nbr":1001379,"id":"a6e2jrivlexh","geo_precision":"street","address":"19357 SOLEDAD CANYON RD","state":"CA"},"type":"Feature","geometry":{"type":"Point","coordinates":[-121.953624,37.592385]}},{"properties":{"city":"SANTA CLARITA","zip":"91351","geo_score":0.642,"lic_nbr":1001541,"id":"a6e2jrgk8yjj","geo_precision":"street","address":"18553 SOLEDAD CANYON","state":"CA"},"type":"Feature","geometry":{"type":"Point","coordinates":[-121.947118,37.712388]}},{"properties":{"city":"CANYON COUNTRY","zip":"91351","geo_score":0.629,"lic_nbr":1002108,"id":"a6e2jrdcob8s","geo_precision":"street","address":"18829 SOLEDAD CANYON ROAD","state":"CA"},"type":"Feature","geometry":{"type":"Point","coordinates":[-121.953624,37.592385]}},{"properties":{"city":"SUN VALLEY","zip":"91352","geo_score":0.442,"lic_nbr":1000412,"id":"a6e2jrj9j2bc","geo_precision":"city","address":"8026 VINELAND AVE.","state":"CA"},"type":"Feature","geometry":{"type":"Point","coordinates":[-86.994716,33.439831]}},{"properties":{"city":"SUN VALLEY","zip":"91352","geo_score":0.561,"lic_nbr":1002831,"id":"a6e2jrelvba5","geo_precision":"street","address":"8305 LAUREL CANYON BOULEVARD","state":"CA"},"type":"Feature","geometry":{"type":"Point","coordinates":[-76.910832,38.932973]}},{"properties":{"city":"TARZANA","zip":"91356","geo_score":0.551,"lic_nbr":1003125,"id":"a6e2jrcus25q","geo_precision":"range","address":"5585 RESEDA BOULEVARD","state":"CA"},"type":"Feature","geometry":{"type":"Point","coordinates":[-105.349807,38.091909]}},{"properties":{"city":"TARZANA","zip":"91356","geo_score":0.409,"lic_nbr":1004212,"id":"a6e2jrjs3fzm","geo_precision":"city","address":"19225 VENTURA BLVD.","state":"CA"},"type":"Feature","geometry":{"type":"Point","coordinates":[-134.895833,58.256389]}},{"properties":{"city":"THOUSAND OAKS","zip":"91360","geo_score":0.403,"lic_nbr":1004246,"id":"a6e2jrcuv46g","geo_precision":"city","address":"1050 AVENIDA DE LOS ARBOLES","state":"CA"},"type":"Feature","geometry":{"type":"Point","coordinates":[-95.992775,36.153982]}},{"properties":{"city":"WESTLAKE VILLAGE","zip":"91361","geo_score":0.524,"lic_nbr":1004303,"id":"a6e2jrbeg14v","geo_precision":"street","address":"660 HAMPSHIRE ROAD","state":"CA"},"type":"Feature","geometry":{"type":"Point","coordinates":[-76.976755,39.010467]}},{"properties":{"city":"VAN NUYS","zip":"91401","geo_score":0.601,"lic_nbr":1002136,"id":"a6e2jreewgib","geo_precision":"street","address":"14103 VICTORY BOULEVARD","state":"CA"},"type":"Feature","geometry":{"type":"Point","coordinates":[-85.434721,31.246693]}},{"properties":{"city":"VAN NUYS","zip":"91401","geo_score":0.601,"lic_nbr":1002944,"id":"a6e2jrorww36","geo_precision":"street","address":"13667 VICTORY BLVD.","state":"CA"},"type":"Feature","geometry":{"type":"Point","coordinates":[-85.434721,31.246693]}},{"properties":{"city":"VAN NUYS","zip":"91401","geo_score":0.574,"lic_nbr":1004164,"id":"a6e2jrkxu6md","geo_precision":"street","address":"6405 VAN NUYS BLVD.","state":"CA"},"type":"Feature","geometry":{"type":"Point","coordinates":[-118.394272,34.026116]}},{"properties":{"city":"VAN NUYS","zip":"91401","geo_score":0.574,"lic_nbr":1004312,"id":"a6e2jrmoljh7","geo_precision":"street","address":"6582 VAN NUYS BLVD.","state":"CA"},"type":"Feature","geometry":{"type":"Point","coordinates":[-118.388058,34.02928]}},{"properties":{"city":"PANORAMA CITY","zip":"91402","geo_score":0.769,"lic_nbr":1000417,"id":"a6e2jrqmlvj3","geo_precision":"range","address":"9100 VAN NUYS BLVD.","state":"CA"},"type":"Feature","geometry":{"type":"Point","coordinates":[-118.393673,34.026064]}},{"properties":{"city":"VAN NUYS","zip":"91402","geo_score":0.574,"lic_nbr":1000463,"id":"a6e2jrbuez7e","geo_precision":"street","address":"8006 VAN NUYS BLVD.","state":"CA"},"type":"Feature","geometry":{"type":"Point","coordinates":[-118.388058,34.02928]}},{"properties":{"city":"VAN NUYS","zip":"91402","geo_score":0.461,"lic_nbr":1000587,"id":"a6e2jrcm00fp","geo_precision":"street","address":"8243-1/2 SEPULVEDA BLVD.","state":"CA"},"type":"Feature","geometry":{"type":"Point","coordinates":[-118.467726,34.221416]}},{"properties":{"city":"PANORAMA CITY","zip":"91402","geo_score":0.561,"lic_nbr":1002962,"id":"a6e2jrk36w3e","geo_precision":"street","address":"8318 VAN NUYS","state":"CA"},"type":"Feature","geometry":{"type":"Point","coordinates":[-118.317778,33.916454]}},{"properties":{"city":"PANORAMA CITY","zip":"91402","geo_score":0.483,"lic_nbr":1003860,"id":"a6e2jrp3o5w5","geo_precision":"street","address":"13801 ROSCOE BLVD.","state":"CA"},"type":"Feature","geometry":{"type":"Point","coordinates":[-84.813401,33.511266]}},{"properties":{"city":"PANORAMA CITY","zip":"91402","geo_score":0.464,"lic_nbr":1003864,"id":"a6e2jrhu839t","geo_precision":"street","address":"13758 1/2 ROSCOE BLVD","state":"CA"},"type":"Feature","geometry":{"type":"Point","coordinates":[-84.800645,33.392308]}},{"properties":{"city":"SHERMAN OAKS","zip":"91403","geo_score":0.574,"lic_nbr":1003837,"id":"a6e2jroeq1tz","geo_precision":"street","address":"4645 VAN NUYS BLVD","state":"CA"},"type":"Feature","geometry":{"type":"Point","coordinates":[-118.446258,33.997142]}},{"properties":{"city":"SHERMAN OAKS","zip":"91403","geo_score":0.574,"lic_nbr":1003383,"id":"a6e2jrhhxbqi","geo_precision":"street","address":"4465 VAN NUYS BOULEVARD","state":"CA"},"type":"Feature","geometry":{"type":"Point","coordinates":[-118.446258,33.997142]}},{"properties":{"city":"VAN NUYS","zip":"91405","geo_score":0.574,"lic_nbr":1004168,"id":"a6e2jrd51yil","geo_precision":"street","address":"7203 VAN NUYS BLVD.","state":"CA"},"type":"Feature","geometry":{"type":"Point","coordinates":[-118.394272,34.026116]}},{"properties":{"city":"VAN NUYS","zip":"91405","geo_score":0.574,"lic_nbr":1000233,"id":"a6e2jrelvg1q","geo_precision":"street","address":"7335 VAN NUYS BLVD.","state":"CA"},"type":"Feature","geometry":{"type":"Point","coordinates":[-118.394272,34.026116]}},{"properties":{"city":"VAN NUYS","zip":"91405","geo_score":0.574,"lic_nbr":1001323,"id":"a6e2jrlta9ou","geo_precision":"street","address":"7403 VAN NUYS BLVD","state":"CA"},"type":"Feature","geometry":{"type":"Point","coordinates":[-118.394272,34.026116]}},{"properties":{"city":"VAN NUYS","zip":"91405","geo_score":0.498,"lic_nbr":1002934,"id":"a6e2jrchkfpk","geo_precision":"street","address":"14526 SHERMAN WAY","state":"CA"},"type":"Feature","geometry":{"type":"Point","coordinates":[-93.923735,33.872444]}},{"properties":{"city":"VAN NUYS","zip":"91405","geo_score":0.0,"lic_nbr":1003822,"id":"a6e2jrpknr0t","geo_precision":"unmatched","address":"15226 VANOWEN ST","state":"CA"},"type":"Feature","geometry":null},{"properties":{"city":"VAN NUYS","zip":"91405","geo_score":0.58,"lic_nbr":1003861,"id":"a6e2jrc6niup","geo_precision":"street","address":"7143 SEPULVEDA BLVD","state":"CA"},"type":"Feature","geometry":{"type":"Point","coordinates":[-118.467726,34.221416]}},{"properties":{"city":"VAN NUYS","zip":"91406","geo_score":0.62,"lic_nbr":1004247,"id":"a6e2jrmccgrm","geo_precision":"street","address":"15333 SHERMAN WAY","state":"CA"},"type":"Feature","geometry":{"type":"Point","coordinates":[-93.923735,33.872444]}},{"properties":{"city":"VAN NUYS","zip":"91406","geo_score":0.498,"lic_nbr":1002566,"id":"a6e2jrpz7juo","geo_precision":"street","address":"16900 SHERMAN WAY","state":"CA"},"type":"Feature","geometry":{"type":"Point","coordinates":[-93.923735,33.872444]}},{"properties":{"city":"VAN NUYS","zip":"91406","geo_score":0.502,"lic_nbr":1000888,"id":"a6e2jrfgcwf8","geo_precision":"street","address":"6800 BALBOA BLVD","state":"CA"},"type":"Feature","geometry":{"type":"Point","coordinates":[-80.023964,39.688974]}},{"properties":{"city":"VAN NUYS","zip":"91406","geo_score":0.0,"lic_nbr":1001268,"id":"a6e2jrfk18g1","geo_precision":"unmatched","address":"15713 1/2 VANOWEN STREET","state":"CA"},"type":"Feature","geometry":null},{"properties":{"city":"VAN NUYS","zip":"91406","geo_score":0.407,"lic_nbr":1003411,"id":"a6e2jrcl2lw4","geo_precision":"city","address":"17236 SATICOY STREET","state":"CA"},"type":"Feature","geometry":{"type":"Point","coordinates":[-122.321791,47.45371]}},{"properties":{"city":"BURBANK","zip":"91504","geo_score":0.616,"lic_nbr":1002290,"id":"a6e2jrcsy9qn","geo_precision":"street","address":"1212 N. SAN FERNANDO BLVD.","state":"CA"},"type":"Feature","geometry":{"type":"Point","coordinates":[-122.47011,37.730308]}},{"properties":{"city":"BURBANK","zip":"91505","geo_score":0.586,"lic_nbr":1000585,"id":"a6e2jrngjcoq","geo_precision":"street","address":"2501 W. VICTORY BLVD.","state":"CA"},"type":"Feature","geometry":{"type":"Point","coordinates":[-85.434721,31.246693]}},{"properties":{"city":"BURBANK","zip":"91506","geo_score":0.902,"lic_nbr":1002942,"id":"a6e2jrd8j4ww","geo_precision":"range","address":"916 W. BURBANK BLVD.","state":"CA"},"type":"Feature","geometry":{"type":"Point","coordinates":[-118.322088,34.184095]}},{"properties":{"city":"BURBANK","zip":"91506","geo_score":0.436,"lic_nbr":1001481,"id":"a6e2jrojvngo","geo_precision":"city","address":"1052 W ALAMEDA AVE","state":"CA"},"type":"Feature","geometry":{"type":"Point","coordinates":[-80.297551,25.763433]}},{"properties":{"city":"NORTH HOLLYWOOD","zip":"91601","geo_score":0.617,"lic_nbr":1002869,"id":"a6e2jrc5vv6s","geo_precision":"street","address":"11002 WEST MAGNOLIA BOULEVARD","state":"CA"},"type":"Feature","geometry":{"type":"Point","coordinates":[-86.956491,31.415958]}},{"properties":{"city":"NORTH HOLLYWOOD","zip":"91601","geo_score":0.442,"lic_nbr":1001305,"id":"a6e2jrdystbi","geo_precision":"city","address":"5160 VINELAND AVE","state":"CA"},"type":"Feature","geometry":{"type":"Point","coordinates":[-86.994716,33.439831]}}],"is_temporal":false,"author":{"url":"","metadata":"","contact_name":"","contact_address":"","source":"","contact_phone":""},"source":"","pagination":{"sort":null,"start":0,"total":500,"limit":1000000},"state":"complete","tags":"","published":"2014-08-13T03:36:31-04:00","id":134937}