{"type":"FeatureCollection","data_type":"Dataset","url_type":null,"permissions":[{"permissions":{"download":true,"view":true},"group_id":"everyone"}],"classification":null,"title":"demo1","count":278,"stream_id":135474,"contributor":{"url":"http://geocommons.com/users/29495","name":"ageorge"},"data_attributes":null,"calculation_params":null,"icon_link":null,"link":"http://geocommons.com/overlays/135474.json","extent":[-117.241,26.7589,-73.6818,48.8481],"geometry_types":["point"],"unique_name":null,"name":"demo1","feature_count":278,"description":"","next_feature":null,"is_raster":false,"short_classification":"Y","stats":{"open goal total":{"count":20,"counts_by_value":{"1250000.00%":8,"1000000.00%":36,"400000.00%":1,"300000.00%":72,"2000000.00%":2,"1500000.00%":3,"750000.00%":12,"100000.00%":7,"250000.00%":3,"2500000.00%":4,"5100000.00%":1,"50000.00%":1,"600000.00%":1,"500000.00%":89,"0.00%":22,"1.00%":11,"1300000.00%":1,"7500000.00%":2,"150000.00%":1,"200000.00%":1},"list":["500000.00%","300000.00%","100000.00%","1000000.00%","0.00%","1500000.00%","1.00%","1250000.00%","1300000.00%","750000.00%","250000.00%","2500000.00%","7500000.00%","400000.00%","600000.00%","2000000.00%","150000.00%","50000.00%","5100000.00%","200000.00%"]}},"features":[{"properties":{"city":"Media","zip":"19063","open goal total":"500000.00%","geo_score":0.805,"id":"a6e3iawyt1wh","geo_precision":"range","address":"120 Sycamore Mills Rd","state":"PA"},"type":"Feature","geometry":{"type":"Point","coordinates":[-75.395345,39.937265]}},{"properties":{"city":"Philadelphia","zip":"19118","open goal total":"500000.00%","geo_score":0.805,"id":"a6e3ib4oca07","geo_precision":"range","address":"319 E Gravers Ln","state":"PA"},"type":"Feature","geometry":{"type":"Point","coordinates":[-75.201947,40.078159]}},{"properties":{"city":"Philadelphia","zip":"19135","open goal total":"300000.00%","geo_score":0.805,"id":"a6e3ib6xnzv6","geo_precision":"range","address":"6633 Montague St","state":"PA"},"type":"Feature","geometry":{"type":"Point","coordinates":[-75.051995,40.028257]}},{"properties":{"city":"Washington","zip":"20012","open goal total":"300000.00%","geo_score":0.352,"id":"a6e3ib8b36mv","geo_precision":"street","address":"1224 Underwood Street, NW","state":"DC"},"type":"Feature","geometry":{"type":"Point","coordinates":[-77.009042,38.969096]}},{"properties":{"city":"Potomac","zip":"20854","open goal total":"100000.00%","geo_score":0.902,"id":"a6e3iba55rr2","geo_precision":"range","address":"11505 Morning Ride Drive","state":"MD"},"type":"Feature","geometry":{"type":"Point","coordinates":[-77.269457,39.045559]}},{"properties":{"city":"Red Lodge","zip":"59068","open goal total":"1000000.00%","geo_score":0.446,"id":"a6e3ib7zdrch","geo_precision":"street","address":"PO Box 287","state":"MT"},"type":"Feature","geometry":{"type":"Point","coordinates":[-108.94091,46.293589]}},{"properties":{"city":"Chevy Chase","zip":"20815","open goal total":"300000.00%","geo_score":0.707,"id":"a6e3ib3d1hr0","geo_precision":"range","address":"5630 Wisconsin Ave Apt 301","state":"MD"},"type":"Feature","geometry":{"type":"Point","coordinates":[-77.088207,38.966041]}},{"properties":{"city":"Villanova","zip":"19085","open goal total":"500000.00%","geo_score":0.902,"id":"a6e3iazykbr0","geo_precision":"range","address":"1218 Valley Rd","state":"PA"},"type":"Feature","geometry":{"type":"Point","coordinates":[-75.318866,40.061279]}},{"properties":{"city":"Bryn Mawr","zip":"19010","open goal total":"500000.00%","geo_score":0.501,"id":"a6e3ib7pi4gz","geo_precision":"street","address":"1218 Round Hill Road","state":"PA"},"type":"Feature","geometry":{"type":"Point","coordinates":[-75.993157,40.542435]}},{"properties":{"city":"Wayne","zip":"19087","open goal total":"500000.00%","geo_score":0.805,"id":"a6e3ib0kr6en","geo_precision":"range","address":"492 Glenwyth Rd","state":"PA"},"type":"Feature","geometry":{"type":"Point","coordinates":[-75.415632,40.057912]}},{"properties":{"city":"Yardley","zip":"19067","open goal total":"500000.00%","geo_score":0.902,"id":"a6e3ib0h7733","geo_precision":"range","address":"2306 Lakeview Dr","state":"PA"},"type":"Feature","geometry":{"type":"Point","coordinates":[-74.831307,40.229187]}},{"properties":{"city":"Columbia","zip":"21044","open goal total":"500000.00%","geo_score":0.902,"id":"a6e3ib73guiw","geo_precision":"range","address":"5028 Jericho Rd","state":"MD"},"type":"Feature","geometry":{"type":"Point","coordinates":[-76.905958,39.232039]}},{"properties":{"city":"Flagstaff","zip":"86001","open goal total":"500000.00%","geo_score":0.902,"id":"a6e3ibarc7gb","geo_precision":"range","address":"120 E Astro Ln","state":"AZ"},"type":"Feature","geometry":{"type":"Point","coordinates":[-111.643857,35.203502]}},{"properties":{"city":"New York","zip":"10014","open goal total":"0.00%","geo_score":0.805,"id":"a6e3ib1n0qgf","geo_precision":"range","address":"136 Waverly Pl # 8E","state":"NY"},"type":"Feature","geometry":{"type":"Point","coordinates":[-73.994064,40.729977]}},{"properties":{"city":"Basking Ridge","zip":"7920","open goal total":"0.00%","geo_score":0.805,"id":"a6e3ib24i6wh","geo_precision":"street","address":"58 Lyons Pl","state":"NJ"},"type":"Feature","geometry":{"type":"Point","coordinates":[-74.550916,40.685781]}},{"properties":{"city":"Tucson","zip":"85749","open goal total":"1500000.00%","geo_score":0.805,"id":"a6e3ibbpq28j","geo_precision":"range","address":"4851 N Avenida De Franelah","state":"AZ"},"type":"Feature","geometry":{"type":"Point","coordinates":[-110.741183,32.29547]}},{"properties":{"city":"Villanova","zip":"19085","open goal total":"500000.00%","geo_score":0.902,"id":"a6e3ib9zasgo","geo_precision":"range","address":"626 Creighton Road","state":"PA"},"type":"Feature","geometry":{"type":"Point","coordinates":[-75.325468,40.047224]}},{"properties":{"city":"Baltimore","zip":"21212","open goal total":"500000.00%","geo_score":0.805,"id":"a6e3ib98d9bv","geo_precision":"range","address":"805 Chumleigh Rd","state":"MD"},"type":"Feature","geometry":{"type":"Point","coordinates":[-76.603158,39.38065]}},{"properties":{"city":"Bethesda","zip":"20816","open goal total":"500000.00%","geo_score":0.805,"id":"a6e3ib4rjr13","geo_precision":"range","address":"5805 Springfield Dr","state":"MD"},"type":"Feature","geometry":{"type":"Point","coordinates":[-77.113953,38.967727]}},{"properties":{"city":"Tucson","zip":"85711","open goal total":"300000.00%","geo_score":0.805,"id":"a6e3ibam2npo","geo_precision":"range","address":"392 S Via De Los Rosales","state":"AZ"},"type":"Feature","geometry":{"type":"Point","coordinates":[-110.882235,32.216829]}},{"properties":{"city":"Bethlehem","zip":"18017","open goal total":"1.00%","geo_score":0.857,"id":"a6e3ib7qxw7u","geo_precision":"city","address":"436 E. Macada Road","state":"PA"},"type":"Feature","geometry":{"type":"Point","coordinates":[-78.730307,40.86173]}},{"properties":{"city":"Middletown","zip":"21769","open goal total":"500000.00%","geo_score":0.463,"id":"a6e3ib1n5w87","geo_precision":"street","address":"3258 Bidle Road","state":"MD"},"type":"Feature","geometry":{"type":"Point","coordinates":[-77.020625,38.769417]}},{"properties":{"city":"Mechanicsburg","zip":"17055","open goal total":"500000.00%","geo_score":0.551,"id":"a6e3iawf6hgq","geo_precision":"city","address":"926 Eppley Rd","state":"PA"},"type":"Feature","geometry":{"type":"Point","coordinates":[-79.333931,41.168397]}},{"properties":{"city":"Washington","zip":"20007","open goal total":"1000000.00%","geo_score":0.805,"id":"a6e3iax833s9","geo_precision":"range","address":"4626 Garfield St NW","state":"DC"},"type":"Feature","geometry":{"type":"Point","coordinates":[-77.091149,38.927529]}},{"properties":{"city":"Chevy Chase","zip":"20815","open goal total":"1000000.00%","geo_score":0.805,"id":"a6e3ib01ujjh","geo_precision":"range","address":"6211 Garnett Dr","state":"MD"},"type":"Feature","geometry":{"type":"Point","coordinates":[-77.10847,38.970515]}},{"properties":{"city":"Potomac","zip":"20854","open goal total":"1250000.00%","geo_score":0.902,"id":"a6e3ib8r1rc5","geo_precision":"range","address":"10713 Stapleford Hall Drive","state":"MD"},"type":"Feature","geometry":{"type":"Point","coordinates":[-77.191146,39.034266]}},{"properties":{"city":"Penn Valley","zip":"19072","open goal total":"500000.00%","geo_score":0.477,"id":"a6e3iawc7nmv","geo_precision":"street","address":"1461 Hagys Ford Rd","state":"PA"},"type":"Feature","geometry":{"type":"Point","coordinates":[-78.153373,40.060953]}},{"properties":{"city":"Washington","zip":"20008","open goal total":"1300000.00%","geo_score":0.805,"id":"a6e3ib00s491","geo_precision":"range","address":"2136 Cathedral Ave NW","state":"DC"},"type":"Feature","geometry":{"type":"Point","coordinates":[-77.049693,38.924109]}},{"properties":{"city":"New York","zip":"10013","open goal total":"0.00%","geo_score":0.677,"id":"a6e3iaxo606o","geo_precision":"range","address":"88 Leonard St Apt 1808","state":"NY"},"type":"Feature","geometry":{"type":"Point","coordinates":[-74.004865,40.717123]}},{"properties":{"city":"Philadelphia","zip":"19103","open goal total":"1.00%","geo_score":0.692,"id":"a6e3iawl4naf","geo_precision":"range","address":"2011 Spruce St Apt 3F","state":"PA"},"type":"Feature","geometry":{"type":"Point","coordinates":[-75.174473,39.948201]}},{"properties":{"city":"Ardmore","zip":"19003","open goal total":"1000000.00%","geo_score":0.867,"id":"a6e3ib8db01o","geo_precision":"range","address":"214 Glenn Rd","state":"PA"},"type":"Feature","geometry":{"type":"Point","coordinates":[-75.287136,40.012214]}},{"properties":{"city":"Jenkintown","zip":"19046","open goal total":"1.00%","geo_score":0.815,"id":"a6e3ib1myckg","geo_precision":"range","address":"165 Township Line Rd Ste 150","state":"PA"},"type":"Feature","geometry":{"type":"Point","coordinates":[-75.130544,40.08874]}},{"properties":{"city":"Piqua","zip":"45356","open goal total":"1000000.00%","geo_score":0.902,"id":"a6e3iaxmjnmf","geo_precision":"range","address":"1294 Park Ave","state":"OH"},"type":"Feature","geometry":{"type":"Point","coordinates":[-84.263588,40.153102]}},{"properties":{"city":"Jackson","zip":"83002","open goal total":"750000.00%","geo_score":0.857,"id":"a6e3ib4r4kqn","geo_precision":"city","address":"PO Box 10789","state":"WY"},"type":"Feature","geometry":{"type":"Point","coordinates":[-110.739266,43.452793]}},{"properties":{"city":"Haverford","zip":"19041","open goal total":"300000.00%","geo_score":0.902,"id":"a6e3iazw7gre","geo_precision":"range","address":"121 Rose Ln","state":"PA"},"type":"Feature","geometry":{"type":"Point","coordinates":[-75.303532,40.019368]}},{"properties":{"city":"Washington","zip":"20016","open goal total":"750000.00%","geo_score":0.339,"id":"a6e3iaz5pqsi","geo_precision":"street","address":"4345 Yuma Street N.W.","state":"DC"},"type":"Feature","geometry":{"type":"Point","coordinates":[-77.072414,38.946278]}},{"properties":{"city":"Bethesda","zip":"20816","open goal total":"750000.00%","geo_score":0.695,"id":"a6e3iaw8cvjk","geo_precision":"range","address":"4970 Sentinel Dr Apt 406","state":"MD"},"type":"Feature","geometry":{"type":"Point","coordinates":[-77.119729,38.950786]}},{"properties":{"city":"Silver Spring","zip":"20910","open goal total":"300000.00%","geo_score":0.805,"id":"a6e3ib9037re","geo_precision":"range","address":"2021 Luzerne Avenue","state":"MD"},"type":"Feature","geometry":{"type":"Point","coordinates":[-77.044688,39.00635]}},{"properties":{"city":"Swarthmore","zip":"19081","open goal total":"300000.00%","geo_score":0.902,"id":"a6e3iax4ye0o","geo_precision":"range","address":"611 Strath Haven Ave","state":"PA"},"type":"Feature","geometry":{"type":"Point","coordinates":[-75.35018,39.893403]}},{"properties":{"city":"Chevy Chase","zip":"20815","open goal total":"100000.00%","geo_score":0.679,"id":"a6e3ibb2t482","geo_precision":"range","address":"7001 East Ave","state":"MD"},"type":"Feature","geometry":{"type":"Point","coordinates":[-77.087104,38.979774]}},{"properties":{"city":"Villanova","zip":"19085","open goal total":"300000.00%","geo_score":0.902,"id":"a6e3ibao63bo","geo_precision":"range","address":"114 Trianon Ln","state":"PA"},"type":"Feature","geometry":{"type":"Point","coordinates":[-75.350628,40.030103]}},{"properties":{"city":"Washington","zip":"20020","open goal total":"750000.00%","geo_score":0.805,"id":"a6e3ib0t965r","geo_precision":"range","address":"1420 Minnesota Ave SE","state":"DC"},"type":"Feature","geometry":{"type":"Point","coordinates":[-76.983403,38.867172]}},{"properties":{"city":"Ellicott City","zip":"21042","open goal total":"1000000.00%","geo_score":0.805,"id":"a6e3iawuqibj","geo_precision":"range","address":"4821 Manor Lane","state":"MD"},"type":"Feature","geometry":{"type":"Point","coordinates":[-76.890385,39.249971]}},{"properties":{"city":"West Chester","zip":"19380","open goal total":"500000.00%","geo_score":0.902,"id":"a6e3ib5m75v4","geo_precision":"range","address":"1412 Springton Ln","state":"PA"},"type":"Feature","geometry":{"type":"Point","coordinates":[-75.561229,40.002435]}},{"properties":{"city":"Sedona","zip":"86336","open goal total":"500000.00%","geo_score":0.463,"id":"a6e3iaz8saje","geo_precision":"street","address":"85 Sandstone Drive","state":"AZ"},"type":"Feature","geometry":{"type":"Point","coordinates":[-112.540974,34.943522]}},{"properties":{"city":"Washington","zip":"20012","open goal total":"300000.00%","geo_score":0.805,"id":"a6e3ib7n5tlt","geo_precision":"range","address":"1359 Kalmia Rd NW","state":"DC"},"type":"Feature","geometry":{"type":"Point","coordinates":[-77.032633,38.984946]}},{"properties":{"city":"Hailey","zip":"83333","open goal total":"1000000.00%","geo_score":0.429,"id":"a6e3iavbk97r","geo_precision":"street","address":"P.O. Box 3389","state":"ID"},"type":"Feature","geometry":{"type":"Point","coordinates":[-113.765231,42.556335]}},{"properties":{"city":"Berwyn","zip":"19312","open goal total":"300000.00%","geo_score":0.537,"id":"a6e3iax4uetu","geo_precision":"city","address":"665 Leopard Rd","state":"PA"},"type":"Feature","geometry":{"type":"Point","coordinates":[-76.001602,40.523982]}},{"properties":{"city":"Chevy Chase","zip":"20815","open goal total":"500000.00%","geo_score":0.805,"id":"a6e3iaz7h2fb","geo_precision":"range","address":"5216 Western Ave","state":"MD"},"type":"Feature","geometry":{"type":"Point","coordinates":[-77.088873,38.958335]}},{"properties":{"city":"New Hope","zip":"18938","open goal total":"500000.00%","geo_score":0.697,"id":"a6e3iays9859","geo_precision":"range","address":"2454 River Rd","state":"PA"},"type":"Feature","geometry":{"type":"Point","coordinates":[-74.959356,40.376069]}},{"properties":{"city":"Scottsdale","zip":"85251","open goal total":"1000000.00%","geo_score":0.721,"id":"a6e3iavk5rgs","geo_precision":"range","address":"4355 N 64th St","state":"AZ"},"type":"Feature","geometry":{"type":"Point","coordinates":[-111.943325,33.499939]}},{"properties":{"city":"Phoenix","zip":"85044","open goal total":"300000.00%","geo_score":0.805,"id":"a6e3ib76nw9e","geo_precision":"range","address":"3423 E Rocky Slope Dr","state":"AZ"},"type":"Feature","geometry":{"type":"Point","coordinates":[-112.010056,33.317332]}},{"properties":{"city":"Annapolis","zip":"21403","open goal total":"300000.00%","geo_score":0.805,"id":"a6e3iayvlzfn","geo_precision":"range","address":"965 Melvin Rd","state":"MD"},"type":"Feature","geometry":{"type":"Point","coordinates":[-76.523709,38.947982]}},{"properties":{"city":"Towson","zip":"21204","open goal total":"500000.00%","geo_score":0.553,"id":"a6e3iay3rbk5","geo_precision":"city","address":"1020 Rolandvue Road","state":"MD"},"type":"Feature","geometry":{"type":"Point","coordinates":[-78.943637,39.477593]}},{"properties":{"city":"Glendale","zip":"85308","open goal total":"250000.00%","geo_score":0.805,"id":"a6e3ib5dqw6j","geo_precision":"range","address":"7884 W Oraibi Dr","state":"AZ"},"type":"Feature","geometry":{"type":"Point","coordinates":[-112.228754,33.662059]}},{"properties":{"city":"Bozeman","zip":"59718","open goal total":"2500000.00%","geo_score":0.532,"id":"a6e3iaxs9cf0","geo_precision":"street","address":"1568 Cobb Hill Rd","state":"MT"},"type":"Feature","geometry":{"type":"Point","coordinates":[-111.038997,45.657889]}},{"properties":{"city":"Malvern","zip":"19355","open goal total":"1000000.00%","geo_score":0.902,"id":"a6e3ib11ngbh","geo_precision":"range","address":"415 Dutton Mill Rd","state":"PA"},"type":"Feature","geometry":{"type":"Point","coordinates":[-75.50972,39.994046]}},{"properties":{"city":"Silver Spring","zip":"20910","open goal total":"500000.00%","geo_score":0.697,"id":"a6e3iaxl2ehk","geo_precision":"range","address":"8737 Colesville Rd Ste 1200","state":"MD"},"type":"Feature","geometry":{"type":"Point","coordinates":[-77.026761,38.998141]}},{"properties":{"city":"Pittsburgh","zip":"15238","open goal total":"500000.00%","geo_score":0.805,"id":"a6e3iayjqq6z","geo_precision":"range","address":"44 Fox Pointe Drive","state":"PA"},"type":"Feature","geometry":{"type":"Point","coordinates":[-79.919618,40.528912]}},{"properties":{"city":"Scottsdale","zip":"85255","open goal total":"100000.00%","geo_score":0.393,"id":"a6e3iba8ppwq","geo_precision":"street","address":"P.O. Box 28303","state":"AZ"},"type":"Feature","geometry":{"type":"Point","coordinates":[-111.857759,33.41491]}},{"properties":{"city":"Exton","zip":"19341","open goal total":"300000.00%","geo_score":0.585,"id":"a6e3ib4l4u5n","geo_precision":"city","address":"5 Fairwind Ln","state":"PA"},"type":"Feature","geometry":{"type":"Point","coordinates":[-75.637035,40.049852]}},{"properties":{"city":"Potomac","zip":"20854","open goal total":"1000000.00%","geo_score":0.902,"id":"a6e3ib1iu8j1","geo_precision":"range","address":"14020 Gorky Dr","state":"MD"},"type":"Feature","geometry":{"type":"Point","coordinates":[-77.289914,39.069116]}},{"properties":{"city":"Chester Springs","zip":"19425","open goal total":"500000.00%","geo_score":0.634,"id":"a6e3ib1puyj5","geo_precision":"range","address":"412 Cumberland Ln","state":"PA"},"type":"Feature","geometry":{"type":"Point","coordinates":[-78.513879,40.017345]}},{"properties":{"city":"Bethesda","zip":"20817","open goal total":"0.00%","geo_score":0.805,"id":"a6e3ib5objrr","geo_precision":"range","address":"6705 Bonaventure Ct","state":"MD"},"type":"Feature","geometry":{"type":"Point","coordinates":[-77.185476,38.977429]}},{"properties":{"city":"Tucson","zip":"85711","open goal total":"2500000.00%","geo_score":0.712,"id":"a6e3ib1rc8lt","geo_precision":"range","address":"5425 E Broadway Blvd Pmb 354","state":"AZ"},"type":"Feature","geometry":{"type":"Point","coordinates":[-110.876869,32.221624]}},{"properties":{"city":"Jarrettsville","zip":"21084","open goal total":"0.00%","geo_score":0.805,"id":"a6e3ib0y6jlz","geo_precision":"street","address":"1155 Chrome Hill Rd","state":"MD"},"type":"Feature","geometry":{"type":"Point","coordinates":[-76.415678,39.621394]}},{"properties":{"city":"Pittsburgh","zip":"15241","open goal total":"300000.00%","geo_score":0.805,"id":"a6e3ib8av4fj","geo_precision":"range","address":"1606 Trolist Drive","state":"PA"},"type":"Feature","geometry":{"type":"Point","coordinates":[-80.080299,40.349428]}},{"properties":{"city":"Chevy Chase","zip":"20815","open goal total":"300000.00%","geo_score":0.717,"id":"a6e3ib1jot3i","geo_precision":"range","address":"8100 Connecticut Ave Apt 421","state":"MD"},"type":"Feature","geometry":{"type":"Point","coordinates":[-77.077163,38.993911]}},{"properties":{"city":"Baltimore","zip":"21212","open goal total":"500000.00%","geo_score":0.805,"id":"a6e3ib0vcw6m","geo_precision":"range","address":"224 Tunbridge Road","state":"MD"},"type":"Feature","geometry":{"type":"Point","coordinates":[-76.619647,39.356667]}},{"properties":{"city":"Haverford","zip":"19041","open goal total":"500000.00%","geo_score":0.902,"id":"a6e3ib7heip7","geo_precision":"range","address":"138 Rose Lane","state":"PA"},"type":"Feature","geometry":{"type":"Point","coordinates":[-75.302269,40.019984]}},{"properties":{"city":"Crofton","zip":"21114","open goal total":"300000.00%","geo_score":0.902,"id":"a6e3ib516cft","geo_precision":"range","address":"1657 Eton Way","state":"MD"},"type":"Feature","geometry":{"type":"Point","coordinates":[-76.68851,39.010707]}},{"properties":{"city":"Silver Spring","zip":"20905","open goal total":"500000.00%","geo_score":0.805,"id":"a6e3ib4d3q36","geo_precision":"range","address":"14809 Fireside Dr","state":"MD"},"type":"Feature","geometry":{"type":"Point","coordinates":[-76.979231,39.09778]}},{"properties":{"city":"Bethesda","zip":"20817","open goal total":"1250000.00%","geo_score":0.805,"id":"a6e3iaxo6agf","geo_precision":"range","address":"7508 Radnor Road","state":"MD"},"type":"Feature","geometry":{"type":"Point","coordinates":[-77.116518,38.98432]}},{"properties":{"city":"Silver Spring","zip":"20910","open goal total":"100000.00%","geo_score":0.805,"id":"a6e3ibbm7z9x","geo_precision":"range","address":"111 Sunnyside Rd","state":"MD"},"type":"Feature","geometry":{"type":"Point","coordinates":[-77.00875,38.988732]}},{"properties":{"city":"Tempe","zip":"85282","open goal total":"300000.00%","geo_score":0.805,"id":"a6e3ib5itri3","geo_precision":"range","address":"124 E Huntington Dr","state":"AZ"},"type":"Feature","geometry":{"type":"Point","coordinates":[-111.936917,33.394254]}},{"properties":{"city":"Severna Park","zip":"21146","open goal total":"500000.00%","geo_score":0.805,"id":"a6e3ib4vpwem","geo_precision":"range","address":"900 Randell Road","state":"MD"},"type":"Feature","geometry":{"type":"Point","coordinates":[-76.536403,39.060111]}},{"properties":{"city":"Potomac","zip":"20854","open goal total":"300000.00%","geo_score":0.769,"id":"a6e3ibauqroe","geo_precision":"range","address":"11054 Seven Hill Ln","state":"MD"},"type":"Feature","geometry":{"type":"Point","coordinates":[-77.157739,39.036501]}},{"properties":{"city":"Boise","zip":"83702","open goal total":"500000.00%","geo_score":0.721,"id":"a6e3ib9yclnr","geo_precision":"range","address":"1209 N 16th St","state":"ID"},"type":"Feature","geometry":{"type":"Point","coordinates":[-116.207044,43.629354]}},{"properties":{"city":"Edgewater","zip":"21037","open goal total":"500000.00%","geo_score":0.573,"id":"a6e3ib6xnqu9","geo_precision":"range","address":"609 Dillon Ct","state":"MD"},"type":"Feature","geometry":{"type":"Point","coordinates":[-76.468086,39.036603]}},{"properties":{"city":"Towson","zip":"21204","open goal total":"1000000.00%","geo_score":0.415,"id":"a6e3iaw3mjyp","geo_precision":"street","address":"1802 Indian Head Road","state":"MD"},"type":"Feature","geometry":{"type":"Point","coordinates":[-78.949258,39.587257]}},{"properties":{"city":"Clarksville","zip":"21029","open goal total":"500000.00%","geo_score":0.52,"id":"a6e3ib6bz0m2","geo_precision":"street","address":"13807 Russell Zepp Drive","state":"MD"},"type":"Feature","geometry":{"type":"Point","coordinates":[-76.849272,38.261686]}},{"properties":{"city":"Oakland","zip":"21550","open goal total":"300000.00%","geo_score":0.581,"id":"a6e3iba3d1f2","geo_precision":"street","address":"1047 Sanders Ln","state":"MD"},"type":"Feature","geometry":{"type":"Point","coordinates":[-76.863299,38.95652]}},{"properties":{"city":"Silver Spring","zip":"20910","open goal total":"300000.00%","geo_score":0.805,"id":"a6e3iaz5hp01","geo_precision":"range","address":"8819 Lanier Dr","state":"MD"},"type":"Feature","geometry":{"type":"Point","coordinates":[-77.047681,38.999626]}},{"properties":{"city":"Chevy Chase","zip":"20815","open goal total":"750000.00%","geo_score":0.805,"id":"a6e3ib7q4zxy","geo_precision":"range","address":"3411 Turner Lane","state":"MD"},"type":"Feature","geometry":{"type":"Point","coordinates":[-77.067429,38.980589]}},{"properties":{"city":"Phoenix","zip":"85018","open goal total":"500000.00%","geo_score":0.721,"id":"a6e3ibaee7f3","geo_precision":"range","address":"4518 N 32nd St","state":"AZ"},"type":"Feature","geometry":{"type":"Point","coordinates":[-112.012986,33.503029]}},{"properties":{"city":"Villanova","zip":"19085","open goal total":"300000.00%","geo_score":0.823,"id":"a6e3ib9c0ewj","geo_precision":"range","address":"400 Inveraray Road","state":"PA"},"type":"Feature","geometry":{"type":"Point","coordinates":[-75.391924,40.021924]}},{"properties":{"city":"Mount Lebanon","zip":"15228","open goal total":"500000.00%","geo_score":0.493,"id":"a6e3iayxas2a","geo_precision":"range","address":"190 Crestvue Manor Dr","state":"PA"},"type":"Feature","geometry":{"type":"Point","coordinates":[-79.382839,40.264245]}},{"properties":{"city":"Port Matilda","zip":"16870","open goal total":"300000.00%","geo_score":0.506,"id":"a6e3iaz0e6r2","geo_precision":"city","address":"121 Montauk Cir","state":"PA"},"type":"Feature","geometry":{"type":"Point","coordinates":[-80.144783,41.218114]}},{"properties":{"city":"Ellicott City","zip":"21042","open goal total":"1.00%","geo_score":0.805,"id":"a6e3iaykjlwb","geo_precision":"range","address":"9095 Furrow Ave","state":"MD"},"type":"Feature","geometry":{"type":"Point","coordinates":[-76.823638,39.306882]}},{"properties":{"city":"Phoenixville","zip":"19460","open goal total":"500000.00%","geo_score":0.585,"id":"a6e3iaxzp2p2","geo_precision":"city","address":"250 Rivercrest Dr","state":"PA"},"type":"Feature","geometry":{"type":"Point","coordinates":[-75.541769,40.128175]}},{"properties":{"city":"Philadelphia","zip":"19103","open goal total":"1500000.00%","geo_score":0.714,"id":"a6e3ib1lhhiu","geo_precision":"street","address":"1600 Market Street, Suite 3600","state":"PA"},"type":"Feature","geometry":{"type":"Point","coordinates":[-75.153583,39.951127]}},{"properties":{"city":"New York","zip":"10028","open goal total":"0.00%","geo_score":0.67,"id":"a6e3ibasbf7n","geo_precision":"range","address":"1021 Park Ave Apt 12a","state":"NY"},"type":"Feature","geometry":{"type":"Point","coordinates":[-73.957664,40.779563]}},{"properties":{"city":"Oxford","zip":"19363","open goal total":"1000000.00%","geo_score":0.339,"id":"a6e3ib0qikd0","geo_precision":"street","address":"PO Box 341","state":"PA"},"type":"Feature","geometry":{"type":"Point","coordinates":[-75.97994,39.906084]}},{"properties":{"city":"Pittsburgh","zip":"15237","open goal total":"500000.00%","geo_score":0.805,"id":"a6e3ib8y8m2e","geo_precision":"range","address":"120 Shangri Ln","state":"PA"},"type":"Feature","geometry":{"type":"Point","coordinates":[-79.999942,40.51022]}},{"properties":{"city":"Pittsburgh","zip":"15202","open goal total":"0.00%","geo_score":0.805,"id":"a6e3ib0kkqi8","geo_precision":"range","address":"36 Newgate Rd","state":"PA"},"type":"Feature","geometry":{"type":"Point","coordinates":[-80.07861,40.514328]}},{"properties":{"city":"New York","zip":"10003","open goal total":"0.00%","geo_score":0.447,"id":"a6e3iaz0naqx","geo_precision":"street","address":"41 5th Ave Apt 1E","state":"NY"},"type":"Feature","geometry":{"type":"Point","coordinates":[-73.942262,40.806416]}},{"properties":{"city":"Peoria","zip":"85345","open goal total":"1000000.00%","geo_score":0.545,"id":"a6e3ib8503ls","geo_precision":"street","address":"9643 W Diana Ave","state":"AZ"},"type":"Feature","geometry":{"type":"Point","coordinates":[-112.318124,33.752054]}},{"properties":{"city":"New York","zip":"10019","open goal total":"0.00%","geo_score":0.571,"id":"a6e3ib951fn0","geo_precision":"range","address":"250 West 50th Street, Apt. 41B","state":"NY"},"type":"Feature","geometry":{"type":"Point","coordinates":[-73.975354,40.757728]}},{"properties":{"city":"Bedford Corners","zip":"10549","open goal total":"0.00%","geo_score":0.488,"id":"a6e3ib32e3ox","geo_precision":"street","address":"340 Croton Lake Rd","state":"NY"},"type":"Feature","geometry":{"type":"Point","coordinates":[-73.883496,40.649411]}},{"properties":{"city":"Silver Spring","zip":"20905","open goal total":"300000.00%","geo_score":0.805,"id":"a6e3ib1h1xhh","geo_precision":"range","address":"2324 Holly Spring Drive","state":"MD"},"type":"Feature","geometry":{"type":"Point","coordinates":[-76.961349,39.0989]}},{"properties":{"city":"Thurmont","zip":"21788","open goal total":"300000.00%","geo_score":0.902,"id":"a6e3iawy5bcn","geo_precision":"range","address":"7060 Red Bird Lane","state":"MD"},"type":"Feature","geometry":{"type":"Point","coordinates":[-77.42302,39.580205]}},{"properties":{"city":"Petersburg","zip":"16669","open goal total":"500000.00%","geo_score":0.48,"id":"a6e3ib02zumn","geo_precision":"street","address":"4388 Peachey Rd","state":"PA"},"type":"Feature","geometry":{"type":"Point","coordinates":[-80.271658,40.875036]}},{"properties":{"city":"Ardmore","zip":"19003","open goal total":"300000.00%","geo_score":0.867,"id":"a6e3iay1sjk2","geo_precision":"range","address":"126 Edgewood Rd","state":"PA"},"type":"Feature","geometry":{"type":"Point","coordinates":[-75.285608,40.010564]}},{"properties":{"city":"Phoenix","zip":"85080","open goal total":"500000.00%","geo_score":0.286,"id":"a6e3ib63l416","geo_precision":"street","address":"PO Box 41133","state":"AZ"},"type":"Feature","geometry":{"type":"Point","coordinates":[-111.975785,33.330106]}},{"properties":{"city":"Tucson","zip":"85718","open goal total":"1000000.00%","geo_score":0.776,"id":"a6e3ib2r2yjd","geo_precision":"range","address":"5050 N Calle La Vela","state":"AZ"},"type":"Feature","geometry":{"type":"Point","coordinates":[-110.941783,32.299032]}},{"properties":{"city":"Comus","zip":"20842","open goal total":"300000.00%","geo_score":0.902,"id":"a6e3ib3hxypm","geo_precision":"range","address":"25115 Old Hundred Road","state":"MD"},"type":"Feature","geometry":{"type":"Point","coordinates":[-77.340422,39.268092]}},{"properties":{"city":"Gaithersburg","zip":"20878","open goal total":"500000.00%","geo_score":0.725,"id":"a6e3ib92kyad","geo_precision":"range","address":"17000 Horn Point Dr","state":"MD"},"type":"Feature","geometry":{"type":"Point","coordinates":[-77.254217,39.135638]}},{"properties":{"city":"Chevy Chase","zip":"20815","open goal total":"500000.00%","geo_score":0.805,"id":"a6e3ib4lt8af","geo_precision":"range","address":"6404 Highland Dr","state":"MD"},"type":"Feature","geometry":{"type":"Point","coordinates":[-77.110177,38.973108]}},{"properties":{"city":"Tucson","zip":"85749","open goal total":"7500000.00%","geo_score":0.61,"id":"a6e3iavawjxq","geo_precision":"street","address":"8987 E Tanque Verde Rd # 309-249","state":"AZ"},"type":"Feature","geometry":{"type":"Point","coordinates":[-110.857838,32.242142]}},{"properties":{"city":"Davidsonville","zip":"21035","open goal total":"1000000.00%","geo_score":0.902,"id":"a6e3ib0lr0el","geo_precision":"range","address":"663 Santa Maria Ln","state":"MD"},"type":"Feature","geometry":{"type":"Point","coordinates":[-76.604953,38.965651]}},{"properties":{"city":"Huntingdon Valley","zip":"19006","open goal total":"300000.00%","geo_score":0.746,"id":"a6e3ib6578f3","geo_precision":"range","address":"1534 Hilltop Ter","state":"PA"},"type":"Feature","geometry":{"type":"Point","coordinates":[-78.446377,40.487703]}},{"properties":{"city":"Phoenix","zip":"85016","open goal total":"300000.00%","geo_score":0.721,"id":"a6e3iawgp4qj","geo_precision":"range","address":"6190 N 28th Pl","state":"AZ"},"type":"Feature","geometry":{"type":"Point","coordinates":[-112.024326,33.528916]}},{"properties":{"city":"Bethesda","zip":"20814","open goal total":"300000.00%","geo_score":0.805,"id":"a6e3ib730fvz","geo_precision":"range","address":"4517 Highland Ave","state":"MD"},"type":"Feature","geometry":{"type":"Point","coordinates":[-77.089755,38.991442]}},{"properties":{"city":"New Hope","zip":"18938","open goal total":"500000.00%","geo_score":0.819,"id":"a6e3ib423x0u","geo_precision":"range","address":"2820 River Rd","state":"PA"},"type":"Feature","geometry":{"type":"Point","coordinates":[-74.974137,40.39781]}},{"properties":{"city":"Washington","zip":"20008","open goal total":"1250000.00%","geo_score":0.805,"id":"a6e3ib50k4wl","geo_precision":"range","address":"3029 Rodman St NW","state":"DC"},"type":"Feature","geometry":{"type":"Point","coordinates":[-77.060511,38.938185]}},{"properties":{"city":"Punxsutawney","zip":"15767","open goal total":"500000.00%","geo_score":0.902,"id":"a6e3ib5v2i50","geo_precision":"range","address":"337 Cemetery Rd","state":"PA"},"type":"Feature","geometry":{"type":"Point","coordinates":[-79.012254,40.929539]}},{"properties":{"city":"Bethesda","zip":"20817","open goal total":"300000.00%","geo_score":0.805,"id":"a6e3ibb7qmkn","geo_precision":"range","address":"6400 Hillmead Rd","state":"MD"},"type":"Feature","geometry":{"type":"Point","coordinates":[-77.130805,39.00165]}},{"properties":{"city":"Easton","zip":"21601","open goal total":"500000.00%","geo_score":0.902,"id":"a6e3ib2rxcos","geo_precision":"range","address":"9636 Bantry Rd","state":"MD"},"type":"Feature","geometry":{"type":"Point","coordinates":[-76.117425,38.814388]}},{"properties":{"city":"Chester Springs","zip":"19425","open goal total":"500000.00%","geo_score":0.333,"id":"a6e3iax9dm6i","geo_precision":"street","address":"PO Box 348","state":"PA"},"type":"Feature","geometry":{"type":"Point","coordinates":[-79.08191,40.018426]}},{"properties":{"city":"Hatfield","zip":"19440","open goal total":"300000.00%","geo_score":0.585,"id":"a6e3iax6l1yl","geo_precision":"city","address":"3123 Bethlehem Pike","state":"PA"},"type":"Feature","geometry":{"type":"Point","coordinates":[-79.739212,39.877854]}},{"properties":{"city":"Shippensburg","zip":"17257","open goal total":"500000.00%","geo_score":0.902,"id":"a6e3ib6o65q0","geo_precision":"range","address":"94 Hershey Rd","state":"PA"},"type":"Feature","geometry":{"type":"Point","coordinates":[-77.47546,40.055124]}},{"properties":{"city":"Bethesda","zip":"20817","open goal total":"750000.00%","geo_score":0.805,"id":"a6e3iaw59qus","geo_precision":"range","address":"5610 Glenwood Rd","state":"MD"},"type":"Feature","geometry":{"type":"Point","coordinates":[-77.113937,38.994183]}},{"properties":{"city":"Tucson","zip":"85705","open goal total":"1000000.00%","geo_score":0.707,"id":"a6e3iavae0nq","geo_precision":"range","address":"224 E 2nd St.","state":"AZ"},"type":"Feature","geometry":{"type":"Point","coordinates":[-110.967876,32.232946]}},{"properties":{"city":"Bozeman","zip":"59715","open goal total":"500000.00%","geo_score":0.902,"id":"a6e3ibahxote","geo_precision":"range","address":"111 Sourdough Ridge Rd","state":"MT"},"type":"Feature","geometry":{"type":"Point","coordinates":[-111.020662,45.646468]}},{"properties":{"city":"Coopersburg","zip":"18036","open goal total":"1000000.00%","geo_score":0.902,"id":"a6e3iavd8rfw","geo_precision":"range","address":"4600 Mill Rd","state":"PA"},"type":"Feature","geometry":{"type":"Point","coordinates":[-75.401809,40.517148]}},{"properties":{"city":"Newtown","zip":"18940","open goal total":"500000.00%","geo_score":0.566,"id":"a6e3ib0pjjxm","geo_precision":"street","address":"1418 Ridgewood Ln","state":"PA"},"type":"Feature","geometry":{"type":"Point","coordinates":[-80.007579,40.582774]}},{"properties":{"city":"Oxon Hill","zip":"20745","open goal total":"1000000.00%","geo_score":0.463,"id":"a6e3ib2t76xf","geo_precision":"street","address":"155 Potomac Psge Unit 412","state":"MD"},"type":"Feature","geometry":{"type":"Point","coordinates":[-76.820709,38.991164]}},{"properties":{"city":"Wilson","zip":"83014","open goal total":"500000.00%","geo_score":0.776,"id":"a6e3ib2yfxoj","geo_precision":"street","address":"6145 W Burcher Rd","state":"WY"},"type":"Feature","geometry":{"type":"Point","coordinates":[-110.882424,43.47825]}},{"properties":{"city":"New York","zip":"10128","open goal total":"0.00%","geo_score":0.613,"id":"a6e3ib6bvb53","geo_precision":"street","address":"1175 Park Ave","state":"NY"},"type":"Feature","geometry":{"type":"Point","coordinates":[-73.952551,40.786549]}},{"properties":{"city":"Crownsville","zip":"21032","open goal total":"1.00%","geo_score":0.475,"id":"a6e3iayz46xh","geo_precision":"street","address":"1210 Tailwind Ct","state":"MD"},"type":"Feature","geometry":{"type":"Point","coordinates":[-76.840375,39.154114]}},{"properties":{"city":"New York","zip":"10021","open goal total":"0.00%","geo_score":0.434,"id":"a6e3ib1l8629","geo_precision":"street","address":"945 5th Ave Apt 15A","state":"NY"},"type":"Feature","geometry":{"type":"Point","coordinates":[-73.942262,40.806416]}},{"properties":{"city":"Newtown Square","zip":"19073","open goal total":"300000.00%","geo_score":0.451,"id":"a6e3ib3tqn38","geo_precision":"street","address":"118 Hunters Run","state":"PA"},"type":"Feature","geometry":{"type":"Point","coordinates":[-79.783926,40.54906]}},{"properties":{"city":"Philadelphia","zip":"19119","open goal total":"400000.00%","geo_score":0.805,"id":"a6e3iavmiy2n","geo_precision":"range","address":"615 W Hortter St","state":"PA"},"type":"Feature","geometry":{"type":"Point","coordinates":[-75.194159,40.039734]}},{"properties":{"city":"Washington","zip":"20008","open goal total":"100000.00%","geo_score":0.805,"id":"a6e3iavyog3g","geo_precision":"range","address":"4935 Linnean Ave NW","state":"DC"},"type":"Feature","geometry":{"type":"Point","coordinates":[-77.062958,38.953567]}},{"properties":{"city":"Prescott","zip":"86305","open goal total":"1000000.00%","geo_score":0.805,"id":"a6e3iavdhjnt","geo_precision":"range","address":"11 Glen Oaks Dr","state":"AZ"},"type":"Feature","geometry":{"type":"Point","coordinates":[-112.517698,34.578342]}},{"properties":{"city":"State College","zip":"16801","open goal total":"300000.00%","geo_score":0.504,"id":"a6e3ib40r74e","geo_precision":"city","address":"425 Windmere Dr Apt. 4A","state":"PA"},"type":"Feature","geometry":{"type":"Point","coordinates":[-80.446733,40.303681]}},{"properties":{"city":"Carlisle","zip":"17013","open goal total":"300000.00%","geo_score":0.857,"id":"a6e3ib5347o5","geo_precision":"range","address":"225 Conway St","state":"PA"},"type":"Feature","geometry":{"type":"Point","coordinates":[-77.20055,40.198772]}},{"properties":{"city":"Laurel","zip":"20707","open goal total":"600000.00%","geo_score":0.805,"id":"a6e3ib8rghd7","geo_precision":"range","address":"8250 Ashford Boulevard","state":"MD"},"type":"Feature","geometry":{"type":"Point","coordinates":[-76.863562,39.094803]}},{"properties":{"city":"Bethesda","zip":"20814","open goal total":"750000.00%","geo_score":0.805,"id":"a6e3ib0y68cd","geo_precision":"range","address":"5908 Grosvenor Ln","state":"MD"},"type":"Feature","geometry":{"type":"Point","coordinates":[-77.118742,39.022504]}},{"properties":{"city":"Bethesda","zip":"20814","open goal total":"300000.00%","geo_score":0.805,"id":"a6e3ib4v2mqh","geo_precision":"range","address":"5416 Burling Rd","state":"MD"},"type":"Feature","geometry":{"type":"Point","coordinates":[-77.109033,38.981036]}},{"properties":{"city":"Takoma Park","zip":"20912","open goal total":"300000.00%","geo_score":0.902,"id":"a6e3ibbr52el","geo_precision":"range","address":"7101 Cedar Avenue","state":"MD"},"type":"Feature","geometry":{"type":"Point","coordinates":[-77.015723,38.976169]}},{"properties":{"city":"Erie","zip":"16506","open goal total":"500000.00%","geo_score":0.805,"id":"a6e3ib4x41eo","geo_precision":"range","address":"5727 Grubb Rd","state":"PA"},"type":"Feature","geometry":{"type":"Point","coordinates":[-80.146395,42.048099]}},{"properties":{"city":"Rockville","zip":"20852","open goal total":"2000000.00%","geo_score":0.691,"id":"a6e3iavsls4s","geo_precision":"range","address":"10401 Grosvenor Pl Apt 1416","state":"MD"},"type":"Feature","geometry":{"type":"Point","coordinates":[-77.103757,39.025717]}},{"properties":{"city":"Pittsburgh","zip":"15206","open goal total":"500000.00%","geo_score":0.805,"id":"a6e3ib5qyhku","geo_precision":"range","address":"6217 Wellesley Avenue","state":"PA"},"type":"Feature","geometry":{"type":"Point","coordinates":[-79.916071,40.472236]}},{"properties":{"city":"Malvern","zip":"19355","open goal total":"500000.00%","geo_score":0.902,"id":"a6e3ib49lool","geo_precision":"range","address":"4 Great Woods Ln","state":"PA"},"type":"Feature","geometry":{"type":"Point","coordinates":[-75.525963,40.083051]}},{"properties":{"city":"New York","zip":"10075","open goal total":"0.00%","geo_score":0.659,"id":"a6e3ibaw9ufc","geo_precision":"range","address":"176 E 77th St Apt 7H","state":"NY"},"type":"Feature","geometry":{"type":"Point","coordinates":[-73.9592,40.773276]}},{"properties":{"city":"Washington","zip":"20015","open goal total":"500000.00%","geo_score":0.805,"id":"a6e3ib0hmqhr","geo_precision":"range","address":"3336 Quesada St Nw","state":"DC"},"type":"Feature","geometry":{"type":"Point","coordinates":[-77.068673,38.968636]}},{"properties":{"city":"Bethesda","zip":"20816","open goal total":"300000.00%","geo_score":0.805,"id":"a6e3iavecc1n","geo_precision":"range","address":"6109 Wynnwood Rd","state":"MD"},"type":"Feature","geometry":{"type":"Point","coordinates":[-77.124224,38.967091]}},{"properties":{"city":"Wynnewood","zip":"19096","open goal total":"300000.00%","geo_score":0.902,"id":"a6e3ib51ik87","geo_precision":"range","address":"792 Periwinkle Ln","state":"PA"},"type":"Feature","geometry":{"type":"Point","coordinates":[-75.260508,39.994751]}},{"properties":{"city":"Bethesda","zip":"20816","open goal total":"500000.00%","geo_score":0.805,"id":"a6e3ib71fvxx","geo_precision":"range","address":"5115 Cape Cod Ct","state":"MD"},"type":"Feature","geometry":{"type":"Point","coordinates":[-77.10286,38.952565]}},{"properties":{"city":"North Wales","zip":"19454","open goal total":"300000.00%","geo_score":0.902,"id":"a6e3ib27pl7u","geo_precision":"range","address":"1426 Uxbridge Way","state":"PA"},"type":"Feature","geometry":{"type":"Point","coordinates":[-75.238326,40.207863]}},{"properties":{"city":"Hummelstown","zip":"17036","open goal total":"500000.00%","geo_score":0.443,"id":"a6e3iawxrqfg","geo_precision":"street","address":"1113 Cord Drive","state":"PA"},"type":"Feature","geometry":{"type":"Point","coordinates":[-77.193547,40.218607]}},{"properties":{"city":"Lutherville Timonium","zip":"21093","open goal total":"500000.00%","geo_score":0.77,"id":"a6e3ib5rkp69","geo_precision":"range","address":"2525 Pot Spring Rd Unit S520","state":"MD"},"type":"Feature","geometry":{"type":"Point","coordinates":[-76.601404,39.459598]}},{"properties":{"city":"Potomac","zip":"20854","open goal total":"300000.00%","geo_score":0.902,"id":"a6e3ib47r0w1","geo_precision":"range","address":"7608 Hackamore Dr","state":"MD"},"type":"Feature","geometry":{"type":"Point","coordinates":[-77.21561,38.985529]}},{"properties":{"city":"Washington","zip":"20036","open goal total":"1250000.00%","geo_score":0.732,"id":"a6e3ib8xq283","geo_precision":"range","address":"1128 16th Street NW","state":"DC"},"type":"Feature","geometry":{"type":"Point","coordinates":[-77.036538,38.904076]}},{"properties":{"city":"Palmyra","zip":"17078","open goal total":"500000.00%","geo_score":0.707,"id":"a6e3ib7s6y23","geo_precision":"range","address":"280 Lawn Rd","state":"PA"},"type":"Feature","geometry":{"type":"Point","coordinates":[-79.861862,40.020658]}},{"properties":{"city":"Washington","zip":"20009","open goal total":"500000.00%","geo_score":0.732,"id":"a6e3ib5prvz0","geo_precision":"range","address":"1716 21st St NW","state":"DC"},"type":"Feature","geometry":{"type":"Point","coordinates":[-77.046629,38.912843]}},{"properties":{"city":"State College","zip":"16801","open goal total":"300000.00%","geo_score":0.504,"id":"a6e3ib27rvbj","geo_precision":"city","address":"1130 Haymaker Road","state":"PA"},"type":"Feature","geometry":{"type":"Point","coordinates":[-80.446733,40.303681]}},{"properties":{"city":"Essex","zip":"21221","open goal total":"1.00%","geo_score":0.902,"id":"a6e3ibafqohv","geo_precision":"range","address":"953 Woodlynn Road","state":"MD"},"type":"Feature","geometry":{"type":"Point","coordinates":[-76.459987,39.305082]}},{"properties":{"city":"Philadelphia","zip":"19145","open goal total":"300000.00%","geo_score":0.721,"id":"a6e3ib0oyxuf","geo_precision":"range","address":"1722 S 15th St","state":"PA"},"type":"Feature","geometry":{"type":"Point","coordinates":[-75.170365,39.929197]}},{"properties":{"city":"Chalfont","zip":"18914","open goal total":"500000.00%","geo_score":0.573,"id":"a6e3ib44mwmb","geo_precision":"city","address":"3233 Riding Ct","state":"PA"},"type":"Feature","geometry":{"type":"Point","coordinates":[-79.838937,40.40868]}},{"properties":{"city":"Narberth","zip":"19072","open goal total":"300000.00%","geo_score":0.902,"id":"a6e3iaxjy7d8","geo_precision":"range","address":"317 Price Ave","state":"PA"},"type":"Feature","geometry":{"type":"Point","coordinates":[-75.260964,40.011015]}},{"properties":{"city":"Brooklyn","zip":"11201","open goal total":"0.00%","geo_score":0.585,"id":"a6e3ib6nzwgo","geo_precision":"city","address":"17 Schermerhorn St","state":"NY"},"type":"Feature","geometry":{"type":"Point","coordinates":[-78.748363,42.433118]}},{"properties":{"city":"Gillette","zip":"82716","open goal total":"500000.00%","geo_score":0.585,"id":"a6e3ib57hktn","geo_precision":"city","address":"109 N US Highway 14-16","state":"WY"},"type":"Feature","geometry":{"type":"Point","coordinates":[-105.550237,44.377283]}},{"properties":{"city":"Phoenix","zip":"85023","open goal total":"1000000.00%","geo_score":0.721,"id":"a6e3iavapgme","geo_precision":"range","address":"14223 N 14th Dr","state":"AZ"},"type":"Feature","geometry":{"type":"Point","coordinates":[-112.088522,33.615743]}},{"properties":{"city":"Paradise Valley","zip":"85253","open goal total":"500000.00%","geo_score":0.544,"id":"a6e3iayyl80t","geo_precision":"city","address":"8112 N 65th St","state":"AZ"},"type":"Feature","geometry":{"type":"Point","coordinates":[-109.21895,31.934813]}},{"properties":{"city":"Wayne","zip":"19087","open goal total":"500000.00%","geo_score":0.805,"id":"a6e3iban8hlm","geo_precision":"range","address":"130 Cornwall Cir","state":"PA"},"type":"Feature","geometry":{"type":"Point","coordinates":[-75.372251,40.047664]}},{"properties":{"city":"Parkton","zip":"21120","open goal total":"1000000.00%","geo_score":0.493,"id":"a6e3ib22nxhn","geo_precision":"street","address":"20012 Hunt Pass Ct","state":"MD"},"type":"Feature","geometry":{"type":"Point","coordinates":[-76.681812,39.378012]}},{"properties":{"city":"Kensington","zip":"20895","open goal total":"2000000.00%","geo_score":0.862,"id":"a6e3ib1tloj5","geo_precision":"range","address":"9541 E Bexhill Dr","state":"MD"},"type":"Feature","geometry":{"type":"Point","coordinates":[-77.069903,39.01154]}},{"properties":{"city":"Woodside","zip":"11377","open goal total":"0.00%","geo_score":0.61,"id":"a6e3iax4bac7","geo_precision":"street","address":"3825 Woodside Ave","state":"NY"},"type":"Feature","geometry":{"type":"Point","coordinates":[-73.910159,40.748501]}},{"properties":{"city":"Washington","zip":"20015","open goal total":"1500000.00%","geo_score":0.732,"id":"a6e3iayl0m1u","geo_precision":"range","address":"5308 41st St NW","state":"DC"},"type":"Feature","geometry":{"type":"Point","coordinates":[-77.080299,38.959188]}},{"properties":{"city":"Chevy Chase","zip":"20815","open goal total":"500000.00%","geo_score":0.805,"id":"a6e3ib1y604x","geo_precision":"range","address":"3919 Oliver Street","state":"MD"},"type":"Feature","geometry":{"type":"Point","coordinates":[-77.080755,38.966701]}},{"properties":{"city":"Rockville","zip":"20850","open goal total":"500000.00%","geo_score":0.805,"id":"a6e3ib1qk25v","geo_precision":"range","address":"4 James Spring Ct","state":"MD"},"type":"Feature","geometry":{"type":"Point","coordinates":[-77.179701,39.076677]}},{"properties":{"city":"Hagerstown","zip":"21742","open goal total":"150000.00%","geo_score":0.805,"id":"a6e3ib8cjqd7","geo_precision":"range","address":"19107 Beacon Ln","state":"MD"},"type":"Feature","geometry":{"type":"Point","coordinates":[-77.706957,39.683098]}},{"properties":{"city":"Jenkintown","zip":"19046","open goal total":"1000000.00%","geo_score":0.785,"id":"a6e3ib8s5j8z","geo_precision":"range","address":"261 Old York Rd Ste 623","state":"PA"},"type":"Feature","geometry":{"type":"Point","coordinates":[-75.125276,40.093339]}},{"properties":{"city":"Bethesda","zip":"20816","open goal total":"1250000.00%","geo_score":0.805,"id":"a6e3ib89t6hh","geo_precision":"range","address":"4708 Jamestown Rd","state":"MD"},"type":"Feature","geometry":{"type":"Point","coordinates":[-77.104066,38.950528]}},{"properties":{"city":"Jackson","zip":"83002","open goal total":"300000.00%","geo_score":0.857,"id":"a6e3iavxons0","geo_precision":"city","address":"PO Box 12140","state":"WY"},"type":"Feature","geometry":{"type":"Point","coordinates":[-110.739266,43.452793]}},{"properties":{"city":"Sun Valley","zip":"83353","open goal total":"500000.00%","geo_score":0.333,"id":"a6e3iaw1syqs","geo_precision":"street","address":"PO Box 2365","state":"ID"},"type":"Feature","geometry":{"type":"Point","coordinates":[-116.605553,48.141061]}},{"properties":{"city":"Bausman","zip":"17504","open goal total":"1000000.00%","geo_score":0.339,"id":"a6e3ib9rnnnc","geo_precision":"street","address":"PO Box 235","state":"PA"},"type":"Feature","geometry":{"type":"Point","coordinates":[-76.195346,40.148906]}},{"properties":{"city":"Philadelphia","zip":"19134","open goal total":"0.00%","geo_score":0.805,"id":"a6e3ibb6hybh","geo_precision":"range","address":"2725 E Cambria St","state":"PA"},"type":"Feature","geometry":{"type":"Point","coordinates":[-75.109475,39.9796]}},{"properties":{"city":"Washington","zip":"20016","open goal total":"100000.00%","geo_score":0.805,"id":"a6e3ib6wlh46","geo_precision":"range","address":"3800 Alton Pl Nw","state":"DC"},"type":"Feature","geometry":{"type":"Point","coordinates":[-77.074603,38.947088]}},{"properties":{"city":"Scottsdale","zip":"85259","open goal total":"100000.00%","geo_score":0.805,"id":"a6e3ib49ri8g","geo_precision":"range","address":"12580 E Silver Spur St","state":"AZ"},"type":"Feature","geometry":{"type":"Point","coordinates":[-111.810412,33.571103]}},{"properties":{"city":"Philadelphia","zip":"19106","open goal total":"500000.00%","geo_score":0.805,"id":"a6e3iaw365x5","geo_precision":"range","address":"516 Spruce Street","state":"PA"},"type":"Feature","geometry":{"type":"Point","coordinates":[-75.150235,39.945176]}},{"properties":{"city":"Pittsburgh","zip":"15216","open goal total":"500000.00%","geo_score":0.612,"id":"a6e3ibaehp3c","geo_precision":"street","address":"107 Morrison Dr","state":"PA"},"type":"Feature","geometry":{"type":"Point","coordinates":[-80.048067,40.39414]}},{"properties":{"city":"Reading","zip":"19606","open goal total":"300000.00%","geo_score":0.805,"id":"a6e3iaw5yg1t","geo_precision":"range","address":"70 Devon Dr","state":"PA"},"type":"Feature","geometry":{"type":"Point","coordinates":[-75.812456,40.33061]}},{"properties":{"city":"Philadelphia","zip":"19146","open goal total":"500000.00%","geo_score":0.333,"id":"a6e3ib1ce6b6","geo_precision":"street","address":"417 S. Croskey","state":"PA"},"type":"Feature","geometry":{"type":"Point","coordinates":[-75.031206,40.047976]}},{"properties":{"city":"Radnor","zip":"19087","open goal total":"300000.00%","geo_score":0.0,"id":"a6e3ib7x7yfo","geo_precision":"unmatched","address":"1309 Karen Lane","state":"PA"},"type":"Feature","geometry":null},{"properties":{"city":"Germantown","zip":"20874","open goal total":"300000.00%","geo_score":0.585,"id":"a6e3ib4cqzbh","geo_precision":"city","address":"18526 Split Rock Ln","state":"MD"},"type":"Feature","geometry":{"type":"Point","coordinates":[-75.209633,38.308449]}},{"properties":{"city":"Collegeville","zip":"19426","open goal total":"300000.00%","geo_score":0.902,"id":"a6e3ib1k2q0p","geo_precision":"range","address":"115 Bonny Ln","state":"PA"},"type":"Feature","geometry":{"type":"Point","coordinates":[-75.490692,40.169794]}},{"properties":{"city":"Potomac","zip":"20854","open goal total":"500000.00%","geo_score":0.824,"id":"a6e3ib9ecijg","geo_precision":"range","address":"8901 Harvest Square Ct","state":"MD"},"type":"Feature","geometry":{"type":"Point","coordinates":[-77.187715,39.025266]}},{"properties":{"city":"Washington","zip":"20007","open goal total":"1.00%","geo_score":0.742,"id":"a6e3ib8n33q8","geo_precision":"range","address":"3148 Dumbarton St NW","state":"DC"},"type":"Feature","geometry":{"type":"Point","coordinates":[-77.062112,38.907623]}},{"properties":{"city":"Frederick","zip":"21701","open goal total":"500000.00%","geo_score":0.555,"id":"a6e3iba0w4fc","geo_precision":"city","address":"52 N Bentz St","state":"MD"},"type":"Feature","geometry":{"type":"Point","coordinates":[-75.883828,39.366223]}},{"properties":{"city":"Wilson","zip":"83014","open goal total":"500000.00%","geo_score":0.902,"id":"a6e3ib5jomc4","geo_precision":"range","address":"4205 Greens Place","state":"WY"},"type":"Feature","geometry":{"type":"Point","coordinates":[-110.851088,43.525539]}},{"properties":{"city":"Chestertown","zip":"21620","open goal total":"1250000.00%","geo_score":0.835,"id":"a6e3ib3w53ch","geo_precision":"range","address":"23956 Walnut Point Rd","state":"MD"},"type":"Feature","geometry":{"type":"Point","coordinates":[-76.141043,39.159626]}},{"properties":{"city":"Cockeysville","zip":"21030","open goal total":"300000.00%","geo_score":0.902,"id":"a6e3ib1ueoaz","geo_precision":"range","address":"10594 Blue Bell Way","state":"MD"},"type":"Feature","geometry":{"type":"Point","coordinates":[-76.626194,39.477845]}},{"properties":{"city":"Stevensville","zip":"59870","open goal total":"500000.00%","geo_score":0.902,"id":"a6e3ib77mni8","geo_precision":"range","address":"3617 Eastside Hwy","state":"MT"},"type":"Feature","geometry":{"type":"Point","coordinates":[-114.090091,46.487197]}},{"properties":{"city":"Hatfield","zip":"19440","open goal total":"300000.00%","geo_score":0.829,"id":"a6e3ib5iqzao","geo_precision":"range","address":"429 Elizabeth Way","state":"PA"},"type":"Feature","geometry":{"type":"Point","coordinates":[-79.720919,39.927647]}},{"properties":{"city":"Phoenix","zip":"85086","open goal total":"500000.00%","geo_score":0.333,"id":"a6e3ib6lg1qy","geo_precision":"street","address":"Ste. A109421","state":"AZ"},"type":"Feature","geometry":{"type":"Point","coordinates":[-111.991428,33.33227]}},{"properties":{"city":"Scottsdale","zip":"85255","open goal total":"1000000.00%","geo_score":0.475,"id":"a6e3iawraoma","geo_precision":"street","address":"20551 N Pima Rd Ste 200","state":"AZ"},"type":"Feature","geometry":{"type":"Point","coordinates":[-111.888943,33.658545]}},{"properties":{"city":"Laurel","zip":"20707","open goal total":"500000.00%","geo_score":0.805,"id":"a6e3ibampw3f","geo_precision":"range","address":"29 C St","state":"MD"},"type":"Feature","geometry":{"type":"Point","coordinates":[-76.845256,39.106044]}},{"properties":{"city":"Baltimore","zip":"21209","open goal total":"500000.00%","geo_score":0.805,"id":"a6e3ibbft3lo","geo_precision":"range","address":"3 Ruby Field Ct","state":"MD"},"type":"Feature","geometry":{"type":"Point","coordinates":[-76.677111,39.381609]}},{"properties":{"city":"Baltimore","zip":"21212","open goal total":"1000000.00%","geo_score":0.805,"id":"a6e3iawb97ag","geo_precision":"range","address":"5206 Tilbury Way","state":"MD"},"type":"Feature","geometry":{"type":"Point","coordinates":[-76.615,39.357406]}},{"properties":{"city":"Scottsdale","zip":"85255","open goal total":"2500000.00%","geo_score":0.72,"id":"a6e3ib9q9muw","geo_precision":"range","address":"9290 E Thompson Peak Pkwy Unit 106","state":"AZ"},"type":"Feature","geometry":{"type":"Point","coordinates":[-111.878811,33.67394]}},{"properties":{"city":"Philadelphia","zip":"19103","open goal total":"500000.00%","geo_score":0.5,"id":"a6e3ib98tv05","geo_precision":"street","address":"One Liberty Place 47th Fl","state":"PA"},"type":"Feature","geometry":{"type":"Point","coordinates":[-74.989966,40.125848]}},{"properties":{"city":"Mesa","zip":"85203","open goal total":"500000.00%","geo_score":0.805,"id":"a6e3iayymcib","geo_precision":"range","address":"1845 E Grandview St","state":"AZ"},"type":"Feature","geometry":{"type":"Point","coordinates":[-111.791363,33.440252]}},{"properties":{"city":"Waynesboro","zip":"17268","open goal total":"1000000.00%","geo_score":0.566,"id":"a6e3ib0ewpc8","geo_precision":"city","address":"11297 Weatherstone Dr","state":"PA"},"type":"Feature","geometry":{"type":"Point","coordinates":[-80.08057,39.87477]}},{"properties":{"city":"Owings Mills","zip":"21117","open goal total":"0.00%","geo_score":0.541,"id":"a6e3ib4mroh4","geo_precision":"city","address":"9 Shadywoods Ct","state":"MD"},"type":"Feature","geometry":{"type":"Point","coordinates":[-76.554402,38.772617]}},{"properties":{"city":"Bethesda","zip":"20816","open goal total":"0.00%","geo_score":0.805,"id":"a6e3ib1rlh6v","geo_precision":"range","address":"5309 Portsmouth Rd","state":"MD"},"type":"Feature","geometry":{"type":"Point","coordinates":[-77.107196,38.952949]}},{"properties":{"city":"Cranberry Township","zip":"16066","open goal total":"300000.00%","geo_score":0.537,"id":"a6e3ib90zhzo","geo_precision":"street","address":"606 Norman Dr","state":"PA"},"type":"Feature","geometry":{"type":"Point","coordinates":[-77.05069,41.257725]}},{"properties":{"city":"Washington","zip":"20003","open goal total":"300000.00%","geo_score":0.721,"id":"a6e3ib0zqqe0","geo_precision":"range","address":"416 6th Street SE","state":"DC"},"type":"Feature","geometry":{"type":"Point","coordinates":[-76.998451,38.884105]}},{"properties":{"city":"Bethesda","zip":"20817","open goal total":"300000.00%","geo_score":0.805,"id":"a6e3ibaotaen","geo_precision":"range","address":"7901 Carteret Rd","state":"MD"},"type":"Feature","geometry":{"type":"Point","coordinates":[-77.162033,39.006614]}},{"properties":{"city":"Baltimore","zip":"21231","open goal total":"750000.00%","geo_score":0.683,"id":"a6e3ib289lbb","geo_precision":"street","address":"2105 East Baltimore Street","state":"MD"},"type":"Feature","geometry":{"type":"Point","coordinates":[-76.722079,39.299351]}},{"properties":{"city":"Wilson","zip":"83014","open goal total":"1250000.00%","geo_score":0.857,"id":"a6e3ib4gp3k2","geo_precision":"city","address":"PO Box 40","state":"WY"},"type":"Feature","geometry":{"type":"Point","coordinates":[-110.839782,43.482361]}},{"properties":{"city":"Villanova","zip":"19085","open goal total":"500000.00%","geo_score":0.902,"id":"a6e3iawx1mm9","geo_precision":"range","address":"1444 Old Gulph Rd","state":"PA"},"type":"Feature","geometry":{"type":"Point","coordinates":[-75.324206,40.043283]}},{"properties":{"city":"Pittsburgh","zip":"15216","open goal total":"300000.00%","geo_score":0.805,"id":"a6e3ibaw2qix","geo_precision":"range","address":"237 Morrison Dr","state":"PA"},"type":"Feature","geometry":{"type":"Point","coordinates":[-80.049419,40.393422]}},{"properties":{"city":"Washington","zip":"20024","open goal total":"50000.00%","geo_score":0.577,"id":"a6e3iay2a140","geo_precision":"range","address":"700 7th SW Apt 814","state":"DC"},"type":"Feature","geometry":{"type":"Point","coordinates":[-77.021901,38.88028]}},{"properties":{"city":"New Hope","zip":"18938","open goal total":"300000.00%","geo_score":0.339,"id":"a6e3ibb321si","geo_precision":"street","address":"PO Box 239","state":"PA"},"type":"Feature","geometry":{"type":"Point","coordinates":[-75.197102,40.302479]}},{"properties":{"city":"Reading","zip":"19601","open goal total":"500000.00%","geo_score":0.902,"id":"a6e3ib2or3ye","geo_precision":"range","address":"211 N Tulpehocken Rd","state":"PA"},"type":"Feature","geometry":{"type":"Point","coordinates":[-75.963095,40.359254]}},{"properties":{"city":"Phoenix","zip":"85018","open goal total":"500000.00%","geo_score":0.721,"id":"a6e3ibads1bi","geo_precision":"range","address":"4744 N 56th Street","state":"AZ"},"type":"Feature","geometry":{"type":"Point","coordinates":[-111.960688,33.505093]}},{"properties":{"city":"Glendale","zip":"85304","open goal total":"1000000.00%","geo_score":0.805,"id":"a6e3ibamxo6e","geo_precision":"range","address":"5928 W Desert Cove Ave","state":"AZ"},"type":"Feature","geometry":{"type":"Point","coordinates":[-112.186881,33.585939]}},{"properties":{"city":"Durham","zip":"27705","open goal total":"300000.00%","geo_score":0.805,"id":"a6e3ib70ut3y","geo_precision":"range","address":"2101 Englewood Ave","state":"NC"},"type":"Feature","geometry":{"type":"Point","coordinates":[-78.925473,36.015761]}},{"properties":{"city":"Annapolis","zip":"21401","open goal total":"300000.00%","geo_score":0.732,"id":"a6e3ib8ugy25","geo_precision":"range","address":"1487 Tenbury Comms","state":"MD"},"type":"Feature","geometry":{"type":"Point","coordinates":[-76.529942,39.021916]}},{"properties":{"city":"Philadelphia","zip":"19103","open goal total":"500000.00%","geo_score":0.692,"id":"a6e3ib249vvc","geo_precision":"range","address":"2020 Walnut St Apt 9G","state":"PA"},"type":"Feature","geometry":{"type":"Point","coordinates":[-75.174038,39.950567]}},{"properties":{"city":"Bethesda","zip":"20817","open goal total":"1000000.00%","geo_score":0.805,"id":"a6e3iawf3vzp","geo_precision":"range","address":"6715 Landon Ln","state":"MD"},"type":"Feature","geometry":{"type":"Point","coordinates":[-77.131933,38.982074]}},{"properties":{"city":"West Chester","zip":"19382","open goal total":"300000.00%","geo_score":0.751,"id":"a6e3ibbg9qyz","geo_precision":"range","address":"807 S 5 Points Rd","state":"PA"},"type":"Feature","geometry":{"type":"Point","coordinates":[-75.586098,39.978442]}},{"properties":{"city":"Washington","zip":"20037","open goal total":"500000.00%","geo_score":0.805,"id":"a6e3iba5wii2","geo_precision":"range","address":"700 New Hampshire Ave NW","state":"DC"},"type":"Feature","geometry":{"type":"Point","coordinates":[-77.053846,38.898553]}},{"properties":{"city":"Potomac","zip":"20854","open goal total":"300000.00%","geo_score":0.902,"id":"a6e3ibb72o5s","geo_precision":"range","address":"10521 Alloway Dr","state":"MD"},"type":"Feature","geometry":{"type":"Point","coordinates":[-77.218587,39.001844]}},{"properties":{"city":"Bryn Mawr","zip":"19010","open goal total":"500000.00%","geo_score":0.5,"id":"a6e3iaylgf0j","geo_precision":"street","address":"3700 Darby Road","state":"PA"},"type":"Feature","geometry":{"type":"Point","coordinates":[-75.922439,40.4021]}},{"properties":{"city":"Washington","zip":"20016","open goal total":"1000000.00%","geo_score":0.732,"id":"a6e3ib87s5w6","geo_precision":"range","address":"3210 45th St NW","state":"DC"},"type":"Feature","geometry":{"type":"Point","coordinates":[-77.088637,38.932525]}},{"properties":{"city":"Naples","zip":"34102","open goal total":"750000.00%","geo_score":0.659,"id":"a6e3ibauij9n","geo_precision":"range","address":"320 3rd Ave S","state":"FL"},"type":"Feature","geometry":{"type":"Point","coordinates":[-81.442836,26.758888]}},{"properties":{"city":"Tucson","zip":"85747","open goal total":"500000.00%","geo_score":0.805,"id":"a6e3ib9303uk","geo_precision":"range","address":"7052 S Avenida Del Potrillo","state":"AZ"},"type":"Feature","geometry":{"type":"Point","coordinates":[-110.72343,32.124181]}},{"properties":{"city":"Galveston","zip":"77550","open goal total":"1250000.00%","geo_score":0.401,"id":"a6e3ib6na0ga","geo_precision":"street","address":"2201 Market St Ste 601","state":"TX"},"type":"Feature","geometry":{"type":"Point","coordinates":[-101.910884,35.141951]}},{"properties":{"city":"McCall","zip":"83638","open goal total":"300000.00%","geo_score":0.902,"id":"a6e3iaxnkc2o","geo_precision":"range","address":"175 Pearson Ln","state":"ID"},"type":"Feature","geometry":{"type":"Point","coordinates":[-116.062409,44.861579]}},{"properties":{"city":"Washington","zip":"20016","open goal total":"500000.00%","geo_score":0.805,"id":"a6e3ib1cyxpn","geo_precision":"range","address":"3530 Newark St NW","state":"DC"},"type":"Feature","geometry":{"type":"Point","coordinates":[-77.069173,38.934641]}},{"properties":{"city":"Germantown","zip":"20876","open goal total":"500000.00%","geo_score":0.422,"id":"a6e3ib8apnim","geo_precision":"street","address":"12029 Arista Manor Way","state":"MD"},"type":"Feature","geometry":{"type":"Point","coordinates":[-75.679183,38.265136]}},{"properties":{"city":"Bethesda","zip":"20817","open goal total":"300000.00%","geo_score":0.805,"id":"a6e3ibbdc87x","geo_precision":"range","address":"6405 Maiden Ln","state":"MD"},"type":"Feature","geometry":{"type":"Point","coordinates":[-77.127687,38.983582]}},{"properties":{"city":"Phoenix","zip":"85018","open goal total":"250000.00%","geo_score":0.805,"id":"a6e3iay1y3jy","geo_precision":"range","address":"4854 E Lafayette Blvd","state":"AZ"},"type":"Feature","geometry":{"type":"Point","coordinates":[-111.976816,33.499748]}},{"properties":{"city":"Glen Arm","zip":"21057","open goal total":"300000.00%","geo_score":0.544,"id":"a6e3ib546szp","geo_precision":"city","address":"4205 Antique Ln","state":"MD"},"type":"Feature","geometry":{"type":"Point","coordinates":[-75.836031,39.320381]}},{"properties":{"city":"Gilbert","zip":"85233","open goal total":"250000.00%","geo_score":0.805,"id":"a6e3iaxbbo5v","geo_precision":"range","address":"1446 West Key Harbor Drive","state":"AZ"},"type":"Feature","geometry":{"type":"Point","coordinates":[-111.820655,33.330947]}},{"properties":{"city":"Phoenix","zip":"85068","open goal total":"1000000.00%","geo_score":0.286,"id":"a6e3ib8n005n","geo_precision":"street","address":"PO Box 26583","state":"AZ"},"type":"Feature","geometry":{"type":"Point","coordinates":[-111.975785,33.330106]}},{"properties":{"city":"Phoenix","zip":"85034","open goal total":"500000.00%","geo_score":0.805,"id":"a6e3ib9taj85","geo_precision":"range","address":"3220 E Harbour Dr","state":"AZ"},"type":"Feature","geometry":{"type":"Point","coordinates":[-112.011657,33.416899]}},{"properties":{"city":"Malvern","zip":"19355","open goal total":"500000.00%","geo_score":0.585,"id":"a6e3ib9gtead","geo_precision":"city","address":"122 3 Ponds Ln","state":"PA"},"type":"Feature","geometry":{"type":"Point","coordinates":[-75.713599,40.02951]}},{"properties":{"city":"Rye","zip":"10580","open goal total":"0.00%","geo_score":0.902,"id":"a6e3iaw431jb","geo_precision":"range","address":"17 Greenleaf St","state":"NY"},"type":"Feature","geometry":{"type":"Point","coordinates":[-73.681771,40.981899]}},{"properties":{"city":"Bala Cynwyd","zip":"19004","open goal total":"1000000.00%","geo_score":0.597,"id":"a6e3ib03vqec","geo_precision":"range","address":"190 Presidential Blvd Unit 02","state":"PA"},"type":"Feature","geometry":{"type":"Point","coordinates":[-79.797352,41.16445]}},{"properties":{"city":"Phoenixville","zip":"19460","open goal total":"1.00%","geo_score":0.902,"id":"a6e3ib5fd4pk","geo_precision":"range","address":"1779 Pickering Rd","state":"PA"},"type":"Feature","geometry":{"type":"Point","coordinates":[-75.57154,40.101457]}},{"properties":{"city":"Gillette","zip":"82718","open goal total":"0.00%","geo_score":0.805,"id":"a6e3ib2xcovb","geo_precision":"range","address":"631 Par Dr","state":"WY"},"type":"Feature","geometry":{"type":"Point","coordinates":[-105.556707,44.288361]}},{"properties":{"city":"Eagles Mere","zip":"17731","open goal total":"1000000.00%","geo_score":0.473,"id":"a6e3ib5fz3u3","geo_precision":"street","address":"Post Office Box 366","state":"PA"},"type":"Feature","geometry":{"type":"Point","coordinates":[-77.411949,41.410098]}},{"properties":{"city":"Philadelphia","zip":"19103","open goal total":"300000.00%","geo_score":0.721,"id":"a6e3ib6i4p6e","geo_precision":"range","address":"228 S 21st St","state":"PA"},"type":"Feature","geometry":{"type":"Point","coordinates":[-75.17588,39.950101]}},{"properties":{"city":"Newtown","zip":"18940","open goal total":"5100000.00%","geo_score":0.427,"id":"a6e3ib882qtg","geo_precision":"street","address":"331 Lower Dolington Rd","state":"PA"},"type":"Feature","geometry":{"type":"Point","coordinates":[-79.852984,40.369292]}},{"properties":{"city":"Rockville","zip":"20852","open goal total":"750000.00%","geo_score":0.702,"id":"a6e3iawd0gic","geo_precision":"range","address":"10401 Grosvenor Pl Apt 413","state":"MD"},"type":"Feature","geometry":{"type":"Point","coordinates":[-77.103757,39.025717]}},{"properties":{"city":"Westminster","zip":"21157","open goal total":"300000.00%","geo_score":0.902,"id":"a6e3ib8s21z2","geo_precision":"range","address":"121 Smith Avenue","state":"MD"},"type":"Feature","geometry":{"type":"Point","coordinates":[-76.993801,39.552974]}},{"properties":{"city":"Narberth","zip":"19072","open goal total":"300000.00%","geo_score":0.902,"id":"a6e3ib0cvpj3","geo_precision":"range","address":"14 Iona Ave","state":"PA"},"type":"Feature","geometry":{"type":"Point","coordinates":[-75.257469,40.005377]}},{"properties":{"city":"Rockville","zip":"20850","open goal total":"200000.00%","geo_score":0.805,"id":"a6e3ib428ye0","geo_precision":"range","address":"3 Duncan Branch Crt","state":"MD"},"type":"Feature","geometry":{"type":"Point","coordinates":[-77.180235,39.074732]}},{"properties":{"city":"Jackson","zip":"83001","open goal total":"1000000.00%","geo_score":0.857,"id":"a6e3iazl8evt","geo_precision":"city","address":"PO Box 3790","state":"WY"},"type":"Feature","geometry":{"type":"Point","coordinates":[-110.739266,43.452793]}},{"properties":{"city":"Huntingdon Valley","zip":"19006","open goal total":"750000.00%","geo_score":0.464,"id":"a6e3ib40ttgf","geo_precision":"street","address":"2239 Deer Path Road","state":"PA"},"type":"Feature","geometry":{"type":"Point","coordinates":[-78.546748,40.557417]}},{"properties":{"city":"Gladwyne","zip":"19035","open goal total":"300000.00%","geo_score":0.497,"id":"a6e3iaxcshxe","geo_precision":"street","address":"1400 Waverly Rd Apt B035","state":"PA"},"type":"Feature","geometry":{"type":"Point","coordinates":[-79.925811,40.199467]}},{"properties":{"city":"Tucson","zip":"85730","open goal total":"1.00%","geo_score":0.805,"id":"a6e3iayz7o85","geo_precision":"range","address":"3651 S Eastview Ave","state":"AZ"},"type":"Feature","geometry":{"type":"Point","coordinates":[-110.794008,32.179593]}},{"properties":{"city":"Haverford","zip":"19041","open goal total":"500000.00%","geo_score":0.902,"id":"a6e3ib01ad5o","geo_precision":"range","address":"334 Laurel Ln","state":"PA"},"type":"Feature","geometry":{"type":"Point","coordinates":[-75.292556,40.022929]}},{"properties":{"city":"Columbia","zip":"21044","open goal total":"1000000.00%","geo_score":0.902,"id":"a6e3ib0b1wo2","geo_precision":"range","address":"10996 Swansfield Rd","state":"MD"},"type":"Feature","geometry":{"type":"Point","coordinates":[-76.893899,39.216799]}},{"properties":{"city":"Silver Spring","zip":"20904","open goal total":"750000.00%","geo_score":0.805,"id":"a6e3iavxtx65","geo_precision":"range","address":"13700 Fairridge Drive","state":"MD"},"type":"Feature","geometry":{"type":"Point","coordinates":[-76.965324,39.080391]}},{"properties":{"city":"Silver Spring","zip":"20904","open goal total":"1000000.00%","geo_score":0.805,"id":"a6e3ib8cawjj","geo_precision":"range","address":"3160 Gracefield Rd","state":"MD"},"type":"Feature","geometry":{"type":"Point","coordinates":[-76.951554,39.050706]}},{"properties":{"city":"Washington","zip":"20016","open goal total":"500000.00%","geo_score":0.805,"id":"a6e3ib93dra5","geo_precision":"range","address":"3509 Lowell St NW","state":"DC"},"type":"Feature","geometry":{"type":"Point","coordinates":[-77.068777,38.932541]}},{"properties":{"city":"Pottstown","zip":"19465","open goal total":"1.00%","geo_score":0.535,"id":"a6e3iay69k1v","geo_precision":"street","address":"1153 Ridge Rd","state":"PA"},"type":"Feature","geometry":{"type":"Point","coordinates":[-75.61076,40.243939]}},{"properties":{"city":"Newtown","zip":"18940","open goal total":"300000.00%","geo_score":0.502,"id":"a6e3ibbpdb6v","geo_precision":"city","address":"1656 Powderhorn Dr","state":"PA"},"type":"Feature","geometry":{"type":"Point","coordinates":[-79.868939,40.476458]}},{"properties":{"city":"Clinton","zip":"59825","open goal total":"7500000.00%","geo_score":0.401,"id":"a6e3iazq8c2h","geo_precision":"street","address":"401 Valley Of The Moon Rd","state":"MT"},"type":"Feature","geometry":{"type":"Point","coordinates":[-106.249489,48.848141]}},{"properties":{"city":"Chevy Chase","zip":"20815","open goal total":"300000.00%","geo_score":0.805,"id":"a6e3ib5rdzmk","geo_precision":"range","address":"5808 Warwick Pl","state":"MD"},"type":"Feature","geometry":{"type":"Point","coordinates":[-77.093185,38.967829]}},{"properties":{"city":"Philadelphia","zip":"19103","open goal total":"300000.00%","geo_score":0.805,"id":"a6e3ib799xoo","geo_precision":"range","address":"2410 Spruce St","state":"PA"},"type":"Feature","geometry":{"type":"Point","coordinates":[-75.180108,39.948886]}},{"properties":{"city":"Wynnewood","zip":"19096","open goal total":"300000.00%","geo_score":0.902,"id":"a6e3ib410n4g","geo_precision":"range","address":"242 Kent Road","state":"PA"},"type":"Feature","geometry":{"type":"Point","coordinates":[-75.280453,40.005891]}},{"properties":{"city":"Lancaster","zip":"17601","open goal total":"500000.00%","geo_score":0.424,"id":"a6e3ib0wtr5j","geo_precision":"street","address":"553 Bald Eagle Court","state":"PA"},"type":"Feature","geometry":{"type":"Point","coordinates":[-76.733813,39.977664]}},{"properties":{"city":"Taneytown","zip":"21787","open goal total":"300000.00%","geo_score":0.531,"id":"a6e3ibbhvypy","geo_precision":"city","address":"5584 Rickell Rd.","state":"MD"},"type":"Feature","geometry":{"type":"Point","coordinates":[-75.835702,38.859523]}},{"properties":{"city":"Baltimore","zip":"21212","open goal total":"1.00%","geo_score":0.805,"id":"a6e3ib6h1yhh","geo_precision":"range","address":"211 Woodbrook Ln","state":"MD"},"type":"Feature","geometry":{"type":"Point","coordinates":[-76.637128,39.379862]}},{"properties":{"city":"Columbia","zip":"21046","open goal total":"500000.00%","geo_score":0.785,"id":"a6e3ib0scv7p","geo_precision":"range","address":"8758 Carriage Hills Dr","state":"MD"},"type":"Feature","geometry":{"type":"Point","coordinates":[-76.859298,39.171599]}},{"properties":{"city":"Devon","zip":"19333","open goal total":"0.00%","geo_score":0.502,"id":"a6e3ib8qeiya","geo_precision":"city","address":"538 Millbrook Rd","state":"PA"},"type":"Feature","geometry":{"type":"Point","coordinates":[-75.820747,41.837021]}},{"properties":{"city":"New York","zip":"10018","open goal total":"0.00%","geo_score":0.484,"id":"a6e3ib2jbzai","geo_precision":"street","address":"384 5th Ave Fl 7","state":"NY"},"type":"Feature","geometry":{"type":"Point","coordinates":[-73.942262,40.806416]}},{"properties":{"city":"San Diego","zip":"92130","open goal total":"2500000.00%","geo_score":0.702,"id":"a6e3ib314zbj","geo_precision":"range","address":"12481 High Bluff Dr Ste 150","state":"CA"},"type":"Feature","geometry":{"type":"Point","coordinates":[-117.240636,32.945362]}},{"properties":{"city":"Cleveland","zip":"44108","open goal total":"1000000.00%","geo_score":0.805,"id":"a6e3iavz6436","geo_precision":"range","address":"23 Shoreby Dr","state":"OH"},"type":"Feature","geometry":{"type":"Point","coordinates":[-81.602961,41.557167]}},{"properties":{"city":"Potomac","zip":"20854","open goal total":"300000.00%","geo_score":0.902,"id":"a6e3ibae50n0","geo_precision":"range","address":"11529 Twining Lane","state":"MD"},"type":"Feature","geometry":{"type":"Point","coordinates":[-77.212432,39.044161]}},{"properties":{"city":"Annapolis","zip":"21403","open goal total":"500000.00%","geo_score":0.732,"id":"a6e3ib8vdlyl","geo_precision":"range","address":"490 Ferry Point Rd","state":"MD"},"type":"Feature","geometry":{"type":"Point","coordinates":[-76.521766,38.953165]}}],"is_temporal":false,"author":{"url":"","metadata":"","contact_name":"","contact_address":"","source":"","contact_phone":""},"source":"","pagination":{"sort":null,"start":0,"total":278,"limit":1000000},"state":"complete","tags":"","published":"2014-08-13T04:19:48-04:00","id":135474}