{"type":"FeatureCollection","data_type":"Dataset","url_type":null,"permissions":[{"permissions":{"download":true,"view":true},"group_id":"everyone"}],"classification":null,"title":"Los Angeles Twitter Traffic Accients","count":160,"stream_id":13586,"contributor":{"url":"http://geocommons.com/users/7141","name":"jaganrvce"},"data_attributes":null,"calculation_params":null,"icon_link":null,"link":"http://geocommons.com/overlays/13586.json","extent":[-118.606,33.2223,-117.039,35.0289],"geometry_types":["point"],"unique_name":null,"name":"Los Angeles Twitter Traffic Accients","feature_count":160,"description":"","next_feature":null,"is_raster":false,"short_classification":"Y","stats":{"latitude":{"max":35.028889,"mean":34.06393126875,"variance":0.0258471597512795,"stdev":0.160770518912142,"min":33.22227,"median":34.04665},"accidentcount":{"max":59.0,"mean":2.35,"variance":26.7194968553459,"stdev":5.16909052497109,"min":1.0,"median":1.0},"longitude":{"max":-117.039187,"mean":-118.29605134375,"variance":0.0293068576939628,"stdev":0.171192458052225,"min":-118.605909,"median":-118.284464}},"features":[{"properties":{"latitude":33.978,"accidentcount":1.0,"longitude":-118.244089,"id":"a632br126wm4","address":"CONVERSE AV and E 68TH ST Los Angeles CA"},"type":"Feature","geometry":{"type":"Point","coordinates":[-118.244089,33.978]}},{"properties":{"latitude":33.77899,"accidentcount":1.0,"longitude":-118.280339,"id":"a632bqmqphqe","address":"I110 and W ANAHEIM ST Los Angeles CA"},"type":"Feature","geometry":{"type":"Point","coordinates":[-118.280339,33.77899]}},{"properties":{"latitude":33.781707,"accidentcount":1.0,"longitude":-118.271443,"id":"a632bqmohi49","address":"953 MCDONALD AV Los Angeles CA"},"type":"Feature","geometry":{"type":"Point","coordinates":[-118.271443,33.781707]}},{"properties":{"latitude":33.804513,"accidentcount":1.0,"longitude":-118.307891,"id":"a632bqrp2amd","address":"I5 and WESTERN AV Los Angeles CA"},"type":"Feature","geometry":{"type":"Point","coordinates":[-118.307891,33.804513]}},{"properties":{"latitude":33.808679,"accidentcount":1.0,"longitude":-118.300791,"id":"a632bqx6227n","address":"1300 OAKHORNE DR Los Angeles CA"},"type":"Feature","geometry":{"type":"Point","coordinates":[-118.300791,33.808679]}},{"properties":{"latitude":33.87049,"accidentcount":1.0,"longitude":-118.296724,"id":"a632bqm2nuf4","address":"177TH ST and HAWTHORNE BLVD Los Angeles CA"},"type":"Feature","geometry":{"type":"Point","coordinates":[-118.296724,33.87049]}},{"properties":{"latitude":33.893073,"accidentcount":1.0,"longitude":-118.285504,"id":"a632bqsh2kk1","address":"I110 and REDONDO BEACH BLVD Los Angeles CA"},"type":"Feature","geometry":{"type":"Point","coordinates":[-118.285504,33.893073]}},{"properties":{"latitude":33.90189,"accidentcount":1.0,"longitude":-118.286359,"id":"a632bqnf6xrh","address":"I110 and W ROSECRANS AV Los Angeles CA"},"type":"Feature","geometry":{"type":"Point","coordinates":[-118.286359,33.90189]}},{"properties":{"latitude":33.91642,"accidentcount":1.0,"longitude":-118.265249,"id":"a632bqlmipj9","address":"E EL SEGUNDO BLVD and AVALON BLVD Los Angeles CA"},"type":"Feature","geometry":{"type":"Point","coordinates":[-118.265249,33.91642]}},{"properties":{"latitude":33.918795,"accidentcount":1.0,"longitude":-118.256969,"id":"a632bqu7fkc9","address":"S MONA BLVD and E 126TH ST Los Angeles CA"},"type":"Feature","geometry":{"type":"Point","coordinates":[-118.256969,33.918795]}},{"properties":{"latitude":33.91904,"accidentcount":1.0,"longitude":-118.251339,"id":"a632bqswu4k6","address":"2524 E 125TH ST Los Angeles CA"},"type":"Feature","geometry":{"type":"Point","coordinates":[-118.251339,33.91904]}},{"properties":{"latitude":33.91973,"accidentcount":1.0,"longitude":-118.247958,"id":"a632bqs979wb","address":"E 124TH ST and S MONA BLVD Los Angeles CA"},"type":"Feature","geometry":{"type":"Point","coordinates":[-118.247958,33.91973]}},{"properties":{"latitude":33.92118,"accidentcount":1.0,"longitude":-118.298619,"id":"a632bqr3cckc","address":"W 123RD ST and RAYMOND AV Los Angeles CA"},"type":"Feature","geometry":{"type":"Point","coordinates":[-118.298619,33.92118]}},{"properties":{"latitude":34.375284,"accidentcount":1.0,"longitude":-118.557448,"id":"a632bqmg5ug5","address":"SR14 and SAND CANYON road Newhall CA"},"type":"Feature","geometry":{"type":"Point","coordinates":[-118.557448,34.375284]}},{"properties":{"latitude":34.364475,"accidentcount":1.0,"longitude":-118.501249,"id":"a632bqo4ylpx","address":"NEWHALL AREA Newhall CA"},"type":"Feature","geometry":{"type":"Point","coordinates":[-118.501249,34.364475]}},{"properties":{"latitude":34.318299,"accidentcount":1.0,"longitude":-118.399594,"id":"a632bqx3w4ni","address":"SR60 and SANTA ANITA AV Los Angeles CA"},"type":"Feature","geometry":{"type":"Point","coordinates":[-118.399594,34.318299]}},{"properties":{"latitude":34.256427,"accidentcount":1.0,"longitude":-118.476277,"id":"a632bqkstwcd","address":"US101 and HASKELL AV Los Angeles CA"},"type":"Feature","geometry":{"type":"Point","coordinates":[-118.476277,34.256427]}},{"properties":{"latitude":34.2333,"accidentcount":1.0,"longitude":-118.410854,"id":"a632br04bnaf","address":"SHELDON ST and SR170 Los Angeles CA"},"type":"Feature","geometry":{"type":"Point","coordinates":[-118.410854,34.2333]}},{"properties":{"latitude":33.93097,"accidentcount":1.0,"longitude":-118.254259,"id":"a632bqomaod2","address":"S CENTRAL AV and E 114TH ST Los Angeles CA"},"type":"Feature","geometry":{"type":"Point","coordinates":[-118.254259,33.93097]}},{"properties":{"latitude":33.931,"accidentcount":1.0,"longitude":-118.379379,"id":"a632bqro5qg5","address":"I105 and E IMPERIAL highway Los Angeles CA"},"type":"Feature","geometry":{"type":"Point","coordinates":[-118.379379,33.931]}},{"properties":{"latitude":33.93334,"accidentcount":1.0,"longitude":-118.291599,"id":"a632bqpxgz01","address":"S VERMONT AV and W 112TH ST Los Angeles CA"},"type":"Feature","geometry":{"type":"Point","coordinates":[-118.291599,33.93334]}},{"properties":{"latitude":34.23155,"accidentcount":1.0,"longitude":-118.368219,"id":"a632bqkqpsi6","address":"PENROSE ST and GLENOAKS BLVD Los Angeles CA"},"type":"Feature","geometry":{"type":"Point","coordinates":[-118.368219,34.23155]}},{"properties":{"latitude":33.94015,"accidentcount":1.0,"longitude":-118.265179,"id":"a632bqt53v3x","address":"E 106TH ST and AVALON BLVD Los Angeles CA"},"type":"Feature","geometry":{"type":"Point","coordinates":[-118.265179,33.94015]}},{"properties":{"latitude":34.547625,"accidentcount":1.0,"longitude":-117.916154,"id":"a632bqrshflr","address":"I10 ON S ROBERTSON BLVD Los Angeles CA"},"type":"Feature","geometry":{"type":"Point","coordinates":[-117.916154,34.547625]}},{"properties":{"latitude":34.23154,"accidentcount":1.0,"longitude":-118.404319,"id":"a632bqv1ppdd","address":"SHELDON ST and GOLDEN STATE freeway Los Angeles CA"},"type":"Feature","geometry":{"type":"Point","coordinates":[-118.404319,34.23154]}},{"properties":{"latitude":33.94909,"accidentcount":1.0,"longitude":-118.313399,"id":"a632bqvicl5h","address":"W 96TH ST and S GRAMERCY PL Los Angeles CA"},"type":"Feature","geometry":{"type":"Point","coordinates":[-118.313399,33.94909]}},{"properties":{"latitude":33.950485,"accidentcount":1.0,"longitude":-118.280084,"id":"a632bqtkmdpw","address":"SR110 ON E WASHINGTON BLVD Los Angeles CA"},"type":"Feature","geometry":{"type":"Point","coordinates":[-118.280084,33.950485]}},{"properties":{"latitude":34.22248,"accidentcount":1.0,"longitude":-118.387799,"id":"a632bqwbszqu","address":"LANKERSHIM BLVD and HADDON AV Los Angeles CA"},"type":"Feature","geometry":{"type":"Point","coordinates":[-118.387799,34.22248]}},{"properties":{"latitude":34.22137,"accidentcount":1.0,"longitude":-118.473109,"id":"a632bqwfl5zv","address":"I405 and ROSCOE BLVD Los Angeles CA"},"type":"Feature","geometry":{"type":"Point","coordinates":[-118.473109,34.22137]}},{"properties":{"latitude":33.952979,"accidentcount":1.0,"longitude":-118.230774,"id":"a632bquz1irj","address":"9225 LAUREL ST Los Angeles CA"},"type":"Feature","geometry":{"type":"Point","coordinates":[-118.230774,33.952979]}},{"properties":{"latitude":33.953193,"accidentcount":1.0,"longitude":-118.240654,"id":"a632bqwas117","address":"1800 E 92ND ST Los Angeles CA"},"type":"Feature","geometry":{"type":"Point","coordinates":[-118.240654,33.953193]}},{"properties":{"latitude":33.953638,"accidentcount":1.0,"longitude":-118.262581,"id":"a632bqyljlus","address":"710 and 91 Los Angeles CA"},"type":"Feature","geometry":{"type":"Point","coordinates":[-118.262581,33.953638]}},{"properties":{"latitude":33.959766,"accidentcount":1.0,"longitude":-118.084827,"id":"a632bqwca2b5","address":"I5 and PIONEER BLVD Santa Fe Springs CA"},"type":"Feature","geometry":{"type":"Point","coordinates":[-118.084827,33.959766]}},{"properties":{"latitude":33.96011,"accidentcount":1.0,"longitude":-118.234029,"id":"a632br0u3q6f","address":"14500 FIRESTONE BLVD Los Angeles CA"},"type":"Feature","geometry":{"type":"Point","coordinates":[-118.234029,33.96011]}},{"properties":{"latitude":33.97189,"accidentcount":1.0,"longitude":-118.377899,"id":"a632bqwffs72","address":"I405 and LA TIJERA BLVD Los Angeles CA"},"type":"Feature","geometry":{"type":"Point","coordinates":[-118.377899,33.97189]}},{"properties":{"latitude":33.973829,"accidentcount":1.0,"longitude":-118.234745,"id":"a632bqmeetik","address":"I10 and N ALAMEDA ST Los Angeles CA"},"type":"Feature","geometry":{"type":"Point","coordinates":[-118.234745,33.973829]}},{"properties":{"latitude":33.97505,"accidentcount":1.0,"longitude":-118.124639,"id":"a632bqylb80x","address":"I5 and E SLAUSON AV Los Angeles CA"},"type":"Feature","geometry":{"type":"Point","coordinates":[-118.124639,33.97505]}},{"properties":{"latitude":33.976235,"accidentcount":1.0,"longitude":-118.256464,"id":"a632bqro9ysw","address":"S CENTRAL AV and SR91 Los Angeles CA"},"type":"Feature","geometry":{"type":"Point","coordinates":[-118.256464,33.976235]}},{"properties":{"latitude":33.976247,"accidentcount":1.0,"longitude":-118.39266,"id":"a632bqm1e99f","address":"I10 and CITY TERRACE DR Los Angeles CA"},"type":"Feature","geometry":{"type":"Point","coordinates":[-118.39266,33.976247]}},{"properties":{"latitude":33.97731,"accidentcount":1.0,"longitude":-118.371829,"id":"a632bql6j6p3","address":"W CENTINELA AV and LA TIJERA BLVD Los Angeles CA"},"type":"Feature","geometry":{"type":"Point","coordinates":[-118.371829,33.97731]}},{"properties":{"latitude":34.218281,"accidentcount":1.0,"longitude":-118.344328,"id":"a632bqtw82du","address":"HOLLYWOOD WAY Los Angeles CA"},"type":"Feature","geometry":{"type":"Point","coordinates":[-118.344328,34.218281]}},{"properties":{"latitude":34.216604,"accidentcount":1.0,"longitude":-118.368128,"id":"a632bqp1pxc0","address":"10865 WHITE ST Los Angeles CA"},"type":"Feature","geometry":{"type":"Point","coordinates":[-118.368128,34.216604]}},{"properties":{"latitude":33.98876,"accidentcount":1.0,"longitude":-118.377539,"id":"a632bqp8k7rl","address":"SHENANDOAH AV and W SLAUSON AV Los Angeles CA"},"type":"Feature","geometry":{"type":"Point","coordinates":[-118.377539,33.98876]}},{"properties":{"latitude":33.98916,"accidentcount":1.0,"longitude":-118.280189,"id":"a632bqmmd1in","address":"I110 and W SLAUSON AV Los Angeles CA"},"type":"Feature","geometry":{"type":"Point","coordinates":[-118.280189,33.98916]}},{"properties":{"latitude":33.991251,"accidentcount":1.0,"longitude":-118.420484,"id":"a632bqkv6ush","address":"SR90 and CULVER BLVD Los Angeles CA"},"type":"Feature","geometry":{"type":"Point","coordinates":[-118.420484,33.991251]}},{"properties":{"latitude":34.00357,"accidentcount":1.0,"longitude":-118.236614,"id":"a632bqt54h11","address":"S HAWTHORNE BLVD and I105 Los Angeles CA"},"type":"Feature","geometry":{"type":"Point","coordinates":[-118.236614,34.00357]}},{"properties":{"latitude":34.00361,"accidentcount":1.0,"longitude":-118.331959,"id":"a632bqp4uiqz","address":"CRENSHAW BLVD and W VERNON AV Los Angeles CA"},"type":"Feature","geometry":{"type":"Point","coordinates":[-118.331959,34.00361]}},{"properties":{"latitude":34.21028,"accidentcount":1.0,"longitude":-118.374659,"id":"a632bqubk9e3","address":"KESWICK ST and FAIR AV Los Angeles CA"},"type":"Feature","geometry":{"type":"Point","coordinates":[-118.374659,34.21028]}},{"properties":{"latitude":34.00377,"accidentcount":1.0,"longitude":-118.281239,"id":"a632bqrwjcks","address":"W VERNON AV and I110 Los Angeles CA"},"type":"Feature","geometry":{"type":"Point","coordinates":[-118.281239,34.00377]}},{"properties":{"latitude":34.00404,"accidentcount":1.0,"longitude":-118.325759,"id":"a632bqoy3pff","address":"W MANCHESTER BLVD and S 8TH AV Los Angeles CA"},"type":"Feature","geometry":{"type":"Point","coordinates":[-118.325759,34.00404]}},{"properties":{"latitude":34.005447,"accidentcount":1.0,"longitude":-118.326688,"id":"a632bqxn3pl9","address":"I110 and W 9TH ST Los Angeles CA"},"type":"Feature","geometry":{"type":"Point","coordinates":[-118.326688,34.005447]}},{"properties":{"latitude":34.0123,"accidentcount":1.0,"longitude":-118.418429,"id":"a632bqyso5em","address":"I405 and VENICE BLVD Los Angeles CA"},"type":"Feature","geometry":{"type":"Point","coordinates":[-118.418429,34.0123]}},{"properties":{"latitude":34.200994,"accidentcount":1.0,"longitude":-118.459821,"id":"a632bqvjr8wl","address":"15012 SHERMAN WY Los Angeles CA"},"type":"Feature","geometry":{"type":"Point","coordinates":[-118.459821,34.200994]}},{"properties":{"latitude":34.199215,"accidentcount":1.0,"longitude":-118.132984,"id":"a632bqu0d8q5","address":"I210 and N SANTA ANITA AV Altadena CA"},"type":"Feature","geometry":{"type":"Point","coordinates":[-118.132984,34.199215]}},{"properties":{"latitude":34.016075,"accidentcount":1.0,"longitude":-118.173159,"id":"a632bqxrdshz","address":"I5 and I710 Los Angeles CA"},"type":"Feature","geometry":{"type":"Point","coordinates":[-118.173159,34.016075]}},{"properties":{"latitude":34.017631,"accidentcount":1.0,"longitude":-118.156081,"id":"a632bqmuby0c","address":"1022 S HILLVIEW AV Los Angeles CA"},"type":"Feature","geometry":{"type":"Point","coordinates":[-118.156081,34.017631]}},{"properties":{"latitude":34.01829,"accidentcount":1.0,"longitude":-118.353649,"id":"a632bqsatts5","address":"2108 STEVELY AV Los Angeles CA"},"type":"Feature","geometry":{"type":"Point","coordinates":[-118.353649,34.01829]}},{"properties":{"latitude":34.01883,"accidentcount":1.0,"longitude":-118.423609,"id":"a632bqsn8grn","address":"I405 and PALMS BLVD Los Angeles CA"},"type":"Feature","geometry":{"type":"Point","coordinates":[-118.423609,34.01883]}},{"properties":{"latitude":34.019163,"accidentcount":1.0,"longitude":-118.155882,"id":"a632bqqg8cbw","address":"931 S HILLVIEW AV Los Angeles CA"},"type":"Feature","geometry":{"type":"Point","coordinates":[-118.155882,34.019163]}},{"properties":{"latitude":34.192834,"accidentcount":1.0,"longitude":-118.429079,"id":"a632bquawn30","address":"VENTURA COUNTY Los Angeles CA"},"type":"Feature","geometry":{"type":"Point","coordinates":[-118.429079,34.192834]}},{"properties":{"latitude":34.02759,"accidentcount":1.0,"longitude":-118.452539,"id":"a632bqo45493","address":"I10 and S CENTINELA AV Los Angeles CA"},"type":"Feature","geometry":{"type":"Point","coordinates":[-118.452539,34.02759]}},{"properties":{"latitude":34.02971,"accidentcount":1.0,"longitude":-118.403059,"id":"a632bqpeyocq","address":"I10 and NATIONAL BLVD Los Angeles CA"},"type":"Feature","geometry":{"type":"Point","coordinates":[-118.403059,34.02971]}},{"properties":{"latitude":34.03059,"accidentcount":1.0,"longitude":-118.391169,"id":"a632bqkoa1yq","address":"I10 and S ROBERTSON BLVD Los Angeles CA"},"type":"Feature","geometry":{"type":"Point","coordinates":[-118.391169,34.03059]}},{"properties":{"latitude":34.03082,"accidentcount":1.0,"longitude":-118.274409,"id":"a632bqmuxdlk","address":"I110 and W 23RD ST Los Angeles CA"},"type":"Feature","geometry":{"type":"Point","coordinates":[-118.274409,34.03082]}},{"properties":{"latitude":34.18172,"accidentcount":1.0,"longitude":-118.169464,"id":"a632bqvguowl","address":"SR2 and I210 Altadena CA"},"type":"Feature","geometry":{"type":"Point","coordinates":[-118.169464,34.18172]}},{"properties":{"latitude":34.031359,"accidentcount":1.0,"longitude":-118.214541,"id":"a632bqpa5ta0","address":"2635 E 7TH ST Los Angeles CA"},"type":"Feature","geometry":{"type":"Point","coordinates":[-118.214541,34.031359]}},{"properties":{"latitude":34.03139,"accidentcount":1.0,"longitude":-118.518949,"id":"a632bqzrfacf","address":"10 and DEL maroon Los Angeles CA"},"type":"Feature","geometry":{"type":"Point","coordinates":[-118.518949,34.03139]}},{"properties":{"latitude":34.03169,"accidentcount":1.0,"longitude":-118.416989,"id":"a632bqowht9n","address":"I10 and OVERLAND AV Los Angeles CA"},"type":"Feature","geometry":{"type":"Point","coordinates":[-118.416989,34.03169]}},{"properties":{"latitude":34.032069,"accidentcount":1.0,"longitude":-118.324056,"id":"a632bqvrrrof","address":"2635 7TH AV Los Angeles CA"},"type":"Feature","geometry":{"type":"Point","coordinates":[-118.324056,34.032069]}},{"properties":{"latitude":34.03297,"accidentcount":1.0,"longitude":-118.272929,"id":"a632bquci5tk","address":"W 20TH ST and S FIGUEROA ST Los Angeles CA"},"type":"Feature","geometry":{"type":"Point","coordinates":[-118.272929,34.03297]}},{"properties":{"latitude":34.03437,"accidentcount":1.0,"longitude":-118.350159,"id":"a632bqv9ffv8","address":"I10 and S LA BREA AV Los Angeles CA"},"type":"Feature","geometry":{"type":"Point","coordinates":[-118.350159,34.03437]}},{"properties":{"latitude":34.03581,"accidentcount":1.0,"longitude":-118.535749,"id":"a632br0hd947","address":"S MALIBU CANYON road and PACIFIC COAST highway Los Angeles CA"},"type":"Feature","geometry":{"type":"Point","coordinates":[-118.535749,34.03581]}},{"properties":{"latitude":34.18012,"accidentcount":1.0,"longitude":-118.512704,"id":"a632bqnup0xj","address":"SR170 and OXNARD ST Los Angeles CA"},"type":"Feature","geometry":{"type":"Point","coordinates":[-118.512704,34.18012]}},{"properties":{"latitude":34.03705,"accidentcount":1.0,"longitude":-118.309089,"id":"a632bqoofz9e","address":"I10 and S WESTERN AV Los Angeles CA"},"type":"Feature","geometry":{"type":"Point","coordinates":[-118.309089,34.03705]}},{"properties":{"latitude":34.037936,"accidentcount":1.0,"longitude":-118.448334,"id":"a632bqy2iz7p","address":"2003 FEDERAL AV Los Angeles CA"},"type":"Feature","geometry":{"type":"Point","coordinates":[-118.448334,34.037936]}},{"properties":{"latitude":34.173295,"accidentcount":1.0,"longitude":-118.593084,"id":"a632bqrsil3f","address":"SR170 and BURBANK BLVD Los Angeles CA"},"type":"Feature","geometry":{"type":"Point","coordinates":[-118.593084,34.173295]}},{"properties":{"latitude":34.038173,"accidentcount":1.0,"longitude":-118.284429,"id":"a632bqoq10pl","address":"AVENUE L and 20TH ST W Los Angeles CA"},"type":"Feature","geometry":{"type":"Point","coordinates":[-118.284429,34.038173]}},{"properties":{"latitude":34.03819,"accidentcount":1.0,"longitude":-118.448349,"id":"a632bqnlawcu","address":"FEDERAL AV and LA GRANGE AV Los Angeles CA"},"type":"Feature","geometry":{"type":"Point","coordinates":[-118.448349,34.03819]}},{"properties":{"latitude":34.038378,"accidentcount":1.0,"longitude":-118.555016,"id":"a632bqmmdz8f","address":"I110 and PACIFIC COAST highway Los Angeles CA"},"type":"Feature","geometry":{"type":"Point","coordinates":[-118.555016,34.038378]}},{"properties":{"latitude":34.042965,"accidentcount":1.0,"longitude":-118.217089,"id":"a632bqq87h3l","address":"I5 and E 4TH ST Los Angeles CA"},"type":"Feature","geometry":{"type":"Point","coordinates":[-118.217089,34.042965]}},{"properties":{"latitude":34.04665,"accidentcount":1.0,"longitude":-118.168559,"id":"a632bqu1aoew","address":"N LONG BEACH BLVD and I710 Los Angeles CA"},"type":"Feature","geometry":{"type":"Point","coordinates":[-118.168559,34.04665]}},{"properties":{"latitude":34.17068,"accidentcount":1.0,"longitude":-118.605909,"id":"a632bqw89wh0","address":"US101 and TOPANGA CANYON BLVD Los Angeles CA"},"type":"Feature","geometry":{"type":"Point","coordinates":[-118.605909,34.17068]}},{"properties":{"latitude":34.17054,"accidentcount":1.0,"longitude":-118.501079,"id":"a632bqwqdfpy","address":"US101 and BALBOA BLVD Los Angeles CA"},"type":"Feature","geometry":{"type":"Point","coordinates":[-118.501079,34.17054]}},{"properties":{"latitude":34.0516,"accidentcount":1.0,"longitude":-118.242124,"id":"a632bqkywsez","address":"110 and ROSECRANS Los Angeles CA"},"type":"Feature","geometry":{"type":"Point","coordinates":[-118.242124,34.0516]}},{"properties":{"latitude":34.164845,"accidentcount":1.0,"longitude":-118.467364,"id":"a632bqpda6ti","address":"SR170 and MAGNOLIA BLVD Los Angeles CA"},"type":"Feature","geometry":{"type":"Point","coordinates":[-118.467364,34.164845]}},{"properties":{"latitude":34.05305,"accidentcount":1.0,"longitude":-118.251249,"id":"a632bqruxjgw","address":"I110 and W 3RD ST Los Angeles CA"},"type":"Feature","geometry":{"type":"Point","coordinates":[-118.251249,34.05305]}},{"properties":{"latitude":34.1492,"accidentcount":1.0,"longitude":-118.4403,"id":"a632bqns5htq","address":"SHERMAN OAKS Los Angeles CA"},"type":"Feature","geometry":{"type":"Point","coordinates":[-118.4403,34.1492]}},{"properties":{"latitude":34.397336,"accidentcount":1.0,"longitude":-118.49907,"id":"a632bqr4dr0x","address":"I5 and RYE CANYON road Newhall CA"},"type":"Feature","geometry":{"type":"Point","coordinates":[-118.49907,34.397336]}},{"properties":{"latitude":34.053366,"accidentcount":1.0,"longitude":-118.220362,"id":"a632br0eu9ac","address":"VTB BRIDGE Los Angeles CA"},"type":"Feature","geometry":{"type":"Point","coordinates":[-118.220362,34.053366]}},{"properties":{"latitude":34.145708,"accidentcount":1.0,"longitude":-118.370684,"id":"a632bquevgmu","address":"US101 and VINELAND AV Los Angeles CA"},"type":"Feature","geometry":{"type":"Point","coordinates":[-118.370684,34.145708]}},{"properties":{"latitude":34.12638,"accidentcount":1.0,"longitude":-118.475449,"id":"a632br05u83i","address":"I405 and MULHOLLAND DR Los Angeles CA"},"type":"Feature","geometry":{"type":"Point","coordinates":[-118.475449,34.12638]}},{"properties":{"latitude":34.05489,"accidentcount":1.0,"longitude":-118.277839,"id":"a632bquz07uw","address":"S ALVARADO ST and W 8TH ST Los Angeles CA"},"type":"Feature","geometry":{"type":"Point","coordinates":[-118.277839,34.05489]}},{"properties":{"latitude":34.05505,"accidentcount":1.0,"longitude":-118.211969,"id":"a632bqqf44yr","address":"I10 and STATE ST Los Angeles CA"},"type":"Feature","geometry":{"type":"Point","coordinates":[-118.211969,34.05505]}},{"properties":{"latitude":34.055475,"accidentcount":1.0,"longitude":-118.239203,"id":"a632bqlsz2at","address":"405 and SANTA MONICA Los Angeles CA"},"type":"Feature","geometry":{"type":"Point","coordinates":[-118.239203,34.055475]}},{"properties":{"latitude":34.125075,"accidentcount":1.0,"longitude":-118.231194,"id":"a632bqmk3oi6","address":"SR2 and YORK BLVD Los Angeles CA"},"type":"Feature","geometry":{"type":"Point","coordinates":[-118.231194,34.125075]}},{"properties":{"latitude":34.05603,"accidentcount":1.0,"longitude":-118.183079,"id":"a632bqt6lf5b","address":"I10 and N HERBERT AV Los Angeles CA"},"type":"Feature","geometry":{"type":"Point","coordinates":[-118.183079,34.05603]}},{"properties":{"latitude":34.061686,"accidentcount":1.0,"longitude":-118.369377,"id":"a632bqxoknmy","address":"SR60 and SAN GABRIEL BLVD Los Angeles CA"},"type":"Feature","geometry":{"type":"Point","coordinates":[-118.369377,34.061686]}},{"properties":{"latitude":34.06245,"accidentcount":1.0,"longitude":-118.165079,"id":"a632bqo3be8n","address":"I710 and I10 Los Angeles CA"},"type":"Feature","geometry":{"type":"Point","coordinates":[-118.165079,34.06245]}},{"properties":{"latitude":34.066524,"accidentcount":1.0,"longitude":-118.284464,"id":"a632bqy88yvt","address":"401 S HOOVER ST Los Angeles CA"},"type":"Feature","geometry":{"type":"Point","coordinates":[-118.284464,34.066524]}},{"properties":{"latitude":34.12058,"accidentcount":1.0,"longitude":-118.271059,"id":"a632bqm5cto1","address":"I5 and LOS FELIZ BLVD Los Angeles CA"},"type":"Feature","geometry":{"type":"Point","coordinates":[-118.271059,34.12058]}},{"properties":{"latitude":34.073208,"accidentcount":1.0,"longitude":-118.234364,"id":"a632br09v7fu","address":"FIGUEROA ST and I110 Los Angeles CA"},"type":"Feature","geometry":{"type":"Point","coordinates":[-118.234364,34.073208]}},{"properties":{"latitude":34.07616,"accidentcount":1.0,"longitude":-118.333389,"id":"a632bqkmyfm2","address":"303 N HUDSON AV Los Angeles CA"},"type":"Feature","geometry":{"type":"Point","coordinates":[-118.333389,34.07616]}},{"properties":{"latitude":34.10818,"accidentcount":1.0,"longitude":-118.340458,"id":"a632br0ynrnm","address":"SR60 and PARAMOUNT BLVD Los Angeles CA"},"type":"Feature","geometry":{"type":"Point","coordinates":[-118.340458,34.10818]}},{"properties":{"latitude":34.078849,"accidentcount":1.0,"longitude":-118.352104,"id":"a632bqza09y8","address":"426 VIA VISTA Los Angeles CA"},"type":"Feature","geometry":{"type":"Point","coordinates":[-118.352104,34.078849]}},{"properties":{"latitude":34.08357,"accidentcount":1.0,"longitude":-118.298829,"id":"a632bqvs1426","address":"MELROSE AV and US101 Los Angeles CA"},"type":"Feature","geometry":{"type":"Point","coordinates":[-118.298829,34.08357]}},{"properties":{"latitude":34.08359,"accidentcount":1.0,"longitude":-118.286829,"id":"a632bqp22fvt","address":"N VIRGIL AV and MELROSE AV Los Angeles CA"},"type":"Feature","geometry":{"type":"Point","coordinates":[-118.286829,34.08359]}},{"properties":{"latitude":34.083638,"accidentcount":1.0,"longitude":-118.216876,"id":"a632bqysgdi8","address":"3297 ARTESIA BLVD Los Angeles CA"},"type":"Feature","geometry":{"type":"Point","coordinates":[-118.216876,34.083638]}},{"properties":{"latitude":34.107093,"accidentcount":1.0,"longitude":-117.960894,"id":"a632bqwt7f3s","address":"I605 and ARROW highway Baldwin Park CA"},"type":"Feature","geometry":{"type":"Point","coordinates":[-117.960894,34.107093]}},{"properties":{"latitude":34.106787,"accidentcount":1.0,"longitude":-117.973609,"id":"a632bquozb0d","address":"I605 and LIVE OAK AV Baldwin Park CA"},"type":"Feature","geometry":{"type":"Point","coordinates":[-117.973609,34.106787]}},{"properties":{"latitude":34.08591,"accidentcount":1.0,"longitude":-118.192849,"id":"a632bqwp4z5u","address":"BOUNDARY AV and MERCURY AV Los Angeles CA"},"type":"Feature","geometry":{"type":"Point","coordinates":[-118.192849,34.08591]}},{"properties":{"latitude":34.105145,"accidentcount":1.0,"longitude":-118.364963,"id":"a632bqknieqh","address":"US101 and HIGHLAND AV Los Angeles CA"},"type":"Feature","geometry":{"type":"Point","coordinates":[-118.364963,34.105145]}},{"properties":{"latitude":34.089747,"accidentcount":1.0,"longitude":-117.94687,"id":"a632bqxaoq0n","address":"RAMONA BLVD and I605 Baldwin Park CA"},"type":"Feature","geometry":{"type":"Point","coordinates":[-117.94687,34.089747]}},{"properties":{"latitude":34.08976,"accidentcount":1.0,"longitude":-118.276909,"id":"a632bqydv9u1","address":"W SUNSET BLVD and MALTMAN AV Los Angeles CA"},"type":"Feature","geometry":{"type":"Point","coordinates":[-118.276909,34.08976]}},{"properties":{"latitude":34.089855,"accidentcount":1.0,"longitude":-118.177554,"id":"a632bqrmcfr5","address":"SR60 and ROSEMEAD BLVD Los Angeles CA"},"type":"Feature","geometry":{"type":"Point","coordinates":[-118.177554,34.089855]}},{"properties":{"latitude":34.106565,"accidentcount":1.0,"longitude":-118.232371,"id":"a632bqs0bsul","address":"2232 W AVENUE 33 Los Angeles CA"},"type":"Feature","geometry":{"type":"Point","coordinates":[-118.232371,34.106565]}},{"properties":{"latitude":34.08862,"accidentcount":2.0,"longitude":-118.475249,"id":"a632bqtpc9o5","address":"I405 and GETTY CENTER DR Los Angeles CA"},"type":"Feature","geometry":{"type":"Point","coordinates":[-118.475249,34.08862]}},{"properties":{"latitude":33.928445,"accidentcount":2.0,"longitude":-118.294013,"id":"a632bqy6gwek","address":"I105 and CRENSHAW BLVD Los Angeles CA"},"type":"Feature","geometry":{"type":"Point","coordinates":[-118.294013,33.928445]}},{"properties":{"latitude":34.392144,"accidentcount":2.0,"longitude":-118.47231,"id":"a632bqqfpwza","address":"SR14 and GOLDEN VALLEY road Newhall CA"},"type":"Feature","geometry":{"type":"Point","coordinates":[-118.47231,34.392144]}},{"properties":{"latitude":34.27649,"accidentcount":2.0,"longitude":-118.601424,"id":"a632bqzwuws8","address":"SR118 and I405 Los Angeles CA"},"type":"Feature","geometry":{"type":"Point","coordinates":[-118.601424,34.27649]}},{"properties":{"latitude":33.928981,"accidentcount":2.0,"longitude":-118.280333,"id":"a632bqxcrema","address":"I110 and I105 Los Angeles CA"},"type":"Feature","geometry":{"type":"Point","coordinates":[-118.280333,33.928981]}},{"properties":{"latitude":33.9512,"accidentcount":2.0,"longitude":-118.091204,"id":"a632bqst6rmn","address":"I605 and WHITTIER BLVD Santa Fe Springs CA"},"type":"Feature","geometry":{"type":"Point","coordinates":[-118.091204,33.9512]}},{"properties":{"latitude":34.219935,"accidentcount":2.0,"longitude":-118.590689,"id":"a632bqpl61t3","address":"SR170 and ROSCOE BLVD Los Angeles CA"},"type":"Feature","geometry":{"type":"Point","coordinates":[-118.590689,34.219935]}},{"properties":{"latitude":34.380967,"accidentcount":2.0,"longitude":-118.417728,"id":"a632bqw0wk0n","address":"PLACERITA CANYON road and SR14 Newhall CA"},"type":"Feature","geometry":{"type":"Point","coordinates":[-118.417728,34.380967]}},{"properties":{"latitude":34.12888,"accidentcount":2.0,"longitude":-118.346899,"id":"a632bqunuujk","address":"US101 and BARHAM BLVD Los Angeles CA"},"type":"Feature","geometry":{"type":"Point","coordinates":[-118.346899,34.12888]}},{"properties":{"latitude":34.134005,"accidentcount":2.0,"longitude":-118.221428,"id":"a632bqr2e2o2","address":"I5 and NORWALK BLVD Los Angeles CA"},"type":"Feature","geometry":{"type":"Point","coordinates":[-118.221428,34.134005]}},{"properties":{"latitude":34.05424,"accidentcount":2.0,"longitude":-118.203069,"id":"a632bquxh2fn","address":"I10 and N SOTO ST Los Angeles CA"},"type":"Feature","geometry":{"type":"Point","coordinates":[-118.203069,34.05424]}},{"properties":{"latitude":33.98751,"accidentcount":2.0,"longitude":-118.137589,"id":"a632bqvclu9h","address":"I5 and GARFIELD AV Los Angeles CA"},"type":"Feature","geometry":{"type":"Point","coordinates":[-118.137589,33.98751]}},{"properties":{"latitude":34.05264,"accidentcount":2.0,"longitude":-118.226629,"id":"a632bqymiow1","address":"US101 and N MISSION road Los Angeles CA"},"type":"Feature","geometry":{"type":"Point","coordinates":[-118.226629,34.05264]}},{"properties":{"latitude":34.00368,"accidentcount":2.0,"longitude":-118.291569,"id":"a632bqzo89s4","address":"S VERMONT AV and W VERNON AV Los Angeles CA"},"type":"Feature","geometry":{"type":"Point","coordinates":[-118.291569,34.00368]}},{"properties":{"latitude":34.04699,"accidentcount":2.0,"longitude":-118.446599,"id":"a632bqmyzuvq","address":"I405 and SANTA MONICA BLVD Los Angeles CA"},"type":"Feature","geometry":{"type":"Point","coordinates":[-118.446599,34.04699]}},{"properties":{"latitude":34.17128,"accidentcount":2.0,"longitude":-118.518559,"id":"a632bqvmt6wn","address":"US101 and WHITE OAK AV Los Angeles CA"},"type":"Feature","geometry":{"type":"Point","coordinates":[-118.518559,34.17128]}},{"properties":{"latitude":34.013525,"accidentcount":2.0,"longitude":-118.130359,"id":"a632bqlpk6fw","address":"I10 and N GARFIELD AV Los Angeles CA"},"type":"Feature","geometry":{"type":"Point","coordinates":[-118.130359,34.013525]}},{"properties":{"latitude":34.037,"accidentcount":2.0,"longitude":-118.377479,"id":"a632bqr2bm5g","address":"I10 and S LA CIENEGA BLVD Los Angeles CA"},"type":"Feature","geometry":{"type":"Point","coordinates":[-118.377479,34.037]}},{"properties":{"latitude":34.03118,"accidentcount":2.0,"longitude":-118.433569,"id":"a632bqsjk66o","address":"I10 and I405 Los Angeles CA"},"type":"Feature","geometry":{"type":"Point","coordinates":[-118.433569,34.03118]}},{"properties":{"latitude":34.02754,"accidentcount":2.0,"longitude":-118.274709,"id":"a632bqotrgba","address":"I110 and W ADAMS BLVD Los Angeles CA"},"type":"Feature","geometry":{"type":"Point","coordinates":[-118.274709,34.02754]}},{"properties":{"latitude":34.014485,"accidentcount":2.0,"longitude":-118.280819,"id":"a632bqzp4f90","address":"I110 and SR91 Los Angeles CA"},"type":"Feature","geometry":{"type":"Point","coordinates":[-118.280819,34.014485]}},{"properties":{"latitude":33.92374,"accidentcount":2.0,"longitude":-118.246889,"id":"a632bqx45ejd","address":"CRENSHAW BLVD and W 120TH ST Los Angeles CA"},"type":"Feature","geometry":{"type":"Point","coordinates":[-118.246889,33.92374]}},{"properties":{"latitude":34.08519,"accidentcount":3.0,"longitude":-117.960274,"id":"a632bqkn7pef","address":"I10 and HOLT AV Baldwin Park CA"},"type":"Feature","geometry":{"type":"Point","coordinates":[-117.960274,34.08519]}},{"properties":{"latitude":34.03808,"accidentcount":4.0,"longitude":-118.274109,"id":"a632bqu3hhyw","address":"I10 and I110 Los Angeles CA"},"type":"Feature","geometry":{"type":"Point","coordinates":[-118.274109,34.03808]}},{"properties":{"latitude":33.940065,"accidentcount":4.0,"longitude":-118.279709,"id":"a632bqm8z2eg","address":"I110 and I405 Los Angeles CA"},"type":"Feature","geometry":{"type":"Point","coordinates":[-118.279709,33.940065]}},{"properties":{"latitude":33.9285,"accidentcount":4.0,"longitude":-118.239079,"id":"a632bqv7msdt","address":"I105 and WILMINGTON AV Los Angeles CA"},"type":"Feature","geometry":{"type":"Point","coordinates":[-118.239079,33.9285]}},{"properties":{"latitude":33.92849,"accidentcount":4.0,"longitude":-118.281139,"id":"a632bqxaqh7a","address":"I105 and I110 Los Angeles CA"},"type":"Feature","geometry":{"type":"Point","coordinates":[-118.281139,33.92849]}},{"properties":{"latitude":34.05567,"accidentcount":5.0,"longitude":-118.452189,"id":"a632bqusnqwg","address":"I405 and I110 Los Angeles CA"},"type":"Feature","geometry":{"type":"Point","coordinates":[-118.452189,34.05567]}},{"properties":{"latitude":34.078018,"accidentcount":5.0,"longitude":-118.285862,"id":"a632bqup0sl9","address":"US101 ON LAUREL CANYON BLVD Los Angeles CA"},"type":"Feature","geometry":{"type":"Point","coordinates":[-118.285862,34.078018]}},{"properties":{"latitude":34.12271,"accidentcount":5.0,"longitude":-118.478639,"id":"a632br0zxx72","address":"I405 and SKIRBALL CENTER DR Los Angeles CA"},"type":"Feature","geometry":{"type":"Point","coordinates":[-118.478639,34.12271]}},{"properties":{"latitude":34.361519,"accidentcount":5.0,"longitude":-118.529747,"id":"a632bqseblul","address":"I5 and TEMPLIN highway Newhall CA"},"type":"Feature","geometry":{"type":"Point","coordinates":[-118.529747,34.361519]}},{"properties":{"latitude":34.185398,"accidentcount":5.0,"longitude":-118.131554,"id":"a632bqltcesk","address":"I210 and N LAKE AV Altadena CA"},"type":"Feature","geometry":{"type":"Point","coordinates":[-118.131554,34.185398]}},{"properties":{"latitude":34.068481,"accidentcount":5.0,"longitude":-118.2382,"id":"a632bqn4mbr5","address":"I5 and STADIUM WY Los Angeles CA"},"type":"Feature","geometry":{"type":"Point","coordinates":[-118.2382,34.068481]}},{"properties":{"latitude":33.945954,"accidentcount":5.0,"longitude":-118.082481,"id":"a632bqljulws","address":"I105 ON BELLFLOWER BLVD Santa Fe Springs CA"},"type":"Feature","geometry":{"type":"Point","coordinates":[-118.082481,33.945954]}},{"properties":{"latitude":34.054507,"accidentcount":6.0,"longitude":-118.450911,"id":"a632bqp0vif2","address":"710 FRM ALONDRA and 405 Los Angeles CA"},"type":"Feature","geometry":{"type":"Point","coordinates":[-118.450911,34.054507]}},{"properties":{"latitude":34.04713,"accidentcount":7.0,"longitude":-118.168494,"id":"a632bqxusdad","address":"I710 and ALONDRA BLVD Los Angeles CA"},"type":"Feature","geometry":{"type":"Point","coordinates":[-118.168494,34.04713]}},{"properties":{"latitude":34.05329,"accidentcount":9.0,"longitude":-118.245009,"id":"a632bqtw21rm","address":"I405 ON SHERMAN WY Los Angeles CA"},"type":"Feature","geometry":{"type":"Point","coordinates":[-118.245009,34.05329]}},{"properties":{"latitude":33.95292,"accidentcount":9.0,"longitude":-118.089969,"id":"a632bqn71d73","address":"DEL AMO BLVD and I605 Santa Fe Springs CA"},"type":"Feature","geometry":{"type":"Point","coordinates":[-118.089969,33.95292]}},{"properties":{"latitude":34.387,"accidentcount":9.0,"longitude":-118.538499,"id":"a632bqylre51","address":"I210 and I5 Newhall CA"},"type":"Feature","geometry":{"type":"Point","coordinates":[-118.538499,34.387]}},{"properties":{"latitude":35.028889,"accidentcount":10.0,"longitude":-118.014771,"id":"a632bqlhgcfg","address":"80TH ST E and AVENUE G Antelope Valley CA"},"type":"Feature","geometry":{"type":"Point","coordinates":[-118.014771,35.028889]}},{"properties":{"latitude":33.22227,"accidentcount":11.0,"longitude":-117.039187,"id":"a632br03poa3","address":"ANTELOPE VALLEY AREA Antelope Valley CA"},"type":"Feature","geometry":{"type":"Point","coordinates":[-117.039187,33.22227]}},{"properties":{"latitude":33.94593,"accidentcount":11.0,"longitude":-118.082489,"id":"a632bqt2bio8","address":"I105 and GARFIELD AV Santa Fe Springs CA"},"type":"Feature","geometry":{"type":"Point","coordinates":[-118.082489,33.94593]}},{"properties":{"latitude":34.085189,"accidentcount":13.0,"longitude":-117.960296,"id":"a632bqtt279j","address":"I10 and KELLOGG DR Baldwin Park CA"},"type":"Feature","geometry":{"type":"Point","coordinates":[-117.960296,34.085189]}},{"properties":{"latitude":34.185405,"accidentcount":19.0,"longitude":-118.131529,"id":"a632bqmz12ng","address":"ANGELES CREST highway Altadena CA"},"type":"Feature","geometry":{"type":"Point","coordinates":[-118.131529,34.185405]}},{"properties":{"latitude":34.05331,"accidentcount":59.0,"longitude":-118.245003,"id":"a632bqw6ipvq","address":"10 FROM ATLANTIC and GARFIELD Los Angeles CA"},"type":"Feature","geometry":{"type":"Point","coordinates":[-118.245003,34.05331]}}],"is_temporal":false,"author":{"url":"","metadata":"","contact_name":"","contact_address":"","source":"","contact_phone":""},"source":"","pagination":{"sort":null,"start":0,"total":160,"limit":1000000},"state":"complete","tags":"traffic","published":"2014-08-10T16:45:00-04:00","id":13586}