{"type":"FeatureCollection","data_type":"Dataset","url_type":null,"permissions":[{"permissions":{"download":true,"view":true},"group_id":"everyone"}],"classification":null,"title":"Airports1","count":16,"stream_id":13590,"contributor":{"url":"http://geocommons.com/users/6861","name":"pbiegen"},"data_attributes":null,"calculation_params":null,"icon_link":null,"link":"http://geocommons.com/overlays/13590.json","extent":[-122.676,29.7605,-71.0567,47.6036],"geometry_types":["point"],"unique_name":null,"name":"Airports1","feature_count":16,"description":"","next_feature":null,"is_raster":false,"short_classification":"Y","stats":{"latitude":{"max":47.60358,"mean":39.3535336875,"variance":25.651939676851,"stdev":5.06477439545446,"min":29.76045,"median":40.73197},"weight":{"max":10.0,"mean":10.0,"variance":0.0,"stdev":0.0,"min":10.0,"median":10.0},"longitude":{"max":-71.056699,"mean":-93.3949843125,"variance":336.833320214272,"stdev":18.3530193759575,"min":-122.675629,"median":-87.632409}},"features":[{"properties":{"name":"FedEx","city":"Memphis","latitude":35.149657,"weight":10.0,"longitude":-90.048913,"id":"a63n5i3wu1qa","state":"TN"},"type":"Feature","geometry":{"type":"Point","coordinates":[-90.048913,35.149657]}},{"properties":{"name":"From Narita","city":"Minneapolis","latitude":44.979035,"weight":10.0,"longitude":-93.264929,"id":"a63n5i17tdkk","state":"MN"},"type":"Feature","geometry":{"type":"Point","coordinates":[-93.264929,44.979035]}},{"properties":{"name":"From Narita","city":"Atlanta","latitude":33.748315,"weight":10.0,"longitude":-84.391109,"id":"a63n5i7d4eck","state":"GA"},"type":"Feature","geometry":{"type":"Point","coordinates":[-84.391109,33.748315]}},{"properties":{"name":"From Narita","city":"Boston","latitude":42.358635,"weight":10.0,"longitude":-71.056699,"id":"a63n5i35ry8q","state":"MA"},"type":"Feature","geometry":{"type":"Point","coordinates":[-71.056699,42.358635]}},{"properties":{"name":"From Narita","city":"Chicago","latitude":41.88415,"weight":10.0,"longitude":-87.632409,"id":"a63n5hyki3rx","state":"IL"},"type":"Feature","geometry":{"type":"Point","coordinates":[-87.632409,41.88415]}},{"properties":{"name":"From Narita","city":"Dallas","latitude":32.778155,"weight":10.0,"longitude":-96.795404,"id":"a63n5hwz0ptx","state":"TX"},"type":"Feature","geometry":{"type":"Point","coordinates":[-96.795404,32.778155]}},{"properties":{"name":"From Narita","city":"Houston","latitude":29.76045,"weight":10.0,"longitude":-95.369784,"id":"a63n5i1s56c5","state":"TX"},"type":"Feature","geometry":{"type":"Point","coordinates":[-95.369784,29.76045]}},{"properties":{"name":"From Narita","city":"Cleveland","latitude":41.504365,"weight":10.0,"longitude":-81.690459,"id":"a63n5i0yy0qc","state":"OH"},"type":"Feature","geometry":{"type":"Point","coordinates":[-81.690459,41.504365]}},{"properties":{"name":"From Narita","city":"Romulus","latitude":42.22183,"weight":10.0,"longitude":-83.385339,"id":"a63n5hugjmdd","state":"MI"},"type":"Feature","geometry":{"type":"Point","coordinates":[-83.385339,42.22183]}},{"properties":{"name":"From Narita","city":"Seattle","latitude":47.60358,"weight":10.0,"longitude":-122.329454,"id":"a63n5i5rr9be","state":"WA"},"type":"Feature","geometry":{"type":"Point","coordinates":[-122.329454,47.60358]}},{"properties":{"name":"From Narita","city":"Portland","latitude":45.511795,"weight":10.0,"longitude":-122.675629,"id":"a63n5i38dh47","state":"OR"},"type":"Feature","geometry":{"type":"Point","coordinates":[-122.675629,45.511795]}},{"properties":{"name":"From Narita","city":"Washington","latitude":38.89037,"weight":10.0,"longitude":-77.031959,"id":"a63n5i0ph0z2","state":"DC"},"type":"Feature","geometry":{"type":"Point","coordinates":[-77.031959,38.89037]}},{"properties":{"name":"From Narita","city":"Newark","latitude":40.73197,"weight":10.0,"longitude":-74.174184,"id":"a63n5i2buw45","state":"NJ"},"type":"Feature","geometry":{"type":"Point","coordinates":[-74.174184,40.73197]}},{"properties":{"name":"From Narita/Shanghai","city":"San Francisco","latitude":37.77916,"weight":10.0,"longitude":-122.420049,"id":"a63n5hz0oh57","state":"CA"},"type":"Feature","geometry":{"type":"Point","coordinates":[-122.420049,37.77916]}},{"properties":{"name":"From Narita/Shanghai","city":"Los Angeles","latitude":34.05329,"weight":10.0,"longitude":-118.245009,"id":"a63n5hx2terz","state":"CA"},"type":"Feature","geometry":{"type":"Point","coordinates":[-118.245009,34.05329]}},{"properties":{"name":"From Narita/Shanghai","city":"JAMAICA","latitude":40.701782,"weight":10.0,"longitude":-73.80842,"id":"a63n5i7n1cn5","state":"NY"},"type":"Feature","geometry":{"type":"Point","coordinates":[-73.80842,40.701782]}}],"is_temporal":false,"author":{"url":"","metadata":"","contact_name":"","contact_address":"","source":"","contact_phone":""},"source":"","pagination":{"sort":null,"start":0,"total":16,"limit":1000000},"state":"complete","tags":"airports","published":"2014-08-10T16:45:11-04:00","id":13590}