{"type":"FeatureCollection","data_type":"Dataset","url_type":null,"permissions":[{"permissions":{"download":true,"view":true},"group_id":"everyone"}],"classification":null,"title":"Demand by Shipment Qty","count":176,"stream_id":13639,"contributor":{"url":"http://geocommons.com/users/6861","name":"pbiegen"},"data_attributes":null,"calculation_params":null,"icon_link":null,"link":"http://geocommons.com/overlays/13639.json","extent":[-123.089,20.6876,-70.2796,48.1191],"geometry_types":["point"],"unique_name":null,"name":"Demand by Shipment Qty","feature_count":176,"description":"","next_feature":null,"is_raster":false,"short_classification":"Y","stats":{"latitude":{"max":48.11913,"mean":38.2134001988636,"variance":30.2883245345344,"stdev":5.50348294578391,"min":20.68759,"median":39.801055},"weight":{"max":948655.0,"mean":12803.5,"variance":6138218496.61714,"stdev":78346.783575442,"min":1.0,"median":34.0},"longitude":{"max":-70.279634,"mean":-91.1403204943182,"variance":232.951050753418,"stdev":15.2627340523714,"min":-123.088919,"median":-87.855064}},"features":[{"properties":{"name":"Optrex","city":"Albuquerque","latitude":35.08418,"weight":1.0,"longitude":-106.648639,"id":"a6439g0rljj3","state":"NM"},"type":"Feature","geometry":{"type":"Point","coordinates":[-106.648639,35.08418]}},{"properties":{"name":"Optrex","city":"ALPHARETTA","latitude":34.07537,"weight":52.0,"longitude":-84.294554,"id":"a6439fzz5wi5","state":"GA"},"type":"Feature","geometry":{"type":"Point","coordinates":[-84.294554,34.07537]}},{"properties":{"name":"Optrex","city":"American Fork","latitude":40.37782,"weight":1.0,"longitude":-111.797479,"id":"a6439g2ndryl","state":"UT"},"type":"Feature","geometry":{"type":"Point","coordinates":[-111.797479,40.37782]}},{"properties":{"name":"Optrex","city":"Ames","latitude":42.025345,"weight":1617.0,"longitude":-93.620199,"id":"a6439g9xni0i","state":"IA"},"type":"Feature","geometry":{"type":"Point","coordinates":[-93.620199,42.025345]}},{"properties":{"name":"Optrex","city":"Ann Arbor","latitude":42.281875,"weight":14.0,"longitude":-83.748479,"id":"a6439g33ypc4","state":"MI"},"type":"Feature","geometry":{"type":"Point","coordinates":[-83.748479,42.281875]}},{"properties":{"name":"Optrex","city":"ARLINGTON","latitude":32.7356,"weight":1.0,"longitude":-97.107719,"id":"a6439fxsobwu","state":"TX"},"type":"Feature","geometry":{"type":"Point","coordinates":[-97.107719,32.7356]}},{"properties":{"name":"Optrex","city":"ASHEVILLE","latitude":35.59846,"weight":9.0,"longitude":-82.553144,"id":"a6439gajxjq0","state":"NC"},"type":"Feature","geometry":{"type":"Point","coordinates":[-82.553144,35.59846]}},{"properties":{"name":"Optrex","city":"Auburn Hills","latitude":42.671125,"weight":176.0,"longitude":-83.220534,"id":"a6439g1zj1nt","state":"MI"},"type":"Feature","geometry":{"type":"Point","coordinates":[-83.220534,42.671125]}},{"properties":{"name":"Optrex","city":"Austin","latitude":30.267605,"weight":45.0,"longitude":-97.742984,"id":"a6439fzny659","state":"TX"},"type":"Feature","geometry":{"type":"Point","coordinates":[-97.742984,30.267605]}},{"properties":{"name":"Optrex","city":"Baltimore","latitude":39.290555,"weight":30.0,"longitude":-76.609604,"id":"a6439fxg1fuj","state":"MD"},"type":"Feature","geometry":{"type":"Point","coordinates":[-76.609604,39.290555]}},{"properties":{"name":"Optrex","city":"Beaverton","latitude":45.484895,"weight":225.0,"longitude":-122.796153,"id":"a6439fx8epm8","state":"OR"},"type":"Feature","geometry":{"type":"Point","coordinates":[-122.796153,45.484895]}},{"properties":{"name":"Optrex","city":"Bothell","latitude":47.76137,"weight":3420.0,"longitude":-122.205624,"id":"a6439g64bu61","state":"WA"},"type":"Feature","geometry":{"type":"Point","coordinates":[-122.205624,47.76137]}},{"properties":{"name":"Optrex","city":"Boulder","latitude":40.01574,"weight":116.0,"longitude":-105.279239,"id":"a6439g95mde8","state":"CO"},"type":"Feature","geometry":{"type":"Point","coordinates":[-105.279239,40.01574]}},{"properties":{"name":"Optrex","city":"BOWLING GREEN","latitude":36.994625,"weight":20.0,"longitude":-86.445584,"id":"a6439g1o7t93","state":"KY"},"type":"Feature","geometry":{"type":"Point","coordinates":[-86.445584,36.994625]}},{"properties":{"name":"Optrex","city":"Brandon","latitude":27.94017,"weight":10.0,"longitude":-82.325474,"id":"a6439g7jng1s","state":"FL"},"type":"Feature","geometry":{"type":"Point","coordinates":[-82.325474,27.94017]}},{"properties":{"name":"Optrex","city":"Bridgeton","latitude":38.755296,"weight":3.0,"longitude":-90.406752,"id":"a6439g47s02j","state":"MO"},"type":"Feature","geometry":{"type":"Point","coordinates":[-90.406752,38.755296]}},{"properties":{"name":"Optrex","city":"Brighton","latitude":42.530745,"weight":1.0,"longitude":-83.785114,"id":"a6439g7lpsn0","state":"MI"},"type":"Feature","geometry":{"type":"Point","coordinates":[-83.785114,42.530745]}},{"properties":{"name":"Optrex","city":"BROWNSBORO","latitude":34.753962,"weight":2.0,"longitude":-86.436977,"id":"a6439g1akl2j","state":"AL"},"type":"Feature","geometry":{"type":"Point","coordinates":[-86.436977,34.753962]}},{"properties":{"name":"Optrex","city":"Budd Lake","latitude":40.864909,"weight":2.0,"longitude":-74.736001,"id":"a6439g3126w7","state":"NJ"},"type":"Feature","geometry":{"type":"Point","coordinates":[-74.736001,40.864909]}},{"properties":{"name":"Optrex","city":"Burlington","latitude":42.505832,"weight":3.0,"longitude":-71.19376,"id":"a6439g3k1pkb","state":"MA"},"type":"Feature","geometry":{"type":"Point","coordinates":[-71.19376,42.505832]}},{"properties":{"name":"Optrex","city":"Burnsville","latitude":44.76562,"weight":20.0,"longitude":-93.27419,"id":"a6439g1j8h5v","state":"MN"},"type":"Feature","geometry":{"type":"Point","coordinates":[-93.27419,44.76562]}},{"properties":{"name":"Optrex","city":"Caldwell","latitude":40.837894,"weight":1008.0,"longitude":-74.274469,"id":"a6439g9608f6","state":"NJ"},"type":"Feature","geometry":{"type":"Point","coordinates":[-74.274469,40.837894]}},{"properties":{"name":"Optrex","city":"Canby","latitude":45.262835,"weight":62.0,"longitude":-122.694164,"id":"a6439gam3vng","state":"OR"},"type":"Feature","geometry":{"type":"Point","coordinates":[-122.694164,45.262835]}},{"properties":{"name":"Optrex","city":"Cedar Rapids","latitude":41.976345,"weight":1.0,"longitude":-91.673759,"id":"a6439fvvvm4w","state":"IA"},"type":"Feature","geometry":{"type":"Point","coordinates":[-91.673759,41.976345]}},{"properties":{"name":"Optrex","city":"CELINA","latitude":33.324015,"weight":1.0,"longitude":-96.786599,"id":"a6439ga1h4d3","state":"TX"},"type":"Feature","geometry":{"type":"Point","coordinates":[-96.786599,33.324015]}},{"properties":{"name":"Optrex","city":"Chandler","latitude":33.30288,"weight":39929.0,"longitude":-111.840839,"id":"a6439fzi9c7v","state":"AZ"},"type":"Feature","geometry":{"type":"Point","coordinates":[-111.840839,33.30288]}},{"properties":{"name":"Optrex","city":"Chanhassen","latitude":44.863205,"weight":82.0,"longitude":-93.537914,"id":"a6439fxrlfxz","state":"MN"},"type":"Feature","geometry":{"type":"Point","coordinates":[-93.537914,44.863205]}},{"properties":{"name":"Optrex","city":"CHARLOTTE","latitude":35.2225,"weight":1.0,"longitude":-80.837539,"id":"a6439gaonr88","state":"NC"},"type":"Feature","geometry":{"type":"Point","coordinates":[-80.837539,35.2225]}},{"properties":{"name":"Optrex","city":"Chatsworth","latitude":34.257245,"weight":1.0,"longitude":-118.591844,"id":"a6439fz1ftu9","state":"CA"},"type":"Feature","geometry":{"type":"Point","coordinates":[-118.591844,34.257245]}},{"properties":{"name":"Optrex","city":"Chelmsford","latitude":42.59827,"weight":1500.0,"longitude":-71.346839,"id":"a6439g0gfezn","state":"MA"},"type":"Feature","geometry":{"type":"Point","coordinates":[-71.346839,42.59827]}},{"properties":{"name":"Optrex","city":"Clearwater","latitude":27.9656,"weight":4.0,"longitude":-82.799764,"id":"a6439g1dlimy","state":"FL"},"type":"Feature","geometry":{"type":"Point","coordinates":[-82.799764,27.9656]}},{"properties":{"name":"Optrex","city":"Coeur d'Alene","latitude":47.671866,"weight":4165.0,"longitude":-116.776166,"id":"a6439g4axbuj","state":"ID"},"type":"Feature","geometry":{"type":"Point","coordinates":[-116.776166,47.671866]}},{"properties":{"name":"Optrex","city":"College Station","latitude":30.620545,"weight":2.0,"longitude":-96.325904,"id":"a6439g4fmijl","state":"TX"},"type":"Feature","geometry":{"type":"Point","coordinates":[-96.325904,30.620545]}},{"properties":{"name":"Optrex","city":"Colorado Springs","latitude":38.83311,"weight":21.0,"longitude":-104.821729,"id":"a6439fwf9ro9","state":"CO"},"type":"Feature","geometry":{"type":"Point","coordinates":[-104.821729,38.83311]}},{"properties":{"name":"Optrex","city":"Columbia","latitude":39.209161,"weight":8.0,"longitude":-76.867313,"id":"a6439g8wvr07","state":"MD"},"type":"Feature","geometry":{"type":"Point","coordinates":[-76.867313,39.209161]}},{"properties":{"name":"Optrex","city":"Costa Mesa","latitude":33.66388,"weight":1.0,"longitude":-117.903424,"id":"a6439fxz226m","state":"CA"},"type":"Feature","geometry":{"type":"Point","coordinates":[-117.903424,33.66388]}},{"properties":{"name":"Optrex","city":"Cupertino","latitude":37.31884,"weight":10186.0,"longitude":-122.029244,"id":"a6439gan3m1w","state":"CA"},"type":"Feature","geometry":{"type":"Point","coordinates":[-122.029244,37.31884]}},{"properties":{"name":"Optrex","city":"Dallas","latitude":32.778155,"weight":11.0,"longitude":-96.795404,"id":"a6439g284e5w","state":"TX"},"type":"Feature","geometry":{"type":"Point","coordinates":[-96.795404,32.778155]}},{"properties":{"name":"Optrex","city":"Denver","latitude":39.74001,"weight":8.0,"longitude":-104.992259,"id":"a6439g12w3d7","state":"CO"},"type":"Feature","geometry":{"type":"Point","coordinates":[-104.992259,39.74001]}},{"properties":{"name":"Optrex","city":"Dublin","latitude":40.104895,"weight":1.0,"longitude":-83.133119,"id":"a6439g0jmsss","state":"OH"},"type":"Feature","geometry":{"type":"Point","coordinates":[-83.133119,40.104895]}},{"properties":{"name":"Optrex","city":"Duluth","latitude":34.003365,"weight":221.0,"longitude":-84.144964,"id":"a6439g1bz582","state":"GA"},"type":"Feature","geometry":{"type":"Point","coordinates":[-84.144964,34.003365]}},{"properties":{"name":"Optrex","city":"Eatontown","latitude":40.305131,"weight":102.0,"longitude":-74.058702,"id":"a6439g4cdcnw","state":"NJ"},"type":"Feature","geometry":{"type":"Point","coordinates":[-74.058702,40.305131]}},{"properties":{"name":"Optrex","city":"Edison","latitude":40.526798,"weight":130.0,"longitude":-74.39357,"id":"a6439g1rdiuh","state":"NJ"},"type":"Feature","geometry":{"type":"Point","coordinates":[-74.39357,40.526798]}},{"properties":{"name":"Optrex","city":"Edmonton","latitude":36.979335,"weight":100.0,"longitude":-85.610864,"id":"a6439fv9p0mj","state":"KY"},"type":"Feature","geometry":{"type":"Point","coordinates":[-85.610864,36.979335]}},{"properties":{"name":"Optrex","city":"El Paso","latitude":31.759165,"weight":32175.0,"longitude":-106.487494,"id":"a6439g43qvmy","state":"TX"},"type":"Feature","geometry":{"type":"Point","coordinates":[-106.487494,31.759165]}},{"properties":{"name":"Optrex","city":"El Segundo","latitude":33.919925,"weight":467.0,"longitude":-118.415964,"id":"a6439g0f5hlt","state":"CA"},"type":"Feature","geometry":{"type":"Point","coordinates":[-118.415964,33.919925]}},{"properties":{"name":"Optrex","city":"Elgin","latitude":42.039565,"weight":8963.0,"longitude":-88.283244,"id":"a6439fz6c6us","state":"IL"},"type":"Feature","geometry":{"type":"Point","coordinates":[-88.283244,42.039565]}},{"properties":{"name":"Optrex","city":"Elk Grove Village","latitude":42.002816,"weight":2304.0,"longitude":-88.009045,"id":"a6439fuscjma","state":"IL"},"type":"Feature","geometry":{"type":"Point","coordinates":[-88.009045,42.002816]}},{"properties":{"name":"Optrex","city":"Eufaula","latitude":31.89499,"weight":62489.0,"longitude":-85.145856,"id":"a6439g7h3z8p","state":"AL"},"type":"Feature","geometry":{"type":"Point","coordinates":[-85.145856,31.89499]}},{"properties":{"name":"Optrex","city":"Eugene","latitude":44.04991,"weight":82.0,"longitude":-123.088919,"id":"a6439fxy0sgo","state":"OR"},"type":"Feature","geometry":{"type":"Point","coordinates":[-123.088919,44.04991]}},{"properties":{"name":"Optrex","city":"Everett","latitude":47.976575,"weight":1058.0,"longitude":-122.206419,"id":"a6439g1ghna1","state":"WA"},"type":"Feature","geometry":{"type":"Point","coordinates":[-122.206419,47.976575]}},{"properties":{"name":"Optrex","city":"FAIRFIELD","latitude":40.87998,"weight":1440.0,"longitude":-74.289624,"id":"a6439g01kopp","state":"NJ"},"type":"Feature","geometry":{"type":"Point","coordinates":[-74.289624,40.87998]}},{"properties":{"name":"Optrex","city":"Fishers","latitude":39.9582,"weight":1.0,"longitude":-86.017089,"id":"a6439g8n1kiw","state":"IN"},"type":"Feature","geometry":{"type":"Point","coordinates":[-86.017089,39.9582]}},{"properties":{"name":"Optrex","city":"Fort Lauderdale","latitude":26.12367,"weight":200.0,"longitude":-80.143564,"id":"a6439g37gccy","state":"FL"},"type":"Feature","geometry":{"type":"Point","coordinates":[-80.143564,26.12367]}},{"properties":{"name":"Optrex","city":"FRAMINGHAM","latitude":42.279519,"weight":1087.0,"longitude":-71.416519,"id":"a6439fvhtvtz","state":"MA"},"type":"Feature","geometry":{"type":"Point","coordinates":[-71.416519,42.279519]}},{"properties":{"name":"Optrex","city":"Fridley","latitude":45.085105,"weight":200.0,"longitude":-93.26326,"id":"a6439fx3roxk","state":"MN"},"type":"Feature","geometry":{"type":"Point","coordinates":[-93.26326,45.085105]}},{"properties":{"name":"Optrex","city":"Garnet Valley","latitude":39.931577,"weight":1.0,"longitude":-75.737501,"id":"a6439g9840jk","state":"PA"},"type":"Feature","geometry":{"type":"Point","coordinates":[-75.737501,39.931577]}},{"properties":{"name":"Optrex","city":"Glasgow","latitude":36.993505,"weight":8400.0,"longitude":-85.914044,"id":"a6439g4dqpjt","state":"KY"},"type":"Feature","geometry":{"type":"Point","coordinates":[-85.914044,36.993505]}},{"properties":{"name":"Optrex","city":"Grass Valley","latitude":39.219267,"weight":129.0,"longitude":-121.061503,"id":"a6439g8mz2jh","state":"CA"},"type":"Feature","geometry":{"type":"Point","coordinates":[-121.061503,39.219267]}},{"properties":{"name":"Optrex","city":"Great Neck","latitude":40.8007,"weight":1.0,"longitude":-73.728014,"id":"a6439g7h0wrx","state":"NY"},"type":"Feature","geometry":{"type":"Point","coordinates":[-73.728014,40.8007]}},{"properties":{"name":"Optrex","city":"Greensboro","latitude":36.068994,"weight":32.0,"longitude":-79.794704,"id":"a6439g8gxdbn","state":"NC"},"type":"Feature","geometry":{"type":"Point","coordinates":[-79.794704,36.068994]}},{"properties":{"name":"Optrex","city":"Greenville","latitude":34.84802,"weight":52.0,"longitude":-82.400219,"id":"a6439fzz1yij","state":"SC"},"type":"Feature","geometry":{"type":"Point","coordinates":[-82.400219,34.84802]}},{"properties":{"name":"Optrex","city":"Guadalajara","latitude":20.68759,"weight":132055.0,"longitude":-103.351079,"id":"a6439g5564mm","state":"MEX"},"type":"Feature","geometry":{"type":"Point","coordinates":[-103.351079,20.68759]}},{"properties":{"name":"Optrex","city":"Hanover","latitude":42.1165,"weight":60.0,"longitude":-70.844214,"id":"a6439g2hby8a","state":"MA"},"type":"Feature","geometry":{"type":"Point","coordinates":[-70.844214,42.1165]}},{"properties":{"name":"Optrex","city":"Henderson","latitude":36.03082,"weight":1.0,"longitude":-114.981094,"id":"a6439g30hea4","state":"NV"},"type":"Feature","geometry":{"type":"Point","coordinates":[-114.981094,36.03082]}},{"properties":{"name":"Optrex","city":"Hillsboro","latitude":45.522675,"weight":1.0,"longitude":-122.990499,"id":"a6439g0lbwyf","state":"OR"},"type":"Feature","geometry":{"type":"Point","coordinates":[-122.990499,45.522675]}},{"properties":{"name":"Optrex","city":"Hixson","latitude":35.16939,"weight":1400.0,"longitude":-85.181404,"id":"a6439fwij7s0","state":"TN"},"type":"Feature","geometry":{"type":"Point","coordinates":[-85.181404,35.16939]}},{"properties":{"name":"Optrex","city":"Hodgkins","latitude":41.77196,"weight":3.0,"longitude":-87.855064,"id":"a6439g00fp7n","state":"IL"},"type":"Feature","geometry":{"type":"Point","coordinates":[-87.855064,41.77196]}},{"properties":{"name":"Optrex","city":"Houston","latitude":29.76045,"weight":44.0,"longitude":-95.369784,"id":"a6439g7gr7yc","state":"TX"},"type":"Feature","geometry":{"type":"Point","coordinates":[-95.369784,29.76045]}},{"properties":{"name":"Optrex","city":"HYANNIS","latitude":41.654791,"weight":5.0,"longitude":-70.279634,"id":"a6439g7so3af","state":"MA"},"type":"Feature","geometry":{"type":"Point","coordinates":[-70.279634,41.654791]}},{"properties":{"name":"Optrex","city":"Indianapolis","latitude":39.76691,"weight":1.0,"longitude":-86.149964,"id":"a6439g615q33","state":"IN"},"type":"Feature","geometry":{"type":"Point","coordinates":[-86.149964,39.76691]}},{"properties":{"name":"Optrex","city":"IRVINE","latitude":33.686887,"weight":1411.0,"longitude":-117.825348,"id":"a6439fv4b31q","state":"CA"},"type":"Feature","geometry":{"type":"Point","coordinates":[-117.825348,33.686887]}},{"properties":{"name":"Optrex","city":"Itasca","latitude":41.971402,"weight":5.0,"longitude":-88.020627,"id":"a6439g4cyr25","state":"IL"},"type":"Feature","geometry":{"type":"Point","coordinates":[-88.020627,41.971402]}},{"properties":{"name":"Optrex","city":"Jeffersonville","latitude":38.27913,"weight":440.0,"longitude":-85.737474,"id":"a6439g8bsppc","state":"IN"},"type":"Feature","geometry":{"type":"Point","coordinates":[-85.737474,38.27913]}},{"properties":{"name":"Optrex","city":"Kimbolton","latitude":40.15329,"weight":352.0,"longitude":-81.572364,"id":"a6439fxw6ok8","state":"OH"},"type":"Feature","geometry":{"type":"Point","coordinates":[-81.572364,40.15329]}},{"properties":{"name":"Optrex","city":"KINGWOOD","latitude":30.050135,"weight":101.0,"longitude":-95.184179,"id":"a6439g76pjad","state":"TX"},"type":"Feature","geometry":{"type":"Point","coordinates":[-95.184179,30.050135]}},{"properties":{"name":"Optrex","city":"Kirkland","latitude":47.678855,"weight":4.0,"longitude":-122.207244,"id":"a6439fzno9vy","state":"WA"},"type":"Feature","geometry":{"type":"Point","coordinates":[-122.207244,47.678855]}},{"properties":{"name":"Optrex","city":"La Grange","latitude":41.813255,"weight":1.0,"longitude":-87.869564,"id":"a6439fz24ie2","state":"IL"},"type":"Feature","geometry":{"type":"Point","coordinates":[-87.869564,41.813255]}},{"properties":{"name":"Optrex","city":"LAKE FOREST","latitude":33.627647,"weight":10.0,"longitude":-117.717069,"id":"a6439g8zzspq","state":"CA"},"type":"Feature","geometry":{"type":"Point","coordinates":[-117.717069,33.627647]}},{"properties":{"name":"Optrex","city":"LAREDO","latitude":27.53092,"weight":104183.0,"longitude":-99.502009,"id":"a6439g8ip7if","state":"TX"},"type":"Feature","geometry":{"type":"Point","coordinates":[-99.502009,27.53092]}},{"properties":{"name":"Optrex","city":"Laurel","latitude":39.104915,"weight":640.0,"longitude":-76.866639,"id":"a6439fvg0837","state":"MD"},"type":"Feature","geometry":{"type":"Point","coordinates":[-76.866639,39.104915]}},{"properties":{"name":"Optrex","city":"Lebanon","latitude":40.330195,"weight":1.0,"longitude":-76.425934,"id":"a6439g4eeici","state":"PA"},"type":"Feature","geometry":{"type":"Point","coordinates":[-76.425934,40.330195]}},{"properties":{"name":"Optrex","city":"Lewisburg","latitude":35.449095,"weight":71136.0,"longitude":-86.788544,"id":"a6439g87ctc4","state":"TN"},"type":"Feature","geometry":{"type":"Point","coordinates":[-86.788544,35.449095]}},{"properties":{"name":"Optrex","city":"Lewiston","latitude":43.988025,"weight":2380.0,"longitude":-91.864214,"id":"a6439g60baei","state":"MN"},"type":"Feature","geometry":{"type":"Point","coordinates":[-91.864214,43.988025]}},{"properties":{"name":"Optrex","city":"LINCOLN","latitude":40.81362,"weight":4.0,"longitude":-96.707739,"id":"a6439g2x3s9b","state":"NE"},"type":"Feature","geometry":{"type":"Point","coordinates":[-96.707739,40.81362]}},{"properties":{"name":"Optrex","city":"Long Beach","latitude":30.353615,"weight":648.0,"longitude":-89.147274,"id":"a6439g0sfah5","state":"MS"},"type":"Feature","geometry":{"type":"Point","coordinates":[-89.147274,30.353615]}},{"properties":{"name":"Optrex","city":"Longwood","latitude":28.70015,"weight":2.0,"longitude":-81.347514,"id":"a6439g8qtxlk","state":"FL"},"type":"Feature","geometry":{"type":"Point","coordinates":[-81.347514,28.70015]}},{"properties":{"name":"Optrex","city":"Los Indios","latitude":26.0521,"weight":60141.0,"longitude":-97.744529,"id":"a6439fy80tsi","state":"TX"},"type":"Feature","geometry":{"type":"Point","coordinates":[-97.744529,26.0521]}},{"properties":{"name":"Optrex","city":"LOUISVILLE","latitude":38.25486,"weight":7572.0,"longitude":-85.766404,"id":"a6439g1mo8i9","state":"KY"},"type":"Feature","geometry":{"type":"Point","coordinates":[-85.766404,38.25486]}},{"properties":{"name":"Optrex","city":"Loveland","latitude":40.39272,"weight":99.0,"longitude":-105.073899,"id":"a6439fx7wchf","state":"CO"},"type":"Feature","geometry":{"type":"Point","coordinates":[-105.073899,40.39272]}},{"properties":{"name":"Optrex","city":"Lowell","latitude":42.64589,"weight":1.0,"longitude":-71.312844,"id":"a6439g0dcgib","state":"MA"},"type":"Feature","geometry":{"type":"Point","coordinates":[-71.312844,42.64589]}},{"properties":{"name":"Optrex","city":"MANSFIELD","latitude":32.564385,"weight":5454.0,"longitude":-97.141939,"id":"a6439g7lyqsm","state":"TX"},"type":"Feature","geometry":{"type":"Point","coordinates":[-97.141939,32.564385]}},{"properties":{"name":"Optrex","city":"Marietta","latitude":42.912604,"weight":1.0,"longitude":-76.326372,"id":"a6439g0741to","state":"NY"},"type":"Feature","geometry":{"type":"Point","coordinates":[-76.326372,42.912604]}},{"properties":{"name":"Optrex","city":"MARYVILLE","latitude":35.753555,"weight":948655.0,"longitude":-83.973644,"id":"a6439g0alf8o","state":"TN"},"type":"Feature","geometry":{"type":"Point","coordinates":[-83.973644,35.753555]}},{"properties":{"name":"Optrex","city":"McAllen","latitude":26.20742,"weight":93243.0,"longitude":-98.229364,"id":"a6439g6yf8v2","state":"TX"},"type":"Feature","geometry":{"type":"Point","coordinates":[-98.229364,26.20742]}},{"properties":{"name":"Optrex","city":"Melbourne","latitude":28.07939,"weight":92.0,"longitude":-80.606884,"id":"a6439g80rxio","state":"FL"},"type":"Feature","geometry":{"type":"Point","coordinates":[-80.606884,28.07939]}},{"properties":{"name":"Optrex","city":"Mendota Heights","latitude":44.884081,"weight":4.0,"longitude":-93.149348,"id":"a6439g5f6gk6","state":"MN"},"type":"Feature","geometry":{"type":"Point","coordinates":[-93.149348,44.884081]}},{"properties":{"name":"Optrex","city":"MIAMI","latitude":25.728985,"weight":13648.0,"longitude":-80.237419,"id":"a6439g9op62y","state":"FL"},"type":"Feature","geometry":{"type":"Point","coordinates":[-80.237419,25.728985]}},{"properties":{"name":"Optrex","city":"Minden","latitude":38.95498,"weight":1.0,"longitude":-119.765709,"id":"a6439g7rw4w4","state":"NV"},"type":"Feature","geometry":{"type":"Point","coordinates":[-119.765709,38.95498]}},{"properties":{"name":"Optrex","city":"Minneapolis","latitude":44.979035,"weight":200.0,"longitude":-93.264929,"id":"a6439g8okibq","state":"MN"},"type":"Feature","geometry":{"type":"Point","coordinates":[-93.264929,44.979035]}},{"properties":{"name":"Optrex","city":"Monroe","latitude":41.334161,"weight":8.0,"longitude":-73.206135,"id":"a6439g2rhatn","state":"CT"},"type":"Feature","geometry":{"type":"Point","coordinates":[-73.206135,41.334161]}},{"properties":{"name":"Optrex","city":"MORTON","latitude":40.610668,"weight":10.0,"longitude":-89.46152,"id":"a6439fzf7sb0","state":"IL"},"type":"Feature","geometry":{"type":"Point","coordinates":[-89.46152,40.610668]}},{"properties":{"name":"Optrex","city":"NEW ATHENS","latitude":38.317518,"weight":1995.0,"longitude":-89.871627,"id":"a6439g0jkkgx","state":"IL"},"type":"Feature","geometry":{"type":"Point","coordinates":[-89.871627,38.317518]}},{"properties":{"name":"Optrex","city":"New Smyrna Beach","latitude":29.02692,"weight":1.0,"longitude":-80.922894,"id":"a6439g2p90zt","state":"FL"},"type":"Feature","geometry":{"type":"Point","coordinates":[-80.922894,29.02692]}},{"properties":{"name":"Optrex","city":"North Bay Village","latitude":25.84867,"weight":1.0,"longitude":-80.152364,"id":"a6439g7smh94","state":"FL"},"type":"Feature","geometry":{"type":"Point","coordinates":[-80.152364,25.84867]}},{"properties":{"name":"Optrex","city":"Northridge","latitude":34.234773,"weight":1072.0,"longitude":-118.533879,"id":"a6439fvrpgdz","state":"CA"},"type":"Feature","geometry":{"type":"Point","coordinates":[-118.533879,34.234773]}},{"properties":{"name":"Optrex","city":"Norwood","latitude":42.19562,"weight":22.0,"longitude":-71.199909,"id":"a6439g8wh10r","state":"MA"},"type":"Feature","geometry":{"type":"Point","coordinates":[-71.199909,42.19562]}},{"properties":{"name":"Optrex","city":"OCALA","latitude":29.187525,"weight":87.0,"longitude":-82.140394,"id":"a6439gap2tql","state":"FL"},"type":"Feature","geometry":{"type":"Point","coordinates":[-82.140394,29.187525]}},{"properties":{"name":"Optrex","city":"Oklahoma City","latitude":35.472005,"weight":3.0,"longitude":-97.520334,"id":"a6439fzbr6tw","state":"OK"},"type":"Feature","geometry":{"type":"Point","coordinates":[-97.520334,35.472005]}},{"properties":{"name":"Optrex","city":"Olathe","latitude":38.88353,"weight":2845.0,"longitude":-94.818874,"id":"a6439g2qhb9h","state":"KS"},"type":"Feature","geometry":{"type":"Point","coordinates":[-94.818874,38.88353]}},{"properties":{"name":"Optrex","city":"Orlando","latitude":28.538235,"weight":3.0,"longitude":-81.377389,"id":"a6439ga5v42w","state":"FL"},"type":"Feature","geometry":{"type":"Point","coordinates":[-81.377389,28.538235]}},{"properties":{"name":"Optrex","city":"Overland Park","latitude":38.984895,"weight":1.0,"longitude":-94.671684,"id":"a6439g0rvmnt","state":"KS"},"type":"Feature","geometry":{"type":"Point","coordinates":[-94.671684,38.984895]}},{"properties":{"name":"Optrex","city":"Parsippany","latitude":40.871525,"weight":4.0,"longitude":-74.421959,"id":"a6439g18kyl2","state":"NJ"},"type":"Feature","geometry":{"type":"Point","coordinates":[-74.421959,40.871525]}},{"properties":{"name":"Optrex","city":"Paterson","latitude":40.916465,"weight":2.0,"longitude":-74.171084,"id":"a6439g6mxxpi","state":"NJ"},"type":"Feature","geometry":{"type":"Point","coordinates":[-74.171084,40.916465]}},{"properties":{"name":"Optrex","city":"PEABODY","latitude":42.52636,"weight":1373.0,"longitude":-70.928509,"id":"a6439g0kcd8j","state":"MA"},"type":"Feature","geometry":{"type":"Point","coordinates":[-70.928509,42.52636]}},{"properties":{"name":"Optrex","city":"Peachtree City","latitude":33.398935,"weight":12601.0,"longitude":-84.587694,"id":"a6439fza0buk","state":"GA"},"type":"Feature","geometry":{"type":"Point","coordinates":[-84.587694,33.398935]}},{"properties":{"name":"Optrex","city":"Pensacola","latitude":30.420845,"weight":12.0,"longitude":-87.217239,"id":"a6439galpb6r","state":"FL"},"type":"Feature","geometry":{"type":"Point","coordinates":[-87.217239,30.420845]}},{"properties":{"name":"Optrex","city":"PEWAUKEE","latitude":43.08224,"weight":1.0,"longitude":-88.259859,"id":"a6439g9etfqd","state":"WI"},"type":"Feature","geometry":{"type":"Point","coordinates":[-88.259859,43.08224]}},{"properties":{"name":"Optrex","city":"Pharr","latitude":26.194795,"weight":5400.0,"longitude":-98.183239,"id":"a6439g4h469r","state":"TX"},"type":"Feature","geometry":{"type":"Point","coordinates":[-98.183239,26.194795]}},{"properties":{"name":"Optrex","city":"Phoenix","latitude":33.44826,"weight":1600.0,"longitude":-112.075774,"id":"a6439g6swtae","state":"AZ"},"type":"Feature","geometry":{"type":"Point","coordinates":[-112.075774,33.44826]}},{"properties":{"name":"Optrex","city":"Phoenixville","latitude":40.13313,"weight":7.0,"longitude":-75.513949,"id":"a6439g1vuhu5","state":"PA"},"type":"Feature","geometry":{"type":"Point","coordinates":[-75.513949,40.13313]}},{"properties":{"name":"Optrex","city":"Pittsburgh","latitude":40.438315,"weight":150.0,"longitude":-79.997449,"id":"a6439g46liw3","state":"PA"},"type":"Feature","geometry":{"type":"Point","coordinates":[-79.997449,40.438315]}},{"properties":{"name":"Optrex","city":"Plymouth","latitude":45.018541,"weight":18.0,"longitude":-93.475052,"id":"a6439g75bxyz","state":"MN"},"type":"Feature","geometry":{"type":"Point","coordinates":[-93.475052,45.018541]}},{"properties":{"name":"Optrex","city":"Pompano Beach","latitude":26.231452,"weight":48.0,"longitude":-80.12522,"id":"a6439g1wezyx","state":"FL"},"type":"Feature","geometry":{"type":"Point","coordinates":[-80.12522,26.231452]}},{"properties":{"name":"Optrex","city":"Port Jefferson Station","latitude":40.929723,"weight":19.0,"longitude":-73.051846,"id":"a6439gavg4yk","state":"NY"},"type":"Feature","geometry":{"type":"Point","coordinates":[-73.051846,40.929723]}},{"properties":{"name":"Optrex","city":"PRINCETON","latitude":40.349855,"weight":1.0,"longitude":-74.659119,"id":"a6439fwbt94i","state":"NJ"},"type":"Feature","geometry":{"type":"Point","coordinates":[-74.659119,40.349855]}},{"properties":{"name":"Optrex","city":"Prospect Heights","latitude":42.09643,"weight":1.0,"longitude":-87.936769,"id":"a6439fwtv86c","state":"IL"},"type":"Feature","geometry":{"type":"Point","coordinates":[-87.936769,42.09643]}},{"properties":{"name":"Optrex","city":"RENTON","latitude":47.475237,"weight":5.0,"longitude":-122.204986,"id":"a6439fzx3m4q","state":"WA"},"type":"Feature","geometry":{"type":"Point","coordinates":[-122.204986,47.475237]}},{"properties":{"name":"Optrex","city":"Richardson","latitude":32.960745,"weight":4.0,"longitude":-96.732969,"id":"a6439g5otcgc","state":"TX"},"type":"Feature","geometry":{"type":"Point","coordinates":[-96.732969,32.960745]}},{"properties":{"name":"Optrex","city":"Rochester","latitude":43.1555,"weight":962.0,"longitude":-77.616033,"id":"a6439g2mtxum","state":"NY"},"type":"Feature","geometry":{"type":"Point","coordinates":[-77.616033,43.1555]}},{"properties":{"name":"Optrex","city":"Rock Hill","latitude":34.92399,"weight":18.0,"longitude":-81.026654,"id":"a6439g3hnmbk","state":"SC"},"type":"Feature","geometry":{"type":"Point","coordinates":[-81.026654,34.92399]}},{"properties":{"name":"Optrex","city":"ROHNERT PARK","latitude":38.343688,"weight":1516.0,"longitude":-122.712119,"id":"a6439ga8f5fn","state":"CA"},"type":"Feature","geometry":{"type":"Point","coordinates":[-122.712119,38.343688]}},{"properties":{"name":"Optrex","city":"Romeo","latitude":42.802595,"weight":1.0,"longitude":-83.014019,"id":"a6439g5mqpt4","state":"MI"},"type":"Feature","geometry":{"type":"Point","coordinates":[-83.014019,42.802595]}},{"properties":{"name":"Optrex","city":"Ronkonkoma","latitude":40.81122,"weight":79424.0,"longitude":-73.098744,"id":"a6439gastjpu","state":"NY"},"type":"Feature","geometry":{"type":"Point","coordinates":[-73.098744,40.81122]}},{"properties":{"name":"Optrex","city":"Saint Charles","latitude":38.782435,"weight":1.0,"longitude":-90.482079,"id":"a6439fzvww4n","state":"MO"},"type":"Feature","geometry":{"type":"Point","coordinates":[-90.482079,38.782435]}},{"properties":{"name":"Optrex","city":"Saint Paul","latitude":44.943829,"weight":6880.0,"longitude":-93.093326,"id":"a6439fups5x3","state":"MN"},"type":"Feature","geometry":{"type":"Point","coordinates":[-93.093326,44.943829]}},{"properties":{"name":"Optrex","city":"Salem","latitude":37.293668,"weight":1.0,"longitude":-80.053093,"id":"a6439g05mzj1","state":"VA"},"type":"Feature","geometry":{"type":"Point","coordinates":[-80.053093,37.293668]}},{"properties":{"name":"Optrex","city":"Saline","latitude":42.168285,"weight":10.0,"longitude":-83.779119,"id":"a6439g1o7dm0","state":"MI"},"type":"Feature","geometry":{"type":"Point","coordinates":[-83.779119,42.168285]}},{"properties":{"name":"Optrex","city":"San Diego","latitude":32.715685,"weight":18309.0,"longitude":-117.161724,"id":"a6439g2vqe38","state":"CA"},"type":"Feature","geometry":{"type":"Point","coordinates":[-117.161724,32.715685]}},{"properties":{"name":"Optrex","city":"San Jose","latitude":37.338475,"weight":109.0,"longitude":-121.885794,"id":"a6439g9rekaj","state":"CA"},"type":"Feature","geometry":{"type":"Point","coordinates":[-121.885794,37.338475]}},{"properties":{"name":"Optrex","city":"Santa Clara","latitude":37.355509,"weight":20.0,"longitude":-121.954262,"id":"a6439g5qzy8g","state":"CA"},"type":"Feature","geometry":{"type":"Point","coordinates":[-121.954262,37.355509]}},{"properties":{"name":"Optrex","city":"Schenectady","latitude":42.812261,"weight":9.0,"longitude":-73.941017,"id":"a6439g2hfmyp","state":"NY"},"type":"Feature","geometry":{"type":"Point","coordinates":[-73.941017,42.812261]}},{"properties":{"name":"Optrex","city":"Scottsdale","latitude":33.49401,"weight":961.0,"longitude":-111.921409,"id":"a6439g9hjl61","state":"AZ"},"type":"Feature","geometry":{"type":"Point","coordinates":[-111.921409,33.49401]}},{"properties":{"name":"Optrex","city":"Seymour","latitude":41.394897,"weight":40.0,"longitude":-73.073981,"id":"a6439fvz2q67","state":"CT"},"type":"Feature","geometry":{"type":"Point","coordinates":[-73.073981,41.394897]}},{"properties":{"name":"Optrex","city":"Shawnee Mission","latitude":39.015442,"weight":288.0,"longitude":-94.651176,"id":"a6439g7081ri","state":"KS"},"type":"Feature","geometry":{"type":"Point","coordinates":[-94.651176,39.015442]}},{"properties":{"name":"Optrex","city":"Shrewsbury","latitude":42.290475,"weight":560.0,"longitude":-71.721989,"id":"a6439g0dbvwq","state":"MA"},"type":"Feature","geometry":{"type":"Point","coordinates":[-71.721989,42.290475]}},{"properties":{"name":"Optrex","city":"South Windsor","latitude":41.829412,"weight":301.0,"longitude":-72.554497,"id":"a6439fwgxsfu","state":"CT"},"type":"Feature","geometry":{"type":"Point","coordinates":[-72.554497,41.829412]}},{"properties":{"name":"Optrex","city":"Southaven","latitude":34.98794,"weight":8581.0,"longitude":-90.004849,"id":"a6439gb5bn5e","state":"MS"},"type":"Feature","geometry":{"type":"Point","coordinates":[-90.004849,34.98794]}},{"properties":{"name":"Optrex","city":"Southborough","latitude":42.305764,"weight":18.0,"longitude":-71.531945,"id":"a6439g96e2zn","state":"MA"},"type":"Feature","geometry":{"type":"Point","coordinates":[-71.531945,42.305764]}},{"properties":{"name":"Optrex","city":"Southfield","latitude":42.481755,"weight":61.0,"longitude":-83.240929,"id":"a6439g9zmraj","state":"MI"},"type":"Feature","geometry":{"type":"Point","coordinates":[-83.240929,42.481755]}},{"properties":{"name":"Optrex","city":"Spring Lake","latitude":43.076655,"weight":1620.0,"longitude":-86.189784,"id":"a6439fydvcbd","state":"MI"},"type":"Feature","geometry":{"type":"Point","coordinates":[-86.189784,43.076655]}},{"properties":{"name":"Optrex","city":"SPRINGDALE","latitude":36.185055,"weight":2.0,"longitude":-94.130364,"id":"a6439g8wkmt9","state":"AR"},"type":"Feature","geometry":{"type":"Point","coordinates":[-94.130364,36.185055]}},{"properties":{"name":"Optrex","city":"Springfield","latitude":39.801055,"weight":34.0,"longitude":-89.643604,"id":"a6439fzukj7p","state":"IL"},"type":"Feature","geometry":{"type":"Point","coordinates":[-89.643604,39.801055]}},{"properties":{"name":"Optrex","city":"Tempe","latitude":33.42551,"weight":40.0,"longitude":-111.937419,"id":"a6439g80lc62","state":"AZ"},"type":"Feature","geometry":{"type":"Point","coordinates":[-111.937419,33.42551]}},{"properties":{"name":"Optrex","city":"Thief River Falls","latitude":48.11913,"weight":39072.0,"longitude":-96.180774,"id":"a6439g7tgs46","state":"MN"},"type":"Feature","geometry":{"type":"Point","coordinates":[-96.180774,48.11913]}},{"properties":{"name":"Optrex","city":"Tracy","latitude":37.73967,"weight":4.0,"longitude":-121.426374,"id":"a6439g77sc7e","state":"CA"},"type":"Feature","geometry":{"type":"Point","coordinates":[-121.426374,37.73967]}},{"properties":{"name":"Optrex","city":"Tully","latitude":42.79787,"weight":1.0,"longitude":-76.111488,"id":"a6439g7ruxrm","state":"NY"},"type":"Feature","geometry":{"type":"Point","coordinates":[-76.111488,42.79787]}},{"properties":{"name":"Optrex","city":"VAN BUREN TOWNSHIP","latitude":42.233715,"weight":513.0,"longitude":-83.494789,"id":"a6439g159bc9","state":"MI"},"type":"Feature","geometry":{"type":"Point","coordinates":[-83.494789,42.233715]}},{"properties":{"name":"Optrex","city":"VERSAILLES","latitude":38.052295,"weight":1.0,"longitude":-84.730404,"id":"a6439g0j832v","state":"KY"},"type":"Feature","geometry":{"type":"Point","coordinates":[-84.730404,38.052295]}},{"properties":{"name":"Optrex","city":"VISTA","latitude":33.20204,"weight":10.0,"longitude":-117.233962,"id":"a6439g2vuqjl","state":"CA"},"type":"Feature","geometry":{"type":"Point","coordinates":[-117.233962,33.20204]}},{"properties":{"name":"Optrex","city":"Wales","latitude":43.005417,"weight":2.0,"longitude":-88.37773,"id":"a6439g6fcj46","state":"WI"},"type":"Feature","geometry":{"type":"Point","coordinates":[-88.37773,43.005417]}},{"properties":{"name":"Optrex","city":"Wareham","latitude":41.759865,"weight":1.0,"longitude":-70.723729,"id":"a6439g8pcxmw","state":"MA"},"type":"Feature","geometry":{"type":"Point","coordinates":[-70.723729,41.759865]}},{"properties":{"name":"Optrex","city":"Washington","latitude":38.55354,"weight":43468.0,"longitude":-91.001079,"id":"a6439g8h7fge","state":"MO"},"type":"Feature","geometry":{"type":"Point","coordinates":[-91.001079,38.55354]}},{"properties":{"name":"Optrex","city":"Watertown","latitude":44.900588,"weight":100.0,"longitude":-97.105744,"id":"a6439fvltz2g","state":"SD"},"type":"Feature","geometry":{"type":"Point","coordinates":[-97.105744,44.900588]}},{"properties":{"name":"Optrex","city":"Wayne","latitude":40.929266,"weight":5.0,"longitude":-74.228859,"id":"a6439fzc78wg","state":"NJ"},"type":"Feature","geometry":{"type":"Point","coordinates":[-74.228859,40.929266]}},{"properties":{"name":"Optrex","city":"Webb City","latitude":37.14614,"weight":2.0,"longitude":-94.463043,"id":"a6439g2hojo8","state":"MO"},"type":"Feature","geometry":{"type":"Point","coordinates":[-94.463043,37.14614]}},{"properties":{"name":"Optrex","city":"Webster","latitude":29.533365,"weight":3.0,"longitude":-95.119139,"id":"a6439fx8hvy6","state":"TX"},"type":"Feature","geometry":{"type":"Point","coordinates":[-95.119139,29.533365]}},{"properties":{"name":"Optrex","city":"Westbrook","latitude":43.679004,"weight":5.0,"longitude":-70.338627,"id":"a6439g8jttyz","state":"ME"},"type":"Feature","geometry":{"type":"Point","coordinates":[-70.338627,43.679004]}},{"properties":{"name":"Optrex","city":"Wichita","latitude":37.68698,"weight":19.0,"longitude":-97.335579,"id":"a6439g251lt7","state":"KS"},"type":"Feature","geometry":{"type":"Point","coordinates":[-97.335579,37.68698]}},{"properties":{"name":"Optrex","city":"Willoughby","latitude":41.63891,"weight":13.0,"longitude":-81.407314,"id":"a6439g74hz89","state":"OH"},"type":"Feature","geometry":{"type":"Point","coordinates":[-81.407314,41.63891]}},{"properties":{"name":"Optrex","city":"Winona","latitude":44.051295,"weight":19291.0,"longitude":-91.638594,"id":"a6439fxcycqx","state":"MN"},"type":"Feature","geometry":{"type":"Point","coordinates":[-91.638594,44.051295]}},{"properties":{"name":"Optrex","city":"Woodbury","latitude":44.919876,"weight":2880.0,"longitude":-92.940617,"id":"a6439fygmwwt","state":"MN"},"type":"Feature","geometry":{"type":"Point","coordinates":[-92.940617,44.919876]}},{"properties":{"name":"Optrex","city":"Woodbury Heights","latitude":39.8178,"weight":1020.0,"longitude":-75.151124,"id":"a6439fw6fkgs","state":"NJ"},"type":"Feature","geometry":{"type":"Point","coordinates":[-75.151124,39.8178]}},{"properties":{"name":"Optrex","city":"Wyoming","latitude":42.9134,"weight":3.0,"longitude":-85.693289,"id":"a6439g8fly9q","state":"MI"},"type":"Feature","geometry":{"type":"Point","coordinates":[-85.693289,42.9134]}},{"properties":{"name":"Optrex","city":"YELLOW SPRINGS","latitude":39.803242,"weight":5.0,"longitude":-83.890649,"id":"a6439g4hjtzz","state":"OH"},"type":"Feature","geometry":{"type":"Point","coordinates":[-83.890649,39.803242]}},{"properties":{"name":"Optrex","city":"Zeeland","latitude":42.811855,"weight":373545.0,"longitude":-86.016519,"id":"a6439g2m76dr","state":"MI"},"type":"Feature","geometry":{"type":"Point","coordinates":[-86.016519,42.811855]}}],"is_temporal":false,"author":{"url":"","metadata":"","contact_name":"","contact_address":"","source":"","contact_phone":""},"source":"","pagination":{"sort":null,"start":0,"total":176,"limit":1000000},"state":"complete","tags":"by,demand,qty,shipment","published":"2014-08-10T16:53:10-04:00","id":13639}