{"type":"FeatureCollection","data_type":"Dataset","url_type":null,"permissions":[{"permissions":{"download":true,"view":true},"group_id":"everyone"}],"classification":null,"title":"geocode_query","count":7,"stream_id":136507,"contributor":{"url":"http://geocommons.com/users/28467","name":"bheberto"},"data_attributes":null,"calculation_params":null,"icon_link":null,"link":"http://geocommons.com/overlays/136507.json","extent":[-106.263,30.434,-78.8289,42.7738],"geometry_types":["point"],"unique_name":null,"name":"geocode_query","feature_count":7,"description":"","next_feature":null,"is_raster":false,"short_classification":"Y","stats":{},"features":[{"properties":{"city":"New York","zip":"10010","metadata1":"1","metadata2":"11","geo_score":0.514,"id":"a777wbfsenog","geo_precision":"street","address":"60 W 23rd St","state":"NY"},"type":"Feature","geometry":{"type":"Point","coordinates":[-93.1357,34.29009]}},{"properties":{"city":"City","zip":"Zip","metadata1":"Metadata1","metadata2":"Metadata2","geo_score":0.0,"id":"a777wb9l6g7h","geo_precision":"unmatched","address":"Address","state":"State"},"type":"Feature","geometry":null},{"properties":{"city":"abc","zip":"abc","metadata1":"abc","metadata2":"abc","geo_score":0.612,"id":"a777wbfm0i09","geo_precision":"city","address":"abc","state":"abc"},"type":"Feature","geometry":{"type":"Point","coordinates":[-106.262778,36.219921]}},{"properties":{"city":"Chicago","zip":"32767","metadata1":"3","metadata2":"33","geo_score":0.617,"id":"a777wbmzme4d","geo_precision":"street","address":"8900 S Lafayette Ave","state":"IL"},"type":"Feature","geometry":{"type":"Point","coordinates":[-84.255333,30.433954]}},{"properties":{"city":"Aberdeen","zip":"28315","metadata1":"4","metadata2":"44","geo_score":0.668,"id":"a777wbdt1hjl","geo_precision":"range","address":"11088 N US Hwy 15","state":"NC"},"type":"Feature","geometry":{"type":"Point","coordinates":[-83.401995,34.034991]}},{"properties":{"city":"def","zip":"def","metadata1":"def","metadata2":"def","geo_score":0.571,"id":"a777wbg5tv0k","geo_precision":"street","address":"def","state":"def"},"type":"Feature","geometry":{"type":"Point","coordinates":[-86.383226,34.078781]}},{"properties":{"city":"Abilene","zip":"32767","metadata1":"5","metadata2":"55","geo_score":0.611,"id":"a777wbgap4cl","geo_precision":"street","address":"4310 Buffalo Gap Rd","state":"TX"},"type":"Feature","geometry":{"type":"Point","coordinates":[-78.828902,42.773786]}}],"is_temporal":false,"author":{"url":"","metadata":null,"contact_name":null,"contact_address":null,"source":null,"contact_phone":null},"source":"","pagination":{"sort":null,"start":0,"total":7,"limit":1000000},"state":"complete","tags":"","published":"2014-08-13T06:12:25-04:00","id":136507}