{"type":"FeatureCollection","data_type":"Dataset","url_type":null,"permissions":[{"permissions":{"download":true,"view":true},"group_id":"everyone"}],"classification":null,"title":"zips","count":343,"stream_id":136952,"contributor":{"url":"http://geocommons.com/users/30269","name":"trevor.nohe@gmail.com"},"data_attributes":null,"calculation_params":null,"icon_link":null,"link":"http://geocommons.com/overlays/136952.json","extent":[0.0,0.0,0.0,0.0],"geometry_types":[],"unique_name":null,"name":"zips","feature_count":343,"description":"","next_feature":null,"is_raster":false,"short_classification":"Y","stats":{},"features":[{"properties":{"zip":"98103","id":"a6eqr56doal6"},"type":"Feature","geometry":null},{"properties":{"zip":"90245","id":"a6eqr5d40fjf"},"type":"Feature","geometry":null},{"properties":{"zip":"10168","id":"a6eqr54kxz4l"},"type":"Feature","geometry":null},{"properties":{"zip":"98057","id":"a6eqr5b8lhib"},"type":"Feature","geometry":null},{"properties":{"zip":"92626","id":"a6eqr52o6lmf"},"type":"Feature","geometry":null},{"properties":{"zip":"92626","id":"a6eqr52c8epo"},"type":"Feature","geometry":null},{"properties":{"zip":"92626","id":"a6eqr55eo69s"},"type":"Feature","geometry":null},{"properties":{"zip":"78730","id":"a6eqr505hbc5"},"type":"Feature","geometry":null},{"properties":{"zip":"92626","id":"a6eqr54tejbi"},"type":"Feature","geometry":null},{"properties":{"zip":"92626","id":"a6eqr59tewvc"},"type":"Feature","geometry":null},{"properties":{"zip":"92626","id":"a6eqr567e5lx"},"type":"Feature","geometry":null},{"properties":{"zip":"92626","id":"a6eqr52rmicp"},"type":"Feature","geometry":null},{"properties":{"zip":"91208","id":"a6eqr5anlwux"},"type":"Feature","geometry":null},{"properties":{"zip":"91356","id":"a6eqr53kf00q"},"type":"Feature","geometry":null},{"properties":{"zip":"91201","id":"a6eqr5eh3xsa"},"type":"Feature","geometry":null},{"properties":{"zip":"68154","id":"a6eqr5c5lwyw"},"type":"Feature","geometry":null},{"properties":{"zip":"68154","id":"a6eqr5ehcd0u"},"type":"Feature","geometry":null},{"properties":{"zip":"68154","id":"a6eqr56zbe1z"},"type":"Feature","geometry":null},{"properties":{"zip":"68154","id":"a6eqr5a3p9xk"},"type":"Feature","geometry":null},{"properties":{"zip":"21044","id":"a6eqr58c0avk"},"type":"Feature","geometry":null},{"properties":{"zip":"20705","id":"a6eqr5418us3"},"type":"Feature","geometry":null},{"properties":{"zip":"21014","id":"a6eqr57rsi5d"},"type":"Feature","geometry":null},{"properties":{"zip":"92008","id":"a6eqr56rugtf"},"type":"Feature","geometry":null},{"properties":{"zip":"20743","id":"a6eqr5agi02h"},"type":"Feature","geometry":null},{"properties":{"zip":"92626","id":"a6eqr5edw2tm"},"type":"Feature","geometry":null},{"properties":{"zip":"21152","id":"a6eqr54ay08c"},"type":"Feature","geometry":null},{"properties":{"zip":"20147","id":"a6eqr516mpcp"},"type":"Feature","geometry":null},{"properties":{"zip":"20850","id":"a6eqr566urke"},"type":"Feature","geometry":null},{"properties":{"zip":"11971","id":"a6eqr4zi95pz"},"type":"Feature","geometry":null},{"properties":{"zip":"21133","id":"a6eqr5dsa4s9"},"type":"Feature","geometry":null},{"properties":{"zip":"90094","id":"a6eqr53raold"},"type":"Feature","geometry":null},{"properties":{"zip":"33912","id":"a6eqr5361bn2"},"type":"Feature","geometry":null},{"properties":{"zip":"78730","id":"a6eqr5azvs5t"},"type":"Feature","geometry":null},{"properties":{"zip":"21158","id":"a6eqr5bbl0yg"},"type":"Feature","geometry":null},{"properties":{"zip":"19375","id":"a6eqr50c4cm1"},"type":"Feature","geometry":null},{"properties":{"zip":"45241","id":"a6eqr5dj6dqp"},"type":"Feature","geometry":null},{"properties":{"zip":"21740","id":"a6eqr58262zd"},"type":"Feature","geometry":null},{"properties":{"zip":"46516","id":"a6eqr52ve5da"},"type":"Feature","geometry":null},{"properties":{"zip":"20715","id":"a6eqr5cbikc1"},"type":"Feature","geometry":null},{"properties":{"zip":"32256","id":"a6eqr560n6tm"},"type":"Feature","geometry":null},{"properties":{"zip":"10119","id":"a6eqr5cgjijt"},"type":"Feature","geometry":null},{"properties":{"zip":"10167","id":"a6eqr542cclt"},"type":"Feature","geometry":null},{"properties":{"zip":"21136","id":"a6eqr5eiid80"},"type":"Feature","geometry":null},{"properties":{"zip":"21061","id":"a6eqr5991ocy"},"type":"Feature","geometry":null},{"properties":{"zip":"21901","id":"a6eqr5dugbtv"},"type":"Feature","geometry":null},{"properties":{"zip":"92627","id":"a6eqr541mzh6"},"type":"Feature","geometry":null},{"properties":{"zip":"92602","id":"a6eqr5cqs8bz"},"type":"Feature","geometry":null},{"properties":{"zip":"92604","id":"a6eqr5ddvwuk"},"type":"Feature","geometry":null},{"properties":{"zip":"92620","id":"a6eqr4zqmy4k"},"type":"Feature","geometry":null},{"properties":{"zip":"84020","id":"a6eqr502vwyn"},"type":"Feature","geometry":null},{"properties":{"zip":"21244","id":"a6eqr5byfc3x"},"type":"Feature","geometry":null},{"properties":{"zip":"40223","id":"a6eqr5fmv225"},"type":"Feature","geometry":null},{"properties":{"zip":"12553","id":"a6eqr5alan5v"},"type":"Feature","geometry":null},{"properties":{"zip":"7036","id":"a6eqr50o6h3g"},"type":"Feature","geometry":null},{"properties":{"zip":"7834","id":"a6eqr5b8wdbh"},"type":"Feature","geometry":null},{"properties":{"zip":"33912","id":"a6eqr502j0dd"},"type":"Feature","geometry":null},{"properties":{"zip":"90680","id":"a6eqr5cub43c"},"type":"Feature","geometry":null},{"properties":{"zip":"90621","id":"a6eqr53mxi4d"},"type":"Feature","geometry":null},{"properties":{"zip":"92614","id":"a6eqr52pf1yx"},"type":"Feature","geometry":null},{"properties":{"zip":"34236","id":"a6eqr59i51bx"},"type":"Feature","geometry":null},{"properties":{"zip":"90045","id":"a6eqr5bzea4k"},"type":"Feature","geometry":null},{"properties":{"zip":"2081","id":"a6eqr5ex3ilv"},"type":"Feature","geometry":null},{"properties":{"zip":"92683","id":"a6eqr5b0u2pw"},"type":"Feature","geometry":null},{"properties":{"zip":"95110","id":"a6eqr4zxy61l"},"type":"Feature","geometry":null},{"properties":{"zip":"2904","id":"a6eqr544i2hh"},"type":"Feature","geometry":null},{"properties":{"zip":"34232","id":"a6eqr5c71q36"},"type":"Feature","geometry":null},{"properties":{"zip":"94553","id":"a6eqr5et5krp"},"type":"Feature","geometry":null},{"properties":{"zip":"72211","id":"a6eqr58mpj5n"},"type":"Feature","geometry":null},{"properties":{"zip":"92630","id":"a6eqr4zsuk2i"},"type":"Feature","geometry":null},{"properties":{"zip":"92630","id":"a6eqr595l3im"},"type":"Feature","geometry":null},{"properties":{"zip":"92630","id":"a6eqr507h2cd"},"type":"Feature","geometry":null},{"properties":{"zip":"32216","id":"a6eqr52lno97"},"type":"Feature","geometry":null},{"properties":{"zip":"90623","id":"a6eqr5bk4i70"},"type":"Feature","geometry":null},{"properties":{"zip":"94903","id":"a6eqr549hqn1"},"type":"Feature","geometry":null},{"properties":{"zip":"20852","id":"a6eqr560glrb"},"type":"Feature","geometry":null},{"properties":{"zip":"33160","id":"a6eqr589mde2"},"type":"Feature","geometry":null},{"properties":{"zip":"66217","id":"a6eqr58j2oxr"},"type":"Feature","geometry":null},{"properties":{"zip":"94568","id":"a6eqr517jp8y"},"type":"Feature","geometry":null},{"properties":{"zip":"27522","id":"a6eqr57br1yk"},"type":"Feature","geometry":null},{"properties":{"zip":"98007","id":"a6eqr5cys5fn"},"type":"Feature","geometry":null},{"properties":{"zip":"90230","id":"a6eqr52jx7xj"},"type":"Feature","geometry":null},{"properties":{"zip":"20152","id":"a6eqr58ny47k"},"type":"Feature","geometry":null},{"properties":{"zip":"60188","id":"a6eqr54julmv"},"type":"Feature","geometry":null},{"properties":{"zip":"92660","id":"a6eqr58mmidm"},"type":"Feature","geometry":null},{"properties":{"zip":"19312","id":"a6eqr52mia89"},"type":"Feature","geometry":null},{"properties":{"zip":"90262","id":"a6eqr5680hbg"},"type":"Feature","geometry":null},{"properties":{"zip":"92807","id":"a6eqr50iv1k5"},"type":"Feature","geometry":null},{"properties":{"zip":"20878","id":"a6eqr4zuoat7"},"type":"Feature","geometry":null},{"properties":{"zip":"92660","id":"a6eqr4zzgssg"},"type":"Feature","geometry":null},{"properties":{"zip":"43623","id":"a6eqr5f1e81m"},"type":"Feature","geometry":null},{"properties":{"zip":"60448","id":"a6eqr5a9ypcx"},"type":"Feature","geometry":null},{"properties":{"zip":"90723","id":"a6eqr529aktz"},"type":"Feature","geometry":null},{"properties":{"zip":"91712","id":"a6eqr5501g29"},"type":"Feature","geometry":null},{"properties":{"zip":"16505","id":"a6eqr563kl6x"},"type":"Feature","geometry":null},{"properties":{"zip":"66062","id":"a6eqr5c6zoc5"},"type":"Feature","geometry":null},{"properties":{"zip":"97008","id":"a6eqr58syfi8"},"type":"Feature","geometry":null},{"properties":{"zip":"90230","id":"a6eqr52ghrei"},"type":"Feature","geometry":null},{"properties":{"zip":"90230","id":"a6eqr54tve18"},"type":"Feature","geometry":null},{"properties":{"zip":"90230","id":"a6eqr532zl9o"},"type":"Feature","geometry":null},{"properties":{"zip":"90230","id":"a6eqr5b11y6y"},"type":"Feature","geometry":null},{"properties":{"zip":"90230","id":"a6eqr53x71of"},"type":"Feature","geometry":null},{"properties":{"zip":"90230","id":"a6eqr5c16rtb"},"type":"Feature","geometry":null},{"properties":{"zip":"90230","id":"a6eqr59i5u2z"},"type":"Feature","geometry":null},{"properties":{"zip":"21044","id":"a6eqr53ny9gi"},"type":"Feature","geometry":null},{"properties":{"zip":"67846","id":"a6eqr4zxv0mb"},"type":"Feature","geometry":null},{"properties":{"zip":"90230","id":"a6eqr5fcuynx"},"type":"Feature","geometry":null},{"properties":{"zip":"5446","id":"a6eqr5egvjfo"},"type":"Feature","geometry":null},{"properties":{"zip":"74135","id":"a6eqr53hz5yf"},"type":"Feature","geometry":null},{"properties":{"zip":"27615","id":"a6eqr53845vh"},"type":"Feature","geometry":null},{"properties":{"zip":"21286","id":"a6eqr51amciy"},"type":"Feature","geometry":null},{"properties":{"zip":"27613","id":"a6eqr5b0x3ob"},"type":"Feature","geometry":null},{"properties":{"zip":"30339","id":"a6eqr50l1hwz"},"type":"Feature","geometry":null},{"properties":{"zip":"20879","id":"a6eqr587bjvu"},"type":"Feature","geometry":null},{"properties":{"zip":"19312","id":"a6eqr5fb4u6u"},"type":"Feature","geometry":null},{"properties":{"zip":"28269","id":"a6eqr5adzdp3"},"type":"Feature","geometry":null},{"properties":{"zip":"33916","id":"a6eqr52tofz7"},"type":"Feature","geometry":null},{"properties":{"zip":"28210","id":"a6eqr5eewonk"},"type":"Feature","geometry":null},{"properties":{"zip":"94122","id":"a6eqr55bsgm0"},"type":"Feature","geometry":null},{"properties":{"zip":"78731","id":"a6eqr5anuzhj"},"type":"Feature","geometry":null},{"properties":{"zip":"53948","id":"a6eqr5b8k95n"},"type":"Feature","geometry":null},{"properties":{"zip":"74136","id":"a6eqr5ennihm"},"type":"Feature","geometry":null},{"properties":{"zip":"40223","id":"a6eqr564bo6t"},"type":"Feature","geometry":null},{"properties":{"zip":"62703","id":"a6eqr5f9pfmr"},"type":"Feature","geometry":null},{"properties":{"zip":"17402","id":"a6eqr54h6kew"},"type":"Feature","geometry":null},{"properties":{"zip":"89119","id":"a6eqr576bxy9"},"type":"Feature","geometry":null},{"properties":{"zip":"31204","id":"a6eqr5f34g6l"},"type":"Feature","geometry":null},{"properties":{"zip":"19083","id":"a6eqr55y8ynm"},"type":"Feature","geometry":null},{"properties":{"zip":"89005","id":"a6eqr59qy31t"},"type":"Feature","geometry":null},{"properties":{"zip":"72756","id":"a6eqr5abugr1"},"type":"Feature","geometry":null},{"properties":{"zip":"20817","id":"a6eqr56q85io"},"type":"Feature","geometry":null},{"properties":{"zip":"80831","id":"a6eqr5cbvutq"},"type":"Feature","geometry":null},{"properties":{"zip":"44143","id":"a6eqr5fpwhn4"},"type":"Feature","geometry":null},{"properties":{"zip":"95677","id":"a6eqr572hytr"},"type":"Feature","geometry":null},{"properties":{"zip":"19702","id":"a6eqr5eowik8"},"type":"Feature","geometry":null},{"properties":{"zip":"38120","id":"a6eqr53qq4kb"},"type":"Feature","geometry":null},{"properties":{"zip":"95821","id":"a6eqr5c0espa"},"type":"Feature","geometry":null},{"properties":{"zip":"95624","id":"a6eqr55m3oer"},"type":"Feature","geometry":null},{"properties":{"zip":"85254","id":"a6eqr529brs4"},"type":"Feature","geometry":null},{"properties":{"zip":"72076","id":"a6eqr56ryuce"},"type":"Feature","geometry":null},{"properties":{"zip":"90501","id":"a6eqr59qh04p"},"type":"Feature","geometry":null},{"properties":{"zip":"85715","id":"a6eqr584mbi0"},"type":"Feature","geometry":null},{"properties":{"zip":"11367","id":"a6eqr591l298"},"type":"Feature","geometry":null},{"properties":{"zip":"80237","id":"a6eqr5c9cw5n"},"type":"Feature","geometry":null},{"properties":{"zip":"45241","id":"a6eqr5d2dg7k"},"type":"Feature","geometry":null},{"properties":{"zip":"80124","id":"a6eqr52f8lzm"},"type":"Feature","geometry":null},{"properties":{"zip":"41076","id":"a6eqr55un3m4"},"type":"Feature","geometry":null},{"properties":{"zip":"8837","id":"a6eqr56v2azy"},"type":"Feature","geometry":null},{"properties":{"zip":"95628","id":"a6eqr58q3aul"},"type":"Feature","geometry":null},{"properties":{"zip":"15748","id":"a6eqr4ztgc20"},"type":"Feature","geometry":null},{"properties":{"zip":"2909","id":"a6eqr4zv5ads"},"type":"Feature","geometry":null},{"properties":{"zip":"28112","id":"a6eqr52j22lp"},"type":"Feature","geometry":null},{"properties":{"zip":"34221","id":"a6eqr581b6mg"},"type":"Feature","geometry":null},{"properties":{"zip":"37172","id":"a6eqr52qvd1y"},"type":"Feature","geometry":null},{"properties":{"zip":"98004","id":"a6eqr50i15z0"},"type":"Feature","geometry":null},{"properties":{"zip":"38654","id":"a6eqr51g1ksc"},"type":"Feature","geometry":null},{"properties":{"zip":"18013","id":"a6eqr52gyi2u"},"type":"Feature","geometry":null},{"properties":{"zip":"8816","id":"a6eqr5a5q6s5"},"type":"Feature","geometry":null},{"properties":{"zip":"77498","id":"a6eqr5f6gqes"},"type":"Feature","geometry":null},{"properties":{"zip":"85308","id":"a6eqr53jm8o8"},"type":"Feature","geometry":null},{"properties":{"zip":"32065","id":"a6eqr4zqnl07"},"type":"Feature","geometry":null},{"properties":{"zip":"90048","id":"a6eqr52vzcix"},"type":"Feature","geometry":null},{"properties":{"zip":"19143","id":"a6eqr4zux2nx"},"type":"Feature","geometry":null},{"properties":{"zip":"80634","id":"a6eqr52jccss"},"type":"Feature","geometry":null},{"properties":{"zip":"29730","id":"a6eqr51r7tc9"},"type":"Feature","geometry":null},{"properties":{"zip":"19442","id":"a6eqr513kjxi"},"type":"Feature","geometry":null},{"properties":{"zip":"30349","id":"a6eqr551zp1q"},"type":"Feature","geometry":null},{"properties":{"zip":"11230","id":"a6eqr588rtna"},"type":"Feature","geometry":null},{"properties":{"zip":"43623","id":"a6eqr51z6jh2"},"type":"Feature","geometry":null},{"properties":{"zip":"40299","id":"a6eqr54u7eyi"},"type":"Feature","geometry":null},{"properties":{"zip":"20814","id":"a6eqr5aj9ml6"},"type":"Feature","geometry":null},{"properties":{"zip":"68114","id":"a6eqr5cphzap"},"type":"Feature","geometry":null},{"properties":{"zip":"50321","id":"a6eqr53ubl1r"},"type":"Feature","geometry":null},{"properties":{"zip":"50321","id":"a6eqr5bkeh7q"},"type":"Feature","geometry":null},{"properties":{"zip":"64055","id":"a6eqr55nfrsa"},"type":"Feature","geometry":null},{"properties":{"zip":"44131","id":"a6eqr56znhto"},"type":"Feature","geometry":null},{"properties":{"zip":"20743","id":"a6eqr4zkhfgj"},"type":"Feature","geometry":null},{"properties":{"zip":"94513","id":"a6eqr54u0rjb"},"type":"Feature","geometry":null},{"properties":{"zip":"17201","id":"a6eqr5d2zj20"},"type":"Feature","geometry":null},{"properties":{"zip":"19125","id":"a6eqr52viddz"},"type":"Feature","geometry":null},{"properties":{"zip":"85635","id":"a6eqr57bccdm"},"type":"Feature","geometry":null},{"properties":{"zip":"64114","id":"a6eqr5cvks4k"},"type":"Feature","geometry":null},{"properties":{"zip":"96813","id":"a6eqr59ouqqd"},"type":"Feature","geometry":null},{"properties":{"zip":"84020","id":"a6eqr5btfpjo"},"type":"Feature","geometry":null},{"properties":{"zip":"752","id":"a6eqr53562n6"},"type":"Feature","geometry":null},{"properties":{"zip":"75126","id":"a6eqr581kltb"},"type":"Feature","geometry":null},{"properties":{"zip":"19703","id":"a6eqr56glthr"},"type":"Feature","geometry":null},{"properties":{"zip":"40503","id":"a6eqr5f933yb"},"type":"Feature","geometry":null},{"properties":{"zip":"38901","id":"a6eqr55t829l"},"type":"Feature","geometry":null},{"properties":{"zip":"28213","id":"a6eqr5fjvi6v"},"type":"Feature","geometry":null},{"properties":{"zip":"50266","id":"a6eqr5028sa8"},"type":"Feature","geometry":null},{"properties":{"zip":"30075","id":"a6eqr5ew85r9"},"type":"Feature","geometry":null},{"properties":{"zip":"84770","id":"a6eqr53gateg"},"type":"Feature","geometry":null},{"properties":{"zip":"32033","id":"a6eqr5fitvyl"},"type":"Feature","geometry":null},{"properties":{"zip":"27613","id":"a6eqr5claui7"},"type":"Feature","geometry":null},{"properties":{"zip":"45464","id":"a6eqr5clggd7"},"type":"Feature","geometry":null},{"properties":{"zip":"90000","id":"a6eqr5c6cbvq"},"type":"Feature","geometry":null},{"properties":{"zip":"60490","id":"a6eqr50f9e8q"},"type":"Feature","geometry":null},{"properties":{"zip":"72065","id":"a6eqr5fooenq"},"type":"Feature","geometry":null},{"properties":{"zip":"40223","id":"a6eqr50tkjs7"},"type":"Feature","geometry":null},{"properties":{"zip":"85254","id":"a6eqr50ad180"},"type":"Feature","geometry":null},{"properties":{"zip":"27604","id":"a6eqr5afrnhh"},"type":"Feature","geometry":null},{"properties":{"zip":"72120","id":"a6eqr50apphu"},"type":"Feature","geometry":null},{"properties":{"zip":"55106","id":"a6eqr583j65b"},"type":"Feature","geometry":null},{"properties":{"zip":"95827","id":"a6eqr57rkvye"},"type":"Feature","geometry":null},{"properties":{"zip":"33609","id":"a6eqr55n6r9j"},"type":"Feature","geometry":null},{"properties":{"zip":"92807","id":"a6eqr5e1456p"},"type":"Feature","geometry":null},{"properties":{"zip":"15301","id":"a6eqr538xth3"},"type":"Feature","geometry":null},{"properties":{"zip":"19355","id":"a6eqr5f85dvb"},"type":"Feature","geometry":null},{"properties":{"zip":"41005","id":"a6eqr59e64l2"},"type":"Feature","geometry":null},{"properties":{"zip":"96814","id":"a6eqr57uxkli"},"type":"Feature","geometry":null},{"properties":{"zip":"74436","id":"a6eqr5fbr61z"},"type":"Feature","geometry":null},{"properties":{"zip":"78022","id":"a6eqr55a4pyy"},"type":"Feature","geometry":null},{"properties":{"zip":"37067","id":"a6eqr50p22cq"},"type":"Feature","geometry":null},{"properties":{"zip":"11706","id":"a6eqr5elfu18"},"type":"Feature","geometry":null},{"properties":{"zip":"32130","id":"a6eqr53663ty"},"type":"Feature","geometry":null},{"properties":{"zip":"7095","id":"a6eqr565em6e"},"type":"Feature","geometry":null},{"properties":{"zip":"48216","id":"a6eqr55i7xq3"},"type":"Feature","geometry":null},{"properties":{"zip":"34236","id":"a6eqr55aoapk"},"type":"Feature","geometry":null},{"properties":{"zip":"95827","id":"a6eqr58o0dlw"},"type":"Feature","geometry":null},{"properties":{"zip":"80127","id":"a6eqr5fr73f8"},"type":"Feature","geometry":null},{"properties":{"zip":"18942","id":"a6eqr51sa4yw"},"type":"Feature","geometry":null},{"properties":{"zip":"60430","id":"a6eqr51nzrvk"},"type":"Feature","geometry":null},{"properties":{"zip":"27615","id":"a6eqr5b9q5jd"},"type":"Feature","geometry":null},{"properties":{"zip":"7008","id":"a6eqr5du7jgp"},"type":"Feature","geometry":null},{"properties":{"zip":"85705","id":"a6eqr5bgo6hv"},"type":"Feature","geometry":null},{"properties":{"zip":"90601","id":"a6eqr52ukrx4"},"type":"Feature","geometry":null},{"properties":{"zip":"92394","id":"a6eqr505xgoz"},"type":"Feature","geometry":null},{"properties":{"zip":"7004","id":"a6eqr5b0cynk"},"type":"Feature","geometry":null},{"properties":{"zip":"53551","id":"a6eqr5czzayg"},"type":"Feature","geometry":null},{"properties":{"zip":"7039","id":"a6eqr5drqzy7"},"type":"Feature","geometry":null},{"properties":{"zip":"28210","id":"a6eqr54t5d9r"},"type":"Feature","geometry":null},{"properties":{"zip":"34135","id":"a6eqr525otte"},"type":"Feature","geometry":null},{"properties":{"zip":"7751","id":"a6eqr4zigya5"},"type":"Feature","geometry":null},{"properties":{"zip":"90230","id":"a6eqr5cmgoav"},"type":"Feature","geometry":null},{"properties":{"zip":"96814","id":"a6eqr4zvfwzv"},"type":"Feature","geometry":null},{"properties":{"zip":"10606","id":"a6eqr5475ryx"},"type":"Feature","geometry":null},{"properties":{"zip":"43537","id":"a6eqr59nxkaw"},"type":"Feature","geometry":null},{"properties":{"zip":"19141","id":"a6eqr5fpkt5r"},"type":"Feature","geometry":null},{"properties":{"zip":"7039","id":"a6eqr53pmnan"},"type":"Feature","geometry":null},{"properties":{"zip":"7663","id":"a6eqr51xr7t1"},"type":"Feature","geometry":null},{"properties":{"zip":"94521","id":"a6eqr56u61hy"},"type":"Feature","geometry":null},{"properties":{"zip":"28260","id":"a6eqr5fzsxhl"},"type":"Feature","geometry":null},{"properties":{"zip":"92692","id":"a6eqr5bghvfx"},"type":"Feature","geometry":null},{"properties":{"zip":"33707","id":"a6eqr5fdpgwy"},"type":"Feature","geometry":null},{"properties":{"zip":"28105","id":"a6eqr59xdt94"},"type":"Feature","geometry":null},{"properties":{"zip":"95670","id":"a6eqr56w6vw4"},"type":"Feature","geometry":null},{"properties":{"zip":"48170","id":"a6eqr57od8ec"},"type":"Feature","geometry":null},{"properties":{"zip":"92557","id":"a6eqr5byzu7e"},"type":"Feature","geometry":null},{"properties":{"zip":"29204","id":"a6eqr53vjru8"},"type":"Feature","geometry":null},{"properties":{"zip":"30022","id":"a6eqr55hfyd5"},"type":"Feature","geometry":null},{"properties":{"zip":"30013","id":"a6eqr50elemf"},"type":"Feature","geometry":null},{"properties":{"zip":"22553","id":"a6eqr5bz9rdf"},"type":"Feature","geometry":null},{"properties":{"zip":"8551","id":"a6eqr55vc1fw"},"type":"Feature","geometry":null},{"properties":{"zip":"85259","id":"a6eqr57csr80"},"type":"Feature","geometry":null},{"properties":{"zip":"94404","id":"a6eqr59dyaib"},"type":"Feature","geometry":null},{"properties":{"zip":"94404","id":"a6eqr5ck7tb6"},"type":"Feature","geometry":null},{"properties":{"zip":"34610","id":"a6eqr591n0u5"},"type":"Feature","geometry":null},{"properties":{"zip":"76039","id":"a6eqr59kkok0"},"type":"Feature","geometry":null},{"properties":{"zip":"99202","id":"a6eqr5emc1qh"},"type":"Feature","geometry":null},{"properties":{"zip":"94541","id":"a6eqr568ny1m"},"type":"Feature","geometry":null},{"properties":{"zip":"80111","id":"a6eqr51lhgv7"},"type":"Feature","geometry":null},{"properties":{"zip":"50158","id":"a6eqr5f4bzf9"},"type":"Feature","geometry":null},{"properties":{"zip":"94583","id":"a6eqr5fs4fz4"},"type":"Feature","geometry":null},{"properties":{"zip":"84095","id":"a6eqr57fbs4x"},"type":"Feature","geometry":null},{"properties":{"zip":"97225","id":"a6eqr5eyqqjd"},"type":"Feature","geometry":null},{"properties":{"zip":"75181","id":"a6eqr5evrarj"},"type":"Feature","geometry":null},{"properties":{"zip":"30606","id":"a6eqr5122mp4"},"type":"Feature","geometry":null},{"properties":{"zip":"7095","id":"a6eqr5d72xcn"},"type":"Feature","geometry":null},{"properties":{"zip":"30362","id":"a6eqr53w8nk5"},"type":"Feature","geometry":null},{"properties":{"zip":"90805","id":"a6eqr563zdks"},"type":"Feature","geometry":null},{"properties":{"zip":"89130","id":"a6eqr5eiye0w"},"type":"Feature","geometry":null},{"properties":{"zip":"3053","id":"a6eqr524v5va"},"type":"Feature","geometry":null},{"properties":{"zip":"94010","id":"a6eqr58g0xn2"},"type":"Feature","geometry":null},{"properties":{"zip":"91792","id":"a6eqr5cq5y9j"},"type":"Feature","geometry":null},{"properties":{"zip":"55431","id":"a6eqr5a22z5n"},"type":"Feature","geometry":null},{"properties":{"zip":"75201","id":"a6eqr4zv503r"},"type":"Feature","geometry":null},{"properties":{"zip":"80127","id":"a6eqr59mo328"},"type":"Feature","geometry":null},{"properties":{"zip":"7442","id":"a6eqr5bboj0n"},"type":"Feature","geometry":null},{"properties":{"zip":"80228","id":"a6eqr59a4lum"},"type":"Feature","geometry":null},{"properties":{"zip":"70605","id":"a6eqr51685te"},"type":"Feature","geometry":null},{"properties":{"zip":"80202","id":"a6eqr55a2fsn"},"type":"Feature","geometry":null},{"properties":{"zip":"71115","id":"a6eqr4zurf6r"},"type":"Feature","geometry":null},{"properties":{"zip":"90048","id":"a6eqr5eklq7q"},"type":"Feature","geometry":null},{"properties":{"zip":"85705","id":"a6eqr55f0wqu"},"type":"Feature","geometry":null},{"properties":{"zip":"34119","id":"a6eqr52bokyw"},"type":"Feature","geometry":null},{"properties":{"zip":"7849","id":"a6eqr5bvjazi"},"type":"Feature","geometry":null},{"properties":{"zip":"48034","id":"a6eqr51m3u64"},"type":"Feature","geometry":null},{"properties":{"zip":"33071","id":"a6eqr58djkab"},"type":"Feature","geometry":null},{"properties":{"zip":"33803","id":"a6eqr58ebq61"},"type":"Feature","geometry":null},{"properties":{"zip":"10952","id":"a6eqr52ju3ud"},"type":"Feature","geometry":null},{"properties":{"zip":"91709","id":"a6eqr5emj05v"},"type":"Feature","geometry":null},{"properties":{"zip":"20878","id":"a6eqr59n2zn2"},"type":"Feature","geometry":null},{"properties":{"zip":"91784","id":"a6eqr51v6wi0"},"type":"Feature","geometry":null},{"properties":{"zip":"44333","id":"a6eqr53lz6pl"},"type":"Feature","geometry":null},{"properties":{"zip":"19355","id":"a6eqr5di9a5w"},"type":"Feature","geometry":null},{"properties":{"zip":"32714","id":"a6eqr54k30sj"},"type":"Feature","geometry":null},{"properties":{"zip":"85260","id":"a6eqr561s4e3"},"type":"Feature","geometry":null},{"properties":{"zip":"90744","id":"a6eqr54bdwiz"},"type":"Feature","geometry":null},{"properties":{"zip":"85255","id":"a6eqr597rdw0"},"type":"Feature","geometry":null},{"properties":{"zip":"92801","id":"a6eqr5a83tkk"},"type":"Feature","geometry":null},{"properties":{"zip":"97229","id":"a6eqr52ttpzi"},"type":"Feature","geometry":null},{"properties":{"zip":"7054","id":"a6eqr53lnkzi"},"type":"Feature","geometry":null},{"properties":{"zip":"95330","id":"a6eqr5cx0p0r"},"type":"Feature","geometry":null},{"properties":{"zip":"7753","id":"a6eqr57koig5"},"type":"Feature","geometry":null},{"properties":{"zip":"94547","id":"a6eqr55wgwct"},"type":"Feature","geometry":null},{"properties":{"zip":"30038","id":"a6eqr54yayug"},"type":"Feature","geometry":null},{"properties":{"zip":"34741","id":"a6eqr55u0w0x"},"type":"Feature","geometry":null},{"properties":{"zip":"8844","id":"a6eqr59wcjui"},"type":"Feature","geometry":null},{"properties":{"zip":"95815","id":"a6eqr5a80eqj"},"type":"Feature","geometry":null},{"properties":{"zip":"10168","id":"a6eqr5849dzw"},"type":"Feature","geometry":null},{"properties":{"zip":"32446","id":"a6eqr57d1hbu"},"type":"Feature","geometry":null},{"properties":{"zip":"85032","id":"a6eqr5ctbc3h"},"type":"Feature","geometry":null},{"properties":{"zip":"32935","id":"a6eqr50oshce"},"type":"Feature","geometry":null},{"properties":{"zip":"28209","id":"a6eqr58yt9bx"},"type":"Feature","geometry":null},{"properties":{"zip":"11111","id":"a6eqr531v2hf"},"type":"Feature","geometry":null},{"properties":{"zip":"91016","id":"a6eqr549c6v6"},"type":"Feature","geometry":null},{"properties":{"zip":"2818","id":"a6eqr59xfr7t"},"type":"Feature","geometry":null},{"properties":{"zip":"18104","id":"a6eqr59mrpgb"},"type":"Feature","geometry":null},{"properties":{"zip":"18976","id":"a6eqr5afyi9r"},"type":"Feature","geometry":null},{"properties":{"zip":"33702","id":"a6eqr57j0kjy"},"type":"Feature","geometry":null},{"properties":{"zip":"90815","id":"a6eqr542xp7f"},"type":"Feature","geometry":null},{"properties":{"zip":"94583","id":"a6eqr5err5xl"},"type":"Feature","geometry":null},{"properties":{"zip":"60441","id":"a6eqr587riqj"},"type":"Feature","geometry":null},{"properties":{"zip":"84010","id":"a6eqr5aqqmkm"},"type":"Feature","geometry":null},{"properties":{"zip":"29072","id":"a6eqr55vk1y4"},"type":"Feature","geometry":null},{"properties":{"zip":"77066","id":"a6eqr53er4d5"},"type":"Feature","geometry":null},{"properties":{"zip":"85701","id":"a6eqr510m6p8"},"type":"Feature","geometry":null},{"properties":{"zip":"46514","id":"a6eqr51f3z4z"},"type":"Feature","geometry":null},{"properties":{"zip":"99027","id":"a6eqr5358uwe"},"type":"Feature","geometry":null},{"properties":{"zip":"80918","id":"a6eqr56jw0za"},"type":"Feature","geometry":null},{"properties":{"zip":"91101","id":"a6eqr51v9d8h"},"type":"Feature","geometry":null},{"properties":{"zip":"91301","id":"a6eqr50obuu7"},"type":"Feature","geometry":null},{"properties":{"zip":"91108","id":"a6eqr55r8zh7"},"type":"Feature","geometry":null},{"properties":{"zip":"85701","id":"a6eqr50fja27"},"type":"Feature","geometry":null},{"properties":{"zip":"7840","id":"a6eqr52xmhdc"},"type":"Feature","geometry":null},{"properties":{"zip":"10598","id":"a6eqr58pl8fm"},"type":"Feature","geometry":null},{"properties":{"zip":"32714","id":"a6eqr55b098q"},"type":"Feature","geometry":null},{"properties":{"zip":"32816","id":"a6eqr52hgdfl"},"type":"Feature","geometry":null},{"properties":{"zip":"30331","id":"a6eqr5fozgh2"},"type":"Feature","geometry":null},{"properties":{"zip":"17013","id":"a6eqr53qkf6y"},"type":"Feature","geometry":null},{"properties":{"zip":"92806","id":"a6eqr549frpv"},"type":"Feature","geometry":null},{"properties":{"zip":"33020","id":"a6eqr524n08h"},"type":"Feature","geometry":null},{"properties":{"zip":"7024","id":"a6eqr54tmqys"},"type":"Feature","geometry":null}],"is_temporal":false,"author":{"url":"","metadata":null,"contact_name":null,"contact_address":null,"source":null,"contact_phone":null},"source":"","pagination":{"sort":null,"start":0,"total":343,"limit":1000000},"state":"complete","tags":"","published":"2014-08-13T06:58:40-04:00","id":136952}