{"type":"FeatureCollection","data_type":"Dataset","url_type":null,"permissions":[{"permissions":{"download":true,"view":true},"group_id":"everyone"}],"classification":null,"title":"Insurance2010","count":117,"stream_id":137583,"contributor":{"url":"http://geocommons.com/users/28852","name":"akcenajs"},"data_attributes":null,"calculation_params":null,"icon_link":null,"link":"http://geocommons.com/overlays/137583.json","extent":[-98.5483,29.528,-96.719,30.8785],"geometry_types":["point"],"unique_name":null,"name":"Insurance2010","feature_count":117,"description":"The total number of calls to 211 Texas UWCA relating to health insurance assistance in 2010 (i.e. State and Local Health Insurance Programs such as Medicaid and MAP).","next_feature":null,"is_raster":false,"short_classification":"Y","stats":{"insurance":{"max":335,"mean":41.8034188034188,"variance":4443.76274683171,"stdev":66.6615537385059,"min":1,"median":14}},"features":[{"properties":{"zip":"78753","geo_score":0.714,"insurance":335,"id":"a6b9ecnvjcby","geo_precision":"zip"},"type":"Feature","geometry":{"type":"Point","coordinates":[-97.671672,30.382982]}},{"properties":{"zip":"78741","geo_score":0.714,"insurance":322,"id":"a6b9ecwzykpu","geo_precision":"zip"},"type":"Feature","geometry":{"type":"Point","coordinates":[-97.690559,30.243266]}},{"properties":{"zip":"78758","geo_score":0.714,"insurance":276,"id":"a6b9ecucm26f","geo_precision":"zip"},"type":"Feature","geometry":{"type":"Point","coordinates":[-97.708233,30.383637]}},{"properties":{"zip":"78744","geo_score":0.714,"insurance":238,"id":"a6b9ecr065uq","geo_precision":"zip"},"type":"Feature","geometry":{"type":"Point","coordinates":[-97.693058,30.164101]}},{"properties":{"zip":"78745","geo_score":0.714,"insurance":222,"id":"a6b9ecnnurse","geo_precision":"zip"},"type":"Feature","geometry":{"type":"Point","coordinates":[-97.803617,30.225765]}},{"properties":{"zip":"78702","geo_score":0.714,"insurance":203,"id":"a6b9eck5nogd","geo_precision":"zip"},"type":"Feature","geometry":{"type":"Point","coordinates":[-97.713581,30.264115]}},{"properties":{"zip":"78723","geo_score":0.714,"insurance":169,"id":"a6b9ectortbz","geo_precision":"zip"},"type":"Feature","geometry":{"type":"Point","coordinates":[-97.686631,30.305107]}},{"properties":{"zip":"78660","geo_score":0.714,"insurance":168,"id":"a6b9ecwg7tzp","geo_precision":"zip"},"type":"Feature","geometry":{"type":"Point","coordinates":[-97.597055,30.442737]}},{"properties":{"zip":"78704","geo_score":0.714,"insurance":166,"id":"a6b9ed074urr","geo_precision":"zip"},"type":"Feature","geometry":{"type":"Point","coordinates":[-97.768832,30.240685]}},{"properties":{"zip":"78664","geo_score":0.714,"insurance":160,"id":"a6b9ecusqsxr","geo_precision":"zip"},"type":"Feature","geometry":{"type":"Point","coordinates":[-97.662228,30.451591]}},{"properties":{"zip":"78724","geo_score":0.714,"insurance":140,"id":"a6b9eck4tk5z","geo_precision":"zip"},"type":"Feature","geometry":{"type":"Point","coordinates":[-97.617871,30.292188]}},{"properties":{"zip":"78752","geo_score":0.714,"insurance":129,"id":"a6b9ecyilir2","geo_precision":"zip"},"type":"Feature","geometry":{"type":"Point","coordinates":[-97.699932,30.332901]}},{"properties":{"zip":"78721","geo_score":0.714,"insurance":126,"id":"a6b9ecydfjpx","geo_precision":"zip"},"type":"Feature","geometry":{"type":"Point","coordinates":[-97.684781,30.268684]}},{"properties":{"zip":"78748","geo_score":0.714,"insurance":116,"id":"a6b9ecovz9up","geo_precision":"zip"},"type":"Feature","geometry":{"type":"Point","coordinates":[-97.818061,30.145767]}},{"properties":{"zip":"78640","geo_score":0.714,"insurance":113,"id":"a6b9ecrw9j4j","geo_precision":"zip"},"type":"Feature","geometry":{"type":"Point","coordinates":[-97.786114,29.957718]}},{"properties":{"zip":"78617","geo_score":0.714,"insurance":81,"id":"a6b9ecqdzg0h","geo_precision":"zip"},"type":"Feature","geometry":{"type":"Point","coordinates":[-97.557777,30.187435]}},{"properties":{"zip":"78602","geo_score":0.714,"insurance":78,"id":"a6b9eclrv4hs","geo_precision":"zip"},"type":"Feature","geometry":{"type":"Point","coordinates":[-97.420829,30.181881]}},{"properties":{"zip":"78653","geo_score":0.714,"insurance":73,"id":"a6b9eck4urrd","geo_precision":"zip"},"type":"Feature","geometry":{"type":"Point","coordinates":[-97.516665,30.231045]}},{"properties":{"zip":"78759","geo_score":0.714,"insurance":73,"id":"a6b9ecqypz3j","geo_precision":"zip"},"type":"Feature","geometry":{"type":"Point","coordinates":[-97.849453,30.339093]}},{"properties":{"zip":"78613","geo_score":0.714,"insurance":72,"id":"a6b9eczpjyb3","geo_precision":"zip"},"type":"Feature","geometry":{"type":"Point","coordinates":[-97.628724,30.494032]}},{"properties":{"zip":"78729","geo_score":0.714,"insurance":71,"id":"a6b9ed06xz0b","geo_precision":"zip"},"type":"Feature","geometry":{"type":"Point","coordinates":[-97.775009,30.442701]}},{"properties":{"zip":"78641","geo_score":0.714,"insurance":69,"id":"a6b9ecomx15k","geo_precision":"zip"},"type":"Feature","geometry":{"type":"Point","coordinates":[-97.830289,30.520753]}},{"properties":{"zip":"78621","geo_score":0.714,"insurance":68,"id":"a6b9ecuq4dgl","geo_precision":"zip"},"type":"Feature","geometry":{"type":"Point","coordinates":[-97.284161,30.42604]}},{"properties":{"zip":"78728","geo_score":0.714,"insurance":67,"id":"a6b9eco2ej7o","geo_precision":"zip"},"type":"Feature","geometry":{"type":"Point","coordinates":[-97.694784,30.452151]}},{"properties":{"zip":"78681","geo_score":0.714,"insurance":62,"id":"a6b9ecy0ua1r","geo_precision":"zip"},"type":"Feature","geometry":{"type":"Point","coordinates":[-97.718672,30.52398]}},{"properties":{"zip":"78666","geo_score":0.714,"insurance":61,"id":"a6b9eckkdjv7","geo_precision":"zip"},"type":"Feature","geometry":{"type":"Point","coordinates":[-97.94806,29.753002]}},{"properties":{"zip":"78701","geo_score":0.714,"insurance":60,"id":"a6b9eckyb6fs","geo_precision":"zip"},"type":"Feature","geometry":{"type":"Point","coordinates":[-97.741382,30.268335]}},{"properties":{"zip":"78727","geo_score":0.714,"insurance":57,"id":"a6b9ectmfjr8","geo_precision":"zip"},"type":"Feature","geometry":{"type":"Point","coordinates":[-97.719678,30.427402]}},{"properties":{"zip":"78757","geo_score":0.714,"insurance":56,"id":"a6b9ecoocyu0","geo_precision":"zip"},"type":"Feature","geometry":{"type":"Point","coordinates":[-97.601444,30.348567]}},{"properties":{"zip":"78754","geo_score":0.714,"insurance":53,"id":"a6b9ecz5ygix","geo_precision":"zip"},"type":"Feature","geometry":{"type":"Point","coordinates":[-97.646734,30.365596]}},{"properties":{"zip":"78634","geo_score":0.714,"insurance":49,"id":"a6b9ecot0nw8","geo_precision":"zip"},"type":"Feature","geometry":{"type":"Point","coordinates":[-97.554189,30.551885]}},{"properties":{"zip":"78749","geo_score":0.714,"insurance":42,"id":"a6b9ecvjjs5b","geo_precision":"zip"},"type":"Feature","geometry":{"type":"Point","coordinates":[-97.857187,30.207969]}},{"properties":{"zip":"78750","geo_score":0.714,"insurance":40,"id":"a6b9ecm202tu","geo_precision":"zip"},"type":"Feature","geometry":{"type":"Point","coordinates":[-97.8155,30.406729]}},{"properties":{"zip":"76574","geo_score":0.714,"insurance":40,"id":"a6b9ecq1iwm7","geo_precision":"zip"},"type":"Feature","geometry":{"type":"Point","coordinates":[-97.388333,30.638808]}},{"properties":{"zip":"78610","geo_score":0.714,"insurance":40,"id":"a6b9ed01wq4n","geo_precision":"zip"},"type":"Feature","geometry":{"type":"Point","coordinates":[-97.781115,30.092714]}},{"properties":{"zip":"78751","geo_score":0.714,"insurance":37,"id":"a6b9eck7n042","geo_precision":"zip"},"type":"Feature","geometry":{"type":"Point","coordinates":[-98.459461,29.528007]}},{"properties":{"zip":"78644","geo_score":0.714,"insurance":34,"id":"a6b9eclj9wfq","geo_precision":"zip"},"type":"Feature","geometry":{"type":"Point","coordinates":[-97.605553,29.82328]}},{"properties":{"zip":"78626","geo_score":0.714,"insurance":33,"id":"a6b9eclta3ud","geo_precision":"zip"},"type":"Feature","geometry":{"type":"Point","coordinates":[-97.540838,30.637973]}},{"properties":{"zip":"78747","geo_score":0.714,"insurance":30,"id":"a6b9ecsbfbuk","geo_precision":"zip"},"type":"Feature","geometry":{"type":"Point","coordinates":[-97.691112,30.056883]}},{"properties":{"zip":"78645","geo_score":0.714,"insurance":30,"id":"a6b9ecmgbg1i","geo_precision":"zip"},"type":"Feature","geometry":{"type":"Point","coordinates":[-97.996124,30.379367]}},{"properties":{"zip":"78616","geo_score":0.714,"insurance":29,"id":"a6b9ecvc9i8z","geo_precision":"zip"},"type":"Feature","geometry":{"type":"Point","coordinates":[-97.55333,29.797726]}},{"properties":{"zip":"78717","geo_score":0.714,"insurance":29,"id":"a6b9ecxvnzfo","geo_precision":"zip"},"type":"Feature","geometry":{"type":"Point","coordinates":[-97.739731,30.513532]}},{"properties":{"zip":"78654","geo_score":0.714,"insurance":28,"id":"a6b9ecom4323","geo_precision":"zip"},"type":"Feature","geometry":{"type":"Point","coordinates":[-98.145019,30.560747]}},{"properties":{"zip":"78612","geo_score":0.714,"insurance":27,"id":"a6b9ecn1kkk2","geo_precision":"zip"},"type":"Feature","geometry":{"type":"Point","coordinates":[-97.486885,30.083931]}},{"properties":{"zip":"78731","geo_score":0.714,"insurance":26,"id":"a6b9ecmmjoh2","geo_precision":"zip"},"type":"Feature","geometry":{"type":"Point","coordinates":[-97.769769,30.345554]}},{"properties":{"zip":"78725","geo_score":0.714,"insurance":25,"id":"a6b9eczz5p06","geo_precision":"zip"},"type":"Feature","geometry":{"type":"Point","coordinates":[-97.583334,30.247433]}},{"properties":{"zip":"78734","geo_score":0.714,"insurance":24,"id":"a6b9ed06g8ad","geo_precision":"zip"},"type":"Feature","geometry":{"type":"Point","coordinates":[-97.991679,30.367979]}},{"properties":{"zip":"78628","geo_score":0.714,"insurance":23,"id":"a6b9ecl57si3","geo_precision":"zip"},"type":"Feature","geometry":{"type":"Point","coordinates":[-97.852238,30.78213]}},{"properties":{"zip":"78735","geo_score":0.714,"insurance":20,"id":"a6b9ecwsx18j","geo_precision":"zip"},"type":"Feature","geometry":{"type":"Point","coordinates":[-97.955842,30.222429]}},{"properties":{"zip":"78726","geo_score":0.714,"insurance":18,"id":"a6b9ed0dohw1","geo_precision":"zip"},"type":"Feature","geometry":{"type":"Point","coordinates":[-97.843801,30.427124]}},{"properties":{"zip":"78705","geo_score":0.714,"insurance":18,"id":"a6b9ect5dvlq","geo_precision":"zip"},"type":"Feature","geometry":{"type":"Point","coordinates":[-97.736932,30.293057]}},{"properties":{"zip":"78676","geo_score":0.714,"insurance":18,"id":"a6b9ecxl6tvi","geo_precision":"zip"},"type":"Feature","geometry":{"type":"Point","coordinates":[-98.111121,30.028268]}},{"properties":{"zip":"78611","geo_score":0.714,"insurance":17,"id":"a6b9ecrwggsr","geo_precision":"zip"},"type":"Feature","geometry":{"type":"Point","coordinates":[-98.238816,30.749465]}},{"properties":{"zip":"78642","geo_score":0.714,"insurance":17,"id":"a6b9ecnixb8t","geo_precision":"zip"},"type":"Feature","geometry":{"type":"Point","coordinates":[-97.91191,30.715353]}},{"properties":{"zip":"78756","geo_score":0.714,"insurance":16,"id":"a6b9ecupamer","geo_precision":"zip"},"type":"Feature","geometry":{"type":"Point","coordinates":[-97.737583,30.320606]}},{"properties":{"zip":"78722","geo_score":0.714,"insurance":15,"id":"a6b9ecqx7rw9","geo_precision":"zip"},"type":"Feature","geometry":{"type":"Point","coordinates":[-97.718832,30.286857]}},{"properties":{"zip":"78703","geo_score":0.714,"insurance":15,"id":"a6b9ectiwgpo","geo_precision":"zip"},"type":"Feature","geometry":{"type":"Point","coordinates":[-98.027233,30.245205]}},{"properties":{"zip":"78957","geo_score":0.714,"insurance":14,"id":"a6b9ecrq4h3x","geo_precision":"zip"},"type":"Feature","geometry":{"type":"Point","coordinates":[-97.264157,30.011332]}},{"properties":{"zip":"78746","geo_score":0.714,"insurance":14,"id":"a6b9ecksb9bn","geo_precision":"zip"},"type":"Feature","geometry":{"type":"Point","coordinates":[-97.801952,30.297984]}},{"properties":{"zip":"78736","geo_score":0.714,"insurance":13,"id":"a6b9ecq6prhz","geo_precision":"zip"},"type":"Feature","geometry":{"type":"Point","coordinates":[-97.973888,30.272424]}},{"properties":{"zip":"78620","geo_score":0.714,"insurance":12,"id":"a6b9ecztdxto","geo_precision":"zip"},"type":"Feature","geometry":{"type":"Point","coordinates":[-98.210848,30.19465]}},{"properties":{"zip":"78942","geo_score":0.714,"insurance":11,"id":"a6b9eck3gisc","geo_precision":"zip"},"type":"Feature","geometry":{"type":"Point","coordinates":[-96.998873,30.127718]}},{"properties":{"zip":"78639","geo_score":0.714,"insurance":11,"id":"a6b9ecpdqeek","geo_precision":"zip"},"type":"Feature","geometry":{"type":"Point","coordinates":[-98.548345,30.697117]}},{"properties":{"zip":"78738","geo_score":0.714,"insurance":11,"id":"a6b9eclbwebk","geo_precision":"zip"},"type":"Feature","geometry":{"type":"Point","coordinates":[-97.985012,30.34798]}},{"properties":{"zip":"78945","geo_score":0.714,"insurance":9,"id":"a6b9ecvfmc9e","geo_precision":"zip"},"type":"Feature","geometry":{"type":"Point","coordinates":[-96.797201,29.947724]}},{"properties":{"zip":"78652","geo_score":0.714,"insurance":9,"id":"a6b9ecy29iie","geo_precision":"zip"},"type":"Feature","geometry":{"type":"Point","coordinates":[-97.839325,30.123827]}},{"properties":{"zip":"78742","geo_score":0.714,"insurance":8,"id":"a6b9ecvnbi1i","geo_precision":"zip"},"type":"Feature","geometry":{"type":"Point","coordinates":[-97.669953,30.236455]}},{"properties":{"zip":"78733","geo_score":0.714,"insurance":8,"id":"a6b9ecy38514","geo_precision":"zip"},"type":"Feature","geometry":{"type":"Point","coordinates":[-97.94501,30.308537]}},{"properties":{"zip":"78669","geo_score":0.714,"insurance":8,"id":"a6b9ecsdi35v","geo_precision":"zip"},"type":"Feature","geometry":{"type":"Point","coordinates":[-97.678896,30.508255]}},{"properties":{"zip":"78732","geo_score":0.714,"insurance":8,"id":"a6b9ecnp2gly","geo_precision":"zip"},"type":"Feature","geometry":{"type":"Point","coordinates":[-97.888622,30.391868]}},{"properties":{"zip":"78659","geo_score":0.714,"insurance":8,"id":"a6b9ecymm892","geo_precision":"zip"},"type":"Feature","geometry":{"type":"Point","coordinates":[-97.031096,30.23077]}},{"properties":{"zip":"78730","geo_score":0.714,"insurance":8,"id":"a6b9ecvd3jmj","geo_precision":"zip"},"type":"Feature","geometry":{"type":"Point","coordinates":[-97.836441,30.364587]}},{"properties":{"zip":"78737","geo_score":0.714,"insurance":7,"id":"a6b9ecnbjioa","geo_precision":"zip"},"type":"Feature","geometry":{"type":"Point","coordinates":[-97.931042,30.203952]}},{"properties":{"zip":"78643","geo_score":0.714,"insurance":7,"id":"a6b9eczhluc9","geo_precision":"zip"},"type":"Feature","geometry":{"type":"Point","coordinates":[-98.410027,30.599632]}},{"properties":{"zip":"78657","geo_score":0.714,"insurance":6,"id":"a6b9ecvlb5oc","geo_precision":"zip"},"type":"Feature","geometry":{"type":"Point","coordinates":[-98.333113,30.537773]}},{"properties":{"zip":"78636","geo_score":0.714,"insurance":5,"id":"a6b9ecnji8bx","geo_precision":"zip"},"type":"Feature","geometry":{"type":"Point","coordinates":[-98.405866,30.21577]}},{"properties":{"zip":"78739","geo_score":0.714,"insurance":5,"id":"a6b9ecndfglz","geo_precision":"zip"},"type":"Feature","geometry":{"type":"Point","coordinates":[-97.886794,30.172937]}},{"properties":{"zip":"78947","geo_score":0.714,"insurance":5,"id":"a6b9eckgkgd9","geo_precision":"zip"},"type":"Feature","geometry":{"type":"Point","coordinates":[-96.986373,30.497706]}},{"properties":{"zip":"76578","geo_score":0.714,"insurance":5,"id":"a6b9eczt61a0","geo_precision":"zip"},"type":"Feature","geometry":{"type":"Point","coordinates":[-97.236259,30.546326]}},{"properties":{"zip":"78719","geo_score":0.714,"insurance":4,"id":"a6b9ecwvmmeq","geo_precision":"zip"},"type":"Feature","geometry":{"type":"Point","coordinates":[-97.663891,30.168824]}},{"properties":{"zip":"78956","geo_score":0.714,"insurance":4,"id":"a6b9eckthdne","geo_precision":"zip"},"type":"Feature","geometry":{"type":"Point","coordinates":[-96.909426,29.782452]}},{"properties":{"zip":"78605","geo_score":0.714,"insurance":4,"id":"a6b9ecy7jrz7","geo_precision":"zip"},"type":"Feature","geometry":{"type":"Point","coordinates":[-98.094465,30.696853]}},{"properties":{"zip":"78760","geo_score":0.714,"insurance":4,"id":"a6b9eckwsokv","geo_precision":"zip"},"type":"Feature","geometry":{"type":"Point","coordinates":[-97.771258,30.326374]}},{"properties":{"zip":"78648","geo_score":0.714,"insurance":3,"id":"a6b9ectnnx3d","geo_precision":"zip"},"type":"Feature","geometry":{"type":"Point","coordinates":[-97.727778,29.718282]}},{"properties":{"zip":"76537","geo_score":0.714,"insurance":3,"id":"a6b9ecwvp56s","geo_precision":"zip"},"type":"Feature","geometry":{"type":"Point","coordinates":[-97.597231,30.762967]}},{"properties":{"zip":"78656","geo_score":0.714,"insurance":3,"id":"a6b9ecyerl5x","geo_precision":"zip"},"type":"Feature","geometry":{"type":"Point","coordinates":[-97.846392,29.879665]}},{"properties":{"zip":"78662","geo_score":0.714,"insurance":3,"id":"a6b9ecns6b2r","geo_precision":"zip"},"type":"Feature","geometry":{"type":"Point","coordinates":[-97.498051,29.896056]}},{"properties":{"zip":"77853","geo_score":0.714,"insurance":3,"id":"a6b9ecxznnh6","geo_precision":"zip"},"type":"Feature","geometry":{"type":"Point","coordinates":[-96.863036,30.377154]}},{"properties":{"zip":"78609","geo_score":0.714,"insurance":3,"id":"a6b9ecuad4no","geo_precision":"zip"},"type":"Feature","geometry":{"type":"Point","coordinates":[-98.427288,30.766448]}},{"properties":{"zip":"78619","geo_score":0.714,"insurance":3,"id":"a6b9ecu83rp5","geo_precision":"zip"},"type":"Feature","geometry":{"type":"Point","coordinates":[-98.000454,30.09393]}},{"properties":{"zip":"78606","geo_score":0.714,"insurance":2,"id":"a6b9ecnrgj85","geo_precision":"zip"},"type":"Feature","geometry":{"type":"Point","coordinates":[-98.419985,30.137027]}},{"properties":{"zip":"78767","geo_score":0.714,"insurance":2,"id":"a6b9ecsl1uj5","geo_precision":"zip"},"type":"Feature","geometry":{"type":"Point","coordinates":[-97.896285,30.222007]}},{"properties":{"zip":"78655","geo_score":0.714,"insurance":2,"id":"a6b9ecwhxkjd","geo_precision":"zip"},"type":"Feature","geometry":{"type":"Point","coordinates":[-97.850842,29.839448]}},{"properties":{"zip":"78714","geo_score":0.714,"insurance":2,"id":"a6b9ecl96ckx","geo_precision":"zip"},"type":"Feature","geometry":{"type":"Point","coordinates":[-97.443751,30.335787]}},{"properties":{"zip":"76530","geo_score":0.714,"insurance":2,"id":"a6b9ecyp6kwj","geo_precision":"zip"},"type":"Feature","geometry":{"type":"Point","coordinates":[-97.330276,30.714083]}},{"properties":{"zip":"78627","geo_score":0.714,"insurance":2,"id":"a6b9ecs6d8ac","geo_precision":"zip"},"type":"Feature","geometry":{"type":"Point","coordinates":[-97.646143,30.673597]}},{"properties":{"zip":"78615","geo_score":0.714,"insurance":2,"id":"a6b9ecwnum2q","geo_precision":"zip"},"type":"Feature","geometry":{"type":"Point","coordinates":[-97.367571,30.487161]}},{"properties":{"zip":"78672","geo_score":0.714,"insurance":2,"id":"a6b9ecy4t395","geo_precision":"zip"},"type":"Feature","geometry":{"type":"Point","coordinates":[-98.446332,30.772002]}},{"properties":{"zip":"78608","geo_score":0.714,"insurance":2,"id":"a6b9ed02l2qr","geo_precision":"zip"},"type":"Feature","geometry":{"type":"Point","coordinates":[-97.910703,30.878476]}},{"properties":{"zip":"78953","geo_score":0.714,"insurance":2,"id":"a6b9ecvxywrk","geo_precision":"zip"},"type":"Feature","geometry":{"type":"Point","coordinates":[-97.346937,29.88578]}},{"properties":{"zip":"73301","geo_score":0.714,"insurance":2,"id":"a6b9eczv187u","geo_precision":"zip"},"type":"Feature","geometry":{"type":"Point","coordinates":[-97.771258,30.326374]}},{"properties":{"zip":"76527","geo_score":0.714,"insurance":1,"id":"a6b9ecyhvjb4","geo_precision":"zip"},"type":"Feature","geometry":{"type":"Point","coordinates":[-97.78119,30.807586]}},{"properties":{"zip":"78680","geo_score":0.714,"insurance":1,"id":"a6b9ecyqg9jq","geo_precision":"zip"},"type":"Feature","geometry":{"type":"Point","coordinates":[-97.602552,30.656817]}},{"properties":{"zip":"78761","geo_score":0.714,"insurance":1,"id":"a6b9ecp8nue4","geo_precision":"zip"},"type":"Feature","geometry":{"type":"Point","coordinates":[-97.771258,30.326374]}},{"properties":{"zip":"78941","geo_score":0.714,"insurance":1,"id":"a6b9ecvoq4q1","geo_precision":"zip"},"type":"Feature","geometry":{"type":"Point","coordinates":[-97.067207,29.668289]}},{"properties":{"zip":"78762","geo_score":0.714,"insurance":1,"id":"a6b9ecrbic3s","geo_precision":"zip"},"type":"Feature","geometry":{"type":"Point","coordinates":[-97.771258,30.326374]}},{"properties":{"zip":"78650","geo_score":0.714,"insurance":1,"id":"a6b9ecvvmcxq","geo_precision":"zip"},"type":"Feature","geometry":{"type":"Point","coordinates":[-97.236741,30.272109]}},{"properties":{"zip":"78691","geo_score":0.714,"insurance":1,"id":"a6b9ecpefcbs","geo_precision":"zip"},"type":"Feature","geometry":{"type":"Point","coordinates":[-97.771258,30.326374]}},{"properties":{"zip":"78948","geo_score":0.714,"insurance":1,"id":"a6b9ecng2zdq","geo_precision":"zip"},"type":"Feature","geometry":{"type":"Point","coordinates":[-96.905259,30.287713]}},{"properties":{"zip":"78663","geo_score":0.714,"insurance":1,"id":"a6b9ecv08mst","geo_precision":"zip"},"type":"Feature","geometry":{"type":"Point","coordinates":[-98.356711,30.414943]}},{"properties":{"zip":"78946","geo_score":0.714,"insurance":1,"id":"a6b9ecs0mv6w","geo_precision":"zip"},"type":"Feature","geometry":{"type":"Point","coordinates":[-96.792756,30.063553]}},{"properties":{"zip":"78683","geo_score":0.714,"insurance":1,"id":"a6b9ecwof308","geo_precision":"zip"},"type":"Feature","geometry":{"type":"Point","coordinates":[-97.602552,30.656817]}},{"properties":{"zip":"78713","geo_score":0.714,"insurance":1,"id":"a6b9ecy7btq2","geo_precision":"zip"},"type":"Feature","geometry":{"type":"Point","coordinates":[-97.843336,30.468583]}},{"properties":{"zip":"78963","geo_score":0.714,"insurance":1,"id":"a6b9ecq37q4c","geo_precision":"zip"},"type":"Feature","geometry":{"type":"Point","coordinates":[-97.035262,29.885226]}},{"properties":{"zip":"78710","geo_score":0.714,"insurance":1,"id":"a6b9ecqldw2r","geo_precision":"zip"},"type":"Feature","geometry":{"type":"Point","coordinates":[-97.715123,30.351953]}},{"properties":{"zip":"78932","geo_score":0.714,"insurance":1,"id":"a6b9ecu62aow","geo_precision":"zip"},"type":"Feature","geometry":{"type":"Point","coordinates":[-96.719014,30.112343]}},{"properties":{"zip":"73344","geo_score":0.714,"insurance":1,"id":"a6b9ecrcwq6o","geo_precision":"zip"},"type":"Feature","geometry":{"type":"Point","coordinates":[-97.771258,30.326374]}}],"is_temporal":false,"author":{"url":"","metadata":"","contact_name":"","contact_address":"","source":"","contact_phone":""},"source":"","pagination":{"sort":null,"start":0,"total":117,"limit":1000000},"state":"complete","tags":"211,texas","published":"2011-07-22T21:16:19Z","id":137583}