{"type":"FeatureCollection","data_type":"Dataset","url_type":null,"permissions":[{"permissions":{"download":true,"view":true},"group_id":"everyone"}],"classification":null,"title":"Closing_PA_post_offices","count":203,"stream_id":138775,"contributor":{"url":"http://geocommons.com/users/28525","name":"jberry"},"data_attributes":null,"calculation_params":null,"icon_link":null,"link":"http://geocommons.com/overlays/138775.json","extent":[-80.3981,39.7515,-74.7511,42.1827],"geometry_types":["point"],"unique_name":null,"name":"Closing_PA_post_offices","feature_count":203,"description":"","next_feature":null,"is_raster":false,"short_classification":"Y","stats":{},"features":[{"properties":{"city":"PHILADELPHIA","name":"B FREE FRANKLIN","geo_score":0.857,"zip code":"19106","id":"a6qi4lmahrul","geo_precision":"zip"},"type":"Feature","geometry":{"type":"Point","coordinates":[-75.150071,39.950004]}},{"properties":{"city":"PHILADELPHIA","name":"CASTLE FINANCE","geo_score":0.857,"zip code":"19148","id":"a6qi4lut338k","geo_precision":"zip"},"type":"Feature","geometry":{"type":"Point","coordinates":[-75.155371,39.950362]}},{"properties":{"city":"PHILADELPHIA","name":"EAST GERMANTOWN","geo_score":0.857,"zip code":"19138","id":"a6qi4lja68q7","geo_precision":"zip"},"type":"Feature","geometry":{"type":"Point","coordinates":[-75.16117,40.056261]}},{"properties":{"city":"PHILADELPHIA","name":"FAIRMOUNT FINANCE STATION","geo_score":0.857,"zip code":"19130","id":"a6qi4lt9w5fq","geo_precision":"zip"},"type":"Feature","geometry":{"type":"Point","coordinates":[-75.169671,40.001161]}},{"properties":{"city":"PHILADELPHIA","name":"OVERBROOK","geo_score":0.714,"zip code":"19151","id":"a6qi4lmgh8lp","geo_precision":"zip"},"type":"Feature","geometry":{"type":"Point","coordinates":[-75.238514,40.026779]}},{"properties":{"city":"PHILADELPHIA","name":"SPRING GARDEN","geo_score":0.857,"zip code":"19122","id":"a6qi4lsr9tyn","geo_precision":"zip"},"type":"Feature","geometry":{"type":"Point","coordinates":[-75.141271,39.977462]}},{"properties":{"city":"BROOKLYN","name":"BROOKLYN","geo_score":0.857,"zip code":"18813","id":"a6qi4lr86dx8","geo_precision":"zip"},"type":"Feature","geometry":{"type":"Point","coordinates":[-75.80463,41.820346]}},{"properties":{"city":"GIBSON","name":"GIBSON","geo_score":0.857,"zip code":"18820","id":"a6qi4lqmayir","geo_precision":"zip"},"type":"Feature","geometry":{"type":"Point","coordinates":[-75.80463,41.820346]}},{"properties":{"city":"GROVER","name":"GROVER","geo_score":0.857,"zip code":"17735","id":"a6qi4lhcfcg1","geo_precision":"zip"},"type":"Feature","geometry":{"type":"Point","coordinates":[-76.521266,41.77197]}},{"properties":{"city":"HILLSGROVE","name":"HILLSGROVE","geo_score":0.857,"zip code":"18619","id":"a6qi4ls42yr3","geo_precision":"zip"},"type":"Feature","geometry":{"type":"Point","coordinates":[-76.516887,41.432901]}},{"properties":{"city":"LAIRDSVILLE","name":"LAIRDSVILLE","geo_score":0.857,"zip code":"17742","id":"a6qi4lgdse90","geo_precision":"zip"},"type":"Feature","geometry":{"type":"Point","coordinates":[-76.594727,41.229734]}},{"properties":{"city":"LOCUST GAP","name":"LOCUST GAP","geo_score":0.786,"zip code":"17840","id":"a6qi4ln24pai","geo_precision":"zip"},"type":"Feature","geometry":{"type":"Point","coordinates":[-76.403841,40.772031]}},{"properties":{"city":"LOPEZ","name":"LOPEZ","geo_score":0.857,"zip code":"18628","id":"a6qi4lu3ocx4","geo_precision":"zip"},"type":"Feature","geometry":{"type":"Point","coordinates":[-76.516887,41.432901]}},{"properties":{"city":"MILDRED","name":"MILDRED","geo_score":0.714,"zip code":"18632","id":"a6qi4lg2mfm9","geo_precision":"zip"},"type":"Feature","geometry":{"type":"Point","coordinates":[-76.381607,41.470354]}},{"properties":{"city":"MILLRIFT","name":"MILLRIFT","geo_score":0.857,"zip code":"18340","id":"a6qi4ll984iv","geo_precision":"zip"},"type":"Feature","geometry":{"type":"Point","coordinates":[-74.751138,41.413707]}},{"properties":{"city":"POYNTELLE","name":"POYNTELLE","geo_score":0.857,"zip code":"18454","id":"a6qi4lhbfrqq","geo_precision":"zip"},"type":"Feature","geometry":{"type":"Point","coordinates":[-75.274708,41.615989]}},{"properties":{"city":"PRESTON PARK","name":"PRESTON PARK","geo_score":0.857,"zip code":"18455","id":"a6qi4lgd2puf","geo_precision":"zip"},"type":"Feature","geometry":{"type":"Point","coordinates":[-75.274708,41.615989]}},{"properties":{"city":"RALSTON","name":"RALSTON","geo_score":0.776,"zip code":"17763","id":"a6qi4ljqyqbi","geo_precision":"zip"},"type":"Feature","geometry":{"type":"Point","coordinates":[-76.949965,41.517854]}},{"properties":{"city":"RANSOM","name":"RANSOM","geo_score":0.857,"zip code":"18653","id":"a6qi4lfoqas8","geo_precision":"zip"},"type":"Feature","geometry":{"type":"Point","coordinates":[-75.824239,41.394526]}},{"properties":{"city":"REBUCK","name":"REBUCK","geo_score":0.757,"zip code":"17867","id":"a6qi4ltx226g","geo_precision":"zip"},"type":"Feature","geometry":{"type":"Point","coordinates":[-76.682742,40.713141]}},{"properties":{"city":"SHUNK","name":"SHUNK","geo_score":0.726,"zip code":"17768","id":"a6qi4ljibidj","geo_precision":"zip"},"type":"Feature","geometry":{"type":"Point","coordinates":[-76.784957,41.57452]}},{"properties":{"city":"SOUTH GIBSON","name":"SOUTH GIBSON","geo_score":0.857,"zip code":"18842","id":"a6qi4lhbdpgi","geo_precision":"zip"},"type":"Feature","geometry":{"type":"Point","coordinates":[-75.80463,41.820346]}},{"properties":{"city":"STARRUCCA","name":"STARRUCCA","geo_score":0.73,"zip code":"18462","id":"a6qi4lmy9oed","geo_precision":"zip"},"type":"Feature","geometry":{"type":"Point","coordinates":[-75.392955,41.889529]}},{"properties":{"city":"SWENGEL","name":"SWENGEL","geo_score":0.857,"zip code":"17880","id":"a6qi4ln0qpos","geo_precision":"zip"},"type":"Feature","geometry":{"type":"Point","coordinates":[-77.08184,40.978059]}},{"properties":{"city":"TROXELVILLE","name":"TROXELVILLE","geo_score":0.857,"zip code":"17882","id":"a6qi4lsrlyxn","geo_precision":"zip"},"type":"Feature","geometry":{"type":"Point","coordinates":[-77.07752,40.762675]}},{"properties":{"city":"WEIKERT","name":"WEIKERT","geo_score":0.746,"zip code":"17885","id":"a6qi4lhmsbpx","geo_precision":"zip"},"type":"Feature","geometry":{"type":"Point","coordinates":[-77.354431,40.849516]}},{"properties":{"city":"ARISTES","name":"ARISTES","geo_score":0.857,"zip code":"17920","id":"a6qi4loqhn01","geo_precision":"zip"},"type":"Feature","geometry":{"type":"Point","coordinates":[-76.350279,40.816696]}},{"properties":{"city":"BEACH HAVEN","name":"BEACH HAVEN","geo_score":0.857,"zip code":"18601","id":"a6qi4lprvxi3","geo_precision":"zip"},"type":"Feature","geometry":{"type":"Point","coordinates":[-75.880146,41.272248]}},{"properties":{"city":"CAMBRA","name":"CAMBRA","geo_score":0.857,"zip code":"18611","id":"a6qi4lfmkh56","geo_precision":"zip"},"type":"Feature","geometry":{"type":"Point","coordinates":[-75.775517,41.110259]}},{"properties":{"city":"JUNEDALE","name":"JUNEDALE","geo_score":0.857,"zip code":"18230","id":"a6qi4lgjdvnw","geo_precision":"zip"},"type":"Feature","geometry":{"type":"Point","coordinates":[-75.73577,40.934763]}},{"properties":{"city":"PARRYVILLE","name":"PARRYVILLE","geo_score":0.857,"zip code":"18244","id":"a6qi4lh5z7kc","geo_precision":"zip"},"type":"Feature","geometry":{"type":"Point","coordinates":[-75.665068,40.824546]}},{"properties":{"city":"POCONO MANOR","name":"POCONO MANOR","geo_score":0.857,"zip code":"18349","id":"a6qi4llb2brh","geo_precision":"zip"},"type":"Feature","geometry":{"type":"Point","coordinates":[-75.45882,41.122633]}},{"properties":{"city":"ROCK GLEN","name":"ROCK GLEN","geo_score":0.857,"zip code":"18246","id":"a6qi4lgjhlpa","geo_precision":"zip"},"type":"Feature","geometry":{"type":"Point","coordinates":[-76.174707,40.954011]}},{"properties":{"city":"SKYTOP","name":"SKYTOP","geo_score":0.857,"zip code":"18357","id":"a6qi4lilxv4m","geo_precision":"zip"},"type":"Feature","geometry":{"type":"Point","coordinates":[-75.238879,41.233562]}},{"properties":{"city":"TAYLOR","name":"TAYLOR","geo_score":0.857,"zip code":"18517","id":"a6qi4lqyhbx7","geo_precision":"zip"},"type":"Feature","geometry":{"type":"Point","coordinates":[-75.713185,41.382529]}},{"properties":{"city":"WESTON","name":"WESTON","geo_score":0.857,"zip code":"18256","id":"a6qi4lv335mn","geo_precision":"zip"},"type":"Feature","geometry":{"type":"Point","coordinates":[-76.145197,40.944777]}},{"properties":{"city":"ACOSTA","name":"ACOSTA","geo_score":0.857,"zip code":"15520","id":"a6qi4luu59u7","geo_precision":"zip"},"type":"Feature","geometry":{"type":"Point","coordinates":[-79.070218,40.113021]}},{"properties":{"city":"ALEPPO","name":"ALEPPO","geo_score":0.857,"zip code":"15310","id":"a6qi4lroukn9","geo_precision":"zip"},"type":"Feature","geometry":{"type":"Point","coordinates":[-80.211335,39.870635]}},{"properties":{"city":"ALLENPORT","name":"ALLENPORT","geo_score":0.857,"zip code":"15412","id":"a6qi4liispez","geo_precision":"zip"},"type":"Feature","geometry":{"type":"Point","coordinates":[-79.849887,40.095888]}},{"properties":{"city":"ALVERDA","name":"ALVERDA","geo_score":0.857,"zip code":"15710","id":"a6qi4ls8ytjm","geo_precision":"zip"},"type":"Feature","geometry":{"type":"Point","coordinates":[-78.872314,40.633313]}},{"properties":{"city":"BRAVE","name":"BRAVE","geo_score":0.857,"zip code":"15316","id":"a6qi4loayrdf","geo_precision":"zip"},"type":"Feature","geometry":{"type":"Point","coordinates":[-80.211335,39.870635]}},{"properties":{"city":"CARDALE","name":"CARDALE","geo_score":0.735,"zip code":"15420","id":"a6qi4lv1ejdf","geo_precision":"zip"},"type":"Feature","geometry":{"type":"Point","coordinates":[-79.853936,39.951187]}},{"properties":{"city":"CASSANDRA","name":"CASSANDRA","geo_score":0.714,"zip code":"15925","id":"a6qi4ljly30c","geo_precision":"zip"},"type":"Feature","geometry":{"type":"Point","coordinates":[-78.640018,40.402295]}},{"properties":{"city":"WASHINGTON","name":"CENTRAL STATION WASHINGTON","geo_score":0.729,"zip code":"15301","id":"a6qi4lkwpf8q","geo_precision":"zip"},"type":"Feature","geometry":{"type":"Point","coordinates":[-80.287839,40.192849]}},{"properties":{"city":"CHESTNUT RIDGE","name":"CHESTNUT RIDGE","geo_score":0.857,"zip code":"15422","id":"a6qi4llpfa1v","geo_precision":"zip"},"type":"Feature","geometry":{"type":"Point","coordinates":[-79.817083,39.992254]}},{"properties":{"city":"DENBO","name":"DENBO","geo_score":0.75,"zip code":"15429","id":"a6qi4lnrggiv","geo_precision":"zip"},"type":"Feature","geometry":{"type":"Point","coordinates":[-79.937549,40.002574]}},{"properties":{"city":"DICKERSON RUN","name":"DICKERSON RUN","geo_score":0.857,"zip code":"15430","id":"a6qi4lg9f1v6","geo_precision":"zip"},"type":"Feature","geometry":{"type":"Point","coordinates":[-79.659978,40.041785]}},{"properties":{"city":"UNIONTOWN","name":"DOWNTOWN UNIONTOWN","geo_score":0.746,"zip code":"15401","id":"a6qi4ls9wvei","geo_precision":"zip"},"type":"Feature","geometry":{"type":"Point","coordinates":[-79.779493,39.832577]}},{"properties":{"city":"EAST MILLSBORO","name":"EAST MILLSBORO","geo_score":0.747,"zip code":"15433","id":"a6qi4ljaslcv","geo_precision":"zip"},"type":"Feature","geometry":{"type":"Point","coordinates":[-79.973107,39.97313]}},{"properties":{"city":"EMEIGH","name":"EMEIGH","geo_score":0.857,"zip code":"15738","id":"a6qi4liw2vx1","geo_precision":"zip"},"type":"Feature","geometry":{"type":"Point","coordinates":[-78.775076,40.693633]}},{"properties":{"city":"GARARDS FORT","name":"GARARDS FORT","geo_score":0.735,"zip code":"15334","id":"a6qi4lhad914","geo_precision":"zip"},"type":"Feature","geometry":{"type":"Point","coordinates":[-79.97228,39.815077]}},{"properties":{"city":"GRAY","name":"GRAY","geo_score":0.857,"zip code":"15544","id":"a6qi4llxuu3b","geo_precision":"zip"},"type":"Feature","geometry":{"type":"Point","coordinates":[-79.092551,40.137749]}},{"properties":{"city":"HANNASTOWN","name":"HANNASTOWN","geo_score":0.857,"zip code":"15635","id":"a6qi4lkcvo6b","geo_precision":"zip"},"type":"Feature","geometry":{"type":"Point","coordinates":[-79.49789,40.352037]}},{"properties":{"city":"HIBBS","name":"HIBBS","geo_score":0.857,"zip code":"15443","id":"a6qi4lryee7d","geo_precision":"zip"},"type":"Feature","geometry":{"type":"Point","coordinates":[-79.901324,39.926347]}},{"properties":{"city":"ISABELLA","name":"ISABELLA","geo_score":0.857,"zip code":"15447","id":"a6qi4lsnibbe","geo_precision":"zip"},"type":"Feature","geometry":{"type":"Point","coordinates":[-79.939317,39.945987]}},{"properties":{"city":"MANORVILLE","name":"MANORVILLE","geo_score":0.857,"zip code":"16238","id":"a6qi4llhnwjd","geo_precision":"zip"},"type":"Feature","geometry":{"type":"Point","coordinates":[-79.521034,40.787688]}},{"properties":{"city":"MARTIN","name":"MARTIN","geo_score":0.75,"zip code":"15460","id":"a6qi4lvnwdip","geo_precision":"zip"},"type":"Feature","geometry":{"type":"Point","coordinates":[-79.916444,39.816466]}},{"properties":{"city":"NEW GENEVA","name":"NEW GENEVA","geo_score":0.731,"zip code":"15467","id":"a6qi4lh7ga3c","geo_precision":"zip"},"type":"Feature","geometry":{"type":"Point","coordinates":[-79.917001,39.782855]}},{"properties":{"city":"NINEVEH","name":"NINEVEH","geo_score":0.857,"zip code":"15353","id":"a6qi4lureqaq","geo_precision":"zip"},"type":"Feature","geometry":{"type":"Point","coordinates":[-80.211335,39.870635]}},{"properties":{"city":"ROGERSVILLE","name":"ROGERSVILLE","geo_score":0.857,"zip code":"15359","id":"a6qi4llnqbny","geo_precision":"zip"},"type":"Feature","geometry":{"type":"Point","coordinates":[-80.211335,39.870635]}},{"properties":{"city":"RONCO","name":"RONCO","geo_score":0.857,"zip code":"15476","id":"a6qi4lramsq1","geo_precision":"zip"},"type":"Feature","geometry":{"type":"Point","coordinates":[-79.916806,39.879384]}},{"properties":{"city":"SCHENLEY","name":"SCHENLEY","geo_score":0.714,"zip code":"15682","id":"a6qi4lsduias","geo_precision":"zip"},"type":"Feature","geometry":{"type":"Point","coordinates":[-79.656714,40.691732]}},{"properties":{"city":"SYCAMORE","name":"SYCAMORE","geo_score":0.73,"zip code":"15364","id":"a6qi4lpgcboo","geo_precision":"zip"},"type":"Feature","geometry":{"type":"Point","coordinates":[-80.270619,40.002573]}},{"properties":{"city":"VAN VOORHIS","name":"VAN VOORHIS","geo_score":0.857,"zip code":"15366","id":"a6qi4lmjdpj9","geo_precision":"zip"},"type":"Feature","geometry":{"type":"Point","coordinates":[-80.031787,40.110068]}},{"properties":{"city":"WEBSTER","name":"WEBSTER","geo_score":0.857,"zip code":"15087","id":"a6qi4lg399yt","geo_precision":"zip"},"type":"Feature","geometry":{"type":"Point","coordinates":[-79.439801,40.360223]}},{"properties":{"city":"WEST LEISENRING","name":"WEST LEISENRING","geo_score":0.735,"zip code":"15489","id":"a6qi4lps9nhh","geo_precision":"zip"},"type":"Feature","geometry":{"type":"Point","coordinates":[-79.700041,39.95452]}},{"properties":{"city":"WICKHAVEN","name":"WICKHAVEN","geo_score":0.857,"zip code":"15492","id":"a6qi4lh5tzn8","geo_precision":"zip"},"type":"Feature","geometry":{"type":"Point","coordinates":[-79.771797,40.117828]}},{"properties":{"city":"SALFORD","name":"SALFORD","geo_score":0.857,"zip code":"18957","id":"a6qi4ll4fqar","geo_precision":"zip"},"type":"Feature","geometry":{"type":"Point","coordinates":[-75.448579,40.302945]}},{"properties":{"city":"WOXALL","name":"WOXALL","geo_score":0.714,"zip code":"18979","id":"a6qi4lmkburu","geo_precision":"zip"},"type":"Feature","geometry":{"type":"Point","coordinates":[-75.462955,40.305101]}},{"properties":{"city":"PITTSBURGH","name":"ALLEGHENY","geo_score":0.724,"zip code":"15212","id":"a6qi4lroyii7","geo_precision":"zip"},"type":"Feature","geometry":{"type":"Point","coordinates":[-79.989104,40.48529]}},{"properties":{"city":"PITTSBURGH","name":"BELLEVUE","geo_score":0.757,"zip code":"15202","id":"a6qi4lmbg1cj","geo_precision":"zip"},"type":"Feature","geometry":{"type":"Point","coordinates":[-80.094501,40.510068]}},{"properties":{"city":"PITTSBURGH","name":"BROOKLINE","geo_score":0.714,"zip code":"15226","id":"a6qi4lpajsuc","geo_precision":"zip"},"type":"Feature","geometry":{"type":"Point","coordinates":[-80.017831,40.392014]}},{"properties":{"city":"PITTSBURGH","name":"FOURTH AVENUE","geo_score":0.857,"zip code":"15222","id":"a6qi4lvkkhf7","geo_precision":"zip"},"type":"Feature","geometry":{"type":"Point","coordinates":[-80.024817,40.434436]}},{"properties":{"city":"PITTSBURGH","name":"GATEWAY CENTER","geo_score":0.857,"zip code":"15222","id":"a6qi4lubaaws","geo_precision":"zip"},"type":"Feature","geometry":{"type":"Point","coordinates":[-80.024817,40.434436]}},{"properties":{"city":"PITTSBURGH","name":"HAZELWOOD","geo_score":0.714,"zip code":"15207","id":"a6qi4lhsdgwh","geo_precision":"zip"},"type":"Feature","geometry":{"type":"Point","coordinates":[-79.939218,40.413403]}},{"properties":{"city":"PITTSBURGH","name":"SHARPSBURG","geo_score":0.771,"zip code":"15215","id":"a6qi4lqujc7y","geo_precision":"zip"},"type":"Feature","geometry":{"type":"Point","coordinates":[-79.926441,40.494513]}},{"properties":{"city":"PITTSBURGH","name":"UPTOWN PITTSBURGH","geo_score":0.857,"zip code":"15219","id":"a6qi4lu1m170","geo_precision":"zip"},"type":"Feature","geometry":{"type":"Point","coordinates":[-80.017075,40.375351]}},{"properties":{"city":"PITTSBURGH","name":"VETERANS HOSPITAL PITTSBURGH","geo_score":0.857,"zip code":"15240","id":"a6qi4lfwg4bs","geo_precision":"zip"},"type":"Feature","geometry":{"type":"Point","coordinates":[-80.024817,40.434436]}},{"properties":{"city":"PITTSBURGH","name":"WYLIE","geo_score":0.857,"zip code":"15219","id":"a6qi4lqbds0k","geo_precision":"zip"},"type":"Feature","geometry":{"type":"Point","coordinates":[-80.017075,40.375351]}},{"properties":{"city":"BETHLEHEM","name":"SOUTHSIDE","geo_score":0.714,"zip code":"18015","id":"a6qi4llnldco","geo_precision":"zip"},"type":"Feature","geometry":{"type":"Point","coordinates":[-75.387681,40.581765]}},{"properties":{"city":"LANCASTER","name":"DOWNTOWN LANCASTER","geo_score":0.714,"zip code":"17603","id":"a6qi4lkvzizs","geo_precision":"zip"},"type":"Feature","geometry":{"type":"Point","coordinates":[-76.329682,40.040098]}},{"properties":{"city":"DRUMORE","name":"DRUMORE","geo_score":0.857,"zip code":"17518","id":"a6qi4lups1lt","geo_precision":"zip"},"type":"Feature","geometry":{"type":"Point","coordinates":[-76.249931,39.818309]}},{"properties":{"city":"TALMAGE","name":"TALMAGE","geo_score":0.857,"zip code":"17580","id":"a6qi4lf6lrsp","geo_precision":"zip"},"type":"Feature","geometry":{"type":"Point","coordinates":[-76.213075,40.116846]}},{"properties":{"city":"CUMBOLA","name":"CUMBOLA","geo_score":0.857,"zip code":"17930","id":"a6qi4lkw3avn","geo_precision":"zip"},"type":"Feature","geometry":{"type":"Point","coordinates":[-76.139162,40.711356]}},{"properties":{"city":"LOCUSTDALE","name":"LOCUSTDALE","geo_score":0.857,"zip code":"17945","id":"a6qi4lf5tpup","geo_precision":"zip"},"type":"Feature","geometry":{"type":"Point","coordinates":[-76.370427,40.774531]}},{"properties":{"city":"LOST CREEK","name":"LOST CREEK","geo_score":0.73,"zip code":"17946","id":"a6qi4lnpoaby","geo_precision":"zip"},"type":"Feature","geometry":{"type":"Point","coordinates":[-76.253554,40.816199]}},{"properties":{"city":"MAHANOY PLANE","name":"MAHANOY PLANE","geo_score":0.857,"zip code":"17949","id":"a6qi4lo37qi5","geo_precision":"zip"},"type":"Feature","geometry":{"type":"Point","coordinates":[-76.243323,40.794007]}},{"properties":{"city":"MARY D","name":"MARY D","geo_score":0.857,"zip code":"17952","id":"a6qi4lipadah","geo_precision":"zip"},"type":"Feature","geometry":{"type":"Point","coordinates":[-76.062825,40.747301]}},{"properties":{"city":"MUIR","name":"MUIR","geo_score":0.857,"zip code":"17957","id":"a6qi4lhraw9t","geo_precision":"zip"},"type":"Feature","geometry":{"type":"Point","coordinates":[-76.516075,40.592578]}},{"properties":{"city":"SPRING GLEN","name":"SPRING GLEN","geo_score":0.857,"zip code":"17978","id":"a6qi4lhvsd46","geo_precision":"zip"},"type":"Feature","geometry":{"type":"Point","coordinates":[-76.621769,40.625754]}},{"properties":{"city":"STEELTON","name":"STEELTON","geo_score":0.745,"zip code":"17113","id":"a6qi4lqgoenz","geo_precision":"zip"},"type":"Feature","geometry":{"type":"Point","coordinates":[-76.822472,40.243701]}},{"properties":{"city":"COULTERS","name":"COULTERS","geo_score":0.857,"zip code":"15028","id":"a6qi4lvfmxf1","geo_precision":"zip"},"type":"Feature","geometry":{"type":"Point","coordinates":[-80.024817,40.434436]}},{"properties":{"city":"HUTCHINSON","name":"HUTCHINSON","geo_score":0.857,"zip code":"15640","id":"a6qi4lifd0xm","geo_precision":"zip"},"type":"Feature","geometry":{"type":"Point","coordinates":[-79.732805,40.225086]}},{"properties":{"city":"JACOBS CREEK","name":"JACOBS CREEK","geo_score":0.857,"zip code":"15448","id":"a6qi4ljf5cje","geo_precision":"zip"},"type":"Feature","geometry":{"type":"Point","coordinates":[-79.439801,40.360223]}},{"properties":{"city":"JOFFRE","name":"JOFFRE","geo_score":0.857,"zip code":"15053","id":"a6qi4lns2kyz","geo_precision":"zip"},"type":"Feature","geometry":{"type":"Point","coordinates":[-80.360544,40.380036]}},{"properties":{"city":"SOUTHVIEW","name":"SOUTHVIEW","geo_score":0.857,"zip code":"15361","id":"a6qi4lq1ob10","geo_precision":"zip"},"type":"Feature","geometry":{"type":"Point","coordinates":[-80.256291,40.32819]}},{"properties":{"city":"WEST FINLEY","name":"WEST FINLEY","geo_score":0.726,"zip code":"15377","id":"a6qi4lm3791x","geo_precision":"zip"},"type":"Feature","geometry":{"type":"Point","coordinates":[-80.398123,39.978408]}},{"properties":{"city":"WESTLAND","name":"WESTLAND","geo_score":0.857,"zip code":"15378","id":"a6qi4ljlv87d","geo_precision":"zip"},"type":"Feature","geometry":{"type":"Point","coordinates":[-80.27313,40.277534]}},{"properties":{"city":"DOVER","name":"DOVER","geo_score":0.727,"zip code":"17315","id":"a6qi4lkxyrd4","geo_precision":"zip"},"type":"Feature","geometry":{"type":"Point","coordinates":[-76.82247,39.983708]}},{"properties":{"city":"PHILADELPHIA","name":"30TH STREET TRAIN STATION","geo_score":0.857,"zip code":"19104","id":"a6qi4ljs8fhf","geo_precision":"zip"},"type":"Feature","geometry":{"type":"Point","coordinates":[-75.19668,39.960912]}},{"properties":{"city":"PHILADELPHIA","name":"EAST FALLS","geo_score":0.726,"zip code":"19129","id":"a6qi4lnlcvp7","geo_precision":"zip"},"type":"Feature","geometry":{"type":"Point","coordinates":[-75.191568,40.014557]}},{"properties":{"city":"PHILADELPHIA","name":"KINGSESSING","geo_score":0.857,"zip code":"19143","id":"a6qi4lsts9lx","geo_precision":"zip"},"type":"Feature","geometry":{"type":"Point","coordinates":[-75.187023,39.957312]}},{"properties":{"city":"PHILADELPHIA","name":"MANAYUNK","geo_score":0.726,"zip code":"19127","id":"a6qi4lsve8x3","geo_precision":"zip"},"type":"Feature","geometry":{"type":"Point","coordinates":[-75.214068,40.024557]}},{"properties":{"city":"PHILADELPHIA","name":"ROXBOROUGH POSTAL STORE","geo_score":0.726,"zip code":"19128","id":"a6qi4lfinsvi","geo_precision":"zip"},"type":"Feature","geometry":{"type":"Point","coordinates":[-75.222402,40.038167]}},{"properties":{"city":"PHILADELPHIA","name":"SCHUYLKILL","geo_score":0.857,"zip code":"19146","id":"a6qi4lq3iahy","geo_precision":"zip"},"type":"Feature","geometry":{"type":"Point","coordinates":[-75.175822,39.945112]}},{"properties":{"city":"PHILADELPHIA","name":"WEST MARKET","geo_score":0.857,"zip code":"19139","id":"a6qi4ljugn4j","geo_precision":"zip"},"type":"Feature","geometry":{"type":"Point","coordinates":[-75.117519,39.996211]}},{"properties":{"city":"PHILADELPHIA","name":"WEST PARK","geo_score":0.857,"zip code":"19131","id":"a6qi4lgh5vlh","geo_precision":"zip"},"type":"Feature","geometry":{"type":"Point","coordinates":[-75.207774,39.996811]}},{"properties":{"city":"ADAMSVILLE","name":"ADAMSVILLE","geo_score":0.857,"zip code":"16110","id":"a6qi4ln0vuik","geo_precision":"zip"},"type":"Feature","geometry":{"type":"Point","coordinates":[-80.214024,41.629436]}},{"properties":{"city":"BEAR LAKE","name":"BEAR LAKE","geo_score":0.729,"zip code":"16402","id":"a6qi4lp1zaik","geo_precision":"zip"},"type":"Feature","geometry":{"type":"Point","coordinates":[-79.433384,41.951723]}},{"properties":{"city":"CARLTON","name":"CARLTON","geo_score":0.725,"zip code":"16311","id":"a6qi4ls03fxo","geo_precision":"zip"},"type":"Feature","geometry":{"type":"Point","coordinates":[-80.062282,41.470332]}},{"properties":{"city":"CHANDLERS VALLEY","name":"CHANDLERS VALLEY","geo_score":0.857,"zip code":"16312","id":"a6qi4lsaat1y","geo_precision":"zip"},"type":"Feature","geometry":{"type":"Point","coordinates":[-79.309668,41.935848]}},{"properties":{"city":"ELGIN","name":"ELGIN","geo_score":0.857,"zip code":"16413","id":"a6qi4lpkpfaj","geo_precision":"zip"},"type":"Feature","geometry":{"type":"Point","coordinates":[-80.064915,42.182748]}},{"properties":{"city":"GRAND VALLEY","name":"GRAND VALLEY","geo_score":0.727,"zip code":"16420","id":"a6qi4lq6mylg","geo_precision":"zip"},"type":"Feature","geometry":{"type":"Point","coordinates":[-79.52255,41.735893]}},{"properties":{"city":"HILLIARDS","name":"HILLIARDS","geo_score":0.738,"zip code":"16040","id":"a6qi4lji2gg0","geo_precision":"zip"},"type":"Feature","geometry":{"type":"Point","coordinates":[-79.852553,41.075618]}},{"properties":{"city":"OAK RIDGE","name":"OAK RIDGE","geo_score":0.857,"zip code":"16245","id":"a6qi4lll1i96","geo_precision":"zip"},"type":"Feature","geometry":{"type":"Point","coordinates":[-79.451575,40.847829]}},{"properties":{"city":"ERIE","name":"PERRY SQUARE","geo_score":0.857,"zip code":"16501","id":"a6qi4lg24cq2","geo_precision":"zip"},"type":"Feature","geometry":{"type":"Point","coordinates":[-80.087341,42.087337]}},{"properties":{"city":"SAGAMORE","name":"SAGAMORE","geo_score":0.857,"zip code":"16250","id":"a6qi4lfmwdvn","geo_precision":"zip"},"type":"Feature","geometry":{"type":"Point","coordinates":[-79.233585,40.777387]}},{"properties":{"city":"SPRING CREEK","name":"SPRING CREEK","geo_score":0.857,"zip code":"16436","id":"a6qi4lo0hj31","geo_precision":"zip"},"type":"Feature","geometry":{"type":"Point","coordinates":[-79.448206,41.920018]}},{"properties":{"city":"ANTES FORT","name":"ANTES FORT","geo_score":0.857,"zip code":"17720","id":"a6qi4lofbxmn","geo_precision":"zip"},"type":"Feature","geometry":{"type":"Point","coordinates":[-77.218368,41.186545]}},{"properties":{"city":"ARNOT","name":"ARNOT","geo_score":0.857,"zip code":"16911","id":"a6qi4llst7i0","geo_precision":"zip"},"type":"Feature","geometry":{"type":"Point","coordinates":[-77.242228,41.77197]}},{"properties":{"city":"BENEZETT","name":"BENEZETT","geo_score":0.857,"zip code":"15821","id":"a6qi4lqw65ne","geo_precision":"zip"},"type":"Feature","geometry":{"type":"Point","coordinates":[-78.665057,41.415878]}},{"properties":{"city":"BRISBIN","name":"BRISBIN","geo_score":0.857,"zip code":"16620","id":"a6qi4loh4uuo","geo_precision":"zip"},"type":"Feature","geometry":{"type":"Point","coordinates":[-78.422403,40.989115]}},{"properties":{"city":"STATE COLLEGE","name":"CALDER SQUARE","geo_score":0.726,"zip code":"16801","id":"a6qi4lp4tonp","geo_precision":"zip"},"type":"Feature","geometry":{"type":"Point","coordinates":[-77.825555,40.763396]}},{"properties":{"city":"COOKSBURG","name":"COOKSBURG","geo_score":0.857,"zip code":"16217","id":"a6qi4lisuhcy","geo_precision":"zip"},"type":"Feature","geometry":{"type":"Point","coordinates":[-79.239101,41.475887]}},{"properties":{"city":"CROSBY","name":"CROSBY","geo_score":0.857,"zip code":"16724","id":"a6qi4lpnbxqy","geo_precision":"zip"},"type":"Feature","geometry":{"type":"Point","coordinates":[-78.579739,41.801078]}},{"properties":{"city":"CROSS FORK","name":"CROSS FORK","geo_score":0.73,"zip code":"17729","id":"a6qi4lp1yav8","geo_precision":"zip"},"type":"Feature","geometry":{"type":"Point","coordinates":[-77.848326,41.42451]}},{"properties":{"city":"CURLLSVILLE","name":"CURLLSVILLE","geo_score":0.857,"zip code":"16221","id":"a6qi4luntoma","geo_precision":"zip"},"type":"Feature","geometry":{"type":"Point","coordinates":[-79.453751,41.202325]}},{"properties":{"city":"DAGUS MINES","name":"DAGUS MINES","geo_score":0.857,"zip code":"15831","id":"a6qi4ljcq43x","geo_precision":"zip"},"type":"Feature","geometry":{"type":"Point","coordinates":[-78.621286,41.304782]}},{"properties":{"city":"DRIFTWOOD","name":"DRIFTWOOD","geo_score":0.727,"zip code":"15832","id":"a6qi4lj772ka","geo_precision":"zip"},"type":"Feature","geometry":{"type":"Point","coordinates":[-78.198897,41.414785]}},{"properties":{"city":"ENDEAVOR","name":"ENDEAVOR","geo_score":0.857,"zip code":"16322","id":"a6qi4lsxbew4","geo_precision":"zip"},"type":"Feature","geometry":{"type":"Point","coordinates":[-79.239101,41.475887]}},{"properties":{"city":"FISHER","name":"FISHER","geo_score":0.857,"zip code":"16225","id":"a6qi4lus1zfa","geo_precision":"zip"},"type":"Feature","geometry":{"type":"Point","coordinates":[-79.453751,41.202325]}},{"properties":{"city":"FOXBURG","name":"FOXBURG","geo_score":0.727,"zip code":"16036","id":"a6qi4ll5jctz","geo_precision":"zip"},"type":"Feature","geometry":{"type":"Point","coordinates":[-76.703858,40.321201]}},{"properties":{"city":"GARLAND","name":"GARLAND","geo_score":0.857,"zip code":"16416","id":"a6qi4lntgxpv","geo_precision":"zip"},"type":"Feature","geometry":{"type":"Point","coordinates":[-79.446306,41.818831]}},{"properties":{"city":"GRANVILLE","name":"GRANVILLE","geo_score":0.73,"zip code":"17029","id":"a6qi4lvj4r05","geo_precision":"zip"},"type":"Feature","geometry":{"type":"Point","coordinates":[-77.645548,40.539797]}},{"properties":{"city":"HAMILTON","name":"HAMILTON","geo_score":0.857,"zip code":"15744","id":"a6qi4llr73v7","geo_precision":"zip"},"type":"Feature","geometry":{"type":"Point","coordinates":[-78.962877,41.141079]}},{"properties":{"city":"HAZEL HURST","name":"HAZEL HURST","geo_score":0.857,"zip code":"16733","id":"a6qi4lsnpkiz","geo_precision":"zip"},"type":"Feature","geometry":{"type":"Point","coordinates":[-78.579739,41.801078]}},{"properties":{"city":"JAMES CITY","name":"JAMES CITY","geo_score":0.857,"zip code":"16734","id":"a6qi4loqgzyn","geo_precision":"zip"},"type":"Feature","geometry":{"type":"Point","coordinates":[-78.839413,41.619213]}},{"properties":{"city":"JERSEY MILLS","name":"JERSEY MILLS","geo_score":0.727,"zip code":"17739","id":"a6qi4lpnp6ia","geo_precision":"zip"},"type":"Feature","geometry":{"type":"Point","coordinates":[-77.413034,41.437292]}},{"properties":{"city":"KNOX DALE","name":"KNOX DALE","geo_score":0.857,"zip code":"15847","id":"a6qi4ljpna1m","geo_precision":"zip"},"type":"Feature","geometry":{"type":"Point","coordinates":[-78.962877,41.141079]}},{"properties":{"city":"KOSSUTH","name":"KOSSUTH","geo_score":0.857,"zip code":"16331","id":"a6qi4lu9c69e","geo_precision":"zip"},"type":"Feature","geometry":{"type":"Point","coordinates":[-79.453751,41.202325]}},{"properties":{"city":"LAMARTINE","name":"LAMARTINE","geo_score":0.857,"zip code":"16375","id":"a6qi4lhlex7j","geo_precision":"zip"},"type":"Feature","geometry":{"type":"Point","coordinates":[-79.453751,41.202325]}},{"properties":{"city":"LANSE","name":"LANSE","geo_score":0.74,"zip code":"16849","id":"a6qi4lrt0962","geo_precision":"zip"},"type":"Feature","geometry":{"type":"Point","coordinates":[-78.125288,40.96589]}},{"properties":{"city":"LIMESTONE","name":"LIMESTONE","geo_score":0.857,"zip code":"16234","id":"a6qi4ltqzci5","geo_precision":"zip"},"type":"Feature","geometry":{"type":"Point","coordinates":[-79.453751,41.202325]}},{"properties":{"city":"LUDLOW","name":"LUDLOW","geo_score":0.857,"zip code":"16333","id":"a6qi4lgwfngn","geo_precision":"zip"},"type":"Feature","geometry":{"type":"Point","coordinates":[-78.78726,41.742791]}},{"properties":{"city":"MACKEYVILLE","name":"MACKEYVILLE","geo_score":0.857,"zip code":"17750","id":"a6qi4lhsch65","geo_precision":"zip"},"type":"Feature","geometry":{"type":"Point","coordinates":[-77.495147,41.032529]}},{"properties":{"city":"MAINESBURG","name":"MAINESBURG","geo_score":0.857,"zip code":"16932","id":"a6qi4llkm8i1","geo_precision":"zip"},"type":"Feature","geometry":{"type":"Point","coordinates":[-77.035282,41.790065]}},{"properties":{"city":"MARBLE","name":"MARBLE","geo_score":0.74,"zip code":"16334","id":"a6qi4lri9wq2","geo_precision":"zip"},"type":"Feature","geometry":{"type":"Point","coordinates":[-79.452546,41.306173]}},{"properties":{"city":"MORANN","name":"MORANN","geo_score":0.857,"zip code":"16663","id":"a6qi4lmby2q2","geo_precision":"zip"},"type":"Feature","geometry":{"type":"Point","coordinates":[-78.422403,40.989115]}},{"properties":{"city":"MORRIS RUN","name":"MORRIS RUN","geo_score":0.857,"zip code":"16939","id":"a6qi4ls6bj1i","geo_precision":"zip"},"type":"Feature","geometry":{"type":"Point","coordinates":[-77.015194,41.677542]}},{"properties":{"city":"NELSON","name":"NELSON","geo_score":0.732,"zip code":"16940","id":"a6qi4lmxokp5","geo_precision":"zip"},"type":"Feature","geometry":{"type":"Point","coordinates":[-77.190808,41.97674]}},{"properties":{"city":"ROARING BRANCH","name":"ROARING BRANCH","geo_score":0.747,"zip code":"17765","id":"a6qi4lq9x6dh","geo_precision":"zip"},"type":"Feature","geometry":{"type":"Point","coordinates":[-76.97052,41.615353]}},{"properties":{"city":"SAINT PETERSBURG","name":"SAINT PETERSBURG","geo_score":0.857,"zip code":"16054","id":"a6qi4lktacib","geo_precision":"zip"},"type":"Feature","geometry":{"type":"Point","coordinates":[-79.453751,41.202325]}},{"properties":{"city":"SHAWVILLE","name":"SHAWVILLE","geo_score":0.857,"zip code":"16873","id":"a6qi4lsr3t2d","geo_precision":"zip"},"type":"Feature","geometry":{"type":"Point","coordinates":[-78.422403,40.989115]}},{"properties":{"city":"SINNAMAHONING","name":"SINNAMAHONING","geo_score":0.857,"zip code":"15861","id":"a6qi4lgthq40","geo_precision":"zip"},"type":"Feature","geometry":{"type":"Point","coordinates":[-78.204927,41.417566]}},{"properties":{"city":"SLATE RUN","name":"SLATE RUN","geo_score":0.857,"zip code":"17769","id":"a6qi4lmhu642","geo_precision":"zip"},"type":"Feature","geometry":{"type":"Point","coordinates":[-77.023601,41.33275]}},{"properties":{"city":"SMOKERUN","name":"SMOKERUN","geo_score":0.857,"zip code":"16681","id":"a6qi4lslkp1v","geo_precision":"zip"},"type":"Feature","geometry":{"type":"Point","coordinates":[-78.422403,40.989115]}},{"properties":{"city":"STUMP CREEK","name":"STUMP CREEK","geo_score":0.857,"zip code":"15863","id":"a6qi4lspqhee","geo_precision":"zip"},"type":"Feature","geometry":{"type":"Point","coordinates":[-78.962877,41.141079]}},{"properties":{"city":"TIMBLIN","name":"TIMBLIN","geo_score":0.857,"zip code":"15778","id":"a6qi4lmyhk1a","geo_precision":"zip"},"type":"Feature","geometry":{"type":"Point","coordinates":[-79.199017,40.967353]}},{"properties":{"city":"TIONA","name":"TIONA","geo_score":0.738,"zip code":"16352","id":"a6qi4lu4o6g6","geo_precision":"zip"},"type":"Feature","geometry":{"type":"Point","coordinates":[-79.30949,41.600062]}},{"properties":{"city":"TURTLEPOINT","name":"TURTLEPOINT","geo_score":0.714,"zip code":"16750","id":"a6qi4lt0gwjz","geo_precision":"zip"},"type":"Feature","geometry":{"type":"Point","coordinates":[-78.260291,41.901454]}},{"properties":{"city":"VALIER","name":"VALIER","geo_score":0.857,"zip code":"15780","id":"a6qi4llkn2lj","geo_precision":"zip"},"type":"Feature","geometry":{"type":"Point","coordinates":[-78.962877,41.141079]}},{"properties":{"city":"VOWINCKEL","name":"VOWINCKEL","geo_score":0.745,"zip code":"16260","id":"a6qi4lrw9aoz","geo_precision":"zip"},"type":"Feature","geometry":{"type":"Point","coordinates":[-79.221986,41.395341]}},{"properties":{"city":"WALLACETON","name":"WALLACETON","geo_score":0.857,"zip code":"16876","id":"a6qi4ltybewa","geo_precision":"zip"},"type":"Feature","geometry":{"type":"Point","coordinates":[-78.292599,40.961582]}},{"properties":{"city":"WATERVILLE","name":"WATERVILLE","geo_score":0.725,"zip code":"17776","id":"a6qi4lp6rtf7","geo_precision":"zip"},"type":"Feature","geometry":{"type":"Point","coordinates":[-77.279698,41.437294]}},{"properties":{"city":"WEST HICKORY","name":"WEST HICKORY","geo_score":0.857,"zip code":"16370","id":"a6qi4lfayfdq","geo_precision":"zip"},"type":"Feature","geometry":{"type":"Point","coordinates":[-79.239101,41.475887]}},{"properties":{"city":"WESTPORT","name":"WESTPORT","geo_score":0.75,"zip code":"17778","id":"a6qi4lkis77e","geo_precision":"zip"},"type":"Feature","geometry":{"type":"Point","coordinates":[-77.904161,41.258953]}},{"properties":{"city":"WOODWARD","name":"WOODWARD","geo_score":0.714,"zip code":"16882","id":"a6qi4lgufch5","geo_precision":"zip"},"type":"Feature","geometry":{"type":"Point","coordinates":[-77.42749,40.847292]}},{"properties":{"city":"WAYNE","name":"SAINT DAVIDS","geo_score":0.73,"zip code":"19087","id":"a6qi4lrnd6b8","geo_precision":"zip"},"type":"Feature","geometry":{"type":"Point","coordinates":[-75.404358,40.050942]}},{"properties":{"city":"ARCADIA","name":"ARCADIA","geo_score":0.857,"zip code":"15712","id":"a6qi4lteu2j4","geo_precision":"zip"},"type":"Feature","geometry":{"type":"Point","coordinates":[-78.853612,40.781719]}},{"properties":{"city":"ARTEMAS","name":"ARTEMAS","geo_score":0.743,"zip code":"17211","id":"a6qi4lpyvcj7","geo_precision":"zip"},"type":"Feature","geometry":{"type":"Point","coordinates":[-78.38168,39.751477]}},{"properties":{"city":"BLAIRS MILLS","name":"BLAIRS MILLS","geo_score":0.74,"zip code":"17213","id":"a6qi4lfrd546","geo_precision":"zip"},"type":"Feature","geometry":{"type":"Point","coordinates":[-77.774993,40.280637]}},{"properties":{"city":"BLANDBURG","name":"BLANDBURG","geo_score":0.857,"zip code":"16619","id":"a6qi4llwi448","geo_precision":"zip"},"type":"Feature","geometry":{"type":"Point","coordinates":[-78.413712,40.684687]}},{"properties":{"city":"BOYNTON","name":"BOYNTON","geo_score":0.857,"zip code":"15532","id":"a6qi4logz80e","geo_precision":"zip"},"type":"Feature","geometry":{"type":"Point","coordinates":[-79.062012,39.767296]}},{"properties":{"city":"BROWNFIELD","name":"BROWNFIELD","geo_score":0.857,"zip code":"15416","id":"a6qi4lo49hjc","geo_precision":"zip"},"type":"Feature","geometry":{"type":"Point","coordinates":[-79.65217,39.932084]}},{"properties":{"city":"CHAMBERSVILLE","name":"CHAMBERSVILLE","geo_score":0.857,"zip code":"15723","id":"a6qi4lof75tj","geo_precision":"zip"},"type":"Feature","geometry":{"type":"Point","coordinates":[-79.16151,40.705639]}},{"properties":{"city":"CHEST SPRINGS","name":"CHEST SPRINGS","geo_score":0.857,"zip code":"16624","id":"a6qi4lpg6pb8","geo_precision":"zip"},"type":"Feature","geometry":{"type":"Point","coordinates":[-78.599119,40.570219]}},{"properties":{"city":"CLUNE","name":"CLUNE","geo_score":0.857,"zip code":"15727","id":"a6qi4lm5eb16","geo_precision":"zip"},"type":"Feature","geometry":{"type":"Point","coordinates":[-79.323745,40.55027]}},{"properties":{"city":"CONCORD","name":"CONCORD","geo_score":0.857,"zip code":"17217","id":"a6qi4lmq54ki","geo_precision":"zip"},"type":"Feature","geometry":{"type":"Point","coordinates":[-77.725013,40.225168]}},{"properties":{"city":"CRYSTAL SPRING","name":"CRYSTAL SPRING","geo_score":0.725,"zip code":"15536","id":"a6qi4lhg2ut8","geo_precision":"zip"},"type":"Feature","geometry":{"type":"Point","coordinates":[-78.249456,39.910364]}},{"properties":{"city":"DEFIANCE","name":"DEFIANCE","geo_score":0.857,"zip code":"16633","id":"a6qi4lhlf9lf","geo_precision":"zip"},"type":"Feature","geometry":{"type":"Point","coordinates":[-78.234638,40.160065]}},{"properties":{"city":"DILLTOWN","name":"DILLTOWN","geo_score":0.857,"zip code":"15929","id":"a6qi4lvcv9y3","geo_precision":"zip"},"type":"Feature","geometry":{"type":"Point","coordinates":[-79.012834,40.462521]}},{"properties":{"city":"DUDLEY","name":"DUDLEY","geo_score":0.857,"zip code":"16634","id":"a6qi4lhj7iwo","geo_precision":"zip"},"type":"Feature","geometry":{"type":"Point","coordinates":[-77.966977,40.402523]}},{"properties":{"city":"DYSART","name":"DYSART","geo_score":0.735,"zip code":"16636","id":"a6qi4lntyifv","geo_precision":"zip"},"type":"Feature","geometry":{"type":"Point","coordinates":[-78.578354,40.613123]}},{"properties":{"city":"FAIRHOPE","name":"FAIRHOPE","geo_score":0.729,"zip code":"15538","id":"a6qi4lj9zg5f","geo_precision":"zip"},"type":"Feature","geometry":{"type":"Point","coordinates":[-78.78252,39.909804]}},{"properties":{"city":"GIBBON GLADE","name":"GIBBON GLADE","geo_score":0.857,"zip code":"15440","id":"a6qi4lotvzr4","geo_precision":"zip"},"type":"Feature","geometry":{"type":"Point","coordinates":[-79.628365,39.757751]}},{"properties":{"city":"GIPSY","name":"GIPSY","geo_score":0.857,"zip code":"15741","id":"a6qi4lu4ac0u","geo_precision":"zip"},"type":"Feature","geometry":{"type":"Point","coordinates":[-78.858614,40.796017]}},{"properties":{"city":"GLASGOW","name":"GLASGOW","geo_score":0.857,"zip code":"16644","id":"a6qi4lt65eu3","geo_precision":"zip"},"type":"Feature","geometry":{"type":"Point","coordinates":[-78.463679,40.717845]}},{"properties":{"city":"HONEY GROVE","name":"HONEY GROVE","geo_score":0.729,"zip code":"17035","id":"a6qi4lhcyvcs","geo_precision":"zip"},"type":"Feature","geometry":{"type":"Point","coordinates":[-77.611102,40.434523]}},{"properties":{"city":"LA JOSE","name":"LA JOSE","geo_score":0.726,"zip code":"15753","id":"a6qi4loqcwqx","geo_precision":"zip"},"type":"Feature","geometry":{"type":"Point","coordinates":[-78.631971,40.817563]}},{"properties":{"city":"LAKE LYNN","name":"LAKE LYNN","geo_score":0.714,"zip code":"15451","id":"a6qi4ls8gjer","geo_precision":"zip"},"type":"Feature","geometry":{"type":"Point","coordinates":[-79.857277,39.753411]}},{"properties":{"city":"LURGAN","name":"LURGAN","geo_score":0.732,"zip code":"17232","id":"a6qi4ln5c2cs","geo_precision":"zip"},"type":"Feature","geometry":{"type":"Point","coordinates":[-77.6136,40.152031]}},{"properties":{"city":"MC INTYRE","name":"MC INTYRE","geo_score":0.857,"zip code":"15756","id":"a6qi4lgsbh9x","geo_precision":"zip"},"type":"Feature","geometry":{"type":"Point","coordinates":[-79.299931,40.568381]}},{"properties":{"city":"NEELYTON","name":"NEELYTON","geo_score":0.857,"zip code":"17239","id":"a6qi4lnp8azn","geo_precision":"zip"},"type":"Feature","geometry":{"type":"Point","coordinates":[-77.966977,40.402523]}},{"properties":{"city":"NEW BALTIMORE","name":"NEW BALTIMORE","geo_score":0.857,"zip code":"15553","id":"a6qi4lpkz52m","geo_precision":"zip"},"type":"Feature","geometry":{"type":"Point","coordinates":[-78.771929,39.982795]}},{"properties":{"city":"NEW GERMANTOWN","name":"NEW GERMANTOWN","geo_score":0.857,"zip code":"17071","id":"a6qi4lpix67b","geo_precision":"zip"},"type":"Feature","geometry":{"type":"Point","coordinates":[-77.292578,40.406766]}},{"properties":{"city":"NEW MILLPORT","name":"NEW MILLPORT","geo_score":0.74,"zip code":"16861","id":"a6qi4lixtgmg","geo_precision":"zip"},"type":"Feature","geometry":{"type":"Point","coordinates":[-78.502801,40.84506]}},{"properties":{"city":"RIDDLESBURG","name":"RIDDLESBURG","geo_score":0.857,"zip code":"16672","id":"a6qi4lulfoaz","geo_precision":"zip"},"type":"Feature","geometry":{"type":"Point","coordinates":[-78.249266,40.175325]}},{"properties":{"city":"SPRUCE CREEK","name":"SPRUCE CREEK","geo_score":0.727,"zip code":"16683","id":"a6qi4lfkky41","geo_precision":"zip"},"type":"Feature","geometry":{"type":"Point","coordinates":[-78.027783,40.691452]}},{"properties":{"city":"STARFORD","name":"STARFORD","geo_score":0.857,"zip code":"15777","id":"a6qi4lgbkv5m","geo_precision":"zip"},"type":"Feature","geometry":{"type":"Point","coordinates":[-78.958847,40.702673]}},{"properties":{"city":"TORRANCE","name":"TORRANCE","geo_score":0.857,"zip code":"15779","id":"a6qi4lod3ioa","geo_precision":"zip"},"type":"Feature","geometry":{"type":"Point","coordinates":[-79.439801,40.360223]}},{"properties":{"city":"WELLS TANNERY","name":"WELLS TANNERY","geo_score":0.738,"zip code":"16691","id":"a6qi4llb49xh","geo_precision":"zip"},"type":"Feature","geometry":{"type":"Point","coordinates":[-78.115562,40.100639]}},{"properties":{"city":"WEST LEBANON","name":"WEST LEBANON","geo_score":0.857,"zip code":"15783","id":"a6qi4lpo6rd1","geo_precision":"zip"},"type":"Feature","geometry":{"type":"Point","coordinates":[-79.342331,40.583778]}},{"properties":{"city":"WOOD","name":"WOOD","geo_score":0.857,"zip code":"16694","id":"a6qi4llbzrzm","geo_precision":"zip"},"type":"Feature","geometry":{"type":"Point","coordinates":[-78.138144,40.165987]}}],"is_temporal":false,"author":{"url":"","metadata":null,"contact_name":null,"contact_address":null,"source":null,"contact_phone":null},"source":"","pagination":{"sort":null,"start":0,"total":203,"limit":1000000},"state":"complete","tags":"","published":"2014-08-13T09:46:56-04:00","id":138775}