{"type":"FeatureCollection","data_type":"Dataset","url_type":null,"permissions":[{"permissions":{"download":true,"view":true},"group_id":"everyone"}],"classification":null,"title":"Texas post offices being considered for closure","count":222,"stream_id":138874,"contributor":{"url":"http://geocommons.com/users/6368","name":"jlpeebles"},"data_attributes":null,"calculation_params":null,"icon_link":null,"link":"http://geocommons.com/overlays/138874.json","extent":[-106.303,26.4555,-93.7238,36.3911],"geometry_types":["point"],"unique_name":null,"name":"Texas post offices being considered for closure","feature_count":222,"description":"List of Texas post offices being considered for possible closure by the U.S. Postal Service, released July 26, 2011. ","next_feature":null,"is_raster":false,"short_classification":"Y","stats":{},"features":[{"properties":{"city":"JONESVILLE","geo_score":0.857,"zip code":"75659","office":"JONESVILLE","id":"a62of30w0py8","geo_precision":"zip"},"type":"Feature","geometry":{"type":"Point","coordinates":[-94.110636,32.507491]}},{"properties":{"city":"SELMAN CITY","geo_score":0.714,"zip code":"75689","office":"SELMAN CITY","id":"a62of333u6ml","geo_precision":"zip"},"type":"Feature","geometry":{"type":"Point","coordinates":[-94.949662,32.18988]}},{"properties":{"city":"CHRIESMAN","geo_score":0.857,"zip code":"77838","office":"CHRIESMAN","id":"a62of2utuq0u","geo_precision":"zip"},"type":"Feature","geometry":{"type":"Point","coordinates":[-96.618047,30.513118]}},{"properties":{"city":"DEANVILLE","geo_score":0.857,"zip code":"77852","office":"DEANVILLE","id":"a62of35avms7","geo_precision":"zip"},"type":"Feature","geometry":{"type":"Point","coordinates":[-96.618047,30.513118]}},{"properties":{"city":"ART","geo_score":0.857,"zip code":"76820","office":"ART","id":"a62of2tlqxwv","geo_precision":"zip"},"type":"Feature","geometry":{"type":"Point","coordinates":[-99.100089,30.720372]}},{"properties":{"city":"BARNHART","geo_score":0.857,"zip code":"76930","office":"BARNHART","id":"a62of355hrfl","geo_precision":"zip"},"type":"Feature","geometry":{"type":"Point","coordinates":[-101.126017,31.143346]}},{"properties":{"city":"BARSTOW","geo_score":0.857,"zip code":"79719","office":"BARSTOW","id":"a62of2uhw6tg","geo_precision":"zip"},"type":"Feature","geometry":{"type":"Point","coordinates":[-103.420615,31.453665]}},{"properties":{"city":"BLUFFTON","geo_score":0.857,"zip code":"78607","office":"BLUFFTON","id":"a62of2u2plpj","geo_precision":"zip"},"type":"Feature","geometry":{"type":"Point","coordinates":[-98.431188,30.828132]}},{"properties":{"city":"BROOKESMITH","geo_score":0.727,"zip code":"76827","office":"BROOKESMITH","id":"a62of2z0byv0","geo_precision":"zip"},"type":"Feature","geometry":{"type":"Point","coordinates":[-99.160884,31.472105]}},{"properties":{"city":"BURKETT","geo_score":0.73,"zip code":"76828","office":"BURKETT","id":"a62of2ruw28n","geo_precision":"zip"},"type":"Feature","geometry":{"type":"Point","coordinates":[-99.276731,32.030141]}},{"properties":{"city":"CASTELL","geo_score":0.857,"zip code":"76831","office":"CASTELL","id":"a62of2v3c2cc","geo_precision":"zip"},"type":"Feature","geometry":{"type":"Point","coordinates":[-98.657239,30.70395]}},{"properties":{"city":"DOOLE","geo_score":0.857,"zip code":"76836","office":"DOOLE","id":"a62of36bnq3w","geo_precision":"zip"},"type":"Feature","geometry":{"type":"Point","coordinates":[-99.347156,31.217152]}},{"properties":{"city":"DOSS","geo_score":0.857,"zip code":"78618","office":"DOSS","id":"a62of2xa3o5j","geo_precision":"zip"},"type":"Feature","geometry":{"type":"Point","coordinates":[-99.096213,30.373945]}},{"properties":{"city":"ENERGY","geo_score":0.857,"zip code":"76452","office":"ENERGY","id":"a62of2ujydxs","geo_precision":"zip"},"type":"Feature","geometry":{"type":"Point","coordinates":[-98.540485,31.972712]}},{"properties":{"city":"EOLA","geo_score":0.857,"zip code":"76937","office":"EOLA","id":"a62of30aafcg","geo_precision":"zip"},"type":"Feature","geometry":{"type":"Point","coordinates":[-100.092229,31.361745]}},{"properties":{"city":"FREDONIA","geo_score":0.857,"zip code":"76842","office":"FREDONIA","id":"a62of34xxywr","geo_precision":"zip"},"type":"Feature","geometry":{"type":"Point","coordinates":[-99.224184,30.719628]}},{"properties":{"city":"GRANDFALLS","geo_score":0.857,"zip code":"79742","office":"GRANDFALLS","id":"a62of2rft0ea","geo_precision":"zip"},"type":"Feature","geometry":{"type":"Point","coordinates":[-102.854027,31.340332]}},{"properties":{"city":"HEXT","geo_score":0.857,"zip code":"76848","office":"HEXT","id":"a62of366b7p6","geo_precision":"zip"},"type":"Feature","geometry":{"type":"Point","coordinates":[-99.80024,30.89918]}},{"properties":{"city":"LOHN","geo_score":0.735,"zip code":"76852","office":"LOHN","id":"a62of2w25ijt","geo_precision":"zip"},"type":"Feature","geometry":{"type":"Point","coordinates":[-99.423113,31.44266]}},{"properties":{"city":"LOWAKE","geo_score":0.857,"zip code":"76855","office":"LOWAKE","id":"a62of3094tkg","geo_precision":"zip"},"type":"Feature","geometry":{"type":"Point","coordinates":[-99.85837,31.333614]}},{"properties":{"city":"MELVIN","geo_score":0.746,"zip code":"76858","office":"MELVIN","id":"a62of2ua11gu","geo_precision":"zip"},"type":"Feature","geometry":{"type":"Point","coordinates":[-99.505894,31.164336]}},{"properties":{"city":"MENTONE","geo_score":0.857,"zip code":"79754","office":"MENTONE","id":"a62of30uusma","geo_precision":"zip"},"type":"Feature","geometry":{"type":"Point","coordinates":[-103.65528,31.825466]}},{"properties":{"city":"MERETA","geo_score":0.857,"zip code":"76940","office":"MERETA","id":"a62of2wzxwa0","geo_precision":"zip"},"type":"Feature","geometry":{"type":"Point","coordinates":[-100.143724,31.480347]}},{"properties":{"city":"MIDKIFF","geo_score":0.857,"zip code":"79755","office":"MIDKIFF","id":"a62of368n9iz","geo_precision":"zip"},"type":"Feature","geometry":{"type":"Point","coordinates":[-102.04652,31.365814]}},{"properties":{"city":"MILLERSVIEW","geo_score":0.857,"zip code":"76862","office":"MILLERSVIEW","id":"a62of34g64wj","geo_precision":"zip"},"type":"Feature","geometry":{"type":"Point","coordinates":[-99.710871,31.535046]}},{"properties":{"city":"NOVICE","geo_score":0.857,"zip code":"79538","office":"NOVICE","id":"a62of34jr5cl","geo_precision":"zip"},"type":"Feature","geometry":{"type":"Point","coordinates":[-99.605724,31.953707]}},{"properties":{"city":"PENWELL","geo_score":0.857,"zip code":"79776","office":"PENWELL","id":"a62of2zfkffl","geo_precision":"zip"},"type":"Feature","geometry":{"type":"Point","coordinates":[-102.587906,31.733396]}},{"properties":{"city":"PONTOTOC","geo_score":0.714,"zip code":"76869","office":"PONTOTOC","id":"a62of30naadn","geo_precision":"zip"},"type":"Feature","geometry":{"type":"Point","coordinates":[-98.945047,30.901561]}},{"properties":{"city":"PYOTE","geo_score":0.857,"zip code":"79777","office":"PYOTE","id":"a62of2waygd1","geo_precision":"zip"},"type":"Feature","geometry":{"type":"Point","coordinates":[-103.126666,31.538694]}},{"properties":{"city":"ROCKWOOD","geo_score":0.857,"zip code":"76873","office":"ROCKWOOD","id":"a62of2xn8mrl","geo_precision":"zip"},"type":"Feature","geometry":{"type":"Point","coordinates":[-99.458967,31.745879]}},{"properties":{"city":"ROOSEVELT","geo_score":0.857,"zip code":"76874","office":"ROOSEVELT","id":"a62of2qr5rr9","geo_precision":"zip"},"type":"Feature","geometry":{"type":"Point","coordinates":[-99.709428,30.498845]}},{"properties":{"city":"SIDNEY","geo_score":0.857,"zip code":"76474","office":"SIDNEY","id":"a62of2wwchci","geo_precision":"zip"},"type":"Feature","geometry":{"type":"Point","coordinates":[-98.540485,31.972712]}},{"properties":{"city":"STAR","geo_score":0.857,"zip code":"76880","office":"STAR","id":"a62of2z7dl2e","geo_precision":"zip"},"type":"Feature","geometry":{"type":"Point","coordinates":[-98.630919,31.477095]}},{"properties":{"city":"TALPA","geo_score":0.714,"zip code":"76882","office":"TALPA","id":"a62of2rgf341","geo_precision":"zip"},"type":"Feature","geometry":{"type":"Point","coordinates":[-99.828972,31.782927]}},{"properties":{"city":"TARZAN","geo_score":0.857,"zip code":"79783","office":"TARZAN","id":"a62of30i9lkm","geo_precision":"zip"},"type":"Feature","geometry":{"type":"Point","coordinates":[-101.949963,32.306026]}},{"properties":{"city":"TENNYSON","geo_score":0.857,"zip code":"76953","office":"TENNYSON","id":"a62of2vsn5dh","geo_precision":"zip"},"type":"Feature","geometry":{"type":"Point","coordinates":[-100.288365,31.739714]}},{"properties":{"city":"VALERA","geo_score":0.857,"zip code":"76884","office":"VALERA","id":"a62of2vkzzog","geo_precision":"zip"},"type":"Feature","geometry":{"type":"Point","coordinates":[-99.458967,31.745879]}},{"properties":{"city":"VALLEY SPRING","geo_score":0.857,"zip code":"76885","office":"VALLEY SPRING","id":"a62of32jk2hs","geo_precision":"zip"},"type":"Feature","geometry":{"type":"Point","coordinates":[-98.657239,30.70395]}},{"properties":{"city":"VANCOURT","geo_score":0.75,"zip code":"76955","office":"VANCOURT","id":"a62of2r7yeab","geo_precision":"zip"},"type":"Feature","geometry":{"type":"Point","coordinates":[-100.092025,31.340996]}},{"properties":{"city":"VOCA","geo_score":0.857,"zip code":"76887","office":"VOCA","id":"a62of2w5hjav","geo_precision":"zip"},"type":"Feature","geometry":{"type":"Point","coordinates":[-99.347156,31.217152]}},{"properties":{"city":"WATER VALLEY","geo_score":0.857,"zip code":"76958","office":"WATER VALLEY","id":"a62of2vlcg10","geo_precision":"zip"},"type":"Feature","geometry":{"type":"Point","coordinates":[-100.658982,31.635184]}},{"properties":{"city":"WELCH","geo_score":0.857,"zip code":"79377","office":"WELCH","id":"a62of2xcq6e4","geo_precision":"zip"},"type":"Feature","geometry":{"type":"Point","coordinates":[-102.127798,32.929753]}},{"properties":{"city":"WESTBROOK","geo_score":0.73,"zip code":"79565","office":"WESTBROOK","id":"a62of2v906zq","geo_precision":"zip"},"type":"Feature","geometry":{"type":"Point","coordinates":[-101.12873,32.336786]}},{"properties":{"city":"WILLOW CITY","geo_score":0.729,"zip code":"78675","office":"WILLOW CITY","id":"a62of30ybh4x","geo_precision":"zip"},"type":"Feature","geometry":{"type":"Point","coordinates":[-98.736704,30.414361]}},{"properties":{"city":"FORT WORTH","geo_score":0.857,"zip code":"76102","office":"CENTRAL FORT WORTH","id":"a62of3040ung","geo_precision":"zip"},"type":"Feature","geometry":{"type":"Point","coordinates":[-97.245612,32.759437]}},{"properties":{"city":"GREENWOOD","geo_score":0.857,"zip code":"76246","office":"GREENWOOD","id":"a62of2yv0u1i","geo_precision":"zip"},"type":"Feature","geometry":{"type":"Point","coordinates":[-97.609392,33.317914]}},{"properties":{"city":"SLIDELL","geo_score":0.857,"zip code":"76267","office":"SLIDELL","id":"a62of2z8jcf2","geo_precision":"zip"},"type":"Feature","geometry":{"type":"Point","coordinates":[-97.39219,33.378039]}},{"properties":{"city":"FORT WORTH","geo_score":0.857,"zip code":"76164","office":"STOCKYARDS","id":"a62of2vfhw86","geo_precision":"zip"},"type":"Feature","geometry":{"type":"Point","coordinates":[-97.291484,32.771419]}},{"properties":{"city":"WHITT","geo_score":0.857,"zip code":"76490","office":"WHITT","id":"a62of2u3pjay","geo_precision":"zip"},"type":"Feature","geometry":{"type":"Point","coordinates":[-97.942209,32.951494]}},{"properties":{"city":"ADRIAN","geo_score":0.857,"zip code":"79001","office":"ADRIAN","id":"a62of30wdxkx","geo_precision":"zip"},"type":"Feature","geometry":{"type":"Point","coordinates":[-102.602749,35.40527]}},{"properties":{"city":"ALLISON","geo_score":0.857,"zip code":"79003","office":"ALLISON","id":"a62of326nkoh","geo_precision":"zip"},"type":"Feature","geometry":{"type":"Point","coordinates":[-100.270306,35.401181]}},{"properties":{"city":"BENJAMIN","geo_score":0.857,"zip code":"79505","office":"BENJAMIN","id":"a62of30e6ynm","geo_precision":"zip"},"type":"Feature","geometry":{"type":"Point","coordinates":[-99.884689,33.599303]}},{"properties":{"city":"BLUEGROVE","geo_score":0.857,"zip code":"76352","office":"BLUEGROVE","id":"a62of2u5s2x4","geo_precision":"zip"},"type":"Feature","geometry":{"type":"Point","coordinates":[-98.184762,33.811665]}},{"properties":{"city":"BRISCOE","geo_score":0.857,"zip code":"79011","office":"BRISCOE","id":"a62of351d5el","geo_precision":"zip"},"type":"Feature","geometry":{"type":"Point","coordinates":[-100.209628,35.532082]}},{"properties":{"city":"COTTON CENTER","geo_score":0.857,"zip code":"79021","office":"COTTON CENTER","id":"a62of350ufzp","geo_precision":"zip"},"type":"Feature","geometry":{"type":"Point","coordinates":[-101.826997,34.068903]}},{"properties":{"city":"DODSON","geo_score":0.857,"zip code":"79230","office":"DODSON","id":"a62of31ejkw1","geo_precision":"zip"},"type":"Feature","geometry":{"type":"Point","coordinates":[-100.021258,34.765663]}},{"properties":{"city":"DOUGHERTY","geo_score":0.857,"zip code":"79231","office":"DOUGHERTY","id":"a62of30jbcto","geo_precision":"zip"},"type":"Feature","geometry":{"type":"Point","coordinates":[-101.30313,34.071514]}},{"properties":{"city":"ESTELLINE","geo_score":0.746,"zip code":"79233","office":"ESTELLINE","id":"a62of2sfhob4","geo_precision":"zip"},"type":"Feature","geometry":{"type":"Point","coordinates":[-100.603738,34.523114]}},{"properties":{"city":"FARNSWORTH","geo_score":0.857,"zip code":"79033","office":"FARNSWORTH","id":"a62of2zb673x","geo_precision":"zip"},"type":"Feature","geometry":{"type":"Point","coordinates":[-100.761225,36.391123]}},{"properties":{"city":"GOREE","geo_score":0.738,"zip code":"76363","office":"GOREE","id":"a62of2vapd1c","geo_precision":"zip"},"type":"Feature","geometry":{"type":"Point","coordinates":[-99.533417,33.53315]}},{"properties":{"city":"GUTHRIE","geo_score":0.857,"zip code":"79236","office":"GUTHRIE","id":"a62of2upmxpw","geo_precision":"zip"},"type":"Feature","geometry":{"type":"Point","coordinates":[-100.254782,33.616723]}},{"properties":{"city":"HARROLD","geo_score":0.735,"zip code":"76364","office":"HARROLD","id":"a62of2xrqmvb","geo_precision":"zip"},"type":"Feature","geometry":{"type":"Point","coordinates":[-99.05563,34.150089]}},{"properties":{"city":"HEDLEY","geo_score":0.762,"zip code":"79237","office":"HEDLEY","id":"a62of2z6xlsm","geo_precision":"zip"},"type":"Feature","geometry":{"type":"Point","coordinates":[-100.585963,34.818941]}},{"properties":{"city":"JERMYN","geo_score":0.857,"zip code":"76459","office":"JERMYN","id":"a62of32dokqe","geo_precision":"zip"},"type":"Feature","geometry":{"type":"Point","coordinates":[-98.172371,33.234207]}},{"properties":{"city":"KAMAY","geo_score":0.857,"zip code":"76369","office":"KAMAY","id":"a62of2ytscre","geo_precision":"zip"},"type":"Feature","geometry":{"type":"Point","coordinates":[-98.687748,34.023386]}},{"properties":{"city":"LAKEVIEW","geo_score":0.768,"zip code":"79239","office":"LAKEVIEW","id":"a62of2vsdnxt","geo_precision":"zip"},"type":"Feature","geometry":{"type":"Point","coordinates":[-100.815972,34.677]}},{"properties":{"city":"LIPSCOMB","geo_score":0.857,"zip code":"79056","office":"LIPSCOMB","id":"a62of30tfzbl","geo_precision":"zip"},"type":"Feature","geometry":{"type":"Point","coordinates":[-100.273561,36.277602]}},{"properties":{"city":"MCADOO","geo_score":0.738,"zip code":"79243","office":"MCADOO","id":"a62of3333h82","geo_precision":"zip"},"type":"Feature","geometry":{"type":"Point","coordinates":[-101.094591,33.782583]}},{"properties":{"city":"MEGARGEL","geo_score":0.753,"zip code":"76370","office":"MEGARGEL","id":"a62of2u2rouo","geo_precision":"zip"},"type":"Feature","geometry":{"type":"Point","coordinates":[-98.961457,33.370103]}},{"properties":{"city":"MINGUS","geo_score":0.714,"zip code":"76463","office":"MINGUS","id":"a62of33mxj2b","geo_precision":"zip"},"type":"Feature","geometry":{"type":"Point","coordinates":[-98.417273,32.507353]}},{"properties":{"city":"MYRA","geo_score":0.857,"zip code":"76253","office":"MYRA","id":"a62of2vxpg8p","geo_precision":"zip"},"type":"Feature","geometry":{"type":"Point","coordinates":[-97.309018,33.617841]}},{"properties":{"city":"O BRIEN","geo_score":0.857,"zip code":"79539","office":"O BRIEN","id":"a62of368bdsu","geo_precision":"zip"},"type":"Feature","geometry":{"type":"Point","coordinates":[-99.847301,33.286038]}},{"properties":{"city":"OKLAUNION","geo_score":0.857,"zip code":"76373","office":"OKLAUNION","id":"a62of2sloyt5","geo_precision":"zip"},"type":"Feature","geometry":{"type":"Point","coordinates":[-99.107033,34.145598]}},{"properties":{"city":"OLD GLORY","geo_score":0.857,"zip code":"79540","office":"OLD GLORY","id":"a62of2tiak2f","geo_precision":"zip"},"type":"Feature","geometry":{"type":"Point","coordinates":[-100.254017,33.178927]}},{"properties":{"city":"QUAIL","geo_score":0.857,"zip code":"79251","office":"QUAIL","id":"a62of2v4hniu","geo_precision":"zip"},"type":"Feature","geometry":{"type":"Point","coordinates":[-100.270689,34.964812]}},{"properties":{"city":"RINGGOLD","geo_score":0.857,"zip code":"76261","office":"RINGGOLD","id":"a62of35zue8f","geo_precision":"zip"},"type":"Feature","geometry":{"type":"Point","coordinates":[-97.941476,33.820163]}},{"properties":{"city":"ROCHESTER","geo_score":0.714,"zip code":"79544","office":"ROCHESTER","id":"a62of2ycdyc8","geo_precision":"zip"},"type":"Feature","geometry":{"type":"Point","coordinates":[-99.95843,33.282319]}},{"properties":{"city":"ROSSTON","geo_score":0.857,"zip code":"76263","office":"ROSSTON","id":"a62of31s7j7v","geo_precision":"zip"},"type":"Feature","geometry":{"type":"Point","coordinates":[-97.421155,33.487842]}},{"properties":{"city":"SANFORD","geo_score":0.857,"zip code":"79078","office":"SANFORD","id":"a62of2uux5c2","geo_precision":"zip"},"type":"Feature","geometry":{"type":"Point","coordinates":[-101.574959,35.672009]}},{"properties":{"city":"SOUTH PLAINS","geo_score":0.857,"zip code":"79258","office":"SOUTH PLAINS","id":"a62of2tlck0f","geo_precision":"zip"},"type":"Feature","geometry":{"type":"Point","coordinates":[-101.30313,34.071514]}},{"properties":{"city":"SPADE","geo_score":0.857,"zip code":"79369","office":"SPADE","id":"a62of2re2kow","geo_precision":"zip"},"type":"Feature","geometry":{"type":"Point","coordinates":[-102.350649,34.068938]}},{"properties":{"city":"UMBARGER","geo_score":0.857,"zip code":"79091","office":"UMBARGER","id":"a62of2t89uc9","geo_precision":"zip"},"type":"Feature","geometry":{"type":"Point","coordinates":[-101.895894,34.96539]}},{"properties":{"city":"WEINERT","geo_score":0.857,"zip code":"76388","office":"WEINERT","id":"a62of35pburk","geo_precision":"zip"},"type":"Feature","geometry":{"type":"Point","coordinates":[-99.674393,33.322098]}},{"properties":{"city":"COLLEGEPORT","geo_score":0.857,"zip code":"77428","office":"COLLEGEPORT","id":"a62of2uxcx3w","geo_precision":"zip"},"type":"Feature","geometry":{"type":"Point","coordinates":[-95.945896,28.754719]}},{"properties":{"city":"DANCIGER","geo_score":0.857,"zip code":"77431","office":"DANCIGER","id":"a62of31jpd3h","geo_precision":"zip"},"type":"Feature","geometry":{"type":"Point","coordinates":[-95.820719,29.173701]}},{"properties":{"city":"DANEVANG","geo_score":0.857,"zip code":"77432","office":"DANEVANG","id":"a62of2qedm51","geo_precision":"zip"},"type":"Feature","geometry":{"type":"Point","coordinates":[-96.241147,29.298532]}},{"properties":{"city":"EGYPT","geo_score":0.857,"zip code":"77436","office":"EGYPT","id":"a62of31422lr","geo_precision":"zip"},"type":"Feature","geometry":{"type":"Point","coordinates":[-96.227967,29.375762]}},{"properties":{"city":"LA SALLE","geo_score":0.857,"zip code":"77969","office":"LA SALLE","id":"a62of2qylqjp","geo_precision":"zip"},"type":"Feature","geometry":{"type":"Point","coordinates":[-96.681608,28.851185]}},{"properties":{"city":"LA WARD","geo_score":0.857,"zip code":"77970","office":"LA WARD","id":"a62of31l883u","geo_precision":"zip"},"type":"Feature","geometry":{"type":"Point","coordinates":[-96.462184,28.896485]}},{"properties":{"city":"LANE CITY","geo_score":0.857,"zip code":"77453","office":"LANE CITY","id":"a62of31kyxpb","geo_precision":"zip"},"type":"Feature","geometry":{"type":"Point","coordinates":[-96.014159,29.170387]}},{"properties":{"city":"LISSIE","geo_score":0.857,"zip code":"77454","office":"LISSIE","id":"a62of35m2thm","geo_precision":"zip"},"type":"Feature","geometry":{"type":"Point","coordinates":[-96.241147,29.298532]}},{"properties":{"city":"MCFADDIN","geo_score":0.857,"zip code":"77973","office":"MCFADDIN","id":"a62of32l9gqg","geo_precision":"zip"},"type":"Feature","geometry":{"type":"Point","coordinates":[-97.009923,28.551137]}},{"properties":{"city":"PIERCE","geo_score":0.857,"zip code":"77467","office":"PIERCE","id":"a62of2re9j2y","geo_precision":"zip"},"type":"Feature","geometry":{"type":"Point","coordinates":[-96.241147,29.298532]}},{"properties":{"city":"PLACEDO","geo_score":0.857,"zip code":"77977","office":"PLACEDO","id":"a62of2t4qu6v","geo_precision":"zip"},"type":"Feature","geometry":{"type":"Point","coordinates":[-96.825416,28.692323]}},{"properties":{"city":"AUSTWELL","geo_score":0.857,"zip code":"77950","office":"AUSTWELL","id":"a62of2wd2fur","geo_precision":"zip"},"type":"Feature","geometry":{"type":"Point","coordinates":[-97.152097,28.308115]}},{"properties":{"city":"BERCLAIR","geo_score":0.857,"zip code":"78107","office":"BERCLAIR","id":"a62of318belw","geo_precision":"zip"},"type":"Feature","geometry":{"type":"Point","coordinates":[-97.592509,28.529477]}},{"properties":{"city":"CONCEPCION","geo_score":0.743,"zip code":"78349","office":"CONCEPCION","id":"a62of2x597rk","geo_precision":"zip"},"type":"Feature","geometry":{"type":"Point","coordinates":[-98.265007,27.451702]}},{"properties":{"city":"ENCINO","geo_score":0.738,"zip code":"78353","office":"ENCINO","id":"a62of2sekau9","geo_precision":"zip"},"type":"Feature","geometry":{"type":"Point","coordinates":[-98.135283,26.890053]}},{"properties":{"city":"FANNIN","geo_score":0.857,"zip code":"77960","office":"FANNIN","id":"a62of35fpc2k","geo_precision":"zip"},"type":"Feature","geometry":{"type":"Point","coordinates":[-97.260556,28.677805]}},{"properties":{"city":"HOBSON","geo_score":0.857,"zip code":"78117","office":"HOBSON","id":"a62of2yxggwy","geo_precision":"zip"},"type":"Feature","geometry":{"type":"Point","coordinates":[-97.928162,28.993819]}},{"properties":{"city":"HOCHHEIM","geo_score":0.857,"zip code":"77967","office":"HOCHHEIM","id":"a62of30gixuv","geo_precision":"zip"},"type":"Feature","geometry":{"type":"Point","coordinates":[-97.365742,29.098894]}},{"properties":{"city":"MEYERSVILLE","geo_score":0.857,"zip code":"77974","office":"MEYERSVILLE","id":"a62of2w0czau","geo_precision":"zip"},"type":"Feature","geometry":{"type":"Point","coordinates":[-97.290727,28.917556]}},{"properties":{"city":"NORMANNA","geo_score":0.857,"zip code":"78142","office":"NORMANNA","id":"a62of2vz0o4j","geo_precision":"zip"},"type":"Feature","geometry":{"type":"Point","coordinates":[-97.783069,28.527798]}},{"properties":{"city":"PANNA MARIA","geo_score":0.857,"zip code":"78144","office":"PANNA MARIA","id":"a62of306ntiw","geo_precision":"zip"},"type":"Feature","geometry":{"type":"Point","coordinates":[-97.898179,28.956228]}},{"properties":{"city":"REALITOS","geo_score":0.768,"zip code":"78376","office":"REALITOS","id":"a62of2rzug44","geo_precision":"zip"},"type":"Feature","geometry":{"type":"Point","coordinates":[-98.439734,27.303651]}},{"properties":{"city":"THOMASTON","geo_score":0.857,"zip code":"77989","office":"THOMASTON","id":"a62of352b3st","geo_precision":"zip"},"type":"Feature","geometry":{"type":"Point","coordinates":[-97.153868,28.997449]}},{"properties":{"city":"TULETA","geo_score":0.857,"zip code":"78162","office":"TULETA","id":"a62of30xvdl0","geo_precision":"zip"},"type":"Feature","geometry":{"type":"Point","coordinates":[-97.732736,28.424535]}},{"properties":{"city":"WEESATCHE","geo_score":0.857,"zip code":"77993","office":"WEESATCHE","id":"a62of3182plb","geo_precision":"zip"},"type":"Feature","geometry":{"type":"Point","coordinates":[-97.444155,28.835825]}},{"properties":{"city":"WESTHOFF","geo_score":0.857,"zip code":"77994","office":"WESTHOFF","id":"a62of35td1qt","geo_precision":"zip"},"type":"Feature","geometry":{"type":"Point","coordinates":[-97.328361,29.102107]}},{"properties":{"city":"WHITSETT","geo_score":0.714,"zip code":"78075","office":"WHITSETT","id":"a62of2sa7jiu","geo_precision":"zip"},"type":"Feature","geometry":{"type":"Point","coordinates":[-98.205564,28.685262]}},{"properties":{"city":"SOCORRO","geo_score":0.857,"zip code":"79927","office":"SOCORRO","id":"a62of359llc4","geo_precision":"zip"},"type":"Feature","geometry":{"type":"Point","coordinates":[-106.303315,31.654557]}},{"properties":{"city":"AQUILLA","geo_score":0.857,"zip code":"76622","office":"AQUILLA","id":"a62of2zfbmmp","geo_precision":"zip"},"type":"Feature","geometry":{"type":"Point","coordinates":[-97.108113,31.987167]}},{"properties":{"city":"BRANDON","geo_score":0.857,"zip code":"76628","office":"BRANDON","id":"a62of2z89q6q","geo_precision":"zip"},"type":"Feature","geometry":{"type":"Point","coordinates":[-97.108113,31.987167]}},{"properties":{"city":"BYNUM","geo_score":0.857,"zip code":"76631","office":"BYNUM","id":"a62of2rifys8","geo_precision":"zip"},"type":"Feature","geometry":{"type":"Point","coordinates":[-97.003015,31.968293]}},{"properties":{"city":"IRENE","geo_score":0.857,"zip code":"76650","office":"IRENE","id":"a62of2rzgs8z","geo_precision":"zip"},"type":"Feature","geometry":{"type":"Point","coordinates":[-97.108113,31.987167]}},{"properties":{"city":"MALONE","geo_score":0.857,"zip code":"76660","office":"MALONE","id":"a62of33hmuci","geo_precision":"zip"},"type":"Feature","geometry":{"type":"Point","coordinates":[-96.911219,31.891824]}},{"properties":{"city":"MERTENS","geo_score":0.857,"zip code":"76666","office":"MERTENS","id":"a62of30stkov","geo_precision":"zip"},"type":"Feature","geometry":{"type":"Point","coordinates":[-96.893871,32.058486]}},{"properties":{"city":"PALUXY","geo_score":0.857,"zip code":"76467","office":"PALUXY","id":"a62of2vk6yj6","geo_precision":"zip"},"type":"Feature","geometry":{"type":"Point","coordinates":[-97.932083,32.341365]}},{"properties":{"city":"PENELOPE","geo_score":0.857,"zip code":"76676","office":"PENELOPE","id":"a62of2znfsmd","geo_precision":"zip"},"type":"Feature","geometry":{"type":"Point","coordinates":[-96.926944,31.859638]}},{"properties":{"city":"HOUSTON","geo_score":0.735,"zip code":"77002","office":"CIVIC CENTER","id":"a62of2v1btmp","geo_precision":"zip"},"type":"Feature","geometry":{"type":"Point","coordinates":[-95.302435,29.91189]}},{"properties":{"city":"HOUSTON","geo_score":0.857,"zip code":"77078","office":"EAST HOUSTON","id":"a62of348cpj5","geo_precision":"zip"},"type":"Feature","geometry":{"type":"Point","coordinates":[-95.434241,29.83399]}},{"properties":{"city":"HOUSTON","geo_score":0.857,"zip code":"77026","office":"JENSEN DRIVE","id":"a62of3491jwf","geo_precision":"zip"},"type":"Feature","geometry":{"type":"Point","coordinates":[-95.434241,29.83399]}},{"properties":{"city":"HOUSTON","geo_score":0.857,"zip code":"77010","office":"TWO HOU CNTR FIN U","id":"a62of2xfhbx2","geo_precision":"zip"},"type":"Feature","geometry":{"type":"Point","coordinates":[-95.434241,29.83399]}},{"properties":{"city":"BLEDSOE","geo_score":0.857,"zip code":"79314","office":"BLEDSOE","id":"a62of359l9gl","geo_precision":"zip"},"type":"Feature","geometry":{"type":"Point","coordinates":[-102.825745,33.606603]}},{"properties":{"city":"CADDO","geo_score":0.857,"zip code":"76429","office":"CADDO","id":"a62of35475fj","geo_precision":"zip"},"type":"Feature","geometry":{"type":"Point","coordinates":[-98.749054,32.715706]}},{"properties":{"city":"DESDEMONA","geo_score":0.857,"zip code":"76445","office":"DESDEMONA","id":"a62of35ucyo5","geo_precision":"zip"},"type":"Feature","geometry":{"type":"Point","coordinates":[-98.796686,32.296818]}},{"properties":{"city":"ENOCHS","geo_score":0.857,"zip code":"79324","office":"ENOCHS","id":"a62of35jpeqy","geo_precision":"zip"},"type":"Feature","geometry":{"type":"Point","coordinates":[-102.764582,33.868293]}},{"properties":{"city":"FORSAN","geo_score":0.857,"zip code":"79733","office":"FORSAN","id":"a62of3326tek","geo_precision":"zip"},"type":"Feature","geometry":{"type":"Point","coordinates":[-101.366949,32.110537]}},{"properties":{"city":"GIRARD","geo_score":0.857,"zip code":"79518","office":"GIRARD","id":"a62of2rwf46j","geo_precision":"zip"},"type":"Feature","geometry":{"type":"Point","coordinates":[-100.774317,33.336305]}},{"properties":{"city":"KNOTT","geo_score":0.857,"zip code":"79748","office":"KNOTT","id":"a62of31irzka","geo_precision":"zip"},"type":"Feature","geometry":{"type":"Point","coordinates":[-101.61263,32.378209]}},{"properties":{"city":"LAZBUDDIE","geo_score":0.857,"zip code":"79053","office":"LAZBUDDIE","id":"a62of315ykjx","geo_precision":"zip"},"type":"Feature","geometry":{"type":"Point","coordinates":[-102.784583,34.52997]}},{"properties":{"city":"LOOP","geo_score":0.735,"zip code":"79342","office":"LOOP","id":"a62of2zy25wc","geo_precision":"zip"},"type":"Feature","geometry":{"type":"Point","coordinates":[-102.278512,32.915372]}},{"properties":{"city":"MAPLE","geo_score":0.857,"zip code":"79344","office":"MAPLE","id":"a62of2qv8gih","geo_precision":"zip"},"type":"Feature","geometry":{"type":"Point","coordinates":[-102.955355,33.863254]}},{"properties":{"city":"MARYNEAL","geo_score":0.857,"zip code":"79535","office":"MARYNEAL","id":"a62of34qmn50","geo_precision":"zip"},"type":"Feature","geometry":{"type":"Point","coordinates":[-100.424987,32.180499]}},{"properties":{"city":"MC CAULLEY","geo_score":0.857,"zip code":"79534","office":"MC CAULLEY","id":"a62of2w48qta","geo_precision":"zip"},"type":"Feature","geometry":{"type":"Point","coordinates":[-100.232805,32.753257]}},{"properties":{"city":"NOLAN","geo_score":0.857,"zip code":"79537","office":"NOLAN","id":"a62of33nw6gi","geo_precision":"zip"},"type":"Feature","geometry":{"type":"Point","coordinates":[-100.218794,32.272581]}},{"properties":{"city":"OVALO","geo_score":0.857,"zip code":"79541","office":"OVALO","id":"a62of35x2iyz","geo_precision":"zip"},"type":"Feature","geometry":{"type":"Point","coordinates":[-99.873296,32.155364]}},{"properties":{"city":"PEP","geo_score":0.857,"zip code":"79353","office":"PEP","id":"a62of33optn2","geo_precision":"zip"},"type":"Feature","geometry":{"type":"Point","coordinates":[-102.466624,33.778988]}},{"properties":{"city":"SOUTH BEND","geo_score":0.857,"zip code":"76481","office":"SOUTH BEND","id":"a62of2xnoul0","geo_precision":"zip"},"type":"Feature","geometry":{"type":"Point","coordinates":[-98.689196,33.005164]}},{"properties":{"city":"SYLVESTER","geo_score":0.857,"zip code":"79560","office":"SYLVESTER","id":"a62of2ta372v","geo_precision":"zip"},"type":"Feature","geometry":{"type":"Point","coordinates":[-100.234051,32.708935]}},{"properties":{"city":"WELLMAN","geo_score":0.857,"zip code":"79378","office":"WELLMAN","id":"a62of2rfa95a","geo_precision":"zip"},"type":"Feature","geometry":{"type":"Point","coordinates":[-102.428171,33.047275]}},{"properties":{"city":"WHITHARRAL","geo_score":0.857,"zip code":"79380","office":"WHITHARRAL","id":"a62of2urct6q","geo_precision":"zip"},"type":"Feature","geometry":{"type":"Point","coordinates":[-102.320586,33.74566]}},{"properties":{"city":"CONCORD","geo_score":0.857,"zip code":"77850","office":"CONCORD","id":"a62of2uub39s","geo_precision":"zip"},"type":"Feature","geometry":{"type":"Point","coordinates":[-95.993482,31.313816]}},{"properties":{"city":"BEAUMONT","geo_score":0.857,"zip code":"77701","office":"DOWNTOWN BEAUMONT","id":"a62of2tmx6k6","geo_precision":"zip"},"type":"Feature","geometry":{"type":"Point","coordinates":[-94.109705,30.073712]}},{"properties":{"city":"SAN ANTONIO","geo_score":0.857,"zip code":"78205","office":"DOWNTOWN SAN ANTONIO","id":"a62of2zj8ouu","geo_precision":"zip"},"type":"Feature","geometry":{"type":"Point","coordinates":[-98.484144,29.424132]}},{"properties":{"city":"SAN ANTONIO","geo_score":0.857,"zip code":"78237","office":"LOS JARDINES","id":"a62of2snpf4x","geo_precision":"zip"},"type":"Feature","geometry":{"type":"Point","coordinates":[-98.483449,29.345385]}},{"properties":{"city":"HYE","geo_score":0.857,"zip code":"78635","office":"HYE","id":"a62of33uhntj","geo_precision":"zip"},"type":"Feature","geometry":{"type":"Point","coordinates":[-98.542031,30.225386]}},{"properties":{"city":"VANDERPOOL","geo_score":0.857,"zip code":"78885","office":"VANDERPOOL","id":"a62of2vvwuho","geo_precision":"zip"},"type":"Feature","geometry":{"type":"Point","coordinates":[-99.191141,29.729603]}},{"properties":{"city":"KENDLETON","geo_score":0.753,"zip code":"77451","office":"KENDLETON","id":"a62of2u0r6d4","geo_precision":"zip"},"type":"Feature","geometry":{"type":"Point","coordinates":[-96.022735,29.479409]}},{"properties":{"city":"BROOKS CITY BASE","geo_score":0.724,"zip code":"78235","office":"BROOKS AFB","id":"a62of2t1dovn","geo_precision":"zip"},"type":"Feature","geometry":{"type":"Point","coordinates":[-98.442186,29.349352]}},{"properties":{"city":"COYANOSA","geo_score":0.857,"zip code":"79730","office":"COYANOSA","id":"a62of2ruyjp8","geo_precision":"zip"},"type":"Feature","geometry":{"type":"Point","coordinates":[-102.676783,30.711984]}},{"properties":{"city":"EL INDIO","geo_score":0.857,"zip code":"78860","office":"EL INDIO","id":"a62of2tgj6m2","geo_precision":"zip"},"type":"Feature","geometry":{"type":"Point","coordinates":[-100.334651,28.529532]}},{"properties":{"city":"SAN ANTONIO","geo_score":0.857,"zip code":"78210","office":"HACKBERRY","id":"a62of2ukj5z7","geo_precision":"zip"},"type":"Feature","geometry":{"type":"Point","coordinates":[-98.480544,29.353652]}},{"properties":{"city":"LANGTRY","geo_score":0.857,"zip code":"78871","office":"LANGTRY","id":"a62of330pm5n","geo_precision":"zip"},"type":"Feature","geometry":{"type":"Point","coordinates":[-101.230032,29.763171]}},{"properties":{"city":"ORLA","geo_score":0.732,"zip code":"79770","office":"ORLA","id":"a62of34h38a2","geo_precision":"zip"},"type":"Feature","geometry":{"type":"Point","coordinates":[-103.91742,31.894848]}},{"properties":{"city":"SARAGOSA","geo_score":0.857,"zip code":"79780","office":"SARAGOSA","id":"a62of3312mq8","geo_precision":"zip"},"type":"Feature","geometry":{"type":"Point","coordinates":[-103.556598,31.383297]}},{"properties":{"city":"SHEFFIELD","geo_score":0.857,"zip code":"79781","office":"SHEFFIELD","id":"a62of33w2z5p","geo_precision":"zip"},"type":"Feature","geometry":{"type":"Point","coordinates":[-102.676783,30.711984]}},{"properties":{"city":"TOYAH","geo_score":0.857,"zip code":"79785","office":"TOYAH","id":"a62of2t2k0un","geo_precision":"zip"},"type":"Feature","geometry":{"type":"Point","coordinates":[-103.556598,31.383297]}},{"properties":{"city":"VALENTINE","geo_score":0.857,"zip code":"79854","office":"VALENTINE","id":"a62of2v8p4jp","geo_precision":"zip"},"type":"Feature","geometry":{"type":"Point","coordinates":[-104.209994,30.758682]}},{"properties":{"city":"ALTAIR","geo_score":0.857,"zip code":"77412","office":"ALTAIR","id":"a62of32qc1a9","geo_precision":"zip"},"type":"Feature","geometry":{"type":"Point","coordinates":[-96.524899,29.60466]}},{"properties":{"city":"HARWOOD","geo_score":0.735,"zip code":"78632","office":"HARWOOD","id":"a62of36gr75v","geo_precision":"zip"},"type":"Feature","geometry":{"type":"Point","coordinates":[-97.343602,29.598845]}},{"properties":{"city":"LEDBETTER","geo_score":0.73,"zip code":"78946","office":"LEDBETTER","id":"a62of34n704y","geo_precision":"zip"},"type":"Feature","geometry":{"type":"Point","coordinates":[-96.792756,30.063553]}},{"properties":{"city":"LEESVILLE","geo_score":0.857,"zip code":"78122","office":"LEESVILLE","id":"a62of2v3mq5p","geo_precision":"zip"},"type":"Feature","geometry":{"type":"Point","coordinates":[-97.741358,29.407188]}},{"properties":{"city":"ROCK ISLAND","geo_score":0.857,"zip code":"77470","office":"ROCK ISLAND","id":"a62of2vwtbsf","geo_precision":"zip"},"type":"Feature","geometry":{"type":"Point","coordinates":[-96.524899,29.60466]}},{"properties":{"city":"FORT WORTH","geo_score":0.857,"zip code":"76105","office":"POLYTECHNIC","id":"a62of2qs6lg4","geo_precision":"zip"},"type":"Feature","geometry":{"type":"Point","coordinates":[-97.291484,32.771419]}},{"properties":{"city":"CORPUS CHRISTI","geo_score":0.857,"zip code":"78405","office":"ROY MILLER","id":"a62of2qo78ir","geo_precision":"zip"},"type":"Feature","geometry":{"type":"Point","coordinates":[-97.438727,27.772443]}},{"properties":{"city":"SAN PERLITA","geo_score":0.857,"zip code":"78590","office":"SAN PERLITA","id":"a62of2q5av1t","geo_precision":"zip"},"type":"Feature","geometry":{"type":"Point","coordinates":[-97.585805,26.455519]}},{"properties":{"city":"SARITA","geo_score":0.857,"zip code":"78385","office":"SARITA","id":"a62of2ykt4jb","geo_precision":"zip"},"type":"Feature","geometry":{"type":"Point","coordinates":[-97.793153,27.222302]}},{"properties":{"city":"CORPUS CHRISTI","geo_score":0.857,"zip code":"78404","office":"SIX POINTS","id":"a62of355bjpk","geo_precision":"zip"},"type":"Feature","geometry":{"type":"Point","coordinates":[-97.644134,27.773456]}},{"properties":{"city":"CALLIHAM","geo_score":0.857,"zip code":"78007","office":"CALLIHAM","id":"a62of2vwides","geo_precision":"zip"},"type":"Feature","geometry":{"type":"Point","coordinates":[-98.56876,28.350458]}},{"properties":{"city":"CAMPBELLTON","geo_score":0.727,"zip code":"78008","office":"CAMPBELLTON","id":"a62of2s6h7uq","geo_precision":"zip"},"type":"Feature","geometry":{"type":"Point","coordinates":[-98.139729,28.79248]}},{"properties":{"city":"CHRISTINE","geo_score":0.857,"zip code":"78012","office":"CHRISTINE","id":"a62of2xh20nl","geo_precision":"zip"},"type":"Feature","geometry":{"type":"Point","coordinates":[-98.488586,28.785811]}},{"properties":{"city":"DELMITA","geo_score":0.746,"zip code":"78536","office":"DELMITA","id":"a62of2rchkv2","geo_precision":"zip"},"type":"Feature","geometry":{"type":"Point","coordinates":[-98.374458,26.685613]}},{"properties":{"city":"FOWLERTON","geo_score":0.857,"zip code":"78021","office":"FOWLERTON","id":"a62of33zc4fn","geo_precision":"zip"},"type":"Feature","geometry":{"type":"Point","coordinates":[-99.098369,28.338951]}},{"properties":{"city":"MIRANDO CITY","geo_score":0.714,"zip code":"78369","office":"MIRANDO CITY","id":"a62of2zqs7n6","geo_precision":"zip"},"type":"Feature","geometry":{"type":"Point","coordinates":[-99.087251,27.448636]}},{"properties":{"city":"OILTON","geo_score":0.857,"zip code":"78371","office":"OILTON","id":"a62of2xkunf3","geo_precision":"zip"},"type":"Feature","geometry":{"type":"Point","coordinates":[-99.505138,27.732094]}},{"properties":{"city":"PANDORA","geo_score":0.857,"zip code":"78143","office":"PANDORA","id":"a62of2ssv1l2","geo_precision":"zip"},"type":"Feature","geometry":{"type":"Point","coordinates":[-97.828699,29.24841]}},{"properties":{"city":"SALINENO","geo_score":0.857,"zip code":"78585","office":"SALINENO","id":"a62of2ze73dd","geo_precision":"zip"},"type":"Feature","geometry":{"type":"Point","coordinates":[-98.746365,26.510436]}},{"properties":{"city":"SANTA ELENA","geo_score":0.743,"zip code":"78591","office":"SANTA ELENA","id":"a62of32a9pk3","geo_precision":"zip"},"type":"Feature","geometry":{"type":"Point","coordinates":[-98.521407,26.720056]}},{"properties":{"city":"STAPLES","geo_score":0.857,"zip code":"78670","office":"STAPLES","id":"a62of2w7dosh","geo_precision":"zip"},"type":"Feature","geometry":{"type":"Point","coordinates":[-97.971208,29.611797]}},{"properties":{"city":"HOUSTON","geo_score":0.857,"zip code":"77020","office":"DENVER HARBOR","id":"a62of2u8cg00","geo_precision":"zip"},"type":"Feature","geometry":{"type":"Point","coordinates":[-95.434241,29.83399]}},{"properties":{"city":"HOUSTON","geo_score":0.857,"zip code":"77012","office":"HARRISBURG","id":"a62of2t1otbe","geo_precision":"zip"},"type":"Feature","geometry":{"type":"Point","coordinates":[-95.251662,29.711528]}},{"properties":{"city":"HOUSTON","geo_score":0.738,"zip code":"77022","office":"IRVINGTON","id":"a62of2v12pir","geo_precision":"zip"},"type":"Feature","geometry":{"type":"Point","coordinates":[-95.17271,30.089106]}},{"properties":{"city":"PASADENA","geo_score":0.857,"zip code":"77502","office":"JOHN FOSTER","id":"a62of32e24e7","geo_precision":"zip"},"type":"Feature","geometry":{"type":"Point","coordinates":[-95.202911,29.678179]}},{"properties":{"city":"HOUSTON","geo_score":0.857,"zip code":"77017","office":"PARK PLACE","id":"a62of31ylbwt","geo_precision":"zip"},"type":"Feature","geometry":{"type":"Point","coordinates":[-95.257113,29.679879]}},{"properties":{"city":"DALLAS","geo_score":0.857,"zip code":"75216","office":"DR CAESAR A W CLARK SR","id":"a62of2xuuq77","geo_precision":"zip"},"type":"Feature","geometry":{"type":"Point","coordinates":[-96.779278,32.682883]}},{"properties":{"city":"DALLAS","geo_score":0.857,"zip code":"75246","office":"EAST SIDE FINANCE","id":"a62of2rs4sgb","geo_precision":"zip"},"type":"Feature","geometry":{"type":"Point","coordinates":[-96.773179,32.793328]}},{"properties":{"city":"DALLAS","geo_score":0.857,"zip code":"75241","office":"HIGHLAND HILLS DALLAS","id":"a62of31g8cyv","geo_precision":"zip"},"type":"Feature","geometry":{"type":"Point","coordinates":[-96.759227,32.660114]}},{"properties":{"city":"BURLINGTON","geo_score":0.714,"zip code":"76519","office":"BURLINGTON","id":"a62of2r4us4j","geo_precision":"zip"},"type":"Feature","geometry":{"type":"Point","coordinates":[-97.117215,30.992128]}},{"properties":{"city":"DAVILLA","geo_score":0.857,"zip code":"76523","office":"DAVILLA","id":"a62of2utenby","geo_precision":"zip"},"type":"Feature","geometry":{"type":"Point","coordinates":[-96.96376,30.784169]}},{"properties":{"city":"LINGLEVILLE","geo_score":0.857,"zip code":"76461","office":"LINGLEVILLE","id":"a62of2vake26","geo_precision":"zip"},"type":"Feature","geometry":{"type":"Point","coordinates":[-98.342798,32.221433]}},{"properties":{"city":"MOUND","geo_score":0.857,"zip code":"76558","office":"MOUND","id":"a62of2uewlq0","geo_precision":"zip"},"type":"Feature","geometry":{"type":"Point","coordinates":[-97.644352,31.351386]}},{"properties":{"city":"MUMFORD","geo_score":0.857,"zip code":"77867","office":"MUMFORD","id":"a62of34pi6jw","geo_precision":"zip"},"type":"Feature","geometry":{"type":"Point","coordinates":[-96.533031,31.026276]}},{"properties":{"city":"PENDLETON","geo_score":0.857,"zip code":"76564","office":"PENDLETON","id":"a62of2ygbo0t","geo_precision":"zip"},"type":"Feature","geometry":{"type":"Point","coordinates":[-97.492017,31.036287]}},{"properties":{"city":"SATIN","geo_score":0.857,"zip code":"76685","office":"SATIN","id":"a62of2q6d4p1","geo_precision":"zip"},"type":"Feature","geometry":{"type":"Point","coordinates":[-97.076732,31.371525]}},{"properties":{"city":"BAGWELL","geo_score":0.743,"zip code":"75412","office":"BAGWELL","id":"a62of2yi5spn","geo_precision":"zip"},"type":"Feature","geometry":{"type":"Point","coordinates":[-95.16245,33.842608]}},{"properties":{"city":"BROOKSTON","geo_score":0.746,"zip code":"75421","office":"BROOKSTON","id":"a62of2s6tyup","geo_precision":"zip"},"type":"Feature","geometry":{"type":"Point","coordinates":[-95.646071,33.654827]}},{"properties":{"city":"CUNNINGHAM","geo_score":0.857,"zip code":"75434","office":"CUNNINGHAM","id":"a62of336tomr","geo_precision":"zip"},"type":"Feature","geometry":{"type":"Point","coordinates":[-95.582906,33.65973]}},{"properties":{"city":"GOBER","geo_score":0.857,"zip code":"75443","office":"GOBER","id":"a62of2rmrpqz","geo_precision":"zip"},"type":"Feature","geometry":{"type":"Point","coordinates":[-96.111103,33.469719]}},{"properties":{"city":"KILDARE","geo_score":0.857,"zip code":"75562","office":"KILDARE","id":"a62of2tt068y","geo_precision":"zip"},"type":"Feature","geometry":{"type":"Point","coordinates":[-94.361886,33.008643]}},{"properties":{"city":"KLONDIKE","geo_score":0.857,"zip code":"75448","office":"KLONDIKE","id":"a62of2zvrxg6","geo_precision":"zip"},"type":"Feature","geometry":{"type":"Point","coordinates":[-95.584162,33.356865]}},{"properties":{"city":"MARIETTA","geo_score":0.727,"zip code":"75566","office":"MARIETTA","id":"a62of2z0u176","geo_precision":"zip"},"type":"Feature","geometry":{"type":"Point","coordinates":[-94.5202,33.146793]}},{"properties":{"city":"PECAN GAP","geo_score":0.857,"zip code":"75469","office":"PECAN GAP","id":"a62of2vekcur","geo_precision":"zip"},"type":"Feature","geometry":{"type":"Point","coordinates":[-95.851141,33.442173]}},{"properties":{"city":"PETTY","geo_score":0.714,"zip code":"75470","office":"PETTY","id":"a62of2wyhj1e","geo_precision":"zip"},"type":"Feature","geometry":{"type":"Point","coordinates":[-95.79413,33.55205]}},{"properties":{"city":"SULPHUR BLUFF","geo_score":0.857,"zip code":"75481","office":"SULPHUR BLUFF","id":"a62of2vv4au1","geo_precision":"zip"},"type":"Feature","geometry":{"type":"Point","coordinates":[-95.585464,33.168606]}},{"properties":{"city":"WINDOM","geo_score":0.714,"zip code":"75492","office":"WINDOM","id":"a62of34xzxbd","geo_precision":"zip"},"type":"Feature","geometry":{"type":"Point","coordinates":[-96.057472,33.50094]}},{"properties":{"city":"MESQUITE","geo_score":0.738,"zip code":"75180","office":"BALCH SPRINGS","id":"a62of2xb4go7","geo_precision":"zip"},"type":"Feature","geometry":{"type":"Point","coordinates":[-96.622771,32.728741]}},{"properties":{"city":"CUNEY","geo_score":0.857,"zip code":"75759","office":"CUNEY","id":"a62of315s8vp","geo_precision":"zip"},"type":"Feature","geometry":{"type":"Point","coordinates":[-95.228829,31.873255]}},{"properties":{"city":"SACUL","geo_score":0.857,"zip code":"75788","office":"SACUL","id":"a62of2s78r3o","geo_precision":"zip"},"type":"Feature","geometry":{"type":"Point","coordinates":[-94.918855,31.825389]}},{"properties":{"city":"DONIE","geo_score":0.746,"zip code":"75838","office":"DONIE","id":"a62of2typ1sc","geo_precision":"zip"},"type":"Feature","geometry":{"type":"Point","coordinates":[-96.248027,31.542395]}},{"properties":{"city":"ARLINGTON","geo_score":0.714,"zip code":"76010","office":"EAST ARLINGTON","id":"a62of2sat8rs","geo_precision":"zip"},"type":"Feature","geometry":{"type":"Point","coordinates":[-97.074175,32.632635]}},{"properties":{"city":"FORRESTON","geo_score":0.73,"zip code":"76041","office":"FORRESTON","id":"a62of2wu38sq","geo_precision":"zip"},"type":"Feature","geometry":{"type":"Point","coordinates":[-96.812773,32.265702]}},{"properties":{"city":"LEONA","geo_score":0.857,"zip code":"75850","office":"LEONA","id":"a62of2zo8sf5","geo_precision":"zip"},"type":"Feature","geometry":{"type":"Point","coordinates":[-95.901284,31.189891]}},{"properties":{"city":"TEHUACANA","geo_score":0.857,"zip code":"76686","office":"TEHUACANA","id":"a62of2q6egab","geo_precision":"zip"},"type":"Feature","geometry":{"type":"Point","coordinates":[-96.541589,31.750384]}},{"properties":{"city":"WOODLAKE","geo_score":0.857,"zip code":"75865","office":"WOODLAKE","id":"a62of2uhep1x","geo_precision":"zip"},"type":"Feature","geometry":{"type":"Point","coordinates":[-95.138794,31.105786]}},{"properties":{"city":"CAMDEN","geo_score":0.729,"zip code":"75934","office":"CAMDEN","id":"a62of32u4efs","geo_precision":"zip"},"type":"Feature","geometry":{"type":"Point","coordinates":[-94.709651,30.904084]}},{"properties":{"city":"DALLARDSVILLE","geo_score":0.857,"zip code":"77332","office":"DALLARDSVILLE","id":"a62of2wv5f3k","geo_precision":"zip"},"type":"Feature","geometry":{"type":"Point","coordinates":[-94.869052,30.817866]}},{"properties":{"city":"THICKET","geo_score":0.857,"zip code":"77374","office":"THICKET","id":"a62of2yaelo7","geo_precision":"zip"},"type":"Feature","geometry":{"type":"Point","coordinates":[-94.401843,30.312185]}},{"properties":{"city":"VOTAW","geo_score":0.857,"zip code":"77376","office":"VOTAW","id":"a62of30a9f5v","geo_precision":"zip"},"type":"Feature","geometry":{"type":"Point","coordinates":[-94.652109,30.426417]}},{"properties":{"city":"WIERGATE","geo_score":0.73,"zip code":"75977","office":"WIERGATE","id":"a62of353ig4q","geo_precision":"zip"},"type":"Feature","geometry":{"type":"Point","coordinates":[-93.72379,31.090193]}},{"properties":{"city":"CENTRALIA","geo_score":0.857,"zip code":"75834","office":"CENTRALIA","id":"a62of35ixbgq","geo_precision":"zip"},"type":"Feature","geometry":{"type":"Point","coordinates":[-95.138794,31.105786]}},{"properties":{"city":"HOUSTON","geo_score":0.857,"zip code":"77051","office":"MARTIN LUTHER KING","id":"a62of2uc3xbr","geo_precision":"zip"},"type":"Feature","geometry":{"type":"Point","coordinates":[-95.381407,29.65833]}}],"is_temporal":false,"author":{"url":"http://about.usps.com/news/electronic-press-kits/expandedaccess/states/texas.htm","metadata":"","contact_name":"U.S. Postal Service ","contact_address":"Info available from URL in this file.","source":"U.S. Postal Service","contact_phone":""},"source":"http://about.usps.com/news/electronic-press-kits/expandedaccess/states/texas.htm","pagination":{"sort":null,"start":0,"total":222,"limit":1000000},"state":"complete","tags":"post offices,postal service,texas","published":"2011-07-26T19:27:03Z","id":138874}