{"type":"FeatureCollection","data_type":"Dataset","url_type":null,"permissions":[{"permissions":{"download":true,"view":true},"group_id":"everyone"}],"classification":null,"title":"GApostofficespossibleclosure","count":45,"stream_id":138941,"contributor":{"url":"http://geocommons.com/users/6368","name":"jlpeebles"},"data_attributes":null,"calculation_params":null,"icon_link":null,"link":"http://geocommons.com/overlays/138941.json","extent":[-84.9035,30.6786,-81.394,34.9814],"geometry_types":["point"],"unique_name":null,"name":"GApostofficespossibleclosure","feature_count":45,"description":"","next_feature":null,"is_raster":false,"short_classification":"Y","stats":{},"features":[{"properties":{"city":"ARGYLE","geo_score":0.714,"zip code":"31623","office":"ARGYLE","id":"a63diiqmtkup","geo_precision":"zip"},"type":"Feature","geometry":{"type":"Point","coordinates":[-83.407658,30.940196]}},{"properties":{"city":"AXSON","geo_score":0.857,"zip code":"31624","office":"AXSON","id":"a63diisg54sd","geo_precision":"zip"},"type":"Feature","geometry":{"type":"Point","coordinates":[-82.847997,31.303159]}},{"properties":{"city":"FARGO","geo_score":0.714,"zip code":"31631","office":"FARGO","id":"a63diitbi7zb","geo_precision":"zip"},"type":"Feature","geometry":{"type":"Point","coordinates":[-82.551241,30.678551]}},{"properties":{"city":"JACKSONVILLE","geo_score":0.857,"zip code":"31544","office":"JACKSONVILLE","id":"a63diijupk47","geo_precision":"zip"},"type":"Feature","geometry":{"type":"Point","coordinates":[-82.977178,31.83245]}},{"properties":{"city":"MERIDIAN","geo_score":0.768,"zip code":"31319","office":"MERIDIAN","id":"a63diiuf23ce","geo_precision":"zip"},"type":"Feature","geometry":{"type":"Point","coordinates":[-81.393989,31.43439]}},{"properties":{"city":"MERSHON","geo_score":0.714,"zip code":"31551","office":"MERSHON","id":"a63diih0f26o","geo_precision":"zip"},"type":"Feature","geometry":{"type":"Point","coordinates":[-82.311516,31.507709]}},{"properties":{"city":"MILLWOOD","geo_score":0.714,"zip code":"31552","office":"MILLWOOD","id":"a63diimj9ogg","geo_precision":"zip"},"type":"Feature","geometry":{"type":"Point","coordinates":[-82.60764,31.260487]}},{"properties":{"city":"OFFERMAN","geo_score":0.857,"zip code":"31556","office":"OFFERMAN","id":"a63diitdw3dn","geo_precision":"zip"},"type":"Feature","geometry":{"type":"Point","coordinates":[-82.115541,31.412649]}},{"properties":{"city":"SCOTLAND","geo_score":0.857,"zip code":"31083","office":"SCOTLAND","id":"a63diiisagzb","geo_precision":"zip"},"type":"Feature","geometry":{"type":"Point","coordinates":[-82.912341,32.084139]}},{"properties":{"city":"STOCKTON","geo_score":0.857,"zip code":"31649","office":"STOCKTON","id":"a63diit2jo3d","geo_precision":"zip"},"type":"Feature","geometry":{"type":"Point","coordinates":[-83.013828,30.955111]}},{"properties":{"city":"WHITE OAK","geo_score":0.732,"zip code":"31568","office":"WHITE OAK","id":"a63diirn7l5v","geo_precision":"zip"},"type":"Feature","geometry":{"type":"Point","coordinates":[-81.805387,31.01773]}},{"properties":{"city":"ALSTON","geo_score":0.857,"zip code":"30412","office":"ALSTON","id":"a63diipywfqd","geo_precision":"zip"},"type":"Feature","geometry":{"type":"Point","coordinates":[-82.482488,32.077458]}},{"properties":{"city":"CAMAK","geo_score":0.857,"zip code":"30807","office":"CAMAK","id":"a63diih8fiuv","geo_precision":"zip"},"type":"Feature","geometry":{"type":"Point","coordinates":[-82.642214,33.447102]}},{"properties":{"city":"JEWELL","geo_score":0.857,"zip code":"31045","office":"JEWELL","id":"a63diikvsdc7","geo_precision":"zip"},"type":"Feature","geometry":{"type":"Point","coordinates":[-82.755599,33.296633]}},{"properties":{"city":"OCONEE","geo_score":0.857,"zip code":"31067","office":"OCONEE","id":"a63diipxylel","geo_precision":"zip"},"type":"Feature","geometry":{"type":"Point","coordinates":[-82.946903,32.876666]}},{"properties":{"city":"OLIVER","geo_score":0.857,"zip code":"30449","office":"OLIVER","id":"a63diiscxu0f","geo_precision":"zip"},"type":"Feature","geometry":{"type":"Point","coordinates":[-81.533198,32.528104]}},{"properties":{"city":"PERKINS","geo_score":0.857,"zip code":"30822","office":"PERKINS","id":"a63diipwtdxs","geo_precision":"zip"},"type":"Feature","geometry":{"type":"Point","coordinates":[-81.875482,32.873466]}},{"properties":{"city":"ROCKY FORD","geo_score":0.757,"zip code":"30455","office":"ROCKY FORD","id":"a63diiketz12","geo_precision":"zip"},"type":"Feature","geometry":{"type":"Point","coordinates":[-81.790112,32.719611]}},{"properties":{"city":"ANDERSONVILLE","geo_score":0.857,"zip code":"31711","office":"ANDERSONVILLE","id":"a63diinn62qm","geo_precision":"zip"},"type":"Feature","geometry":{"type":"Point","coordinates":[-84.163983,32.155949]}},{"properties":{"city":"BLUFFTON","geo_score":0.0,"zip code":"39824","office":"BLUFFTON","id":"a63diipnja9m","geo_precision":"unmatched"},"type":"Feature","geometry":null},{"properties":{"city":"CEDAR SPRINGS","geo_score":0.0,"zip code":"39832","office":"CEDAR SPRINGS","id":"a63diimlkgk3","geo_precision":"unmatched"},"type":"Feature","geometry":null},{"properties":{"city":"COLEMAN","geo_score":0.0,"zip code":"39836","office":"COLEMAN","id":"a63diiml03vf","geo_precision":"unmatched"},"type":"Feature","geometry":null},{"properties":{"city":"DE SOTO","geo_score":0.857,"zip code":"31743","office":"DE SOTO","id":"a63diik1mwsx","geo_precision":"zip"},"type":"Feature","geometry":{"type":"Point","coordinates":[-84.03104,31.938088]}},{"properties":{"city":"IDEAL","geo_score":0.762,"zip code":"31041","office":"IDEAL","id":"a63diigivogu","geo_precision":"zip"},"type":"Feature","geometry":{"type":"Point","coordinates":[-84.118244,32.439873]}},{"properties":{"city":"JAKIN","geo_score":0.0,"zip code":"39861","office":"JAKIN","id":"a63diinm5r23","geo_precision":"unmatched"},"type":"Feature","geometry":null},{"properties":{"city":"JUNCTION CITY","geo_score":0.726,"zip code":"31812","office":"JUNCTION CITY","id":"a63diios9476","geo_precision":"zip"},"type":"Feature","geometry":{"type":"Point","coordinates":[-84.330195,32.659029]}},{"properties":{"city":"OAKFIELD","geo_score":0.857,"zip code":"31772","office":"OAKFIELD","id":"a63diilrhnwj","geo_precision":"zip"},"type":"Feature","geometry":{"type":"Point","coordinates":[-83.959728,31.726629]}},{"properties":{"city":"OMAHA","geo_score":0.714,"zip code":"31821","office":"OMAHA","id":"a63diipjsv80","geo_precision":"zip"},"type":"Feature","geometry":{"type":"Point","coordinates":[-84.903538,32.156542]}},{"properties":{"city":"PARROTT","geo_score":0.0,"zip code":"39877","office":"PARROTT","id":"a63diitzdkwc","geo_precision":"unmatched"},"type":"Feature","geometry":null},{"properties":{"city":"WESTON","geo_score":0.857,"zip code":"31832","office":"WESTON","id":"a63diijo3wnj","geo_precision":"zip"},"type":"Feature","geometry":{"type":"Point","coordinates":[-84.543517,32.076133]}},{"properties":{"city":"THE ROCK","geo_score":0.745,"zip code":"30285","office":"THE ROCK","id":"a63diiq6uvru","geo_precision":"zip"},"type":"Feature","geometry":{"type":"Point","coordinates":[-84.208528,32.974574]}},{"properties":{"city":"ATLANTA","geo_score":0.857,"zip code":"30345","office":"NORTHLAKE","id":"a63diiju4153","geo_precision":"zip"},"type":"Feature","geometry":{"type":"Point","coordinates":[-84.281422,33.845603]}},{"properties":{"city":"ATLANTA","geo_score":0.745,"zip code":"30311","office":"CASCADE HEIGHTS","id":"a63diipgp58a","geo_precision":"zip"},"type":"Feature","geometry":{"type":"Point","coordinates":[-84.463263,33.72233]}},{"properties":{"city":"ATLANTA","geo_score":0.857,"zip code":"30315","office":"LAKEWOOD","id":"a63diiftogmx","geo_precision":"zip"},"type":"Feature","geometry":{"type":"Point","coordinates":[-84.383725,33.697257]}},{"properties":{"city":"ATLANTA","geo_score":0.857,"zip code":"30303","office":"PEACHTREE CENTER","id":"a63diipt0u7i","geo_precision":"zip"},"type":"Feature","geometry":{"type":"Point","coordinates":[-84.392026,33.752456]}},{"properties":{"city":"ATLANTA","geo_score":0.857,"zip code":"30303","office":"PHOENIX STATION","id":"a63diii71hvh","geo_precision":"zip"},"type":"Feature","geometry":{"type":"Point","coordinates":[-84.392026,33.752456]}},{"properties":{"city":"ATLANTA","geo_score":0.714,"zip code":"30310","office":"WEST END","id":"a63diitacjo2","geo_precision":"zip"},"type":"Feature","geometry":{"type":"Point","coordinates":[-84.416317,33.738163]}},{"properties":{"city":"ALLENTOWN","geo_score":0.857,"zip code":"31003","office":"ALLENTOWN","id":"a63diis1f1aa","geo_precision":"zip"},"type":"Feature","geometry":{"type":"Point","coordinates":[-83.20951,32.606433]}},{"properties":{"city":"HARTSFIELD","geo_score":0.729,"zip code":"31756","office":"HARTSFIELD","id":"a63diiiq3j73","geo_precision":"zip"},"type":"Feature","geometry":{"type":"Point","coordinates":[-83.926565,31.191851]}},{"properties":{"city":"HILLSBORO","geo_score":0.73,"zip code":"31038","office":"HILLSBORO","id":"a63diijvpowj","geo_precision":"zip"},"type":"Feature","geometry":{"type":"Point","coordinates":[-83.615172,33.110966]}},{"properties":{"city":"MYSTIC","geo_score":0.857,"zip code":"31769","office":"MYSTIC","id":"a63diioih6px","geo_precision":"zip"},"type":"Feature","geometry":{"type":"Point","coordinates":[-83.249754,31.620866]}},{"properties":{"city":"WRAY","geo_score":0.857,"zip code":"31798","office":"WRAY","id":"a63diiub81c0","geo_precision":"zip"},"type":"Feature","geometry":{"type":"Point","coordinates":[-83.087813,31.571849]}},{"properties":{"city":"CHESTNUT MOUNTAIN","geo_score":0.857,"zip code":"30502","office":"CHESTNUT MOUNTAIN","id":"a63diio2kw65","geo_precision":"zip"},"type":"Feature","geometry":{"type":"Point","coordinates":[-83.794858,34.212993]}},{"properties":{"city":"CISCO","geo_score":0.714,"zip code":"30708","office":"CISCO","id":"a63diigkj6h2","geo_precision":"zip"},"type":"Feature","geometry":{"type":"Point","coordinates":[-84.659657,34.968689]}},{"properties":{"city":"TENNGA","geo_score":0.857,"zip code":"30751","office":"TENNGA","id":"a63diir2unnz","geo_precision":"zip"},"type":"Feature","geometry":{"type":"Point","coordinates":[-84.735233,34.981449]}}],"is_temporal":false,"author":{"url":"","metadata":null,"contact_name":null,"contact_address":null,"source":null,"contact_phone":null},"source":"","pagination":{"sort":null,"start":0,"total":45,"limit":1000000},"state":"complete","tags":"","published":"2014-08-13T09:59:18-04:00","id":138941}