{"type":"FeatureCollection","data_type":"Dataset","url_type":null,"permissions":[{"permissions":{"download":true,"view":true},"group_id":"everyone"}],"classification":null,"title":"US Post Office possible closures in Colorado","count":63,"stream_id":138969,"contributor":{"url":"http://geocommons.com/users/30315","name":"klavine"},"data_attributes":null,"calculation_params":null,"icon_link":null,"link":"http://geocommons.com/overlays/138969.json","extent":[-108.972,37.0953,-102.201,40.9979],"geometry_types":["point"],"unique_name":null,"name":"US Post Office possible closures in Colorado","feature_count":63,"description":"Possible US Post Office closings in Colorado.","next_feature":null,"is_raster":false,"short_classification":"Y","stats":{},"features":[{"properties":{"city":"BOND","geo_score":0.714,"zip code":"80423","office":"BOND","id":"a64u1wj1mvmx","geo_precision":"zip"},"type":"Feature","geometry":{"type":"Point","coordinates":[-106.558646,39.952764]}},{"properties":{"city":"PARSHALL","geo_score":0.857,"zip code":"80468","office":"PARSHALL","id":"a64u1wgze4hz","geo_precision":"zip"},"type":"Feature","geometry":{"type":"Point","coordinates":[-106.093005,39.953932]}},{"properties":{"city":"RED CLIFF","geo_score":0.857,"zip code":"81649","office":"RED CLIFF","id":"a64u1wngfcnx","geo_precision":"zip"},"type":"Feature","geometry":{"type":"Point","coordinates":[-106.385056,39.458351]}},{"properties":{"city":"SILVER PLUME","geo_score":0.857,"zip code":"80476","office":"SILVER PLUME","id":"a64u1wr188ao","geo_precision":"zip"},"type":"Feature","geometry":{"type":"Point","coordinates":[-105.75074,39.699631]}},{"properties":{"city":"WARD","geo_score":0.857,"zip code":"80481","office":"WARD","id":"a64u1wi3winr","geo_precision":"zip"},"type":"Feature","geometry":{"type":"Point","coordinates":[-105.472634,40.055785]}},{"properties":{"city":"BEDROCK","geo_score":0.857,"zip code":"81411","office":"BEDROCK","id":"a64u1wdwftfn","geo_precision":"zip"},"type":"Feature","geometry":{"type":"Point","coordinates":[-108.937369,38.34867]}},{"properties":{"city":"BONCARBO","geo_score":0.857,"zip code":"81024","office":"BONCARBO","id":"a64u1wmkishg","geo_precision":"zip"},"type":"Feature","geometry":{"type":"Point","coordinates":[-104.719787,37.208109]}},{"properties":{"city":"BRANSON","geo_score":0.857,"zip code":"81027","office":"BRANSON","id":"a64u1wjvrf9m","geo_precision":"zip"},"type":"Feature","geometry":{"type":"Point","coordinates":[-103.722865,37.232444]}},{"properties":{"city":"CAPULIN","geo_score":0.857,"zip code":"81124","office":"CAPULIN","id":"a64u1wg648gx","geo_precision":"zip"},"type":"Feature","geometry":{"type":"Point","coordinates":[-106.127935,37.304205]}},{"properties":{"city":"CHAMA","geo_score":0.857,"zip code":"81126","office":"CHAMA","id":"a64u1wgvdzin","geo_precision":"zip"},"type":"Feature","geometry":{"type":"Point","coordinates":[-105.450502,37.326735]}},{"properties":{"city":"CHROMO","geo_score":0.857,"zip code":"81128","office":"CHROMO","id":"a64u1wgxdsrc","geo_precision":"zip"},"type":"Feature","geometry":{"type":"Point","coordinates":[-106.821686,37.130148]}},{"properties":{"city":"COALDALE","geo_score":0.857,"zip code":"81222","office":"COALDALE","id":"a64u1wes8eu1","geo_precision":"zip"},"type":"Feature","geometry":{"type":"Point","coordinates":[-105.784315,38.382377]}},{"properties":{"city":"CONEJOS","geo_score":0.714,"zip code":"81129","office":"CONEJOS","id":"a64u1wr7c431","geo_precision":"zip"},"type":"Feature","geometry":{"type":"Point","coordinates":[-106.025578,37.09529]}},{"properties":{"city":"COWDREY","geo_score":0.857,"zip code":"80434","office":"COWDREY","id":"a64u1wrnz1b0","geo_precision":"zip"},"type":"Feature","geometry":{"type":"Point","coordinates":[-106.362488,40.663052]}},{"properties":{"city":"EGNAR","geo_score":0.857,"zip code":"81325","office":"EGNAR","id":"a64u1wfl5zsc","geo_precision":"zip"},"type":"Feature","geometry":{"type":"Point","coordinates":[-108.846067,37.929371]}},{"properties":{"city":"GATEWAY","geo_score":0.857,"zip code":"81522","office":"GATEWAY","id":"a64u1wq84ci2","geo_precision":"zip"},"type":"Feature","geometry":{"type":"Point","coordinates":[-108.971863,38.678448]}},{"properties":{"city":"HAMILTON","geo_score":0.732,"zip code":"81638","office":"HAMILTON","id":"a64u1wss5qh4","geo_precision":"zip"},"type":"Feature","geometry":{"type":"Point","coordinates":[-107.415894,40.33692]}},{"properties":{"city":"HOEHNE","geo_score":0.857,"zip code":"81046","office":"HOEHNE","id":"a64u1wk2rnpi","geo_precision":"zip"},"type":"Feature","geometry":{"type":"Point","coordinates":[-104.358375,37.279584]}},{"properties":{"city":"HOOPER","geo_score":0.857,"zip code":"81136","office":"HOOPER","id":"a64u1wogcc9v","geo_precision":"zip"},"type":"Feature","geometry":{"type":"Point","coordinates":[-105.873616,37.699184]}},{"properties":{"city":"JAROSO","geo_score":0.857,"zip code":"81138","office":"JAROSO","id":"a64u1wrgpw27","geo_precision":"zip"},"type":"Feature","geometry":{"type":"Point","coordinates":[-105.429395,37.197731]}},{"properties":{"city":"LAZEAR","geo_score":0.857,"zip code":"81420","office":"LAZEAR","id":"a64u1wmv8184","geo_precision":"zip"},"type":"Feature","geometry":{"type":"Point","coordinates":[-107.780778,38.781745]}},{"properties":{"city":"MAYBELL","geo_score":0.755,"zip code":"81640","office":"MAYBELL","id":"a64u1wq0sb34","geo_precision":"zip"},"type":"Feature","geometry":{"type":"Point","coordinates":[-108.195922,40.550801]}},{"properties":{"city":"MEREDITH","geo_score":0.75,"zip code":"81642","office":"MEREDITH","id":"a64u1wj46ewq","geo_precision":"zip"},"type":"Feature","geometry":{"type":"Point","coordinates":[-106.655589,39.324709]}},{"properties":{"city":"MESA VERDE NATIONAL PARK","geo_score":0.857,"zip code":"81330","office":"MESA VERDE NATIONAL PARK","id":"a64u1wqh2d4k","geo_precision":"zip"},"type":"Feature","geometry":{"type":"Point","coordinates":[-108.509012,37.319207]}},{"properties":{"city":"MODEL","geo_score":0.738,"zip code":"81059","office":"MODEL","id":"a64u1whqyas3","geo_precision":"zip"},"type":"Feature","geometry":{"type":"Point","coordinates":[-104.208305,37.454181]}},{"properties":{"city":"MOLINA","geo_score":0.857,"zip code":"81646","office":"MOLINA","id":"a64u1wsfxafo","geo_precision":"zip"},"type":"Feature","geometry":{"type":"Point","coordinates":[-108.076508,39.165152]}},{"properties":{"city":"OPHIR","geo_score":0.857,"zip code":"81426","office":"OPHIR","id":"a64u1wsok58h","geo_precision":"zip"},"type":"Feature","geometry":{"type":"Point","coordinates":[-107.86454,37.843026]}},{"properties":{"city":"PARADOX","geo_score":0.857,"zip code":"81429","office":"PARADOX","id":"a64u1woksj72","geo_precision":"zip"},"type":"Feature","geometry":{"type":"Point","coordinates":[-108.969823,38.371101]}},{"properties":{"city":"PITKIN","geo_score":0.857,"zip code":"81241","office":"PITKIN","id":"a64u1wevkv1o","geo_precision":"zip"},"type":"Feature","geometry":{"type":"Point","coordinates":[-106.570985,38.589072]}},{"properties":{"city":"POWDERHORN","geo_score":0.857,"zip code":"81243","office":"POWDERHORN","id":"a64u1wnpafth","geo_precision":"zip"},"type":"Feature","geometry":{"type":"Point","coordinates":[-107.302888,38.270602]}},{"properties":{"city":"RAND","geo_score":0.857,"zip code":"80473","office":"RAND","id":"a64u1wm0qcyz","geo_precision":"zip"},"type":"Feature","geometry":{"type":"Point","coordinates":[-106.185703,40.466701]}},{"properties":{"city":"REDVALE","geo_score":0.857,"zip code":"81431","office":"REDVALE","id":"a64u1wkqyh61","geo_precision":"zip"},"type":"Feature","geometry":{"type":"Point","coordinates":[-108.415514,38.192224]}},{"properties":{"city":"RICO","geo_score":0.857,"zip code":"81332","office":"RICO","id":"a64u1wgeg6m1","geo_precision":"zip"},"type":"Feature","geometry":{"type":"Point","coordinates":[-108.03241,37.690498]}},{"properties":{"city":"ROMEO","geo_score":0.857,"zip code":"81148","office":"ROMEO","id":"a64u1wk5h0uw","geo_precision":"zip"},"type":"Feature","geometry":{"type":"Point","coordinates":[-105.985811,37.172101]}},{"properties":{"city":"SARGENTS","geo_score":0.73,"zip code":"81248","office":"SARGENTS","id":"a64u1wmxhdxu","geo_precision":"zip"},"type":"Feature","geometry":{"type":"Point","coordinates":[-106.393637,38.541663]}},{"properties":{"city":"SLATER","geo_score":0.857,"zip code":"81653","office":"SLATER","id":"a64u1wsxoqmm","geo_precision":"zip"},"type":"Feature","geometry":{"type":"Point","coordinates":[-107.33877,40.997896]}},{"properties":{"city":"TOPONAS","geo_score":0.857,"zip code":"80479","office":"TOPONAS","id":"a64u1wh5lbxl","geo_precision":"zip"},"type":"Feature","geometry":{"type":"Point","coordinates":[-106.851718,40.067609]}},{"properties":{"city":"TRINCHERA","geo_score":0.857,"zip code":"81081","office":"TRINCHERA","id":"a64u1wndrd7w","geo_precision":"zip"},"type":"Feature","geometry":{"type":"Point","coordinates":[-104.132767,37.0999]}},{"properties":{"city":"YELLOW JACKET","geo_score":0.857,"zip code":"81335","office":"YELLOW JACKET","id":"a64u1wdjmkxk","geo_precision":"zip"},"type":"Feature","geometry":{"type":"Point","coordinates":[-108.744007,37.508114]}},{"properties":{"city":"AMHERST","geo_score":0.857,"zip code":"80721","office":"AMHERST","id":"a64u1wkl1hlp","geo_precision":"zip"},"type":"Feature","geometry":{"type":"Point","coordinates":[-102.3582,40.608363]}},{"properties":{"city":"ANTON","geo_score":0.73,"zip code":"80801","office":"ANTON","id":"a64u1whz702z","geo_precision":"zip"},"type":"Feature","geometry":{"type":"Point","coordinates":[-103.06605,39.699153]}},{"properties":{"city":"ARAPAHOE","geo_score":0.857,"zip code":"80802","office":"ARAPAHOE","id":"a64u1wed883v","geo_precision":"zip"},"type":"Feature","geometry":{"type":"Point","coordinates":[-102.524932,38.847485]}},{"properties":{"city":"ARLINGTON","geo_score":0.857,"zip code":"81021","office":"ARLINGTON","id":"a64u1wh0gfqi","geo_precision":"zip"},"type":"Feature","geometry":{"type":"Point","coordinates":[-103.366655,38.430393]}},{"properties":{"city":"ARRIBA","geo_score":0.857,"zip code":"80804","office":"ARRIBA","id":"a64u1wnedx3r","geo_precision":"zip"},"type":"Feature","geometry":{"type":"Point","coordinates":[-103.323143,39.316461]}},{"properties":{"city":"CARR","geo_score":0.735,"zip code":"80612","office":"CARR","id":"a64u1wpp55n5","geo_precision":"zip"},"type":"Feature","geometry":{"type":"Point","coordinates":[-104.969693,40.910817]}},{"properties":{"city":"CHERAW","geo_score":0.857,"zip code":"81030","office":"CHERAW","id":"a64u1wfupp5u","geo_precision":"zip"},"type":"Feature","geometry":{"type":"Point","coordinates":[-103.5367,38.102941]}},{"properties":{"city":"ECKLEY","geo_score":0.857,"zip code":"80727","office":"ECKLEY","id":"a64u1wg1i5ry","geo_precision":"zip"},"type":"Feature","geometry":{"type":"Point","coordinates":[-102.4803,40.061126]}},{"properties":{"city":"HARTMAN","geo_score":0.857,"zip code":"81043","office":"HARTMAN","id":"a64u1wpi78n7","geo_precision":"zip"},"type":"Feature","geometry":{"type":"Point","coordinates":[-102.216833,38.119522]}},{"properties":{"city":"HASTY","geo_score":0.738,"zip code":"81044","office":"HASTY","id":"a64u1wprenue","geo_precision":"zip"},"type":"Feature","geometry":{"type":"Point","coordinates":[-102.966035,38.047785]}},{"properties":{"city":"HASWELL","geo_score":0.857,"zip code":"81045","office":"HASWELL","id":"a64u1wfzk77g","geo_precision":"zip"},"type":"Feature","geometry":{"type":"Point","coordinates":[-103.130677,38.440077]}},{"properties":{"city":"JOES","geo_score":0.857,"zip code":"80822","office":"JOES","id":"a64u1wendr8d","geo_precision":"zip"},"type":"Feature","geometry":{"type":"Point","coordinates":[-102.500066,39.959546]}},{"properties":{"city":"LINDON","geo_score":0.857,"zip code":"80740","office":"LINDON","id":"a64u1woew1pe","geo_precision":"zip"},"type":"Feature","geometry":{"type":"Point","coordinates":[-103.414172,39.790894]}},{"properties":{"city":"ORCHARD","geo_score":0.735,"zip code":"80649","office":"ORCHARD","id":"a64u1wmxjb6y","geo_precision":"zip"},"type":"Feature","geometry":{"type":"Point","coordinates":[-104.244951,40.309426]}},{"properties":{"city":"PADRONI","geo_score":0.857,"zip code":"80745","office":"PADRONI","id":"a64u1wfyk466","geo_precision":"zip"},"type":"Feature","geometry":{"type":"Point","coordinates":[-103.372814,40.884156]}},{"properties":{"city":"PAOLI","geo_score":0.857,"zip code":"80746","office":"PAOLI","id":"a64u1wm2xm3l","geo_precision":"zip"},"type":"Feature","geometry":{"type":"Point","coordinates":[-102.472203,40.610554]}},{"properties":{"city":"SEDGWICK","geo_score":0.857,"zip code":"80749","office":"SEDGWICK","id":"a64u1wggyppb","geo_precision":"zip"},"type":"Feature","geometry":{"type":"Point","coordinates":[-102.44023,40.875703]}},{"properties":{"city":"SNYDER","geo_score":0.738,"zip code":"80750","office":"SNYDER","id":"a64u1wj16rp6","geo_precision":"zip"},"type":"Feature","geometry":{"type":"Point","coordinates":[-103.501055,40.376647]}},{"properties":{"city":"STONEHAM","geo_score":0.857,"zip code":"80754","office":"STONEHAM","id":"a64u1wril2qj","geo_precision":"zip"},"type":"Feature","geometry":{"type":"Point","coordinates":[-103.997391,40.735758]}},{"properties":{"city":"TWO BUTTES","geo_score":0.714,"zip code":"81084","office":"TWO BUTTES","id":"a64u1wjelxsz","geo_precision":"zip"},"type":"Feature","geometry":{"type":"Point","coordinates":[-102.200739,37.615291]}},{"properties":{"city":"WILD HORSE","geo_score":0.73,"zip code":"80862","office":"WILD HORSE","id":"a64u1wjys2m6","geo_precision":"zip"},"type":"Feature","geometry":{"type":"Point","coordinates":[-103.125489,38.854164]}},{"properties":{"city":"WOODROW","geo_score":0.714,"zip code":"80757","office":"WOODROW","id":"a64u1wrxlkcm","geo_precision":"zip"},"type":"Feature","geometry":{"type":"Point","coordinates":[-103.591614,39.74082]}},{"properties":{"city":"MATHESON","geo_score":0.857,"zip code":"80830","office":"MATHESON","id":"a64u1wjpre7v","geo_precision":"zip"},"type":"Feature","geometry":{"type":"Point","coordinates":[-103.900144,39.114381]}},{"properties":{"city":"AURORA","geo_score":0.786,"zip code":"80010","office":"FLETCHER","id":"a64u1wfttsen","geo_precision":"zip"},"type":"Feature","geometry":{"type":"Point","coordinates":[-104.804418,39.740265]}}],"is_temporal":false,"author":{"url":"","metadata":"","contact_name":"","contact_address":"","source":"","contact_phone":""},"source":"","pagination":{"sort":null,"start":0,"total":63,"limit":1000000},"state":"complete","tags":"closing,closures,colorado,office,post,usps","published":"2014-08-13T10:03:01-04:00","id":138969}