{"type":"FeatureCollection","data_type":"Dataset","url_type":null,"permissions":[{"permissions":{"download":true,"view":true},"group_id":"everyone"}],"classification":null,"title":"testemily1","count":13,"stream_id":139688,"contributor":{"url":"http://geocommons.com/users/185","name":"emily"},"data_attributes":null,"calculation_params":null,"icon_link":null,"link":"http://geocommons.com/overlays/139688.json","extent":[0.0,0.0,0.0,0.0],"geometry_types":[],"unique_name":"","name":"testemily1","feature_count":13,"description":"","next_feature":null,"is_raster":false,"short_classification":"Y","stats":{},"features":[{"properties":{"geo_score":0.0,"test":"12,233,972","id":"a6c3u96s2a16","geo_precision":"unmatched","state":"maryland"},"type":"Feature","geometry":null},{"properties":{"geo_score":0.0,"test":"12,233,973","id":"a6c3u97edaf6","geo_precision":"unmatched","state":"virginia"},"type":"Feature","geometry":null},{"properties":{"geo_score":0.0,"test":"12,233,974","id":"a6c3u8z9alsd","geo_precision":"unmatched","state":"texas"},"type":"Feature","geometry":null},{"properties":{"geo_score":0.0,"test":"12,233,975","id":"a6c3u94sr3ox","geo_precision":"unmatched","state":"new mexico"},"type":"Feature","geometry":null},{"properties":{"geo_score":0.0,"test":"12233976","id":"a6c3u9575yms","geo_precision":"unmatched","state":"new york"},"type":"Feature","geometry":null},{"properties":{"geo_score":0.0,"test":"12233977","id":"a6c3u98ibtpm","geo_precision":"unmatched","state":"california"},"type":"Feature","geometry":null},{"properties":{"geo_score":0.0,"test":"12233978","id":"a6c3u99bqxw7","geo_precision":"unmatched","state":"colorado"},"type":"Feature","geometry":null},{"properties":{"geo_score":0.0,"test":"12233979","id":"a6c3u92t75ot","geo_precision":"unmatched","state":"navada"},"type":"Feature","geometry":null},{"properties":{"geo_score":0.0,"test":"12233980","id":"a6c3u8zzbnag","geo_precision":"unmatched","state":"arizona"},"type":"Feature","geometry":null},{"properties":{"geo_score":0.0,"test":"12233981","id":"a6c3u8tx0t3c","geo_precision":"unmatched","state":"florida"},"type":"Feature","geometry":null},{"properties":{"geo_score":0.0,"test":"12233982","id":"a6c3u8um30vg","geo_precision":"unmatched","state":"south carolina"},"type":"Feature","geometry":null},{"properties":{"geo_score":0.0,"test":"12233983","id":"a6c3u945btqt","geo_precision":"unmatched","state":"north carolina"},"type":"Feature","geometry":null},{"properties":{"geo_score":0.0,"test":"12233984","id":"a6c3u90y8wnx","geo_precision":"unmatched","state":"georgia"},"type":"Feature","geometry":null}],"is_temporal":false,"author":{"url":"","metadata":"","contact_name":"","contact_address":"","source":"","contact_phone":""},"source":"","pagination":{"sort":null,"start":0,"total":13,"limit":1000000},"state":"complete","tags":"","published":"2014-08-13T11:06:10-04:00","id":139688}