{"type":"FeatureCollection","data_type":"Dataset","url_type":null,"permissions":[{"permissions":{"download":true,"view":true},"group_id":"everyone"}],"classification":null,"title":"2008Unemploment","count":53,"stream_id":139712,"contributor":{"url":"http://geocommons.com/users/28224","name":"teaddy"},"data_attributes":null,"calculation_params":null,"icon_link":null,"link":"http://geocommons.com/overlays/139712.json","extent":[-160.577,18.3931,-67.181,55.9886],"geometry_types":["point"],"unique_name":null,"name":"2008Unemploment","feature_count":53,"description":"","next_feature":null,"is_raster":false,"short_classification":"Y","stats":{},"features":[{"properties":{"county":null,"zip code":null,"id":"a6mn5k2mmtal","unemployment %":"Rates 2008","state":null},"type":"Feature","geometry":null},{"properties":{"county":"Henry","geo_score":0.857,"zip code":"36310","id":"a6mn5k90z648","geo_precision":"zip","unemployment %":"6.1","state":"Alabama"},"type":"Feature","geometry":{"type":"Point","coordinates":[-85.179654,31.55628]}},{"properties":{"county":"Anchorage","geo_score":0.714,"zip code":"99695","id":"a6mn5kdp0ufv","geo_precision":"zip","unemployment %":"7.3","state":"Alaska"},"type":"Feature","geometry":{"type":"Point","coordinates":[-160.576944,55.988611]}},{"properties":{"county":"Apache Junction","geo_score":0.714,"zip code":"85290","id":"a6mn5k48lk5r","geo_precision":"zip","unemployment %":"6.3","state":"Arizona"},"type":"Feature","geometry":{"type":"Point","coordinates":[-111.355407,33.583103]}},{"properties":{"county":"Alma","geo_score":0.714,"zip code":"72921","id":"a6mn5kd31j4v","geo_precision":"zip","unemployment %":"5.7","state":"Arkansas"},"type":"Feature","geometry":{"type":"Point","coordinates":[-94.178263,35.4287]}},{"properties":{"county":"Almeda","geo_score":0.714,"zip code":"94710","id":"a6mn5k8fm41t","geo_precision":"zip","unemployment %":"8.4","state":"California"},"type":"Feature","geometry":{"type":"Point","coordinates":[-122.30273,37.873366]}},{"properties":{"county":"Piktin","geo_score":0.857,"zip code":"81612","id":"a6mn5kek7wcb","geo_precision":"zip","unemployment %":"5.8","state":"Colorado"},"type":"Feature","geometry":{"type":"Point","coordinates":[-106.882774,39.223416]}},{"properties":{"county":"Hartford","geo_score":0.857,"zip code":"6001","id":"a6mn5ka6w6ek","geo_precision":"zip","unemployment %":"6.6","state":"Connecticut"},"type":"Feature","geometry":{"type":"Point","coordinates":[-72.863433,41.789821]}},{"properties":{"county":"Kent","geo_score":0.0,"zip code":"19906","id":"a6mn5k4c4qy8","geo_precision":"unmatched","unemployment %":"5.6","state":"Delaware"},"type":"Feature","geometry":null},{"properties":{"county":"Washington","geo_score":0.857,"zip code":"20001","id":"a6mn5kemrsc2","geo_precision":"zip","unemployment %":"8","state":"District of Columbia"},"type":"Feature","geometry":{"type":"Point","coordinates":[-77.011365,38.916778]}},{"properties":{"county":"Duval","geo_score":0.857,"zip code":"32277","id":"a6mn5k4watvr","geo_precision":"zip","unemployment %":"7.3","state":"Florida"},"type":"Feature","geometry":{"type":"Point","coordinates":[-81.586394,30.370439]}},{"properties":{"county":"Bacon","geo_score":0.714,"zip code":"31510","id":"a6mn5kbi6nqc","geo_precision":"zip","unemployment %":"7.5","state":"Georgia"},"type":"Feature","geometry":{"type":"Point","coordinates":[-82.41652,31.547982]}},{"properties":{"county":"Hawaii","geo_score":0.857,"zip code":"96743","id":"a6mn5kfl2sjy","geo_precision":"zip","unemployment %":"4.9","state":"Hawaii"},"type":"Feature","geometry":{"type":"Point","coordinates":[-155.827778,19.9325]}},{"properties":{"county":"Ada","geo_score":0.857,"zip code":"83799","id":"a6mn5kg7x8g8","geo_precision":"zip","unemployment %":"5.7","state":"Idaho"},"type":"Feature","geometry":{"type":"Point","coordinates":[-116.243984,43.459855]}},{"properties":{"county":"Dupage","geo_score":0.857,"zip code":"60101","id":"a6mn5k4f963s","geo_precision":"zip","unemployment %":"7.3","state":"Illinois"},"type":"Feature","geometry":{"type":"Point","coordinates":[-88.022516,41.887579]}},{"properties":{"county":"Madison","geo_score":0.857,"zip code":"46001","id":"a6mn5kchtgjj","geo_precision":"zip","unemployment %":"7.1","state":"Indiana"},"type":"Feature","geometry":{"type":"Point","coordinates":[-85.601364,40.193931]}},{"properties":{"county":"Dallas","geo_score":0.857,"zip code":"50003","id":"a6mn5k4fjz84","geo_precision":"zip","unemployment %":"4.3","state":"Iowa"},"type":"Feature","geometry":{"type":"Point","coordinates":[-94.034515,41.617591]}},{"properties":{"county":"Bultler","geo_score":0.857,"zip code":"67002","id":"a6mn5kbsmhpd","geo_precision":"zip","unemployment %":"4.9","state":"Kansas"},"type":"Feature","geometry":{"type":"Point","coordinates":[-97.098431,37.701532]}},{"properties":{"county":"Clinton","geo_score":0.857,"zip code":"42602","id":"a6mn5k72fslw","geo_precision":"zip","unemployment %":"7","state":"Kentucky"},"type":"Feature","geometry":{"type":"Point","coordinates":[-85.064676,36.817012]}},{"properties":{"county":"Bienville","geo_score":0.857,"zip code":"71001","id":"a6mn5k2xid3h","geo_precision":"zip","unemployment %":"5.3","state":"Louisiana"},"type":"Feature","geometry":{"type":"Point","coordinates":[-92.886824,32.668205]}},{"properties":{"county":"Kennebec","geo_score":0.857,"zip code":"4338","id":"a6mn5k4wbh33","geo_precision":"zip","unemployment %":"6.3","state":"Maine"},"type":"Feature","geometry":{"type":"Point","coordinates":[-69.751913,44.414056]}},{"properties":{"county":"Anne Arundel","geo_score":0.857,"zip code":"21012","id":"a6mn5k396dtg","geo_precision":"zip","unemployment %":"5.3","state":"Maryland"},"type":"Feature","geometry":{"type":"Point","coordinates":[-76.510795,39.040389]}},{"properties":{"county":"Plymouth","geo_score":0.857,"zip code":"2351","id":"a6mn5keih7cw","geo_precision":"zip","unemployment %":"5.9","state":"Massachusetts"},"type":"Feature","geometry":{"type":"Point","coordinates":[-70.966155,42.091767]}},{"properties":{"county":"Kent","geo_score":0.857,"zip code":"49357","id":"a6mn5k4nscu8","geo_precision":"zip","unemployment %":"9.6","state":"Michigan"},"type":"Feature","geometry":{"type":"Point","coordinates":[-85.550267,43.031413]}},{"properties":{"county":"Pope","geo_score":0.857,"zip code":"56334","id":"a6mn5k2qp3i4","geo_precision":"zip","unemployment %":"6.4","state":"Minnesota"},"type":"Feature","geometry":{"type":"Point","coordinates":[-95.417537,45.654684]}},{"properties":{"county":"Grenada","geo_score":0.857,"zip code":"38902","id":"a6mn5k2eqi1q","geo_precision":"zip","unemployment %":"7.2","state":"Mississippi"},"type":"Feature","geometry":{"type":"Point","coordinates":[-89.794687,33.824113]}},{"properties":{"county":"Jefferson","geo_score":0.857,"zip code":"63010","id":"a6mn5k7qmno3","geo_precision":"zip","unemployment %":"6.7","state":"Missouri"},"type":"Feature","geometry":{"type":"Point","coordinates":[-90.350118,38.433665]}},{"properties":{"county":"Fallon","geo_score":0.857,"zip code":"59354","id":"a6mn5k5orxva","geo_precision":"zip","unemployment %":"4.9","state":"Montana"},"type":"Feature","geometry":{"type":"Point","coordinates":[-104.475079,46.283486]}},{"properties":{"county":"Dodge","geo_score":0.857,"zip code":"68026","id":"a6mn5k4b8uan","geo_precision":"zip","unemployment %":"3.7","state":"Nebraska"},"type":"Feature","geometry":{"type":"Point","coordinates":[-96.617443,41.567907]}},{"properties":{"county":"Clark","geo_score":0.857,"zip code":"89006","id":"a6mn5k2adl53","geo_precision":"zip","unemployment %":"8","state":"Nevada"},"type":"Feature","geometry":{"type":"Point","coordinates":[-114.972061,35.927901]}},{"properties":{"county":"Hillsborough","geo_score":0.857,"zip code":"3031","id":"a6mn5kgjmidu","geo_precision":"zip","unemployment %":"4.3","state":"New Hampshire"},"type":"Feature","geometry":{"type":"Point","coordinates":[-71.595626,42.842031]}},{"properties":{"county":"Essex","geo_score":0.714,"zip code":"7051","id":"a6mn5k5tk059","geo_precision":"zip","unemployment %":"6.1","state":"New Jersey"},"type":"Feature","geometry":{"type":"Point","coordinates":[-74.245241,40.79185]}},{"properties":{"county":"Bernalillo","geo_score":0.857,"zip code":"87199","id":"a6mn5k7qumyp","geo_precision":"zip","unemployment %":"4.3","state":"New Mexico"},"type":"Feature","geometry":{"type":"Point","coordinates":[-106.672872,35.044339]}},{"properties":{"county":"Albany","geo_score":0.857,"zip code":"12288","id":"a6mn5ke0b6zf","geo_precision":"zip","unemployment %":"6.1","state":"New York"},"type":"Feature","geometry":{"type":"Point","coordinates":[-73.970812,42.614852]}},{"properties":{"county":"Cumberland","geo_score":0.857,"zip code":"28314","id":"a6mn5kfsjea2","geo_precision":"zip","unemployment %":"7.9","state":"North Carolina"},"type":"Feature","geometry":{"type":"Point","coordinates":[-79.011328,35.05425]}},{"properties":{"county":"Burleigh","geo_score":0.714,"zip code":"58507","id":"a6mn5k37ftax","geo_precision":"zip","unemployment %":"3.3","state":"North Dakota"},"type":"Feature","geometry":{"type":"Point","coordinates":[-100.520063,46.980475]}},{"properties":{"county":"Summit","geo_score":0.857,"zip code":"44399","id":"a6mn5k3qylfw","geo_precision":"zip","unemployment %":"7.3","state":"Ohio"},"type":"Feature","geometry":{"type":"Point","coordinates":[-81.53999,41.128705]}},{"properties":{"county":"Pontotoc","geo_score":0.857,"zip code":"74821","id":"a6mn5kbzp8d9","geo_precision":"zip","unemployment %":"4.7","state":"Oklahoma"},"type":"Feature","geometry":{"type":"Point","coordinates":[-96.669321,34.735301]}},{"properties":{"county":"Linn","geo_score":0.857,"zip code":"97322","id":"a6mn5k3qslgv","geo_precision":"zip","unemployment %":"8.1","state":"Oregon"},"type":"Feature","geometry":{"type":"Point","coordinates":[-123.097041,44.627255]}},{"properties":{"county":"Montgomery","geo_score":0.714,"zip code":"19001","id":"a6mn5kevgm34","geo_precision":"zip","unemployment %":"6.1","state":"Pennsylvania"},"type":"Feature","geometry":{"type":"Point","coordinates":[-75.137674,40.131777]}},{"properties":{"county":"Bristol","geo_score":0.857,"zip code":"2806","id":"a6mn5k97ru2p","geo_precision":"zip","unemployment %":"9.3","state":"Rhode Island"},"type":"Feature","geometry":{"type":"Point","coordinates":[-71.341441,41.743712]}},{"properties":{"county":"Marion","geo_score":0.857,"zip code":"29571","id":"a6mn5k2bgf2w","geo_precision":"zip","unemployment %":"8.4","state":"South Carolina"},"type":"Feature","geometry":{"type":"Point","coordinates":[-79.538945,34.205992]}},{"properties":{"county":"Brown","geo_score":0.857,"zip code":"57402","id":"a6mn5k3yvf32","geo_precision":"zip","unemployment %":"3.4","state":"South Dakota"},"type":"Feature","geometry":{"type":"Point","coordinates":[-98.352014,45.589567]}},{"properties":{"county":"Oak Ridge","geo_score":0.857,"zip code":"37830","id":"a6mn5k4636k3","geo_precision":"zip","unemployment %":"6.9","state":"Tennessee"},"type":"Feature","geometry":{"type":"Point","coordinates":[-84.222143,36.023134]}},{"properties":{"county":"Dallas","geo_score":0.857,"zip code":"75001","id":"a6mn5k946auw","geo_precision":"zip","unemployment %":"5.7","state":"Texas"},"type":"Feature","geometry":{"type":"Point","coordinates":[-96.777626,32.767268]}},{"properties":{"county":"Utah","geo_score":0.857,"zip code":"84003","id":"a6mn5k0la79k","geo_precision":"zip","unemployment %":"3.7","state":"Utah"},"type":"Feature","geometry":{"type":"Point","coordinates":[-111.770208,40.44995]}},{"properties":{"county":"Washington","geo_score":0.857,"zip code":"5641","id":"a6mn5k8oon0f","geo_precision":"zip","unemployment %":"5.7","state":"Vermont"},"type":"Feature","geometry":{"type":"Point","coordinates":[-72.402601,44.148396]}},{"properties":{"county":"Washington","geo_score":0.857,"zip code":"24212","id":"a6mn5kcralj2","geo_precision":"zip","unemployment %":"4.8","state":"Virginia"},"type":"Feature","geometry":{"type":"Point","coordinates":[-81.970764,36.690942]}},{"properties":{"county":"San Juan","geo_score":0.857,"zip code":"98222","id":"a6mn5k31j00b","geo_precision":"zip","unemployment %":"6.4","state":"Washington"},"type":"Feature","geometry":{"type":"Point","coordinates":[-122.921551,48.610644]}},{"properties":{"county":"Raleigh","geo_score":0.857,"zip code":"25802","id":"a6mn5kda4qa3","geo_precision":"zip","unemployment %":"4.6","state":"West Virginia"},"type":"Feature","geometry":{"type":"Point","coordinates":[-81.224458,37.748935]}},{"properties":{"county":"Adams","geo_score":0.857,"zip code":"53910","id":"a6mn5k8zkis4","geo_precision":"zip","unemployment %":"5.6","state":"Wisconsin"},"type":"Feature","geometry":{"type":"Point","coordinates":[-89.806792,43.83803]}},{"properties":{"county":"Lincoln","geo_score":0.857,"zip code":"83110","id":"a6mn5kf2nirs","geo_precision":"zip","unemployment %":"3.2","state":"Wyoming"},"type":"Feature","geometry":{"type":"Point","coordinates":[-110.619734,42.711296]}},{"properties":{"county":"Aguada","geo_score":0.857,"zip code":"602","id":"a6mn5k5nr5c4","geo_precision":"zip","unemployment %":null,"state":"Puerto Rico"},"type":"Feature","geometry":{"type":"Point","coordinates":[-67.180953,18.393103]}}],"is_temporal":false,"author":{"url":"","metadata":null,"contact_name":null,"contact_address":null,"source":null,"contact_phone":null},"source":"","pagination":{"sort":null,"start":0,"total":53,"limit":1000000},"state":"complete","tags":"","published":"2014-08-13T11:10:15-04:00","id":139712}