{"type":"FeatureCollection","data_type":"Dataset","url_type":null,"permissions":[{"permissions":{"download":true,"view":true},"group_id":"everyone"}],"classification":null,"title":"Expanding Capital Bikeshare locations","count":50,"stream_id":139838,"contributor":{"url":"http://geocommons.com/users/159","name":"ajturner"},"data_attributes":null,"calculation_params":null,"icon_link":null,"link":"http://geocommons.com/overlays/139838.json","extent":[-77.0771,38.8618,-76.938,38.9717],"geometry_types":["point"],"unique_name":"","name":"Expanding Capital Bikeshare locations","feature_count":50,"description":"Planned expansion of Washington DC's Capital Bikeshare program for fall of 2011","next_feature":null,"is_raster":false,"short_classification":"Y","stats":{"latitude":{"max":38.971675,"mean":38.9001756,"variance":0.000386441315306123,"stdev":0.0196581106748874,"min":38.861809,"median":38.899101},"longitude":{"max":-76.937971,"mean":-77.01401588,"variance":0.000788150890801627,"stdev":0.0280740251977095,"min":-77.077059,"median":-77.021929}},"features":[{"properties":{"name":"3rd Street and G Street SE, Washington, DC","city":"Washington","latitude":38.88128,"desc":"-","color":null,"street":"3rd Street and G Street SE","longitude":-77.002029,"id":"a63acr4llhrk","state":"DC"},"type":"Feature","geometry":{"type":"Point","coordinates":[-77.002029,38.88128]}},{"properties":{"name":"4th Street and E Street SW, Washington, DC","city":"Washington","latitude":38.88324,"desc":"-","color":null,"street":"4th Street and E Street SW","longitude":-77.017549,"id":"a63acqxp08il","state":"DC"},"type":"Feature","geometry":{"type":"Point","coordinates":[-77.017549,38.88324]}},{"properties":{"name":"5th Street SE between Alabama and Martin Luther King Avenue SE, Washington, DC","city":"Washington","latitude":38.899101,"desc":"-","color":null,"street":"5th Street SE between Alabama and Martin Luther King Avenue SE","longitude":-77.028999,"id":"a63acr0rm6ox","state":"DC"},"type":"Feature","geometry":{"type":"Point","coordinates":[-77.028999,38.899101]}},{"properties":{"name":"6th Street and Florida NE, Washington, DC","city":"Washington","latitude":38.90623,"desc":"-","color":null,"street":"6th Street and Florida NE","longitude":-76.998309,"id":"a63acr8f9t2k","state":"DC"},"type":"Feature","geometry":{"type":"Point","coordinates":[-76.998309,38.90623]}},{"properties":{"name":"7th Street and Maryland Avenue NE, Washington, DC","city":"Washington","latitude":38.89496,"desc":"-","color":null,"street":"7th Street and Maryland Avenue NE","longitude":-76.996149,"id":"a63acr4b3fb3","state":"DC"},"type":"Feature","geometry":{"type":"Point","coordinates":[-76.996149,38.89496]}},{"properties":{"name":"7th Street and R Street NW, Washington, DC","city":"Washington","latitude":38.91261,"desc":"-","color":null,"street":"7th Street and R Street NW","longitude":-77.021929,"id":"a63acqzsap9z","state":"DC"},"type":"Feature","geometry":{"type":"Point","coordinates":[-77.021929,38.91261]}},{"properties":{"name":"11th Street and H Street NE, Washington, DC","city":"Washington","latitude":38.90019,"desc":"-","color":null,"street":"11th Street and H Street NE","longitude":-76.991529,"id":"a63acr7dnwba","state":"DC"},"type":"Feature","geometry":{"type":"Point","coordinates":[-76.991529,38.90019]}},{"properties":{"name":"16th Street and Euclid Street NW, Washington, DC","city":"Washington","latitude":38.90185,"desc":"-","color":null,"street":"16th Street and Euclid Street NW","longitude":-77.036524,"id":"a63acr4w11lp","state":"DC"},"type":"Feature","geometry":{"type":"Point","coordinates":[-77.036524,38.90185]}},{"properties":{"name":"17th Street and Rhode Island Ave NW, Washington, DC","city":"Washington","latitude":38.898515,"desc":"-","color":null,"street":"17th Street and Rhode Island Ave NW","longitude":-77.039424,"id":"a63acr5zxfwk","state":"DC"},"type":"Feature","geometry":{"type":"Point","coordinates":[-77.039424,38.898515]}},{"properties":{"name":"18th Street and Pennsylvania Ave NW, Washington, DC","city":"Washington","latitude":38.901875,"desc":"-","color":null,"street":"18th Street and Pennsylvania Ave NW","longitude":-77.041709,"id":"a63acr0mkcay","state":"DC"},"type":"Feature","geometry":{"type":"Point","coordinates":[-77.041709,38.901875]}},{"properties":{"name":"19th Street and New Hampshire Avenue NW, Washington, DC","city":"Washington","latitude":38.90187,"desc":"-","color":null,"street":"19th Street and New Hampshire Avenue NW","longitude":-77.043454,"id":"a63acr9qlalz","state":"DC"},"type":"Feature","geometry":{"type":"Point","coordinates":[-77.043454,38.90187]}},{"properties":{"name":"38th Street SE at Pennsylvania Ave - Fairfax Village, Washington, DC","city":"Washington","latitude":38.861809,"desc":"-","color":null,"street":"38th Street SE at Pennsylvania Ave - Fairfax Village","longitude":-76.95137,"id":"a63acqzul8yv","state":"DC"},"type":"Feature","geometry":{"type":"Point","coordinates":[-76.95137,38.861809]}},{"properties":{"name":"3000 Connecticut. NW, Washington, DC","city":"Washington","latitude":38.929402,"desc":"-","color":null,"street":"3000 Connecticut. NW","longitude":-77.055124,"id":"a63acraa0d7u","state":"DC"},"type":"Feature","geometry":{"type":"Point","coordinates":[-77.055124,38.929402]}},{"properties":{"name":"4500 Benning Road NE, Washington, DC","city":"Washington","latitude":38.890599,"desc":"-","color":null,"street":"4500 Benning Road NE","longitude":-76.937971,"id":"a63acqynbjhp","state":"DC"},"type":"Feature","geometry":{"type":"Point","coordinates":[-76.937971,38.890599]}},{"properties":{"name":"Calvert Street and 39th Street NW, Washington, DC","city":"Washington","latitude":38.92256,"desc":"-","color":null,"street":"Calvert Street and 39th Street NW","longitude":-77.077059,"id":"a63acra8db2u","state":"DC"},"type":"Feature","geometry":{"type":"Point","coordinates":[-77.077059,38.92256]}},{"properties":{"name":"Columbia Road and Belmont Road NW, Washington, DC","city":"Washington","latitude":38.899101,"desc":"-","color":null,"street":"Columbia Road and Belmont Road NW","longitude":-77.028999,"id":"a63acr9rxmrh","state":"DC"},"type":"Feature","geometry":{"type":"Point","coordinates":[-77.028999,38.899101]}},{"properties":{"name":"Alabama Avenue at 13th Street SE - Congress Heights Metro, Washington, DC","city":"Washington","latitude":38.899101,"desc":"-","color":null,"street":"Alabama Avenue at 13th Street SE - Congress Heights Metro","longitude":-77.028999,"id":"a63acr4pr1t4","state":"DC"},"type":"Feature","geometry":{"type":"Point","coordinates":[-77.028999,38.899101]}},{"properties":{"name":"Florida Avenue and California Street NW, Washington, DC","city":"Washington","latitude":38.899101,"desc":"-","color":null,"street":"Florida Avenue and California Street NW","longitude":-77.028999,"id":"a63acr8dst5t","state":"DC"},"type":"Feature","geometry":{"type":"Point","coordinates":[-77.028999,38.899101]}},{"properties":{"name":"Washington Hospital Center - 1st Street and Michigan NW, Washington, DC","city":"Washington","latitude":38.917431,"desc":"-","color":null,"street":"Washington Hospital Center - 1st Street and Michigan NW","longitude":-76.97326,"id":"a63acr90vdni","state":"DC"},"type":"Feature","geometry":{"type":"Point","coordinates":[-76.97326,38.917431]}},{"properties":{"name":"Georgia Avenue and Columbia Road NW, Washington, DC","city":"Washington","latitude":38.92813,"desc":"-","color":null,"street":"Georgia Avenue and Columbia Road NW","longitude":-77.023079,"id":"a63acqzvhe8i","state":"DC"},"type":"Feature","geometry":{"type":"Point","coordinates":[-77.023079,38.92813]}},{"properties":{"name":"Good Hope Road and Minnesota Avenue SE, Washington, DC","city":"Washington","latitude":38.86665,"desc":"-","color":null,"street":"Good Hope Road and Minnesota Avenue SE","longitude":-76.984379,"id":"a63acr0czp8y","state":"DC"},"type":"Feature","geometry":{"type":"Point","coordinates":[-76.984379,38.86665]}},{"properties":{"name":"M Street and Pennsylvania Avenue NW, Washington, DC","city":"Washington","latitude":38.89263,"desc":"-","color":null,"street":"M Street and Pennsylvania Avenue NW","longitude":-77.019219,"id":"a63acr6h5s32","state":"DC"},"type":"Feature","geometry":{"type":"Point","coordinates":[-77.019219,38.89263]}},{"properties":{"name":"Maryland Avenue and Independence Avenue SW (at 6th Street), Washington, DC","city":"Washington","latitude":38.88757,"desc":"-","color":null,"street":"Maryland Avenue and Independence Avenue SW (at 6th Street)","longitude":-77.018829,"id":"a63acrcl3cfi","state":"DC"},"type":"Feature","geometry":{"type":"Point","coordinates":[-77.018829,38.88757]}},{"properties":{"name":"Massachusetts Avenue and 15th Street SE, Washington, DC","city":"Washington","latitude":38.88713,"desc":"-","color":null,"street":"Massachusetts Avenue and 15th Street SE","longitude":-76.983659,"id":"a63acqzwhdhm","state":"DC"},"type":"Feature","geometry":{"type":"Point","coordinates":[-76.983659,38.88713]}},{"properties":{"name":"New Jersey Avenue and D Street SE, Washington, DC","city":"Washington","latitude":38.88508,"desc":"-","color":null,"street":"New Jersey Avenue and D Street SE","longitude":-77.007249,"id":"a63acr3uszey","state":"DC"},"type":"Feature","geometry":{"type":"Point","coordinates":[-77.007249,38.88508]}},{"properties":{"name":"Rhode Island Avenue and 1st Street NW, Washington, DC","city":"Washington","latitude":38.91567,"desc":"-","color":null,"street":"Rhode Island Avenue and 1st Street NW","longitude":-77.012149,"id":"a63acrbx9ssk","state":"DC"},"type":"Feature","geometry":{"type":"Point","coordinates":[-77.012149,38.91567]}},{"properties":{"name":"Anacostia Avenue at Benning Road NE - River Terrace, Washington, DC","city":"Washington","latitude":38.891979,"desc":"-","color":null,"street":"Anacostia Avenue at Benning Road NE - River Terrace","longitude":-76.958839,"id":"a63acray2v0z","state":"DC"},"type":"Feature","geometry":{"type":"Point","coordinates":[-76.958839,38.891979]}},{"properties":{"name":"Thomas Circle at 14th Street NW, Washington, DC","city":"Washington","latitude":38.90592,"desc":"-","color":null,"street":"Thomas Circle at 14th Street NW","longitude":-77.031659,"id":"a63acr2tixla","state":"DC"},"type":"Feature","geometry":{"type":"Point","coordinates":[-77.031659,38.90592]}},{"properties":{"name":"Tingey Street and 3rd Street SE, Washington, DC","city":"Washington","latitude":38.87488,"desc":"-","color":null,"street":"Tingey Street and 3rd Street SE","longitude":-77.002009,"id":"a63acrdjolux","state":"DC"},"type":"Feature","geometry":{"type":"Point","coordinates":[-77.002009,38.87488]}},{"properties":{"name":"Upshur Street and 14th Street NW, Washington, DC","city":"Washington","latitude":38.895815,"desc":"-","color":null,"street":"Upshur Street and 14th Street NW","longitude":-77.031949,"id":"a63acr43nk2u","state":"DC"},"type":"Feature","geometry":{"type":"Point","coordinates":[-77.031949,38.895815]}},{"properties":{"name":"Upshur Street and Georgia Avenue NW, Washington, DC","city":"Washington","latitude":38.899101,"desc":"-","color":null,"street":"Upshur Street and Georgia Avenue NW","longitude":-77.028999,"id":"a63acr43enpd","state":"DC"},"type":"Feature","geometry":{"type":"Point","coordinates":[-77.028999,38.899101]}},{"properties":{"name":"W Street and Martin Luther King Avenue SE, Washington, DC","city":"Washington","latitude":38.86488,"desc":"-","color":null,"street":"W Street and Martin Luther King Avenue SE","longitude":-76.989749,"id":"a63acr5twbis","state":"DC"},"type":"Feature","geometry":{"type":"Point","coordinates":[-76.989749,38.86488]}},{"properties":{"name":"4th Street and M Street SW, Washington, DC","city":"Washington","latitude":38.87648,"desc":"-","color":null,"street":"4th Street and M Street SW","longitude":-77.000549,"id":"a63acravwrry","state":"DC"},"type":"Feature","geometry":{"type":"Point","coordinates":[-77.000549,38.87648]}},{"properties":{"name":"7th Street and Water Street SW, Washington, DC","city":"Washington","latitude":38.8783,"desc":"-","color":null,"street":"7th Street and Water Street SW","longitude":-77.023109,"id":"a63acraskzyn","state":"DC"},"type":"Feature","geometry":{"type":"Point","coordinates":[-77.023109,38.8783]}},{"properties":{"name":"11th Street and Kenyon Street NW, Washington, DC","city":"Washington","latitude":38.9297,"desc":"-","color":null,"street":"11th Street and Kenyon Street NW","longitude":-77.027729,"id":"a63acqz79yaa","state":"DC"},"type":"Feature","geometry":{"type":"Point","coordinates":[-77.027729,38.9297]}},{"properties":{"name":"13th Street and D Street NE, Washington, DC","city":"Washington","latitude":38.89477,"desc":"-","color":null,"street":"13th Street and D Street NE","longitude":-76.988289,"id":"a63acr579amu","state":"DC"},"type":"Feature","geometry":{"type":"Point","coordinates":[-76.988289,38.89477]}},{"properties":{"name":"13th Street and H Street NE, Washington, DC","city":"Washington","latitude":38.90018,"desc":"-","color":null,"street":"13th Street and H Street NE","longitude":-76.988309,"id":"a63acrazlay5","state":"DC"},"type":"Feature","geometry":{"type":"Point","coordinates":[-76.988309,38.90018]}},{"properties":{"name":"14th Street and Rhode Island Ave NW, Washington, DC","city":"Washington","latitude":38.971675,"desc":"-","color":null,"street":"14th Street and Rhode Island Ave NW","longitude":-77.032299,"id":"a63acr8wgui0","state":"DC"},"type":"Feature","geometry":{"type":"Point","coordinates":[-77.032299,38.971675]}},{"properties":{"name":"14th Street and V Street NW, Washington, DC","city":"Washington","latitude":38.895815,"desc":"-","color":null,"street":"14th Street and V Street NW","longitude":-77.031949,"id":"a63acr5apll1","state":"DC"},"type":"Feature","geometry":{"type":"Point","coordinates":[-77.031949,38.895815]}},{"properties":{"name":"16th Street and Harvard Street NW, Washington, DC","city":"Washington","latitude":38.90185,"desc":"-","color":null,"street":"16th Street and Harvard Street NW","longitude":-77.036524,"id":"a63acr97aajw","state":"DC"},"type":"Feature","geometry":{"type":"Point","coordinates":[-77.036524,38.90185]}},{"properties":{"name":"16th Street and U Street NW, Washington, DC","city":"Washington","latitude":38.90185,"desc":"-","color":null,"street":"16th Street and U Street NW","longitude":-77.036524,"id":"a63acr86vbsa","state":"DC"},"type":"Feature","geometry":{"type":"Point","coordinates":[-77.036524,38.90185]}},{"properties":{"name":"21st Street and I Street NW, Washington, DC","city":"Washington","latitude":38.90279,"desc":"-","color":null,"street":"21st Street and I Street NW","longitude":-76.974149,"id":"a63acr4kuuy3","state":"DC"},"type":"Feature","geometry":{"type":"Point","coordinates":[-76.974149,38.90279]}},{"properties":{"name":"C and O Canal and Wisconsin Ave NW, Washington, DC","city":"Washington","latitude":38.89037,"desc":"-","color":null,"street":"C and O Canal and Wisconsin Ave NW","longitude":-77.031959,"id":"a63acr8kgg7m","state":"DC"},"type":"Feature","geometry":{"type":"Point","coordinates":[-77.031959,38.89037]}},{"properties":{"name":"Calvert Street and Woodley Place NW, Washington, DC","city":"Washington","latitude":38.92345,"desc":"-","color":null,"street":"Calvert Street and Woodley Place NW","longitude":-77.050209,"id":"a63acr7jn85y","state":"DC"},"type":"Feature","geometry":{"type":"Point","coordinates":[-77.050209,38.92345]}},{"properties":{"name":"Pennsylvania Avenue and 7th Street SE, Washington, DC","city":"Washington","latitude":38.88458,"desc":"-","color":null,"street":"Pennsylvania Avenue and 7th Street SE","longitude":-76.996159,"id":"a63acrbyidek","state":"DC"},"type":"Feature","geometry":{"type":"Point","coordinates":[-76.996159,38.88458]}},{"properties":{"name":"Lamont Street and Mt. Pleasant Street NW, Washington, DC","city":"Washington","latitude":38.93115,"desc":"-","color":null,"street":"Lamont Street and Mt. Pleasant Street NW","longitude":-77.038319,"id":"a63acr4owu3v","state":"DC"},"type":"Feature","geometry":{"type":"Point","coordinates":[-77.038319,38.93115]}},{"properties":{"name":"13th and East Capitol Street NE, Washington, DC","city":"Washington","latitude":38.88979,"desc":"-","color":null,"street":"13th and East Capitol Street NE","longitude":-76.988289,"id":"a63acr0o8kfl","state":"DC"},"type":"Feature","geometry":{"type":"Point","coordinates":[-76.988289,38.88979]}},{"properties":{"name":"Massachusetts Avenue and Dupont Circle NW, Washington, DC","city":"Washington","latitude":38.90992,"desc":"-","color":null,"street":"Massachusetts Avenue and Dupont Circle NW","longitude":-77.044179,"id":"a63acr35lirl","state":"DC"},"type":"Feature","geometry":{"type":"Point","coordinates":[-77.044179,38.90992]}},{"properties":{"name":"12th Street and G Street NW, Washington, DC","city":"Washington","latitude":38.89892,"desc":"-","color":null,"street":"12th Street and G Street NW","longitude":-76.990229,"id":"a63acrdki41y","state":"DC"},"type":"Feature","geometry":{"type":"Point","coordinates":[-76.990229,38.89892]}},{"properties":{"name":"Park Road and Holmead Place NW, Washington, DC","city":"Washington","latitude":38.93093,"desc":"-","color":null,"street":"Park Road and Holmead Place NW","longitude":-77.030869,"id":"a63acr4cmfut","state":"DC"},"type":"Feature","geometry":{"type":"Point","coordinates":[-77.030869,38.93093]}}],"is_temporal":false,"author":{"url":"http://www.washingtonpost.com/blogs/dr-gridlock/post/capital-bikeshare-growing-again/2011/07/27/gIQA8nNwcI_blog.html","metadata":"","contact_name":"","contact_address":"","source":"Washington Post","contact_phone":""},"source":"http://www.washingtonpost.com/blogs/dr-gridlock/post/capital-bikeshare-growing-again/2011/07/27/gIQA8nNwcI_blog.html","pagination":{"sort":null,"start":0,"total":50,"limit":1000000},"state":"complete","tags":"bicycle,city,transit,urban","published":"2011-07-07T16:00:00Z","id":139838}