{"type":"FeatureCollection","data_type":"Dataset","url_type":null,"permissions":[{"permissions":{"download":true,"view":true},"group_id":"everyone"}],"classification":null,"title":"Untitled","count":10,"stream_id":14072,"contributor":{"url":"http://geocommons.com/users/223","name":"ErinM"},"data_attributes":null,"calculation_params":null,"icon_link":null,"link":"http://geocommons.com/overlays/14072.json","extent":[62.094,32.2117,68.6111,37.2214],"geometry_types":["point"],"unique_name":null,"name":"Untitled","feature_count":10,"description":"","next_feature":null,"is_raster":false,"short_classification":"Y","stats":{"killed":{"max":25.0,"mean":4.0,"variance":55.7777777777778,"stdev":7.46845216746936,"min":0.0,"median":2.0},"latitude":{"max":37.221389,"mean":33.9643036,"variance":2.83199833355027,"stdev":1.68285422231109,"min":32.211667,"median":33.33204},"civkilled":{"max":2.0,"mean":0.3,"variance":0.455555555555555,"stdev":0.674948557710553,"min":0.0,"median":0.0},"wounded":{"max":2.0,"mean":0.3,"variance":0.455555555555555,"stdev":0.674948557710553,"min":0.0,"median":0.0},"longitude":{"max":68.611111,"mean":64.5683295,"variance":6.58895568929183,"stdev":2.56689611969239,"min":62.094,"median":63.75}},"features":[{"properties":{"killed":0.0,"latitude":37.221389,"civkilled":0.0,"district":"none","country":"Afghanistan","date_":"4/22/2008","wounded":0.0,"longitude":67.420556,"id":"a6pxpe355hrp","province":"Balkh","source":"BBC Monitoring Afghanistan Daily Secur","location":"Hayratan"},"type":"Feature","geometry":{"type":"Point","coordinates":[67.420556,37.221389]}},{"properties":{"killed":2.0,"latitude":32.211667,"civkilled":2.0,"district":"Delaram","country":"Afghanistan","date_":"5/14/2008","wounded":0.0,"longitude":63.4375,"id":"a6pxpebm5vo9","province":"Farah","source":"Taleban hit a convoy of US forces","location":"Heart-Kandahar hi"},"type":"Feature","geometry":{"type":"Point","coordinates":[63.4375,32.211667]}},{"properties":{"killed":2.0,"latitude":33.296944,"civkilled":0.0,"district":"Andar","country":"Afghanistan","date_":"5/15/2008","wounded":0.0,"longitude":68.611111,"id":"a6pxpe1pt4sj","province":"Ghazni","source":"a mine exploded","location":"Bangi Qala"},"type":"Feature","geometry":{"type":"Point","coordinates":[68.611111,33.296944]}},{"properties":{"killed":2.0,"latitude":32.658,"civkilled":0.0,"district":"Khak-e Safid","country":"Afghanistan","date_":"5/16/2008","wounded":0.0,"longitude":62.094,"id":"a6pxpe3kx8yi","province":"Farah","source":"Afghan National Army and Coalition for","location":"Siadara"},"type":"Feature","geometry":{"type":"Point","coordinates":[62.094,32.658]}},{"properties":{"killed":4.0,"latitude":35.0,"civkilled":0.0,"district":"none","country":"Afghanistan","date_":"5/27/2008","wounded":0.0,"longitude":63.75,"id":"a6pxpdx60vuf","province":"Badghis","source":"Hong Kong AFP from OSC","location":"none"},"type":"Feature","geometry":{"type":"Point","coordinates":[63.75,35.0]}},{"properties":{"killed":0.0,"latitude":32.37,"civkilled":0.0,"district":"Borders Iran","country":"Afghanistan","date_":"5/30/2008","wounded":0.0,"longitude":62.11,"id":"a6pxpdy3raz0","province":"Farah","source":"Hong Kong AFP from OSC","location":"Farah"},"type":"Feature","geometry":{"type":"Point","coordinates":[62.11,32.37]}},{"properties":{"killed":1.0,"latitude":35.725556,"civkilled":0.0,"district":"Ghowrmach","country":"Afghanistan","date_":"5/31/2008","wounded":1.0,"longitude":63.789444,"id":"a6pxpe626nrv","province":"Badghis","source":"BBC Monitoring Afghanistan Daily Secur","location":"Mar-e Chaq"},"type":"Feature","geometry":{"type":"Point","coordinates":[63.789444,35.725556]}},{"properties":{"killed":2.0,"latitude":32.788,"civkilled":1.0,"district":"Bala Buluk","country":"Afghanistan","date_":"6/27/2008","wounded":2.0,"longitude":62.727,"id":"a6pxpe0y4hf6","province":"Farah","source":"Security guard hit by mines","location":"Sia Sangal"},"type":"Feature","geometry":{"type":"Point","coordinates":[62.727,32.788]}},{"properties":{"killed":2.0,"latitude":33.33204,"civkilled":0.0,"district":"Andar","country":"Afghanistan","date_":"7/1/2008","wounded":0.0,"longitude":68.45174,"id":"a6pxpea5tisl","province":"Ghazni","source":"Two taliban were killed when their own","location":""},"type":"Feature","geometry":{"type":"Point","coordinates":[68.45174,33.33204]}},{"properties":{"killed":25.0,"latitude":35.03944,"civkilled":0.0,"district":"Northwestern","country":"Afghanistan","date_":"7/2/2008","wounded":0.0,"longitude":63.291944,"id":"a6pxpe4lu7nz","province":"Badghis","source":"BBC Monitoring Afghanistan Daily Secur","location":"(Moqor)"},"type":"Feature","geometry":{"type":"Point","coordinates":[63.291944,35.03944]}}],"is_temporal":false,"author":{"url":null,"metadata":null,"contact_name":null,"contact_address":null,"source":null,"contact_phone":null},"source":null,"pagination":{"sort":null,"start":0,"total":10,"limit":1000000},"state":"complete","tags":"","published":"2014-08-10T17:58:51-04:00","id":14072}