{"type":"FeatureCollection","data_type":"Dataset","url_type":null,"permissions":[{"permissions":{"download":true,"edit":true,"view":true},"group_id":30939},{"permissions":{"download":true,"view":true},"group_id":"everyone"}],"classification":null,"title":"sot geoiq 4","count":2,"stream_id":140859,"contributor":{"url":"http://geocommons.com/users/30467","name":"markwmccall"},"data_attributes":null,"calculation_params":null,"icon_link":null,"link":"http://geocommons.com/overlays/140859.json","extent":[-98.8667,34.8676,-77.0673,38.7734],"geometry_types":["point"],"unique_name":"","name":"sot geoiq 4","feature_count":2,"description":"","next_feature":null,"is_raster":false,"short_classification":"Y","stats":{},"features":[{"properties":{"city":"cupertino","zip":"95014","offendername":"John Doe","mugshoturl":"http://gravatar.com/avatar/df1f6710e21529720a22180fc1c3639f?default=http%3A%2F%2Fgeocommons.com%2Fimages%2Fg.person.png&amp;size=60","geo_score":0.444,"street":"1 infinite circle","id":"0","geo_precision":"city","state":"ca"},"type":"Feature","geometry":{"type":"Point","coordinates":[-98.866738,34.867562]}},{"properties":{"city":"Alexandria","zip":"22307","offendername":"STEVENS, CRAIG","mugshoturl":"http://localhost:8080/clear/a//ImageStream?recordId=8a5ec8d43191b682013191b82fa6004c&amp;imgGuid=I967774b0682311e0bd599f447f6205be","street":"6625 Cornell Dr","id":"a6886cel61ww","state":"VA"},"type":"Feature","geometry":{"type":"Point","coordinates":[-77.067348,38.773416]}}],"is_temporal":false,"author":{"url":"","metadata":"","contact_name":"","contact_address":"","source":"","contact_phone":""},"source":"","pagination":{"sort":null,"start":0,"total":2,"limit":1000000},"state":"complete","tags":"","published":"2014-08-12T22:22:01-04:00","id":140859}