{"type":"FeatureCollection","data_type":"Dataset","url_type":null,"permissions":[{"permissions":{"download":true,"view":true},"group_id":"everyone"}],"classification":null,"title":"Top300CTs","count":281,"stream_id":141336,"contributor":{"url":"http://geocommons.com/users/30714","name":"chengsk"},"data_attributes":null,"calculation_params":null,"icon_link":null,"link":"http://geocommons.com/overlays/141336.json","extent":[0.0,0.0,0.0,0.0],"geometry_types":[],"unique_name":null,"name":"Top300CTs","feature_count":281,"description":"","next_feature":null,"is_raster":false,"short_classification":"Y","stats":{"name":{"max":281,"mean":141.0,"variance":6603.5,"stdev":81.2619222022221,"min":1,"median":141},"trialnumber":{"max":882,"mean":111.590747330961,"variance":4944.6283426538,"stdev":70.3180513286155,"min":61,"median":88}},"features":[{"properties":{"name":1,"zip":"77030","trialnumber":882,"id":"a7dkaddg89z0"},"type":"Feature","geometry":null},{"properties":{"name":2,"zip":"02115","trialnumber":411,"id":"a7dkad0i4lsc"},"type":"Feature","geometry":null},{"properties":{"name":3,"zip":"10065","trialnumber":340,"id":"a7dkaddz6rt2"},"type":"Feature","geometry":null},{"properties":{"name":4,"zip":"63110","trialnumber":333,"id":"a7dkadehj4it"},"type":"Feature","geometry":null},{"properties":{"name":5,"zip":"50309","trialnumber":255,"id":"a7dkad9uerde"},"type":"Feature","geometry":null},{"properties":{"name":6,"zip":"67214","trialnumber":248,"id":"a7dkad8w7ymw"},"type":"Feature","geometry":null},{"properties":{"name":7,"zip":"55905","trialnumber":245,"id":"a7dkad6oy0c4"},"type":"Feature","geometry":null},{"properties":{"name":8,"zip":"60637","trialnumber":239,"id":"a7dkad8wcgyh"},"type":"Feature","geometry":null},{"properties":{"name":9,"zip":"19104","trialnumber":237,"id":"a7dkad24r3kp"},"type":"Feature","geometry":null},{"properties":{"name":10,"zip":"98109","trialnumber":227,"id":"a7dkad7p2aot"},"type":"Feature","geometry":null},{"properties":{"name":11,"zip":"20892","trialnumber":220,"id":"a7dkadb8ck26"},"type":"Feature","geometry":null},{"properties":{"name":12,"zip":"49007","trialnumber":214,"id":"a7dkacz7hpgm"},"type":"Feature","geometry":null},{"properties":{"name":13,"zip":"78229","trialnumber":214,"id":"a7dkad7jz311"},"type":"Feature","geometry":null},{"properties":{"name":14,"zip":"59405","trialnumber":214,"id":"a7dkad54xv0g"},"type":"Feature","geometry":null},{"properties":{"name":15,"zip":"48201","trialnumber":213,"id":"a7dkad6k80xh"},"type":"Feature","geometry":null},{"properties":{"name":16,"zip":"30322","trialnumber":213,"id":"a7dkadecrezg"},"type":"Feature","geometry":null},{"properties":{"name":17,"zip":"27710","trialnumber":212,"id":"a7dkadd5yxgk"},"type":"Feature","geometry":null},{"properties":{"name":18,"zip":"59901","trialnumber":209,"id":"a7dkaddfouyu"},"type":"Feature","geometry":null},{"properties":{"name":19,"zip":"02114","trialnumber":208,"id":"a7dkadb2whyu"},"type":"Feature","geometry":null},{"properties":{"name":20,"zip":"49503","trialnumber":206,"id":"a7dkade9hs8e"},"type":"Feature","geometry":null},{"properties":{"name":21,"zip":"46202","trialnumber":203,"id":"a7dkad7d8y0u"},"type":"Feature","geometry":null},{"properties":{"name":22,"zip":"48109","trialnumber":203,"id":"a7dkadb0ks8o"},"type":"Feature","geometry":null},{"properties":{"name":23,"zip":"44106","trialnumber":202,"id":"a7dkad9yi3g4"},"type":"Feature","geometry":null},{"properties":{"name":24,"zip":"94609","trialnumber":196,"id":"a7dkad6fp0tl"},"type":"Feature","geometry":null},{"properties":{"name":25,"zip":"59101","trialnumber":195,"id":"a7dkad5s2aes"},"type":"Feature","geometry":null},{"properties":{"name":26,"zip":"60611","trialnumber":190,"id":"a7dkad200id2"},"type":"Feature","geometry":null},{"properties":{"name":27,"zip":"98405","trialnumber":188,"id":"a7dkad29ncao"},"type":"Feature","geometry":null},{"properties":{"name":28,"zip":"60612","trialnumber":185,"id":"a7dkad9ezf3t"},"type":"Feature","geometry":null},{"properties":{"name":29,"zip":"94115","trialnumber":182,"id":"a7dkad4hak81"},"type":"Feature","geometry":null},{"properties":{"name":30,"zip":"21231","trialnumber":182,"id":"a7dkada177tq"},"type":"Feature","geometry":null},{"properties":{"name":31,"zip":"80045","trialnumber":181,"id":"a7dkadd0zamg"},"type":"Feature","geometry":null},{"properties":{"name":32,"zip":"43210","trialnumber":179,"id":"a7dkad2bfwpi"},"type":"Feature","geometry":null},{"properties":{"name":33,"zip":"61761","trialnumber":178,"id":"a7dkad5e0151"},"type":"Feature","geometry":null},{"properties":{"name":34,"zip":"94305","trialnumber":176,"id":"a7dkad8o8dqy"},"type":"Feature","geometry":null},{"properties":{"name":35,"zip":"14263","trialnumber":173,"id":"a7dkad5nbusf"},"type":"Feature","geometry":null},{"properties":{"name":36,"zip":"80218","trialnumber":171,"id":"a7dkade69tn0"},"type":"Feature","geometry":null},{"properties":{"name":37,"zip":"29605","trialnumber":171,"id":"a7dkadc7dkij"},"type":"Feature","geometry":null},{"properties":{"name":38,"zip":"58501","trialnumber":171,"id":"a7dkadcj8ivb"},"type":"Feature","geometry":null},{"properties":{"name":39,"zip":"96813","trialnumber":167,"id":"a7dkad3v8k1w"},"type":"Feature","geometry":null},{"properties":{"name":40,"zip":"44195","trialnumber":164,"id":"a7dkadcvdr2b"},"type":"Feature","geometry":null},{"properties":{"name":41,"zip":"91010","trialnumber":163,"id":"a7dkad4t5ki1"},"type":"Feature","geometry":null},{"properties":{"name":42,"zip":"46601","trialnumber":162,"id":"a7dkad31sn6f"},"type":"Feature","geometry":null},{"properties":{"name":43,"zip":"53226","trialnumber":162,"id":"a7dkad2m284d"},"type":"Feature","geometry":null},{"properties":{"name":44,"zip":"61615","trialnumber":162,"id":"a7dkad1g3ro7"},"type":"Feature","geometry":null},{"properties":{"name":45,"zip":"51104","trialnumber":161,"id":"a7dkada07jut"},"type":"Feature","geometry":null},{"properties":{"name":46,"zip":"27157","trialnumber":160,"id":"a7dkad0jxs7y"},"type":"Feature","geometry":null},{"properties":{"name":47,"zip":"10021","trialnumber":159,"id":"a7dkaczhiscs"},"type":"Feature","geometry":null},{"properties":{"name":48,"zip":"10032","trialnumber":156,"id":"a7dkaddc9d1s"},"type":"Feature","geometry":null},{"properties":{"name":49,"zip":"37232","trialnumber":155,"id":"a7dkad0mccu6"},"type":"Feature","geometry":null},{"properties":{"name":50,"zip":"55416","trialnumber":155,"id":"a7dkad9l48um"},"type":"Feature","geometry":null},{"properties":{"name":51,"zip":"50314","trialnumber":154,"id":"a7dkad7045nl"},"type":"Feature","geometry":null},{"properties":{"name":52,"zip":"53792","trialnumber":154,"id":"a7dkadadjyzh"},"type":"Feature","geometry":null},{"properties":{"name":53,"zip":"73104","trialnumber":153,"id":"a7dkacziivki"},"type":"Feature","geometry":null},{"properties":{"name":54,"zip":"90095","trialnumber":152,"id":"a7dkadezr0hy"},"type":"Feature","geometry":null},{"properties":{"name":55,"zip":"48503","trialnumber":151,"id":"a7dkad4ku5tl"},"type":"Feature","geometry":null},{"properties":{"name":56,"zip":"63141","trialnumber":151,"id":"a7dkad192hm4"},"type":"Feature","geometry":null},{"properties":{"name":57,"zip":"55109","trialnumber":150,"id":"a7dkadesq7c0"},"type":"Feature","geometry":null},{"properties":{"name":58,"zip":"27599","trialnumber":148,"id":"a7dkad5ijccn"},"type":"Feature","geometry":null},{"properties":{"name":59,"zip":"59807","trialnumber":148,"id":"a7dkad7ajecq"},"type":"Feature","geometry":null},{"properties":{"name":60,"zip":"55805","trialnumber":147,"id":"a7dkadav58ht"},"type":"Feature","geometry":null},{"properties":{"name":61,"zip":"37203","trialnumber":147,"id":"a7dkad20jr71"},"type":"Feature","geometry":null},{"properties":{"name":62,"zip":"92868","trialnumber":145,"id":"a7dkad60a47r"},"type":"Feature","geometry":null},{"properties":{"name":63,"zip":"97239","trialnumber":145,"id":"a7dkadbv2snf"},"type":"Feature","geometry":null},{"properties":{"name":64,"zip":"48106","trialnumber":145,"id":"a7dkadd73yri"},"type":"Feature","geometry":null},{"properties":{"name":65,"zip":"17033","trialnumber":144,"id":"a7dkad260srw"},"type":"Feature","geometry":null},{"properties":{"name":66,"zip":"49085","trialnumber":143,"id":"a7dkadanw8oy"},"type":"Feature","geometry":null},{"properties":{"name":67,"zip":"32806","trialnumber":142,"id":"a7dkad8sr7jw"},"type":"Feature","geometry":null},{"properties":{"name":68,"zip":"55455","trialnumber":138,"id":"a7dkade8pbq5"},"type":"Feature","geometry":null},{"properties":{"name":69,"zip":"33612","trialnumber":137,"id":"a7dkad0idff4"},"type":"Feature","geometry":null},{"properties":{"name":70,"zip":"35294","trialnumber":134,"id":"a7dkadc6pny0"},"type":"Feature","geometry":null},{"properties":{"name":71,"zip":"52242","trialnumber":134,"id":"a7dkadek78ro"},"type":"Feature","geometry":null},{"properties":{"name":72,"zip":"67208","trialnumber":133,"id":"a7dkad8jr8tx"},"type":"Feature","geometry":null},{"properties":{"name":73,"zip":"29425","trialnumber":129,"id":"a7dkad2de152"},"type":"Feature","geometry":null},{"properties":{"name":74,"zip":"21201","trialnumber":129,"id":"a7dkade6t8v6"},"type":"Feature","geometry":null},{"properties":{"name":75,"zip":"87131","trialnumber":128,"id":"a7dkad8bkk38"},"type":"Feature","geometry":null},{"properties":{"name":76,"zip":"08043","trialnumber":126,"id":"a7dkad47rh58"},"type":"Feature","geometry":null},{"properties":{"name":77,"zip":"07601","trialnumber":123,"id":"a7dkad1ffuzk"},"type":"Feature","geometry":null},{"properties":{"name":78,"zip":"15232","trialnumber":123,"id":"a7dkad6f1zsn"},"type":"Feature","geometry":null},{"properties":{"name":79,"zip":"15213","trialnumber":122,"id":"a7dkadeuhvos"},"type":"Feature","geometry":null},{"properties":{"name":80,"zip":"10016","trialnumber":122,"id":"a7dkadc9ifig"},"type":"Feature","geometry":null},{"properties":{"name":81,"zip":"46545","trialnumber":122,"id":"a7dkad9yz7q5"},"type":"Feature","geometry":null},{"properties":{"name":82,"zip":"46514","trialnumber":120,"id":"a7dkad0zaahq"},"type":"Feature","geometry":null},{"properties":{"name":83,"zip":"75390","trialnumber":120,"id":"a7dkadarro3k"},"type":"Feature","geometry":null},{"properties":{"name":84,"zip":"29303","trialnumber":120,"id":"a7dkad7naqwo"},"type":"Feature","geometry":null},{"properties":{"name":85,"zip":"92093","trialnumber":120,"id":"a7dkad9ktyki"},"type":"Feature","geometry":null},{"properties":{"name":86,"zip":"39216","trialnumber":119,"id":"a7dkadd5ncfe"},"type":"Feature","geometry":null},{"properties":{"name":87,"zip":"19111","trialnumber":118,"id":"a7dkadcgya2y"},"type":"Feature","geometry":null},{"properties":{"name":88,"zip":"60153","trialnumber":118,"id":"a7dkad4hhtyf"},"type":"Feature","geometry":null},{"properties":{"name":89,"zip":"61401","trialnumber":118,"id":"a7dkad06k9p2"},"type":"Feature","geometry":null},{"properties":{"name":90,"zip":"68114","trialnumber":116,"id":"a7dkad5emtrw"},"type":"Feature","geometry":null},{"properties":{"name":91,"zip":"43215","trialnumber":116,"id":"a7dkad70dujp"},"type":"Feature","geometry":null},{"properties":{"name":92,"zip":"23298","trialnumber":114,"id":"a7dkadceim84"},"type":"Feature","geometry":null},{"properties":{"name":93,"zip":"14642","trialnumber":113,"id":"a7dkad3iymou"},"type":"Feature","geometry":null},{"properties":{"name":94,"zip":"61350","trialnumber":113,"id":"a7dkada8vo16"},"type":"Feature","geometry":null},{"properties":{"name":95,"zip":"54303","trialnumber":113,"id":"a7dkad7ngvgt"},"type":"Feature","geometry":null},{"properties":{"name":96,"zip":"13210","trialnumber":112,"id":"a7dkaczltikd"},"type":"Feature","geometry":null},{"properties":{"name":97,"zip":"02215","trialnumber":111,"id":"a7dkad5mjy8i"},"type":"Feature","geometry":null},{"properties":{"name":98,"zip":"90027","trialnumber":110,"id":"a7dkadb5i0l7"},"type":"Feature","geometry":null},{"properties":{"name":99,"zip":"95817","trialnumber":108,"id":"a7dkad67j55c"},"type":"Feature","geometry":null},{"properties":{"name":100,"zip":"43623","trialnumber":108,"id":"a7dkada2wmfz"},"type":"Feature","geometry":null},{"properties":{"name":101,"zip":"61354","trialnumber":107,"id":"a7dkad7i7n4o"},"type":"Feature","geometry":null},{"properties":{"name":102,"zip":"19107","trialnumber":107,"id":"a7dkade6bpo6"},"type":"Feature","geometry":null},{"properties":{"name":103,"zip":"85259","trialnumber":107,"id":"a7dkad145e3z"},"type":"Feature","geometry":null},{"properties":{"name":104,"zip":"61530","trialnumber":106,"id":"a7dkad95lsv7"},"type":"Feature","geometry":null},{"properties":{"name":105,"zip":"61455","trialnumber":106,"id":"a7dkadedi7kz"},"type":"Feature","geometry":null},{"properties":{"name":106,"zip":"61520","trialnumber":106,"id":"a7dkad1o63x0"},"type":"Feature","geometry":null},{"properties":{"name":107,"zip":"62321","trialnumber":104,"id":"a7dkad48q0ap"},"type":"Feature","geometry":null},{"properties":{"name":108,"zip":"54601","trialnumber":104,"id":"a7dkadabby0g"},"type":"Feature","geometry":null},{"properties":{"name":109,"zip":"44035","trialnumber":103,"id":"a7dkadaci3tr"},"type":"Feature","geometry":null},{"properties":{"name":110,"zip":"61356","trialnumber":103,"id":"a7dkad7fne0a"},"type":"Feature","geometry":null},{"properties":{"name":111,"zip":"62644","trialnumber":103,"id":"a7dkad71rjfr"},"type":"Feature","geometry":null},{"properties":{"name":112,"zip":"62526","trialnumber":103,"id":"a7dkad9v93cb"},"type":"Feature","geometry":null},{"properties":{"name":113,"zip":"61701","trialnumber":102,"id":"a7dkad93f10c"},"type":"Feature","geometry":null},{"properties":{"name":114,"zip":"72205","trialnumber":102,"id":"a7dkadehhan0"},"type":"Feature","geometry":null},{"properties":{"name":115,"zip":"79106","trialnumber":102,"id":"a7dkad10qzai"},"type":"Feature","geometry":null},{"properties":{"name":116,"zip":"84112","trialnumber":101,"id":"a7dkadelo2c3"},"type":"Feature","geometry":null},{"properties":{"name":117,"zip":"68198","trialnumber":101,"id":"a7dkacysosok"},"type":"Feature","geometry":null},{"properties":{"name":118,"zip":"76104","trialnumber":101,"id":"a7dkad06l28l"},"type":"Feature","geometry":null},{"properties":{"name":119,"zip":"98104","trialnumber":100,"id":"a7dkadbciq2z"},"type":"Feature","geometry":null},{"properties":{"name":120,"zip":"51101","trialnumber":99,"id":"a7dkaddyysu6"},"type":"Feature","geometry":null},{"properties":{"name":121,"zip":"03756","trialnumber":98,"id":"a7dkad3591va"},"type":"Feature","geometry":null},{"properties":{"name":122,"zip":"43616","trialnumber":98,"id":"a7dkad2f8gob"},"type":"Feature","geometry":null},{"properties":{"name":123,"zip":"19713","trialnumber":98,"id":"a7dkad24uj10"},"type":"Feature","geometry":null},{"properties":{"name":124,"zip":"58122","trialnumber":98,"id":"a7dkad4vjlh8"},"type":"Feature","geometry":null},{"properties":{"name":125,"zip":"30342","trialnumber":97,"id":"a7dkad45hsan"},"type":"Feature","geometry":null},{"properties":{"name":126,"zip":"54307","trialnumber":97,"id":"a7dkad794uun"},"type":"Feature","geometry":null},{"properties":{"name":127,"zip":"28232","trialnumber":95,"id":"a7dkad6hwa9w"},"type":"Feature","geometry":null},{"properties":{"name":128,"zip":"97225","trialnumber":95,"id":"a7dkad90yyrd"},"type":"Feature","geometry":null},{"properties":{"name":129,"zip":"59107","trialnumber":95,"id":"a7dkad59m6oz"},"type":"Feature","geometry":null},{"properties":{"name":130,"zip":"57105","trialnumber":94,"id":"a7dkadcwqlvm"},"type":"Feature","geometry":null},{"properties":{"name":131,"zip":"54449","trialnumber":94,"id":"a7dkad79n718"},"type":"Feature","geometry":null},{"properties":{"name":132,"zip":"32207","trialnumber":94,"id":"a7dkad6ccl67"},"type":"Feature","geometry":null},{"properties":{"name":133,"zip":"50325","trialnumber":91,"id":"a7dkad2auwf4"},"type":"Feature","geometry":null},{"properties":{"name":134,"zip":"67401","trialnumber":90,"id":"a7dkad6zrwtz"},"type":"Feature","geometry":null},{"properties":{"name":135,"zip":"48162","trialnumber":90,"id":"a7dkad0mjhr3"},"type":"Feature","geometry":null},{"properties":{"name":136,"zip":"98122","trialnumber":89,"id":"a7dkad4usjsp"},"type":"Feature","geometry":null},{"properties":{"name":137,"zip":"48236","trialnumber":89,"id":"a7dkad8s4lum"},"type":"Feature","geometry":null},{"properties":{"name":138,"zip":"57117","trialnumber":89,"id":"a7dkacz9g52x"},"type":"Feature","geometry":null},{"properties":{"name":139,"zip":"48202","trialnumber":88,"id":"a7dkad9b1o4w"},"type":"Feature","geometry":null},{"properties":{"name":140,"zip":"20007","trialnumber":88,"id":"a7dkadaa1bmf"},"type":"Feature","geometry":null},{"properties":{"name":141,"zip":"20010","trialnumber":88,"id":"a7dkaddjcow0"},"type":"Feature","geometry":null},{"properties":{"name":142,"zip":"33136","trialnumber":88,"id":"a7dkad4imwk5"},"type":"Feature","geometry":null},{"properties":{"name":143,"zip":"80131","trialnumber":88,"id":"a7dkad8gmi5v"},"type":"Feature","geometry":null},{"properties":{"name":144,"zip":"97213","trialnumber":88,"id":"a7dkad7rrky5"},"type":"Feature","geometry":null},{"properties":{"name":145,"zip":"55101","trialnumber":87,"id":"a7dkadeh614u"},"type":"Feature","geometry":null},{"properties":{"name":146,"zip":"97227","trialnumber":87,"id":"a7dkad3johct"},"type":"Feature","geometry":null},{"properties":{"name":147,"zip":"74136","trialnumber":87,"id":"a7dkadb87f98"},"type":"Feature","geometry":null},{"properties":{"name":148,"zip":"20003","trialnumber":87,"id":"a7dkad7ezwfi"},"type":"Feature","geometry":null},{"properties":{"name":149,"zip":"38105","trialnumber":86,"id":"a7dkad29w91u"},"type":"Feature","geometry":null},{"properties":{"name":150,"zip":"45429","trialnumber":86,"id":"a7dkad99y65g"},"type":"Feature","geometry":null},{"properties":{"name":151,"zip":"55407","trialnumber":86,"id":"a7dkada5tedk"},"type":"Feature","geometry":null},{"properties":{"name":152,"zip":"40536","trialnumber":86,"id":"a7dkad9yi0a2"},"type":"Feature","geometry":null},{"properties":{"name":153,"zip":"17822","trialnumber":85,"id":"a7dkad97yntc"},"type":"Feature","geometry":null},{"properties":{"name":154,"zip":"55102","trialnumber":85,"id":"a7dkadcl9spg"},"type":"Feature","geometry":null},{"properties":{"name":155,"zip":"10029","trialnumber":85,"id":"a7dkaczz0uj2"},"type":"Feature","geometry":null},{"properties":{"name":156,"zip":"08035","trialnumber":84,"id":"a7dkacz3cqrt"},"type":"Feature","geometry":null},{"properties":{"name":157,"zip":"64108","trialnumber":84,"id":"a7dkadbnda4y"},"type":"Feature","geometry":null},{"properties":{"name":158,"zip":"10461","trialnumber":84,"id":"a7dkadeevnkv"},"type":"Feature","geometry":null},{"properties":{"name":159,"zip":"52403","trialnumber":84,"id":"a7dkad5m2cfi"},"type":"Feature","geometry":null},{"properties":{"name":160,"zip":"43214","trialnumber":83,"id":"a7dkacz3v9td"},"type":"Feature","geometry":null},{"properties":{"name":161,"zip":"50010","trialnumber":83,"id":"a7dkad002xan"},"type":"Feature","geometry":null},{"properties":{"name":162,"zip":"49001","trialnumber":83,"id":"a7dkad9nsj5c"},"type":"Feature","geometry":null},{"properties":{"name":163,"zip":"61462","trialnumber":83,"id":"a7dkad28ai1v"},"type":"Feature","geometry":null},{"properties":{"name":164,"zip":"92123","trialnumber":81,"id":"a7dkad8xqyzl"},"type":"Feature","geometry":null},{"properties":{"name":165,"zip":"55435","trialnumber":81,"id":"a7dkad5h85be"},"type":"Feature","geometry":null},{"properties":{"name":166,"zip":"32224","trialnumber":80,"id":"a7dkad3pj9hi"},"type":"Feature","geometry":null},{"properties":{"name":167,"zip":"45005","trialnumber":80,"id":"a7dkad2c03dz"},"type":"Feature","geometry":null},{"properties":{"name":168,"zip":"54143","trialnumber":80,"id":"a7dkadarfx4i"},"type":"Feature","geometry":null},{"properties":{"name":169,"zip":"46260","trialnumber":80,"id":"a7dkacyx65tq"},"type":"Feature","geometry":null},{"properties":{"name":170,"zip":"59102","trialnumber":80,"id":"a7dkad57510d"},"type":"Feature","geometry":null},{"properties":{"name":171,"zip":"27534","trialnumber":80,"id":"a7dkadbecwiv"},"type":"Feature","geometry":null},{"properties":{"name":172,"zip":"60614","trialnumber":79,"id":"a7dkad7db9fe"},"type":"Feature","geometry":null},{"properties":{"name":173,"zip":"07962","trialnumber":79,"id":"a7dkadck7a18"},"type":"Feature","geometry":null},{"properties":{"name":174,"zip":"32803","trialnumber":79,"id":"a7dkadehfc1u"},"type":"Feature","geometry":null},{"properties":{"name":175,"zip":"45229","trialnumber":78,"id":"a7dkada42jh5"},"type":"Feature","geometry":null},{"properties":{"name":176,"zip":"59715","trialnumber":78,"id":"a7dkadahmr4c"},"type":"Feature","geometry":null},{"properties":{"name":177,"zip":"22908","trialnumber":78,"id":"a7dkaddnse5q"},"type":"Feature","geometry":null},{"properties":{"name":178,"zip":"55432","trialnumber":78,"id":"a7dkadcyzqn5"},"type":"Feature","geometry":null},{"properties":{"name":179,"zip":"55422","trialnumber":77,"id":"a7dkad2gdnlo"},"type":"Feature","geometry":null},{"properties":{"name":180,"zip":"21921","trialnumber":77,"id":"a7dkacyyj3a0"},"type":"Feature","geometry":null},{"properties":{"name":181,"zip":"94805","trialnumber":77,"id":"a7dkad9jbbkd"},"type":"Feature","geometry":null},{"properties":{"name":182,"zip":"55337","trialnumber":76,"id":"a7dkad99guve"},"type":"Feature","geometry":null},{"properties":{"name":183,"zip":"55125","trialnumber":76,"id":"a7dkadeduw5s"},"type":"Feature","geometry":null},{"properties":{"name":184,"zip":"82801","trialnumber":76,"id":"a7dkad1j9b2u"},"type":"Feature","geometry":null},{"properties":{"name":185,"zip":"55433","trialnumber":76,"id":"a7dkadcjjjok"},"type":"Feature","geometry":null},{"properties":{"name":186,"zip":"19958","trialnumber":76,"id":"a7dkad5kv1mv"},"type":"Feature","geometry":null},{"properties":{"name":187,"zip":"29615","trialnumber":75,"id":"a7dkad74bgr7"},"type":"Feature","geometry":null},{"properties":{"name":188,"zip":"43537","trialnumber":75,"id":"a7dkadeafwj1"},"type":"Feature","geometry":null},{"properties":{"name":189,"zip":"50316","trialnumber":75,"id":"a7dkacz2gsur"},"type":"Feature","geometry":null},{"properties":{"name":190,"zip":"55415","trialnumber":75,"id":"a7dkad2tzbft"},"type":"Feature","geometry":null},{"properties":{"name":191,"zip":"45409","trialnumber":74,"id":"a7dkacz1c93s"},"type":"Feature","geometry":null},{"properties":{"name":192,"zip":"55387","trialnumber":74,"id":"a7dkad247hm6"},"type":"Feature","geometry":null},{"properties":{"name":193,"zip":"11042","trialnumber":74,"id":"a7dkad3c7um7"},"type":"Feature","geometry":null},{"properties":{"name":194,"zip":"48912","trialnumber":74,"id":"a7dkad4zd267"},"type":"Feature","geometry":null},{"properties":{"name":195,"zip":"08903","trialnumber":74,"id":"a7dkad7jhae6"},"type":"Feature","geometry":null},{"properties":{"name":196,"zip":"46107","trialnumber":74,"id":"a7dkade4ikgt"},"type":"Feature","geometry":null},{"properties":{"name":197,"zip":"70809","trialnumber":74,"id":"a7dkadbi4vck"},"type":"Feature","geometry":null},{"properties":{"name":198,"zip":"44309","trialnumber":74,"id":"a7dkad57oos7"},"type":"Feature","geometry":null},{"properties":{"name":199,"zip":"65807","trialnumber":74,"id":"a7dkad021hy7"},"type":"Feature","geometry":null},{"properties":{"name":200,"zip":"59601","trialnumber":74,"id":"a7dkad2zzl86"},"type":"Feature","geometry":null},{"properties":{"name":201,"zip":"85724","trialnumber":73,"id":"a7dkadco8npy"},"type":"Feature","geometry":null},{"properties":{"name":202,"zip":"90033","trialnumber":72,"id":"a7dkad4hq0xs"},"type":"Feature","geometry":null},{"properties":{"name":203,"zip":"43606","trialnumber":72,"id":"a7dkadbbxozn"},"type":"Feature","geometry":null},{"properties":{"name":204,"zip":"28233","trialnumber":71,"id":"a7dkad95i9e4"},"type":"Feature","geometry":null},{"properties":{"name":205,"zip":"75246","trialnumber":71,"id":"a7dkadbk7jun"},"type":"Feature","geometry":null},{"properties":{"name":206,"zip":"19096","trialnumber":71,"id":"a7dkad6amk4b"},"type":"Feature","geometry":null},{"properties":{"name":207,"zip":"66044","trialnumber":70,"id":"a7dkad7bo193"},"type":"Feature","geometry":null},{"properties":{"name":208,"zip":"82609","trialnumber":70,"id":"a7dkad196gx7"},"type":"Feature","geometry":null},{"properties":{"name":209,"zip":"46515","trialnumber":69,"id":"a7dkad716glp"},"type":"Feature","geometry":null},{"properties":{"name":210,"zip":"40202","trialnumber":69,"id":"a7dkad11ziy6"},"type":"Feature","geometry":null},{"properties":{"name":211,"zip":"46904","trialnumber":69,"id":"a7dkad7cdqpc"},"type":"Feature","geometry":null},{"properties":{"name":212,"zip":"48601","trialnumber":69,"id":"a7dkad58qnct"},"type":"Feature","geometry":null},{"properties":{"name":213,"zip":"69120","trialnumber":69,"id":"a7dkad3t1tsg"},"type":"Feature","geometry":null},{"properties":{"name":214,"zip":"1000","trialnumber":69,"id":"a7dkada17nwx"},"type":"Feature","geometry":null},{"properties":{"name":215,"zip":"46350","trialnumber":69,"id":"a7dkad4kel00"},"type":"Feature","geometry":null},{"properties":{"name":216,"zip":"05401","trialnumber":69,"id":"a7dkad0kjtte"},"type":"Feature","geometry":null},{"properties":{"name":217,"zip":"54301","trialnumber":69,"id":"a7dkad36ygle"},"type":"Feature","geometry":null},{"properties":{"name":218,"zip":"61637","trialnumber":69,"id":"a7dkadav9q5s"},"type":"Feature","geometry":null},{"properties":{"name":219,"zip":"55379","trialnumber":69,"id":"a7dkad7qunua"},"type":"Feature","geometry":null},{"properties":{"name":220,"zip":"80220","trialnumber":68,"id":"a7dkadd0upe9"},"type":"Feature","geometry":null},{"properties":{"name":221,"zip":"48060","trialnumber":68,"id":"a7dkad2yjw1o"},"type":"Feature","geometry":null},{"properties":{"name":222,"zip":"11030","trialnumber":68,"id":"a7dkad5d0fs5"},"type":"Feature","geometry":null},{"properties":{"name":223,"zip":"32610","trialnumber":68,"id":"a7dkadasnha0"},"type":"Feature","geometry":null},{"properties":{"name":224,"zip":"65804","trialnumber":68,"id":"a7dkad66dfp5"},"type":"Feature","geometry":null},{"properties":{"name":225,"zip":"08036","trialnumber":68,"id":"a7dkad6128kv"},"type":"Feature","geometry":null},{"properties":{"name":226,"zip":"06105","trialnumber":67,"id":"a7dkad02i2rv"},"type":"Feature","geometry":null},{"properties":{"name":227,"zip":"70112","trialnumber":67,"id":"a7dkad7r7pbe"},"type":"Feature","geometry":null},{"properties":{"name":228,"zip":"48154","trialnumber":67,"id":"a7dkad81mudw"},"type":"Feature","geometry":null},{"properties":{"name":229,"zip":"48093","trialnumber":67,"id":"a7dkacz86nnm"},"type":"Feature","geometry":null},{"properties":{"name":230,"zip":"70121","trialnumber":67,"id":"a7dkad1phq44"},"type":"Feature","geometry":null},{"properties":{"name":231,"zip":"45415","trialnumber":67,"id":"a7dkad5c3gjn"},"type":"Feature","geometry":null},{"properties":{"name":232,"zip":"67042","trialnumber":66,"id":"a7dkad5pmygk"},"type":"Feature","geometry":null},{"properties":{"name":233,"zip":"66160","trialnumber":66,"id":"a7dkad28obdr"},"type":"Feature","geometry":null},{"properties":{"name":234,"zip":"48123","trialnumber":66,"id":"a7dkaczs0blf"},"type":"Feature","geometry":null},{"properties":{"name":235,"zip":"45373","trialnumber":66,"id":"a7dkad1x0gzg"},"type":"Feature","geometry":null},{"properties":{"name":236,"zip":"48341","trialnumber":65,"id":"a7dkad4t6cpu"},"type":"Feature","geometry":null},{"properties":{"name":237,"zip":"49201","trialnumber":65,"id":"a7dkaddi46vu"},"type":"Feature","geometry":null},{"properties":{"name":238,"zip":"98195","trialnumber":65,"id":"a7dkadeodh3g"},"type":"Feature","geometry":null},{"properties":{"name":239,"zip":"67152","trialnumber":65,"id":"a7dkadegqf0s"},"type":"Feature","geometry":null},{"properties":{"name":240,"zip":"67156","trialnumber":65,"id":"a7dkad3tr0ui"},"type":"Feature","geometry":null},{"properties":{"name":241,"zip":"47374","trialnumber":65,"id":"a7dkadd54hl5"},"type":"Feature","geometry":null},{"properties":{"name":242,"zip":"56201","trialnumber":65,"id":"a7dkad2cpm60"},"type":"Feature","geometry":null},{"properties":{"name":243,"zip":"16132","trialnumber":65,"id":"a7dkad7lsjnl"},"type":"Feature","geometry":null},{"properties":{"name":244,"zip":"67801","trialnumber":65,"id":"a7dkad0rpaf1"},"type":"Feature","geometry":null},{"properties":{"name":245,"zip":"55350","trialnumber":65,"id":"a7dkad6uogvg"},"type":"Feature","geometry":null},{"properties":{"name":246,"zip":"21000","trialnumber":65,"id":"a7dkad89o0e4"},"type":"Feature","geometry":null},{"properties":{"name":247,"zip":"94546","trialnumber":64,"id":"a7dkad9dcwcd"},"type":"Feature","geometry":null},{"properties":{"name":248,"zip":"45406","trialnumber":64,"id":"a7dkad28qyx4"},"type":"Feature","geometry":null},{"properties":{"name":249,"zip":"68510","trialnumber":64,"id":"a7dkad2gtfcw"},"type":"Feature","geometry":null},{"properties":{"name":250,"zip":"59701","trialnumber":64,"id":"a7dkad23pmll"},"type":"Feature","geometry":null},{"properties":{"name":251,"zip":"94010","trialnumber":64,"id":"a7dkadb4tnt1"},"type":"Feature","geometry":null},{"properties":{"name":252,"zip":"21215","trialnumber":64,"id":"a7dkaddummi2"},"type":"Feature","geometry":null},{"properties":{"name":253,"zip":"67114","trialnumber":64,"id":"a7dkad4xqsvi"},"type":"Feature","geometry":null},{"properties":{"name":254,"zip":"45331","trialnumber":64,"id":"a7dkad8zvn0r"},"type":"Feature","geometry":null},{"properties":{"name":255,"zip":"61265","trialnumber":64,"id":"a7dkad21mhze"},"type":"Feature","geometry":null},{"properties":{"name":256,"zip":"94040","trialnumber":64,"id":"a7dkader1zoe"},"type":"Feature","geometry":null},{"properties":{"name":257,"zip":"45420","trialnumber":63,"id":"a7dkacyq9854"},"type":"Feature","geometry":null},{"properties":{"name":258,"zip":"67068","trialnumber":63,"id":"a7dkad4bj9zy"},"type":"Feature","geometry":null},{"properties":{"name":259,"zip":"45840","trialnumber":63,"id":"a7dkad26bbs6"},"type":"Feature","geometry":null},{"properties":{"name":260,"zip":"45177","trialnumber":63,"id":"a7dkacyq1e9s"},"type":"Feature","geometry":null},{"properties":{"name":261,"zip":"61636","trialnumber":63,"id":"a7dkadcsmlj9"},"type":"Feature","geometry":null},{"properties":{"name":262,"zip":"66720","trialnumber":63,"id":"a7dkacyzdbf0"},"type":"Feature","geometry":null},{"properties":{"name":263,"zip":"44870","trialnumber":63,"id":"a7dkade7xbg5"},"type":"Feature","geometry":null},{"properties":{"name":264,"zip":"67124","trialnumber":63,"id":"a7dkad56ykxc"},"type":"Feature","geometry":null},{"properties":{"name":265,"zip":"67357","trialnumber":63,"id":"a7dkadbvbzkc"},"type":"Feature","geometry":null},{"properties":{"name":266,"zip":"81502","trialnumber":62,"id":"a7dkad655csw"},"type":"Feature","geometry":null},{"properties":{"name":267,"zip":"98105","trialnumber":62,"id":"a7dkad0w46bq"},"type":"Feature","geometry":null},{"properties":{"name":268,"zip":"62781","trialnumber":62,"id":"a7dkad9bhyy0"},"type":"Feature","geometry":null},{"properties":{"name":269,"zip":"80933","trialnumber":62,"id":"a7dkad0x1an1"},"type":"Feature","geometry":null},{"properties":{"name":270,"zip":"45267","trialnumber":62,"id":"a7dkacz6cb2s"},"type":"Feature","geometry":null},{"properties":{"name":271,"zip":"90048","trialnumber":62,"id":"a7dkadbi7zg0"},"type":"Feature","geometry":null},{"properties":{"name":272,"zip":"92354","trialnumber":62,"id":"a7dkad53jsb1"},"type":"Feature","geometry":null},{"properties":{"name":273,"zip":"43614","trialnumber":62,"id":"a7dkad358csa"},"type":"Feature","geometry":null},{"properties":{"name":274,"zip":"11040","trialnumber":62,"id":"a7dkad1o5xws"},"type":"Feature","geometry":null},{"properties":{"name":275,"zip":"94143","trialnumber":62,"id":"a7dkada9reqi"},"type":"Feature","geometry":null},{"properties":{"name":276,"zip":"53066","trialnumber":62,"id":"a7dkad4ydvaw"},"type":"Feature","geometry":null},{"properties":{"name":277,"zip":"30060","trialnumber":62,"id":"a7dkademmqoz"},"type":"Feature","geometry":null},{"properties":{"name":278,"zip":"54511","trialnumber":62,"id":"a7dkadepfy3n"},"type":"Feature","geometry":null},{"properties":{"name":279,"zip":"65802","trialnumber":62,"id":"a7dkadc4sgb0"},"type":"Feature","geometry":null},{"properties":{"name":280,"zip":"45385","trialnumber":62,"id":"a7dkacz715bb"},"type":"Feature","geometry":null},{"properties":{"name":281,"zip":"61554","trialnumber":61,"id":"a7dkad53xuj8"},"type":"Feature","geometry":null}],"is_temporal":false,"author":{"url":"","metadata":null,"contact_name":null,"contact_address":null,"source":null,"contact_phone":null},"source":"","pagination":{"sort":null,"start":0,"total":281,"limit":1000000},"state":"complete","tags":"","published":"2014-08-12T23:04:35-04:00","id":141336}