{"type":"FeatureCollection","data_type":"Dataset","url_type":null,"permissions":[{"permissions":{"download":true,"view":true},"group_id":"everyone"}],"classification":null,"title":"London innovation ecosystem mapping","count":62,"stream_id":141469,"contributor":{"url":"http://geocommons.com/users/30818","name":"adebuche"},"data_attributes":null,"calculation_params":null,"icon_link":null,"link":"http://geocommons.com/overlays/141469.json","extent":[-157.994,21.4657,-75.9841,44.0519],"geometry_types":["point"],"unique_name":null,"name":"London innovation ecosystem mapping","feature_count":62,"description":"A mapping of London Innovation ecosystem : incubators, accelerators, coworking places, meetups, hangouts, fablabs and hackerspaces, venture funds","next_feature":null,"is_raster":false,"short_classification":"Y","stats":{"category":{"count":8,"counts_by_value":{"Hackspace / FabLabs":5,"Hangouts":7,"Academic incubators":4,"Meetups":11,"Events":2,"Coworking Spaces":9,"Venture Capitalist / Seed":18,"Accelerators / SeedFunds":6},"list":["Academic incubators","Accelerators / SeedFunds","Hackspace / FabLabs","Coworking Spaces","Meetups","Events","Hangouts","Venture Capitalist / Seed"]},"neighbourhood":{"count":19,"counts_by_value":{"Green Park":3,"Notting Hill":1,"Shoreditch":17,"Covent Garden":1,"Battersea":1,"New Bond Street":2,"Greenwhich":3,"Hackney":2,"Clerkenwell":3,"Bank":1,"Euston Square":1,"Picadilly Circus":2,"Chelsea":1,"Regent's Park":1,"King's Cross":2,"South Kensington":2,"Victoria":1,"Piccadilly Circus":1,"Wandsworth":2},"list":["South Kensington","Shoreditch","Clerkenwell","Picadilly Circus","Greenwhich","Hackney","Battersea","Wandsworth","King's Cross","Regent's Park","Piccadilly Circus","Euston Square","Notting Hill","Bank","Victoria","Green Park","New Bond Street","Chelsea","Covent Garden"]}},"features":[{"properties":{"city":"London","category":"Academic incubators","twitter":null,"parent / community":"Imperial College","zipcode":"SW7 2PG","neighbourhood":"South Kensington","country":"United Kingdom","url":"http://www.imperialinnovations.co.uk","geo_score":0.601,"address 2":"Level 2 Bessemer Building","place number":null,"place name":"Imperial Innovations Incubator","id":"a63o18659495","address":"52 Princes Gate","comment":null,"source":null,"geo_precision":"street","state":null},"type":"Feature","geometry":{"type":"Point","coordinates":[-95.547894,29.581457]}},{"properties":{"city":"London","category":"Academic incubators","twitter":"@AcceleratorUK","parent / community":"London Metropolitan University","zipcode":"E2 8AA","neighbourhood":"Shoreditch","country":"United Kingdom","url":"http://www.accelerator-london.com","geo_score":0.628,"address 2":null,"place number":null,"place name":"Accelerator London","id":"a63o17ysay36","address":"35 Kingsland Road","comment":null,"source":null,"geo_precision":"street","state":null},"type":"Feature","geometry":{"type":"Point","coordinates":[-87.034768,32.441083]}},{"properties":{"city":"London","category":"Academic incubators","twitter":null,"parent / community":"Royal College of Arts (with Imperial College business school)","zipcode":"SW7 2AZ","neighbourhood":"South Kensington","country":"United Kingdom","url":"http://www.designlondon.net/incubator","geo_score":0.506,"address 2":"Mechanical Engineering Building","place number":null,"place name":"Design London Incubator","id":"a63o186timc4","address":"Imperial College Road","comment":null,"source":null,"geo_precision":"street","state":null},"type":"Feature","geometry":{"type":"Point","coordinates":[-83.402007,33.341249]}},{"properties":{"city":"London","category":"Academic incubators","twitter":"#c4cc","parent / community":"University of London &amp; Central School of Speech and Drama","zipcode":"WC1X 9NG","neighbourhood":"Clerkenwell","country":"United Kingdom","url":"http://www.creativecollaboration.org.uk/","geo_score":0.428,"address 2":null,"place number":null,"place name":"Centre for Creative Collaboration (C4CC)","id":"a63o18akprzc","address":"16 Acton Street","comment":null,"source":null,"geo_precision":"city","state":null},"type":"Feature","geometry":{"type":"Point","coordinates":[-85.248016,37.34701]}},{"properties":{"city":"London","category":"Accelerators / SeedFunds","twitter":"@whitebearyard","parent / community":null,"zipcode":"EC1R 5DF","neighbourhood":"Clerkenwell","country":"United Kingdom","url":"http://whitebearyard.com","geo_score":0.55,"address 2":"2nd floor","place number":null,"place name":"White Bear Yard","id":"a63o17w1gowd","address":"144a Clerkenwell Road","comment":null,"source":null,"geo_precision":"street","state":null},"type":"Feature","geometry":{"type":"Point","coordinates":[-81.509357,28.663912]}},{"properties":{"city":"London","category":"Accelerators / SeedFunds","twitter":"@hubwestminster","parent / community":"Hub Venture Labs","zipcode":"SW1Y 4","neighbourhood":"Picadilly Circus","country":"United Kingdom","url":"http://westminster.the-hub.net","geo_score":0.488,"address 2":"angle Pall Mall","place number":null,"place name":"The Hub Westminster","id":"a63o183wt6g8","address":"80 Haymarket","comment":"Soon to open","source":null,"geo_precision":"city","state":null},"type":"Feature","geometry":{"type":"Point","coordinates":[-77.466897,38.721912]}},{"properties":{"city":"London","category":"Accelerators / SeedFunds","twitter":"@seedcamp","parent / community":null,"zipcode":"EC4A 1DE","neighbourhood":null,"country":"United Kingdom","url":"http://www.seedcamp.com/","geo_score":0.0,"address 2":"Chancery Lane","place number":null,"place name":"SeedCamp","id":"a63o1851qp7t","address":"1 Plough Place","comment":"NESTA (National Endowment for Science, Technology and the Arts)","source":null,"geo_precision":"unmatched","state":null},"type":"Feature","geometry":null},{"properties":{"city":"Cambridge","category":"Accelerators / SeedFunds","twitter":"@springboardnews","parent / community":"Springboard","zipcode":"CB3 0GT","neighbourhood":null,"country":"United Kingdom","url":"http://springboard.com/","geo_score":0.404,"address 2":"Entrepreneurship Centre","place number":null,"place name":"ideaSpace","id":"a63o183w2msq","address":"3 Charles Babbage Road","comment":null,"source":null,"geo_precision":"street","state":null},"type":"Feature","geometry":{"type":"Point","coordinates":[-82.429076,32.216775]}},{"properties":{"city":"Sunderland","category":"Accelerators / SeedFunds","twitter":"@DifferenceEngin","parent / community":null,"zipcode":"SR5 2TA","neighbourhood":null,"country":"United Kingdom","url":"http://thedifferenceengine.eu/","geo_score":0.543,"address 2":"North East Business &amp; Innovation Centre","place number":null,"place name":"The Difference Engine","id":"a63o17yqug6a","address":"Enterprise Park East","comment":null,"source":null,"geo_precision":"street","state":null},"type":"Feature","geometry":{"type":"Point","coordinates":[-86.622458,31.81956]}},{"properties":{"city":"Birmingham","category":"Accelerators / SeedFunds","twitter":"@oxygenaccel","parent / community":null,"zipcode":"B7 4BB","neighbourhood":null,"country":"United Kingdom","url":"http://oxygenaccelerator.com/","geo_score":0.714,"address 2":"Birmingham Science Park Aston","place number":null,"place name":"Oxygen Accelerator","id":"a63o188k77ub","address":"Holt Street","comment":null,"source":null,"geo_precision":"street","state":null},"type":"Feature","geometry":{"type":"Point","coordinates":[-90.558906,35.744583]}},{"properties":{"city":"London","category":"Hackspace / FabLabs","twitter":"@londonhackspace","parent / community":null,"zipcode":"E2 8HD","neighbourhood":"Shoreditch","country":"United Kingdom","url":"http://london.hackspace.org.uk/","geo_score":0.418,"address 2":"Cremer Business Centre, Units 23 &amp; 24","place number":null,"place name":"London Hackspace / Laboratory 24","id":"a63o17ufi196","address":"37 Cremer Street","comment":null,"source":"http://hackerspaces.org/wiki/List_of_Hacker_Spaces","geo_precision":"city","state":null},"type":"Feature","geometry":{"type":"Point","coordinates":[-83.389883,31.956011]}},{"properties":{"city":"London","category":"Hackspace / FabLabs","twitter":null,"parent / community":"SPC (3 spaces)","zipcode":"SE10 8RE","neighbourhood":"Greenwhich","country":"United Kingdom","url":"http://dek.spc.org/","geo_score":0.75,"address 2":"Borough Hall","place number":null,"place name":"Deckspace","id":"a63o186gk8ii","address":"Peyton Place","comment":"http://cms.spc.org/wordpress/?cat=26","source":"http://hackerspaces.org/wiki/List_of_Hacker_Spaces","geo_precision":"street","state":null},"type":"Feature","geometry":{"type":"Point","coordinates":[-87.226995,33.993201]}},{"properties":{"city":"London","category":"Hackspace / FabLabs","twitter":null,"parent / community":"SPC (3 spaces)","zipcode":"SE10 8RE","neighbourhood":"Greenwhich","country":"United Kingdom","url":"http://bit.spc.org/","geo_score":0.75,"address 2":"Borough Hall","place number":null,"place name":"Bitspace","id":"a63o17z4mp4f","address":"Peyton Place","comment":null,"source":"http://hackerspaces.org/wiki/List_of_Hacker_Spaces","geo_precision":"street","state":null},"type":"Feature","geometry":{"type":"Point","coordinates":[-87.226995,33.993201]}},{"properties":{"city":"London","category":"Hackspace / FabLabs","twitter":null,"parent / community":"SPC (3 spaces)","zipcode":"SE10 8RE","neighbourhood":"Greenwhich","country":"United Kingdom","url":"http://cms.spc.org/wordpress/?cat=26","geo_score":0.75,"address 2":"Borough Hall","place number":null,"place name":"GDA","id":"a63o188dgpnv","address":"Peyton Place","comment":null,"source":"http://hackerspaces.org/wiki/List_of_Hacker_Spaces","geo_precision":"street","state":null},"type":"Feature","geometry":{"type":"Point","coordinates":[-87.226995,33.993201]}},{"properties":{"city":"London","category":"Hackspace / FabLabs","twitter":"@spacestudios","parent / community":null,"zipcode":"E8 3RH","neighbourhood":"Hackney","country":"United Kingdom","url":"http://www.spacestudios.org.uk/whats-on/medialab","geo_score":0.756,"address 2":"London Fields","place number":null,"place name":"Space Media Lab","id":"a63o189u4kpy","address":"129-131 Mare Street","comment":null,"source":"http://hackerspaces.org/wiki/List_of_Hacker_Spaces","geo_precision":"range","state":null},"type":"Feature","geometry":{"type":"Point","coordinates":[-86.098747,33.427992]}},{"properties":{"city":"London","category":"Coworking Spaces","twitter":"@TechHub","parent / community":null,"zipcode":"EC1Y 2BJ","neighbourhood":"Shoreditch","country":"United Kingdom","url":"http://www.techhub.com","geo_score":0.561,"address 2":"Ground Floor, Sophia House","place number":null,"place name":"TechHub","id":"a63o17y7i7aw","address":"76-80 City Road","comment":null,"source":"http://wiki.coworking.info/w/page/16583562/CoworkingLondon","geo_precision":"range","state":null},"type":"Feature","geometry":{"type":"Point","coordinates":[-92.977306,34.647733]}},{"properties":{"city":"London","category":"Coworking Spaces","twitter":"@Iwuk","parent / community":null,"zipcode":"EC1A 9PT","neighbourhood":"Clerkenwell","country":"United Kingdom","url":"http://blog.innovationwarehouse.co.uk/","geo_score":0.428,"address 2":"Smithfield","place number":null,"place name":"Innovation Warehouse","id":"a63o1874r50r","address":"1 East Poultry Avenue","comment":null,"source":"http://wiki.coworking.info/w/page/16583562/CoworkingLondon","geo_precision":"city","state":null},"type":"Feature","geometry":{"type":"Point","coordinates":[-109.318683,33.047008]}},{"properties":{"city":"London","category":"Coworking Spaces","twitter":null,"parent / community":null,"zipcode":"E1 6QL","neighbourhood":"Shoreditch","country":"United Kingdom","url":"http://www.thecreationfactory.co.uk","geo_score":0.372,"address 2":"The Old Truman Brewery","place number":null,"place name":"The Creation Factory","id":"a63o17v73zig","address":"91 Brick Lane","comment":null,"source":"http://wiki.coworking.info/w/page/16583562/CoworkingLondon","geo_precision":"street","state":null},"type":"Feature","geometry":{"type":"Point","coordinates":[-120.939156,35.787952]}},{"properties":{"city":"London","category":"Coworking Spaces","twitter":"@thecubelondon","parent / community":null,"zipcode":"E1 6BJ","neighbourhood":"Shoreditch","country":"United Kingdom","url":"http://thecubelondon.com/","geo_score":0.641,"address 2":"Studio 5","place number":null,"place name":"The Cube","id":"a63o18aifbnm","address":"155 Commercial Street","comment":null,"source":"http://wiki.coworking.info/w/page/16583562/CoworkingLondon","geo_precision":"street","state":null},"type":"Feature","geometry":{"type":"Point","coordinates":[-83.42371,39.545212]}},{"properties":{"city":"London","category":"Coworking Spaces","twitter":null,"parent / community":null,"zipcode":"EC2A 3QR","neighbourhood":"Shoreditch","country":"United Kingdom","url":"http://www.starthub.co.uk/","geo_score":0.693,"address 2":null,"place number":null,"place name":"Starthub","id":"a63o17z31ct6","address":"64 Great Eastern Street","comment":null,"source":"http://wiki.coworking.info/w/page/16583562/CoworkingLondon","geo_precision":"range","state":null},"type":"Feature","geometry":{"type":"Point","coordinates":[-86.321291,33.408618]}},{"properties":{"city":"London","category":"Coworking Spaces","twitter":null,"parent / community":null,"zipcode":"SW8 3HE","neighbourhood":"Battersea","country":"United Kingdom","url":"http://www.lebu.co.uk/","geo_score":0.666,"address 2":"Studio F7, Battersea Studios","place number":null,"place name":"Le Bureau","id":"a63o18aq343y","address":"80 Silverthorne Road","comment":null,"source":"http://wiki.coworking.info/w/page/16583562/CoworkingLondon","geo_precision":"street","state":null},"type":"Feature","geometry":{"type":"Point","coordinates":[-106.068009,39.630247]}},{"properties":{"city":"London","category":"Coworking Spaces","twitter":"@thirddoor","parent / community":null,"zipcode":"SW18 1GG","neighbourhood":"Wandsworth","country":"United Kingdom","url":"http://www.third-door.com/","geo_score":0.785,"address 2":"Wandsworth","place number":null,"place name":"Third Floor","id":"a63o17vpgq76","address":"16 Point Pleasant","comment":null,"source":"http://wiki.coworking.info/w/page/16583562/CoworkingLondon","geo_precision":"range","state":null},"type":"Feature","geometry":{"type":"Point","coordinates":[-86.956557,33.267124]}},{"properties":{"city":"London","category":"Coworking Spaces","twitter":"@hubkingscross","parent / community":null,"zipcode":"N1 9AB","neighbourhood":"King's Cross","country":"United Kingdom","url":"http://kingscross.the-hub.net/public/","geo_score":0.429,"address 2":null,"place number":null,"place name":"The Hub King's Cross","id":"a63o183byqa4","address":"34b York Way","comment":null,"source":"http://wiki.coworking.info/w/page/16583562/CoworkingLondon","geo_precision":"city","state":null},"type":"Feature","geometry":{"type":"Point","coordinates":[-109.202845,32.893678]}},{"properties":{"city":"Greater London","category":"Coworking Spaces","twitter":"@thetrampery","parent / community":null,"zipcode":"N1 6","neighbourhood":"Shoreditch","country":"United Kingdom","url":"http://www.thetrampery.com/","geo_score":0.0,"address 2":"Hackney","place number":null,"place name":"The Trampery","id":"a63o17x9lumq","address":"13 Bevenden Street","comment":null,"source":"http://wiki.coworking.info/w/page/16583562/CoworkingLondon","geo_precision":"unmatched","state":null},"type":"Feature","geometry":null},{"properties":{"city":"London","category":"Meetups","twitter":"#tuttle","parent / community":"Social Media Cafe / Tuttle Club","zipcode":"WC1X 9NG","neighbourhood":null,"country":"United Kingdom","url":"http://tuttleclub.wordpress.com/","geo_score":0.428,"address 2":null,"place number":null,"place name":"C4CC","id":"a63o17y82a7g","address":"16 Acton Street","comment":null,"source":null,"geo_precision":"city","state":null},"type":"Feature","geometry":{"type":"Point","coordinates":[-85.248016,37.34701]}},{"properties":{"city":"London","category":"Meetups","twitter":"@SocialMediaLond","parent / community":"Social Media London / Mobile Marketing London","zipcode":"NW1 3AU","neighbourhood":"Regent's Park","country":"United Kingdom","url":"http://www.socialmedialondon.co.uk/","geo_score":0.598,"address 2":null,"place number":null,"place name":"The Green Man","id":"a63o189pmule","address":"383 Euston Road","comment":"#smlondon","source":null,"geo_precision":"range","state":null},"type":"Feature","geometry":{"type":"Point","coordinates":[-86.723301,37.639879]}},{"properties":{"city":"London","category":"Meetups","twitter":null,"parent / community":"Mobile Meetup","zipcode":"W1B 5JY","neighbourhood":"Piccadilly Circus","country":"United Kingdom","url":null,"geo_score":0.0,"address 2":null,"place number":null,"place name":"The Glassblower","id":"a63o17ycbevv","address":"42 Glasshouse Street","comment":null,"source":null,"geo_precision":"unmatched","state":null},"type":"Feature","geometry":null},{"properties":{"city":"London","category":"Meetups","twitter":null,"parent / community":"Open Coffee","zipcode":"WC1","neighbourhood":"Euston Square","country":"United Kingdom","url":null,"geo_score":0.762,"address 2":"Engineering building","place number":null,"place name":"University College London's Roberts Foyer","id":"a63o189dur7r","address":"Malet street","comment":null,"source":null,"geo_precision":"street","state":null},"type":"Feature","geometry":{"type":"Point","coordinates":[-88.249988,30.401974]}},{"properties":{"city":"London","category":"Meetups","twitter":null,"parent / community":"Jelly - Casual co-working","zipcode":"E8 3RH","neighbourhood":"Hackney","country":"United Kingdom","url":null,"geo_score":0.756,"address 2":"London Fields","place number":null,"place name":"SPACE Media Lab","id":"a63o17wyzbua","address":"129-131 Mare street","comment":null,"source":null,"geo_precision":"range","state":null},"type":"Feature","geometry":{"type":"Point","coordinates":[-86.098747,33.427992]}},{"properties":{"city":"London","category":"Meetups","twitter":null,"parent / community":"London Open Source Search Social","zipcode":"W11 1","neighbourhood":"Notting Hill","country":"United Kingdom","url":null,"geo_score":0.276,"address 2":null,"place number":null,"place name":"The Elgin","id":"a63o185yyhx2","address":"96 Ladbrooke Grove","comment":null,"source":null,"geo_precision":"street","state":null},"type":"Feature","geometry":{"type":"Point","coordinates":[-90.879359,42.488465]}},{"properties":{"city":"London","category":"Meetups","twitter":"@TWiSTldn","parent / community":"This Week in Startups (TWiST) London Meetup","zipcode":"EC2V 6DN","neighbourhood":null,"country":"United Kingdom","url":"http://twistldn.com/","geo_score":0.488,"address 2":null,"place number":null,"place name":"Orrick","id":"a63o186s4m69","address":"107 Cheapside","comment":null,"source":null,"geo_precision":"city","state":null},"type":"Feature","geometry":{"type":"Point","coordinates":[-75.984098,37.201251]}},{"properties":{"city":"London","category":"Meetups","twitter":"#QSelfUK","parent / community":"Quantified Self London Show&amp;Tell","zipcode":"WC1E 6BT","neighbourhood":"King's Cross","country":"United Kingdom","url":"http://www.meetup.com/LondonQS/","geo_score":0.636,"address 2":"Roberts Building","place number":null,"place name":"University College London","id":"a63o17zolfft","address":"Gower Street","comment":null,"source":null,"geo_precision":"city","state":null},"type":"Feature","geometry":{"type":"Point","coordinates":[-94.552925,39.640606]}},{"properties":{"city":"London","category":"Meetups","twitter":null,"parent / community":"The Entrepreneur's Club","zipcode":null,"neighbourhood":"Bank","country":"United Kingdom","url":null,"geo_score":0.432,"address 2":null,"place number":null,"place name":"London Chamber of Commerce","id":"a63o185xsv3c","address":"33 Queen Street","comment":null,"source":null,"geo_precision":"range","state":null},"type":"Feature","geometry":{"type":"Point","coordinates":[-87.41177,31.025891]}},{"properties":{"city":"London","category":"Meetups","twitter":null,"parent / community":"Silicon Roundabout / Online Publishing","zipcode":null,"neighbourhood":"Shoreditch","country":"United Kingdom","url":null,"geo_score":0.693,"address 2":null,"place number":null,"place name":"Start Hub","id":"a63o17y0zbzn","address":"64 Great Eastern Street","comment":null,"source":null,"geo_precision":"range","state":null},"type":"Feature","geometry":{"type":"Point","coordinates":[-86.321291,33.408618]}},{"properties":{"city":"London","category":"Meetups","twitter":null,"parent / community":"Demo Days","zipcode":null,"neighbourhood":"Shoreditch","country":"United Kingdom","url":null,"geo_score":0.561,"address 2":null,"place number":null,"place name":"TechHub","id":"a63o187lhnqo","address":"76-80 City Road","comment":null,"source":null,"geo_precision":"range","state":null},"type":"Feature","geometry":{"type":"Point","coordinates":[-92.977306,34.647733]}},{"properties":{"city":"London","category":"Events","twitter":"@geeknrolla","parent / community":"GeeknRolla","zipcode":"SW1V 1EQ","neighbourhood":"Victoria","country":"United Kingdom","url":"http://www.geeknrolla.com/","geo_score":0.193,"address 2":null,"place number":null,"place name":"Park Plaza Victoria","id":"a63o17w62gcl","address":"239 Vauxhall Bridge Road","comment":null,"source":null,"geo_precision":"street","state":null},"type":"Feature","geometry":{"type":"Point","coordinates":[-88.467163,35.705021]}},{"properties":{"city":"London","category":"Events","twitter":null,"parent / community":"Ideastock Open Innovation Festival","zipcode":"WC1E 6BT","neighbourhood":null,"country":"United Kingdom","url":"http://ideastock.co.uk/","geo_score":0.636,"address 2":null,"place number":null,"place name":"University College London","id":"a63o187do60w","address":"Gower Street","comment":null,"source":null,"geo_precision":"city","state":null},"type":"Feature","geometry":{"type":"Point","coordinates":[-94.552925,39.640606]}},{"properties":{"city":"London","category":"Hangouts","twitter":null,"parent / community":null,"zipcode":"EC1V 9DR","neighbourhood":"Shoreditch","country":"United Kingdom","url":null,"geo_score":0.693,"address 2":null,"place number":null,"place name":"The Reliance","id":"a63o189xwpcg","address":"336 Old Street","comment":null,"source":null,"geo_precision":"range","state":null},"type":"Feature","geometry":{"type":"Point","coordinates":[-92.00435,34.918603]}},{"properties":{"city":"London","category":"Hangouts","twitter":null,"parent / community":null,"zipcode":"E2 8AA","neighbourhood":"Shoreditch","country":"United Kingdom","url":null,"geo_score":0.628,"address 2":null,"place number":null,"place name":"The Old Shoreditch Station","id":"a63o1866ypv3","address":"1 Kingsland Road","comment":null,"source":null,"geo_precision":"street","state":null},"type":"Feature","geometry":{"type":"Point","coordinates":[-87.034768,32.441083]}},{"properties":{"city":"London","category":"Hangouts","twitter":null,"parent / community":null,"zipcode":"EC2A 3AR","neighbourhood":"Shoreditch","country":"United Kingdom","url":null,"geo_score":0.434,"address 2":null,"place number":null,"place name":"Bar Music Hall","id":"a63o184bcaub","address":"134 Curtain Road","comment":null,"source":null,"geo_precision":"street","state":null},"type":"Feature","geometry":{"type":"Point","coordinates":[-88.141934,33.130212]}},{"properties":{"city":"London","category":"Hangouts","twitter":null,"parent / community":null,"zipcode":"EC2A 4NE","neighbourhood":"Shoreditch","country":"United Kingdom","url":null,"geo_score":0.526,"address 2":null,"place number":null,"place name":"The Princess","id":"a63o17y87att","address":"76 Paul Street","comment":null,"source":null,"geo_precision":"street","state":null},"type":"Feature","geometry":{"type":"Point","coordinates":[-157.994369,21.46574]}},{"properties":{"city":"London","category":"Hangouts","twitter":null,"parent / community":null,"zipcode":"EC1V 1JN","neighbourhood":"Shoreditch","country":"United Kingdom","url":null,"geo_score":0.659,"address 2":null,"place number":null,"place name":"The Shepherdess Cafe","id":"a63o181a7wh3","address":"221 City Road","comment":null,"source":null,"geo_precision":"range","state":null},"type":"Feature","geometry":{"type":"Point","coordinates":[-93.342766,34.4479]}},{"properties":{"city":"London","category":"Hangouts","twitter":null,"parent / community":null,"zipcode":"EC2A 3EP","neighbourhood":"Shoreditch","country":"United Kingdom","url":null,"geo_score":0.693,"address 2":null,"place number":null,"place name":"Apostrophe","id":"a63o189wwmdd","address":"42 Great Eastern Street","comment":null,"source":null,"geo_precision":"range","state":null},"type":"Feature","geometry":{"type":"Point","coordinates":[-86.321414,33.408977]}},{"properties":{"city":"London","category":"Hangouts","twitter":null,"parent / community":null,"zipcode":"EC2A 3PB","neighbourhood":"Shoreditch","country":"United Kingdom","url":null,"geo_score":0.654,"address 2":null,"place number":null,"place name":"Ruby","id":"a63o189r3665","address":"35 Charlotte Road","comment":null,"source":null,"geo_precision":"street","state":null},"type":"Feature","geometry":{"type":"Point","coordinates":[-80.845232,35.202366]}},{"properties":{"city":"London","category":"Venture Capitalist / Seed","twitter":null,"parent / community":null,"zipcode":"SW1A 1ER","neighbourhood":"Green Park","country":"United Kingdom","url":"http://www.accel.com/","geo_score":0.402,"address 2":null,"place number":null,"place name":"Accel Partners","id":"a63o17yz3uq7","address":"16 St. James's Street","comment":null,"source":null,"geo_precision":"street","state":null},"type":"Feature","geometry":{"type":"Point","coordinates":[-83.478271,32.966673]}},{"properties":{"city":"London","category":"Venture Capitalist / Seed","twitter":null,"parent / community":null,"zipcode":"W1S 1BJ","neighbourhood":"New Bond Street","country":"United Kingdom","url":"http://www.atomico.com/","geo_score":0.748,"address 2":null,"place number":null,"place name":"Atomico Ventures","id":"a63o188n4cdp","address":"50 New Bond Street","comment":null,"source":null,"geo_precision":"range","state":null},"type":"Feature","geometry":{"type":"Point","coordinates":[-121.316485,44.051899]}},{"properties":{"city":"London","category":"Venture Capitalist / Seed","twitter":"@indexventures","parent / community":null,"zipcode":"W1S 2YX","neighbourhood":null,"country":"United Kingdom","url":"http://www.indexventures.com/","geo_score":0.362,"address 2":null,"place number":null,"place name":"Index Ventures","id":"a63o187egxpt","address":"52 53 Conduit Street","comment":null,"source":null,"geo_precision":"street","state":null},"type":"Feature","geometry":{"type":"Point","coordinates":[-82.787978,40.260204]}},{"properties":{"city":"London","category":"Venture Capitalist / Seed","twitter":"@indexventures","parent / community":null,"zipcode":"EC2A 4RQ","neighbourhood":"Shoreditch","country":"United Kingdom","url":"http://www.indexventures.com/","geo_score":0.202,"address 2":null,"place number":null,"place name":"Index Ventures","id":"a63o17ylh7v1","address":"32 38 Scrutton Street","comment":null,"source":null,"geo_precision":"street","state":null},"type":"Feature","geometry":{"type":"Point","coordinates":[-91.56861,34.786089]}},{"properties":{"city":"London","category":"Venture Capitalist / Seed","twitter":null,"parent / community":null,"zipcode":"W1S 2FA","neighbourhood":"New Bond Street","country":"United Kingdom","url":"http://www.sep.co.uk/","geo_score":0.388,"address 2":null,"place number":null,"place name":"Scottish Equity Partners (SEP)","id":"a63o181tdab2","address":"29 St. George Street","comment":null,"source":null,"geo_precision":"street","state":null},"type":"Feature","geometry":{"type":"Point","coordinates":[-86.931001,34.44975]}},{"properties":{"city":"London","category":"Venture Capitalist / Seed","twitter":"@wellingtonvc","parent / community":null,"zipcode":"W1J 8DS","neighbourhood":"Green Park","country":"United Kingdom","url":"http://www.wellington-partners.com/","geo_score":0.475,"address 2":null,"place number":null,"place name":"Wellington Partners","id":"a63o18151jaw","address":"11 Berkeley Street","comment":null,"source":null,"geo_precision":"street","state":null},"type":"Feature","geometry":{"type":"Point","coordinates":[-86.450434,34.634333]}},{"properties":{"city":"London","category":"Venture Capitalist / Seed","twitter":"@balderton","parent / community":null,"zipcode":"W1K 6TC","neighbourhood":null,"country":"United Kingdom","url":"http://www.balderton.com/","geo_score":0.0,"address 2":null,"place number":null,"place name":"Balderton Capital","id":"a63o187s8k7p","address":"20 Balderton Street","comment":null,"source":null,"geo_precision":"unmatched","state":null},"type":"Feature","geometry":null},{"properties":{"city":"London","category":"Venture Capitalist / Seed","twitter":null,"parent / community":null,"zipcode":"SW1X 0AS","neighbourhood":"Chelsea","country":"United Kingdom","url":"http://www.profounderscapital.com/","geo_score":0.628,"address 2":null,"place number":null,"place name":"PROfounders Capital","id":"a63o180x4gxx","address":"3 Cadogan Gate","comment":null,"source":null,"geo_precision":"street","state":null},"type":"Feature","geometry":{"type":"Point","coordinates":[-95.723621,29.761398]}},{"properties":{"city":"London","category":"Venture Capitalist / Seed","twitter":null,"parent / community":null,"zipcode":"SW8 2LN","neighbourhood":"Wandsworth","country":"United Kingdom","url":"http://www.bigissueinvest.com/","geo_score":0.0,"address 2":null,"place number":null,"place name":"Big Issue Invest","id":"a63o180zgy6r","address":"1 Wandsworth Road","comment":null,"source":null,"geo_precision":"unmatched","state":null},"type":"Feature","geometry":null},{"properties":{"city":"London","category":"Venture Capitalist / Seed","twitter":null,"parent / community":null,"zipcode":"WC2H 9LT","neighbourhood":"Covent Garden","country":"United Kingdom","url":"http://www.beringea.com/","geo_score":0.5,"address 2":null,"place number":null,"place name":"Beringea","id":"a63o18a2o788","address":"39 Earlham Street","comment":null,"source":null,"geo_precision":"street","state":null},"type":"Feature","geometry":{"type":"Point","coordinates":[-94.12735,41.488977]}},{"properties":{"city":"London","category":"Venture Capitalist / Seed","twitter":null,"parent / community":null,"zipcode":"W1F 9JF","neighbourhood":"Picadilly Circus","country":"United Kingdom","url":"http://www.edenventures.co.uk/","geo_score":0.641,"address 2":null,"place number":null,"place name":"Eden Ventures","id":"a63o185z3tba","address":"14 Golden Square","comment":null,"source":null,"geo_precision":"street","state":null},"type":"Feature","geometry":{"type":"Point","coordinates":[-87.629669,32.277197]}},{"properties":{"city":"London","category":"Venture Capitalist / Seed","twitter":null,"parent / community":null,"zipcode":"WC1E 7EB","neighbourhood":null,"country":"United Kingdom","url":"http://www.pentechvc.com/","geo_score":0.231,"address 2":null,"place number":null,"place name":"Pentech Ventures","id":"a63o188jcgdr","address":"One Alfred Place","comment":null,"source":null,"geo_precision":"street","state":null},"type":"Feature","geometry":{"type":"Point","coordinates":[-83.80796,31.667696]}},{"properties":{"city":"London","category":"Venture Capitalist / Seed","twitter":null,"parent / community":null,"zipcode":"SE1 9RS","neighbourhood":null,"country":"United Kingdom","url":"http://www.londonseedcapital.com/","geo_score":0.632,"address 2":"New City Court","place number":null,"place name":"London Seed Capital","id":"a63o17z0bmmm","address":"20 St Thomas Street","comment":null,"source":null,"geo_precision":"range","state":null},"type":"Feature","geometry":{"type":"Point","coordinates":[-112.395585,43.194248]}},{"properties":{"city":"London","category":"Venture Capitalist / Seed","twitter":null,"parent / community":"Company Guides Venture Partners","zipcode":"EC2A 2BS","neighbourhood":null,"country":"United Kingdom","url":"http://www.londontechnologyfund.com/","geo_score":0.53,"address 2":null,"place number":null,"place name":"London Technology Fund","id":"a63o1885qtv5","address":"13 Christopher Street","comment":null,"source":null,"geo_precision":"street","state":null},"type":"Feature","geometry":{"type":"Point","coordinates":[-83.175676,37.238864]}},{"properties":{"city":"London","category":"Venture Capitalist / Seed","twitter":null,"parent / community":null,"zipcode":"SW1A 1ER","neighbourhood":"Green Park","country":"United Kingdom","url":"http://www.amadeuscapital.com/","geo_score":0.402,"address 2":null,"place number":null,"place name":"Amadeus Capital","id":"a63o1869j8pf","address":"16 St James's Street","comment":null,"source":null,"geo_precision":"street","state":null},"type":"Feature","geometry":{"type":"Point","coordinates":[-83.478271,32.966673]}},{"properties":{"city":"London","category":"Venture Capitalist / Seed","twitter":null,"parent / community":null,"zipcode":"SW7 2PG","neighbourhood":null,"country":"United Kingdom","url":"http://www.imperialinnovations.co.uk/","geo_score":0.601,"address 2":null,"place number":null,"place name":"Imperial Innovations","id":"a63o185q8uk6","address":"52 Princes Gate","comment":null,"source":null,"geo_precision":"street","state":null},"type":"Feature","geometry":{"type":"Point","coordinates":[-95.547894,29.581457]}},{"properties":{"city":"London","category":"Venture Capitalist / Seed","twitter":null,"parent / community":null,"zipcode":"SW1E 6LD","neighbourhood":null,"country":"United Kingdom","url":"http://www.adventventures.com/","geo_score":0.646,"address 2":null,"place number":null,"place name":"Advent Ventures","id":"a63o180q7zbd","address":"25 Buckingham Gate","comment":null,"source":null,"geo_precision":"street","state":null},"type":"Feature","geometry":{"type":"Point","coordinates":[-95.58894,29.626391]}},{"properties":{"city":"London","category":"Venture Capitalist / Seed","twitter":null,"parent / community":null,"zipcode":"EC4M 7AN","neighbourhood":null,"country":"United Kingdom","url":"http://www.octopusventures.com","geo_score":0.374,"address 2":null,"place number":null,"place name":"Octopus Ventures","id":"a63o180fk57n","address":"20 Old Bailey","comment":null,"source":null,"geo_precision":"street","state":null},"type":"Feature","geometry":{"type":"Point","coordinates":[-86.255982,31.274023]}}],"is_temporal":false,"author":{"url":"","metadata":"","contact_name":"Amaury de Buchet","contact_address":"199 boulevard Pereire\r\n75017 Paris","source":"Many sources, internet pages, magazine articles, ...","contact_phone":"+33660440412"},"source":"","pagination":{"sort":null,"start":0,"total":62,"limit":1000000},"state":"complete","tags":"ecosystem,innovation,london,startup,vc,venture","published":"2011-08-04T13:15:00Z","id":141469}