{"type":"FeatureCollection","data_type":"Dataset","url_type":null,"permissions":[{"permissions":{"download":true,"view":true},"group_id":"everyone"}],"classification":null,"title":"Chitralroute","count":23,"stream_id":143072,"contributor":{"url":"http://geocommons.com/users/11257","name":"tshortho"},"data_attributes":null,"calculation_params":null,"icon_link":null,"link":"http://geocommons.com/overlays/143072.json","extent":[-123.936,-39.4833,178.004,50.3715],"geometry_types":["point"],"unique_name":null,"name":"Chitralroute","feature_count":23,"description":"","next_feature":null,"is_raster":false,"short_classification":"Y","stats":{},"features":[{"properties":{"city":"KASHIMA","vessel name":"CHITRAL","geo_score":0.776,"id":"a6hfg6w870ux","geo_precision":"zip"},"type":"Feature","geometry":{"type":"Point","coordinates":[56.2719,26.9581]}},{"properties":{"city":"CHIBA","vessel name":"CHITRAL","geo_score":0.857,"id":"a6hfg6uqecir","geo_precision":"zip"},"type":"Feature","geometry":{"type":"Point","coordinates":[140.1166667,35.6]}},{"properties":{"city":"GISBORNE","vessel name":"CHITRAL","geo_score":0.857,"id":"a6hfg6z9fewv","geo_precision":"zip"},"type":"Feature","geometry":{"type":"Point","coordinates":[178.0041667,-38.6533333]}},{"properties":{"city":"MARSDEN POINT","vessel name":"CHITRAL","geo_score":0.762,"id":"a6hfg6kfz90z","geo_precision":"zip"},"type":"Feature","geometry":{"type":"Point","coordinates":[-83.2948922,36.2139814]}},{"properties":{"city":"ZHANGZHAOU","vessel name":"CHITRAL","geo_score":0.829,"id":"a6hfg6mmwumy","geo_precision":"zip"},"type":"Feature","geometry":{"type":"Point","coordinates":[113.6486111,34.7577778]}},{"properties":{"city":"BINTULU","vessel name":"CHITRAL","geo_score":0.857,"id":"a6hfg6ntpdtf","geo_precision":"zip"},"type":"Feature","geometry":{"type":"Point","coordinates":[113.0333333,3.1666667]}},{"properties":{"city":"LAHAD DATU","vessel name":"CHITRAL","geo_score":0.746,"id":"a6hfg6pemjhm","geo_precision":"zip"},"type":"Feature","geometry":{"type":"Point","coordinates":[121.1325,14.5691667]}},{"properties":{"city":"TAURANAGA","vessel name":"CHITRAL","geo_score":0.794,"id":"a6hfg6qxipnd","geo_precision":"zip"},"type":"Feature","geometry":{"type":"Point","coordinates":[-104.6666667,24.0333333]}},{"properties":{"city":"GISBORNE","vessel name":"CHITRAL","geo_score":0.857,"id":"a6hfg6oen3jm","geo_precision":"zip"},"type":"Feature","geometry":{"type":"Point","coordinates":[178.0041667,-38.6533333]}},{"properties":{"city":"TAURANGA","vessel name":"CHITRAL","geo_score":0.804,"id":"a6hfg6oqf8l8","geo_precision":"zip"},"type":"Feature","geometry":{"type":"Point","coordinates":[-104.6666667,24.0333333]}},{"properties":{"city":"PENGLAI","vessel name":"CHITRAL","geo_score":0.857,"id":"a6hfg6p1tdzi","geo_precision":"zip"},"type":"Feature","geometry":{"type":"Point","coordinates":[120.7508333,37.8086111]}},{"properties":{"city":"MOKPO","vessel name":"CHITRAL","geo_score":0.762,"id":"a6hfg6ntsxec","geo_precision":"zip"},"type":"Feature","geometry":{"type":"Point","coordinates":[-51.06638889,0.038888889]}},{"properties":{"city":"NEW PLYMOUTH","vessel name":"CHITRAL","geo_score":0.818,"id":"a6hfg6wvx851","geo_precision":"zip"},"type":"Feature","geometry":{"type":"Point","coordinates":[-4.14304733276367,50.3715254228346]}},{"properties":{"city":"NAPIER","vessel name":"CHITRAL","geo_score":0.857,"id":"a6hfg6ui7gtg","geo_precision":"zip"},"type":"Feature","geometry":{"type":"Point","coordinates":[176.9166667,-39.4833333]}},{"properties":{"city":"TARUNGA","vessel name":"CHITRAL","geo_score":0.776,"id":"a6hfg6srjns2","geo_precision":"zip"},"type":"Feature","geometry":{"type":"Point","coordinates":[-104.6666667,24.0333333]}},{"properties":{"city":"LANSHAN","vessel name":"CHITRAL","geo_score":0.804,"id":"a6hfg6tf4hio","geo_precision":"zip"},"type":"Feature","geometry":{"type":"Point","coordinates":[14.388215,42.21674]}},{"properties":{"city":"PORT CHALMERS","vessel name":"CHITRAL","geo_score":0.762,"id":"a6hfg6ufpsw7","geo_precision":"zip"},"type":"Feature","geometry":{"type":"Point","coordinates":[-8.6166667,41.15]}},{"properties":{"city":"GISBORNE","vessel name":"CHITRAL","geo_score":0.857,"id":"a6hfg6ufjtct","geo_precision":"zip"},"type":"Feature","geometry":{"type":"Point","coordinates":[178.0041667,-38.6533333]}},{"properties":{"city":"MADERSON PT","vessel name":"CHITRAL","geo_score":0.786,"id":"a6hfg6ub49tq","geo_precision":"zip"},"type":"Feature","geometry":{"type":"Point","coordinates":[-40.2756779384616,-17.3901934692308]}},{"properties":{"city":"ZHANGZHAOU","vessel name":"CHITRAL","geo_score":0.829,"id":"a6hfg6jgt0ol","geo_precision":"zip"},"type":"Feature","geometry":{"type":"Point","coordinates":[113.6486111,34.7577778]}},{"properties":{"city":"PORT ALBERNI","vessel name":"CHITRAL","geo_score":0.766,"id":"a6hfg6rfzvqk","geo_precision":"zip"},"type":"Feature","geometry":{"type":"Point","coordinates":[-8.6166667,41.15]}},{"properties":{"city":"NANAIMO","vessel name":"CHITRAL","geo_score":0.857,"id":"a6hfg6ty2rjs","geo_precision":"zip"},"type":"Feature","geometry":{"type":"Point","coordinates":[-123.936012692,49.166337382]}},{"properties":{"city":"TAICANG","vessel name":"CHITRAL","geo_score":0.776,"id":"a6hfg6w7k0ue","geo_precision":"zip"},"type":"Feature","geometry":{"type":"Point","coordinates":[125.0,46.5833333]}}],"is_temporal":false,"author":{"url":"","metadata":"","contact_name":"","contact_address":"","source":"","contact_phone":""},"source":"","pagination":{"sort":null,"start":0,"total":23,"limit":1000000},"state":"complete","tags":"","published":"2014-08-13T02:01:06-04:00","id":143072}