{"type":"FeatureCollection","data_type":"Dataset","url_type":null,"permissions":[{"permissions":{"download":true,"view":true},"group_id":"everyone"}],"classification":null,"title":"Shopko Hometown locations","count":8,"stream_id":144222,"contributor":{"url":"http://geocommons.com/users/27032","name":"snoll7"},"data_attributes":null,"calculation_params":null,"icon_link":null,"link":"http://geocommons.com/overlays/144222.json","extent":[-93.6366,44.1632,-87.5016,45.8736],"geometry_types":["point"],"unique_name":null,"name":"Shopko Hometown locations","feature_count":8,"description":"Shopko Hometown locations as of August 2011","next_feature":null,"is_raster":false,"short_classification":"Y","stats":{},"features":[{"properties":{"city":"Abbotsford","name":"Shopko Hometown","zip":"54405","geo_score":0.476,"street":"1011 E. Spruce Street","id":"a62okvsop1vp","geo_precision":"street","state":"WI"},"type":"Feature","geometry":{"type":"Point","coordinates":[-90.3204,44.945733]}},{"properties":{"city":"Kewaunee","name":"Shopko Hometown","zip":"54216","geo_score":0.5,"street":"802 N. Main","id":"a62okvtk8kqz","geo_precision":"street","state":"WI"},"type":"Feature","geometry":{"type":"Point","coordinates":[-87.501584,44.458287]}},{"properties":{"city":"Oconto","name":"Shopko Hometown","zip":"54153","geo_score":0.708,"street":"126 Charles St","id":"a62okvz065y6","geo_precision":"street","state":"WI"},"type":"Feature","geometry":{"type":"Point","coordinates":[-87.900716,44.892084]}},{"properties":{"city":"Seymour","name":"Shopko Hometown","zip":"54165","geo_score":0.714,"street":"Mainline Dr","id":"a62okw4z0hxa","geo_precision":"street","state":"WI"},"type":"Feature","geometry":{"type":"Point","coordinates":[-88.320033,44.514962]}},{"properties":{"city":"Princeton","name":"Shopko Hometown","zip":"55371","geo_score":0.585,"street":"705 Northland Dr","id":"a62okw1lb5qi","geo_precision":"city","state":"MN"},"type":"Feature","geometry":{"type":"Point","coordinates":[-93.63663,45.740703]}},{"properties":{"city":"Brillion","name":"Shopko Hometown","zip":"54110","geo_score":0.857,"street":"Achievment Dr","id":"a62okw48a049","geo_precision":"city","state":"WI"},"type":"Feature","geometry":{"type":"Point","coordinates":[-88.133876,44.163209]}},{"properties":{"city":"Kiel","name":"Shopko Hometown","zip":"53042","geo_score":0.499,"street":"Rockville Rd","id":"a62okw7aczdm","geo_precision":"street","state":"WI"},"type":"Feature","geometry":{"type":"Point","coordinates":[-89.526654,44.897082]}},{"properties":{"city":"Mora","name":"Shopko Hometown","zip":"55051","geo_score":0.785,"street":"340 S hwy 65","id":"a62okvsiyjfb","geo_precision":"range","state":"MN"},"type":"Feature","geometry":{"type":"Point","coordinates":[-93.289875,45.873625]}}],"is_temporal":false,"author":{"url":"","metadata":"","contact_name":"Steve Noll","contact_address":"","source":"internet search","contact_phone":"815 985-1680"},"source":"","pagination":{"sort":null,"start":0,"total":8,"limit":1000000},"state":"complete","tags":"","published":"2011-08-11T16:00:00Z","id":144222}