{"type":"FeatureCollection","data_type":"Dataset","url_type":null,"permissions":[{"permissions":{"download":true,"view":true},"group_id":"everyone"}],"classification":null,"title":"LS Divisions 2","count":73,"stream_id":145694,"contributor":{"url":"http://geocommons.com/users/27147","name":"AschneiderGroupon"},"data_attributes":null,"calculation_params":null,"icon_link":null,"link":"http://geocommons.com/overlays/145694.json","extent":[-157.858,21.3069,-70.2553,47.6062],"geometry_types":["point"],"unique_name":null,"name":"LS Divisions 2","feature_count":73,"description":"","next_feature":null,"is_raster":false,"short_classification":"Y","stats":{"revenue":{"max":830882,"mean":34085.1095890411,"variance":11122537245.8212,"stdev":105463.440328017,"min":120,"median":5525}},"features":[{"properties":{"city":"Albany","geo_score":0.857,"id":"a6ndffmso6vh","geo_precision":"city","state":"NY","revenue":5807},"type":"Feature","geometry":{"type":"Point","coordinates":[-73.756232,42.652579]}},{"properties":{"city":"Albuquerque","geo_score":0.857,"id":"a6ndffama0ai","geo_precision":"city","state":"NM","revenue":845},"type":"Feature","geometry":{"type":"Point","coordinates":[-106.651137,35.084491]}},{"properties":{"city":"Atlanta","geo_score":0.857,"id":"a6ndffl1bp87","geo_precision":"city","state":"GA","revenue":3785},"type":"Feature","geometry":{"type":"Point","coordinates":[-84.387982,33.748995]}},{"properties":{"city":"Augusta","geo_score":0.857,"id":"a6ndff97kubc","geo_precision":"city","state":"GA","revenue":1176},"type":"Feature","geometry":{"type":"Point","coordinates":[-81.974838,33.47097]}},{"properties":{"city":"Austin","geo_score":0.857,"id":"a6ndffafvi1c","geo_precision":"city","state":"TX","revenue":7476},"type":"Feature","geometry":{"type":"Point","coordinates":[-97.743061,30.267153]}},{"properties":{"city":"Baltimore","geo_score":0.857,"id":"a6ndffgb70xw","geo_precision":"city","state":"MD","revenue":35921},"type":"Feature","geometry":{"type":"Point","coordinates":[-76.612189,39.290385]}},{"properties":{"city":"Birmingham","geo_score":0.857,"id":"a6ndff9oggdx","geo_precision":"city","state":"AL","revenue":13580},"type":"Feature","geometry":{"type":"Point","coordinates":[-86.80249,33.520661]}},{"properties":{"city":"Boise","geo_score":0.857,"id":"a6ndffbqnpdg","geo_precision":"city","state":"ID","revenue":1542},"type":"Feature","geometry":{"type":"Point","coordinates":[-116.203451,43.6135]}},{"properties":{"city":"Boston","geo_score":0.857,"id":"a6ndff7knxhp","geo_precision":"city","state":"MA","revenue":81512},"type":"Feature","geometry":{"type":"Point","coordinates":[-71.059773,42.358431]}},{"properties":{"city":"Buffalo","geo_score":0.857,"id":"a6ndff6svk8n","geo_precision":"city","state":"NY","revenue":4825},"type":"Feature","geometry":{"type":"Point","coordinates":[-78.878369,42.886447]}},{"properties":{"city":"Cedar Rapids","geo_score":0.857,"id":"a6ndffey6jdh","geo_precision":"city","state":"IA","revenue":3429},"type":"Feature","geometry":{"type":"Point","coordinates":[-91.644068,42.008333]}},{"properties":{"city":"Charlotte","geo_score":0.857,"id":"a6ndffbkkk5r","geo_precision":"city","state":"NC","revenue":21300},"type":"Feature","geometry":{"type":"Point","coordinates":[-80.843127,35.227087]}},{"properties":{"city":"Chicago","geo_score":0.857,"id":"a6ndffdcoix7","geo_precision":"city","state":"IL","revenue":197588},"type":"Feature","geometry":{"type":"Point","coordinates":[-87.650052,41.850033]}},{"properties":{"city":"Cincinnati","geo_score":0.857,"id":"a6ndffiv6xrn","geo_precision":"city","state":"OH","revenue":4214},"type":"Feature","geometry":{"type":"Point","coordinates":[-84.456886,39.162004]}},{"properties":{"city":"Cleveland","geo_score":0.857,"id":"a6ndffgq8qwt","geo_precision":"city","state":"OH","revenue":2788},"type":"Feature","geometry":{"type":"Point","coordinates":[-81.695409,41.499495]}},{"properties":{"city":"Colorado Springs","geo_score":0.857,"id":"a6ndff8bq2ze","geo_precision":"city","state":"CO","revenue":5254},"type":"Feature","geometry":{"type":"Point","coordinates":[-104.821363,38.833882]}},{"properties":{"city":"Columbia","geo_score":0.857,"id":"a6ndffly7ewc","geo_precision":"city","state":"SC","revenue":3708},"type":"Feature","geometry":{"type":"Point","coordinates":[-81.024864,33.987454]}},{"properties":{"city":"Corpus Christi","geo_score":0.857,"id":"a6ndffc68fvy","geo_precision":"city","state":"TX","revenue":1070},"type":"Feature","geometry":{"type":"Point","coordinates":[-97.396381,27.800583]}},{"properties":{"city":"Dallas","geo_score":0.857,"id":"a6ndffdh4m1x","geo_precision":"city","state":"TX","revenue":21860},"type":"Feature","geometry":{"type":"Point","coordinates":[-96.806667,32.783056]}},{"properties":{"city":"Washington","geo_score":0.857,"id":"a6ndffep8932","geo_precision":"city","state":"DC","revenue":204880},"type":"Feature","geometry":{"type":"Point","coordinates":[-77.036366,38.895112]}},{"properties":{"city":"Denver","geo_score":0.857,"id":"a6ndff7jilta","geo_precision":"city","state":"CO","revenue":39670},"type":"Feature","geometry":{"type":"Point","coordinates":[-104.984703,39.739154]}},{"properties":{"city":"Des Moines","geo_score":0.857,"id":"a6ndff9ifzn5","geo_precision":"city","state":"IA","revenue":2350},"type":"Feature","geometry":{"type":"Point","coordinates":[-93.609106,41.600545]}},{"properties":{"city":"Detroit","geo_score":0.857,"id":"a6ndfffmqdb2","geo_precision":"city","state":"MI","revenue":1970},"type":"Feature","geometry":{"type":"Point","coordinates":[-83.045754,42.331427]}},{"properties":{"city":"Eugene","geo_score":0.857,"id":"a6ndffeuyifh","geo_precision":"city","state":"OR","revenue":3870},"type":"Feature","geometry":{"type":"Point","coordinates":[-123.086754,44.052069]}},{"properties":{"city":"Fairfield","geo_score":0.857,"id":"a6ndffctvbpv","geo_precision":"city","state":"CT","revenue":10200},"type":"Feature","geometry":{"type":"Point","coordinates":[-73.282408,41.175173]}},{"properties":{"city":"Fort Collins","geo_score":0.753,"id":"a6ndffmfl32x","geo_precision":"city","state":"CO","revenue":6724},"type":"Feature","geometry":{"type":"Point","coordinates":[-108.685164,39.149614]}},{"properties":{"city":"Fort Worth","geo_score":0.746,"id":"a6ndffir2ihd","geo_precision":"city","state":"TX","revenue":1295},"type":"Feature","geometry":{"type":"Point","coordinates":[-95.262161,31.108239]}},{"properties":{"city":"Fresno","geo_score":0.857,"id":"a6ndff9c2t90","geo_precision":"city","state":"CA","revenue":1850},"type":"Feature","geometry":{"type":"Point","coordinates":[-119.772366,36.747727]}},{"properties":{"city":"Grand Rapids","geo_score":0.857,"id":"a6ndfffm5kzo","geo_precision":"city","state":"MI","revenue":180},"type":"Feature","geometry":{"type":"Point","coordinates":[-85.668086,42.96336]}},{"properties":{"city":"Green Bay","geo_score":0.857,"id":"a6ndffkbjb6w","geo_precision":"city","state":"WI","revenue":3620},"type":"Feature","geometry":{"type":"Point","coordinates":[-88.019826,44.519159]}},{"properties":{"city":"Greenville","geo_score":0.857,"id":"a6ndffebriol","geo_precision":"city","state":"SC","revenue":9660},"type":"Feature","geometry":{"type":"Point","coordinates":[-82.402871,34.848567]}},{"properties":{"city":"Hampton Roads","geo_score":0.75,"id":"a6ndff9qpczz","geo_precision":"city","state":"VA","revenue":45504},"type":"Feature","geometry":{"type":"Point","coordinates":[-78.590846,38.855946]}},{"properties":{"city":"Hartford","geo_score":0.857,"id":"a6ndff7hizf2","geo_precision":"city","state":"CT","revenue":12495},"type":"Feature","geometry":{"type":"Point","coordinates":[-72.685093,41.763711]}},{"properties":{"city":"Honolulu","geo_score":0.857,"id":"a6ndffagrvvd","geo_precision":"city","state":"HI","revenue":5525},"type":"Feature","geometry":{"type":"Point","coordinates":[-157.858333,21.306944]}},{"properties":{"city":"Houston","geo_score":0.816,"id":"a6ndff7ua41o","geo_precision":"city","state":"TX","revenue":15944},"type":"Feature","geometry":{"type":"Point","coordinates":[-96.919704,29.845783]}},{"properties":{"city":"Kansas City","geo_score":0.857,"id":"a6ndffe3sdbb","geo_precision":"city","state":"MO","revenue":27984},"type":"Feature","geometry":{"type":"Point","coordinates":[-94.598583,39.102404]}},{"properties":{"city":"Knoxville","geo_score":0.794,"id":"a6ndffkr38sl","geo_precision":"city","state":"TN","revenue":4925},"type":"Feature","geometry":{"type":"Point","coordinates":[-86.784443,36.16589]}},{"properties":{"city":"Los Angeles","geo_score":0.857,"id":"a6ndffbxxo2k","geo_precision":"city","state":"CA","revenue":254397},"type":"Feature","geometry":{"type":"Point","coordinates":[-118.243685,34.052234]}},{"properties":{"city":"Las Vegas","geo_score":0.857,"id":"a6ndffkn4kf9","geo_precision":"city","state":"NV","revenue":127342},"type":"Feature","geometry":{"type":"Point","coordinates":[-115.137223,36.174971]}},{"properties":{"city":"Lexington","geo_score":0.857,"id":"a6ndffiyxlya","geo_precision":"city","state":"KY","revenue":3984},"type":"Feature","geometry":{"type":"Point","coordinates":[-84.477715,37.988689]}},{"properties":{"city":"Lincoln","geo_score":0.857,"id":"a6ndffcyk059","geo_precision":"city","state":"NE","revenue":11593},"type":"Feature","geometry":{"type":"Point","coordinates":[-96.66696,40.800001]}},{"properties":{"city":"Little Rock","geo_score":0.857,"id":"a6ndff8hf03f","geo_precision":"city","state":"AR","revenue":2082},"type":"Feature","geometry":{"type":"Point","coordinates":[-92.289595,34.746481]}},{"properties":{"city":"Long Beach","geo_score":0.857,"id":"a6ndffd1ubks","geo_precision":"city","state":"CA","revenue":33096},"type":"Feature","geometry":{"type":"Point","coordinates":[-118.189235,33.766962]}},{"properties":{"city":"Lubbock","geo_score":0.857,"id":"a6ndffghaazr","geo_precision":"city","state":"TX","revenue":950},"type":"Feature","geometry":{"type":"Point","coordinates":[-101.855167,33.577863]}},{"properties":{"city":"Madison","geo_score":0.857,"id":"a6ndffaatlm2","geo_precision":"city","state":"WI","revenue":1020},"type":"Feature","geometry":{"type":"Point","coordinates":[-89.40123,43.073052]}},{"properties":{"city":"Miami","geo_score":0.857,"id":"a6ndff82wvdc","geo_precision":"city","state":"FL","revenue":19290},"type":"Feature","geometry":{"type":"Point","coordinates":[-80.193659,25.774266]}},{"properties":{"city":"Milwaukee","geo_score":0.857,"id":"a6ndffhqj1qs","geo_precision":"city","state":"WI","revenue":4736},"type":"Feature","geometry":{"type":"Point","coordinates":[-87.906474,43.038903]}},{"properties":{"city":"Minneapolis","geo_score":0.857,"id":"a6ndffffzv85","geo_precision":"city","state":"MN","revenue":10222},"type":"Feature","geometry":{"type":"Point","coordinates":[-93.263836,44.979965]}},{"properties":{"city":"Sonoma","geo_score":0.857,"id":"a6ndffkxlzeg","geo_precision":"city","state":"CA","revenue":2480},"type":"Feature","geometry":{"type":"Point","coordinates":[-122.476819,38.255943]}},{"properties":{"city":"Nashville","geo_score":0.857,"id":"a6ndffk2grwt","geo_precision":"city","state":"TN","revenue":15470},"type":"Feature","geometry":{"type":"Point","coordinates":[-86.784443,36.16589]}},{"properties":{"city":"New York","geo_score":0.857,"id":"a6ndffhcyf02","geo_precision":"city","state":"NY","revenue":830882},"type":"Feature","geometry":{"type":"Point","coordinates":[-74.005973,40.714269]}},{"properties":{"city":"Hoboken","geo_score":0.857,"id":"a6ndffk24ao2","geo_precision":"city","state":"NJ","revenue":62290},"type":"Feature","geometry":{"type":"Point","coordinates":[-74.027972,40.745197]}},{"properties":{"city":"Omaha","geo_score":0.857,"id":"a6ndffafyb6e","geo_precision":"city","state":"NE","revenue":3598},"type":"Feature","geometry":{"type":"Point","coordinates":[-95.937792,41.25861]}},{"properties":{"city":"Orlando","geo_score":0.857,"id":"a6ndffdwl7b7","geo_precision":"city","state":"FL","revenue":7540},"type":"Feature","geometry":{"type":"Point","coordinates":[-81.379237,28.538336]}},{"properties":{"city":"Philadelphia","geo_score":0.857,"id":"a6ndff7cu0f4","geo_precision":"city","state":"PA","revenue":23295},"type":"Feature","geometry":{"type":"Point","coordinates":[-75.163789,39.952335]}},{"properties":{"city":"Phoenix","geo_score":0.857,"id":"a6ndfffgxd6k","geo_precision":"city","state":"AZ","revenue":5496},"type":"Feature","geometry":{"type":"Point","coordinates":[-112.074037,33.448377]}},{"properties":{"city":"High Point","geo_score":0.857,"id":"a6ndfffof538","geo_precision":"city","state":"NC","revenue":3854},"type":"Feature","geometry":{"type":"Point","coordinates":[-79.988711,35.993538]}},{"properties":{"city":"Pittsburgh","geo_score":0.857,"id":"a6ndff7n78pg","geo_precision":"city","state":"PA","revenue":6324},"type":"Feature","geometry":{"type":"Point","coordinates":[-79.995886,40.440625]}},{"properties":{"city":"Portland","geo_score":0.857,"id":"a6ndfffp0m24","geo_precision":"city","state":"ME","revenue":7420},"type":"Feature","geometry":{"type":"Point","coordinates":[-70.255326,43.661471]}},{"properties":{"city":"Raleigh","geo_score":0.857,"id":"a6ndfflb1s3b","geo_precision":"city","state":"NC","revenue":7028},"type":"Feature","geometry":{"type":"Point","coordinates":[-78.638615,35.772096]}},{"properties":{"city":"Reno","geo_score":0.857,"id":"a6ndfffgh77g","geo_precision":"city","state":"NV","revenue":10500},"type":"Feature","geometry":{"type":"Point","coordinates":[-119.813803,39.529633]}},{"properties":{"city":"Richmond","geo_score":0.857,"id":"a6ndff81527j","geo_precision":"city","state":"VA","revenue":24111},"type":"Feature","geometry":{"type":"Point","coordinates":[-77.460262,37.553758]}},{"properties":{"city":"Salt Lake City","geo_score":0.857,"id":"a6ndffgiqpsw","geo_precision":"city","state":"UT","revenue":86346},"type":"Feature","geometry":{"type":"Point","coordinates":[-111.891047,40.760779]}},{"properties":{"city":"San Francisco","geo_score":0.857,"id":"a6ndffkwvg9m","geo_precision":"city","state":"CA","revenue":44778},"type":"Feature","geometry":{"type":"Point","coordinates":[-122.419416,37.77493]}},{"properties":{"city":"Savannah","geo_score":0.857,"id":"a6ndffkpsvuo","geo_precision":"city","state":"GA","revenue":240},"type":"Feature","geometry":{"type":"Point","coordinates":[-81.099834,32.083541]}},{"properties":{"city":"Seattle","geo_score":0.857,"id":"a6ndfffmhsyt","geo_precision":"city","state":"WA","revenue":44621},"type":"Feature","geometry":{"type":"Point","coordinates":[-122.332071,47.60621]}},{"properties":{"city":"Springfield","geo_score":0.792,"id":"a6ndffj897o1","geo_precision":"city","state":"MO","revenue":3387},"type":"Feature","geometry":{"type":"Point","coordinates":[-91.237925,38.295605]}},{"properties":{"city":"Saint Louis","geo_score":0.857,"id":"a6ndfffie8jg","geo_precision":"city","state":"MO","revenue":5380},"type":"Feature","geometry":{"type":"Point","coordinates":[-90.197889,38.627273]}},{"properties":{"city":"Tampa","geo_score":0.857,"id":"a6ndffb04vkd","geo_precision":"city","state":"FL","revenue":1776},"type":"Feature","geometry":{"type":"Point","coordinates":[-82.458428,27.947522]}},{"properties":{"city":"Toledo","geo_score":0.857,"id":"a6ndff8dnaan","geo_precision":"city","state":"OH","revenue":120},"type":"Feature","geometry":{"type":"Point","coordinates":[-83.555212,41.663938]}},{"properties":{"city":"Tucson","geo_score":0.857,"id":"a6ndffdg433r","geo_precision":"city","state":"AZ","revenue":1864},"type":"Feature","geometry":{"type":"Point","coordinates":[-110.926479,32.221743]}},{"properties":{"city":"Elmsford","geo_score":0.857,"id":"a6ndffjw8k9n","geo_precision":"city","state":"NY","revenue":2340},"type":"Feature","geometry":{"type":"Point","coordinates":[-73.836784,41.058732]}},{"properties":{"city":"Worcester","geo_score":0.857,"id":"a6ndff99epfq","geo_precision":"city","state":"MA","revenue":2035},"type":"Feature","geometry":{"type":"Point","coordinates":[-71.802293,42.262593]}}],"is_temporal":false,"author":{"url":"","metadata":"","contact_name":"","contact_address":"","source":"","contact_phone":""},"source":"","pagination":{"sort":null,"start":0,"total":73,"limit":1000000},"state":"complete","tags":"","published":"2014-08-13T06:43:27-04:00","id":145694}