{"type":"FeatureCollection","data_type":"Dataset","url_type":null,"permissions":[{"permissions":{"download":true,"view":true},"group_id":"everyone"}],"classification":null,"title":"Washington Post: Best Bets: Best Beer Selection","count":10,"stream_id":14750,"contributor":{"url":"http://geocommons.com/users/6898","name":"Lauren"},"data_attributes":null,"calculation_params":null,"icon_link":null,"link":"http://geocommons.com/overlays/14750.json","extent":[-77.7161,38.8215,-76.989,39.1383],"geometry_types":["point"],"unique_name":null,"name":"Washington Post: Best Bets: Best Beer Selection","feature_count":10,"description":"Washington Post: Best Bets: Best Beer Selection","next_feature":null,"is_raster":false,"short_classification":"Y","stats":{"zip":{"max":22314.0,"mean":20255.6,"variance":524637.377777778,"stdev":724.318560978371,"min":20001.0,"median":20010.0},"latitude":{"max":39.138337,"mean":38.9247063,"variance":0.00654512441734444,"stdev":0.0809019432235372,"min":38.821455,"median":38.910067},"longitude":{"max":-76.988991,"mean":-77.1009018,"variance":0.0471343783390666,"stdev":0.217104533207086,"min":-77.71615,"median":-77.031799}},"features":[{"properties":{"name":"Bar Pilar","city":"Washington,","zip":20009.0,"latitude":38.914973,"longitude":-77.031799,"id":"a634w6okzl5a","address":"1833 14th St. NW","state":"DC"},"type":"Feature","geometry":{"type":"Point","coordinates":[-77.031799,38.914973]}},{"properties":{"name":"Birreria Paradiso","city":"Washington","zip":20037.0,"latitude":38.904949,"longitude":-77.065513,"id":"a634w6su3w77","address":"3282 M St. NW","state":"DC"},"type":"Feature","geometry":{"type":"Point","coordinates":[-77.065513,38.904949]}},{"properties":{"name":"Brasserie Beck","city":"Washington","zip":20005.0,"latitude":38.9026,"longitude":-77.027124,"id":"a634w6f8r47u","address":"1101 K St NW","state":"DC"},"type":"Feature","geometry":{"type":"Point","coordinates":[-77.027124,38.9026]}},{"properties":{"name":"Granville Moore's","city":"Washington","zip":20002.0,"latitude":38.90031,"longitude":-76.988991,"id":"a634w6hdzqyn","address":"1238 H St. NE","state":"DC"},"type":"Feature","geometry":{"type":"Point","coordinates":[-76.988991,38.90031]}},{"properties":{"name":"Magnolias at the Mill","city":"Purcellville","zip":20132.0,"latitude":39.138337,"longitude":-77.71615,"id":"a634w6s1a9u8","address":"198 North 21st St.","state":"VA"},"type":"Feature","geometry":{"type":"Point","coordinates":[-77.71615,39.138337]}},{"properties":{"name":"R.F.D. Washington","city":"Washington","zip":20001.0,"latitude":38.900008,"longitude":-77.022078,"id":"a634w6oj39ry","address":"810 Seventh St. NW","state":"DC"},"type":"Feature","geometry":{"type":"Point","coordinates":[-77.022078,38.900008]}},{"properties":{"name":"Rustico","city":"Alexandria,","zip":22314.0,"latitude":38.821455,"longitude":-77.047436,"id":"a634w6jlqx0n","address":"827 Slaters Ln.","state":"VA"},"type":"Feature","geometry":{"type":"Point","coordinates":[-77.047436,38.821455]}},{"properties":{"name":"The Brickskeller Saloon","city":"Washington,","zip":20037.0,"latitude":38.910067,"longitude":-77.048612,"id":"a634w6rrrkr5","address":"1523 22nd St. NW","state":"DC"},"type":"Feature","geometry":{"type":"Point","coordinates":[-77.048612,38.910067]}},{"properties":{"name":"The Red Derby","city":"Washington,","zip":20010.0,"latitude":38.937224,"longitude":-77.032868,"id":"a634w6p7hbz9","address":"3718 14th St. NW","state":"DC"},"type":"Feature","geometry":{"type":"Point","coordinates":[-77.032868,38.937224]}},{"properties":{"name":"The Saloon","city":"Washington,","zip":20009.0,"latitude":38.91714,"longitude":-77.028447,"id":"a634w6i9ftvj","address":"1207 U St. NW","state":"DC"},"type":"Feature","geometry":{"type":"Point","coordinates":[-77.028447,38.91714]}}],"is_temporal":false,"author":{"url":"http://www.washingtonpost.com/gog/best-bets/best-bets-dc-lists.html","metadata":"http://www.washingtonpost.com/gog/best-bets/best-bets-dc-lists.html","contact_name":"","contact_address":"","source":"The Washington Post","contact_phone":""},"source":"http://www.washingtonpost.com/gog/best-bets/best-bets-dc-lists.html","pagination":{"sort":null,"start":0,"total":10,"limit":1000000},"state":"complete","tags":"beer,best,booze,dc,drinks,post,washington","published":"2009-01-01T12:00:00Z","id":14750}