{"type":"FeatureCollection","data_type":"Dataset","url_type":null,"permissions":[{"permissions":{"download":true,"view":true},"group_id":"everyone"}],"classification":null,"title":"Washington Post: Best Bets: Best July - September Events","count":15,"stream_id":14765,"contributor":{"url":"http://geocommons.com/users/6898","name":"Lauren"},"data_attributes":null,"calculation_params":null,"icon_link":null,"link":"http://geocommons.com/overlays/14765.json","extent":[-77.6075,37.9001,-75.3595,39.1327],"geometry_types":["point"],"unique_name":null,"name":"Washington Post: Best Bets: Best July - September Events","feature_count":15,"description":"Washington Post: Best Bets: Best July - September 2009 Events","next_feature":null,"is_raster":false,"short_classification":"Y","stats":{"zip":{"max":23336.0,"mean":20863.0666666667,"variance":1000766.78095238,"stdev":1000.38331701023,"min":20003.0,"median":20560.0},"latitude":{"max":39.132704,"mean":38.8834550666667,"variance":0.0782360761244949,"stdev":0.279707125623383,"min":37.90012,"median":38.939501},"longitude":{"max":-75.359459,"mean":-76.9843538,"variance":0.250659325509743,"stdev":0.500658891371903,"min":-77.60749,"median":-77.039505}},"features":[{"properties":{"city":"Washington","zip":20008.0,"latitude":38.913927,"event":"A Lady Found a Culture in Its Cloth: Barack Obama's Mother and Indonesian Batiks","times/dates":"Aug. 9-23:\r10 a.m. to 4 p.m. Tuesday-Saturday\r1 to 5 p.m. Sunday","longitude":-77.051125,"id":"a62yodfz3qph","address":"2320 S St. NW","state":"DC"},"type":"Feature","geometry":{"type":"Point","coordinates":[-77.051125,38.913927]}},{"properties":{"city":"Chincoteague","zip":23336.0,"latitude":37.90012,"event":"Chincoteague Wild Pony Swim","times/dates":"Wednesday, July 29","longitude":-75.359459,"id":"a62yod9er7yv","address":"8231 Beach Rd","state":"VA"},"type":"Feature","geometry":{"type":"Point","coordinates":[-75.359459,37.90012]}},{"properties":{"city":"North Bethesday","zip":20852.0,"latitude":39.031027,"event":"Comcast Outdoor Film Festival","times/dates":"8:15 p.m. Friday-Friday, Aug. 14-21","longitude":-77.105034,"id":"a62yod5j67sm","address":"10701 Rockville Pike","state":"MD"},"type":"Feature","geometry":{"type":"Point","coordinates":[-77.105034,39.031027]}},{"properties":{"city":"Vienna","zip":22182.0,"latitude":38.939501,"event":"International Children's Festival at Wolf Trap","times/dates":"10 a.m.-4 p.m. Saturday-Sunday, Sept. 19-20","longitude":-77.267127,"id":"a62yodcp459b","address":"1551 Trap Rd.","state":"VA"},"type":"Feature","geometry":{"type":"Point","coordinates":[-77.267127,38.939501]}},{"properties":{"city":"Washington","zip":20566.0,"latitude":38.897313,"event":"Kennedy Center Open House Arts Festival","times/dates":"Noon-6 p.m. Saturday, Sept. 12","longitude":-77.054903,"id":"a62yod7lxzr7","address":"2700 F St. NW","state":"DC"},"type":"Feature","geometry":{"type":"Point","coordinates":[-77.054903,38.897313]}},{"properties":{"city":"Leesburg","zip":20175.0,"latitude":39.132704,"event":"Loudoun County Fair","times/dates":"4-8 p.m. Sunday, July 26\r9 a.m.-8 p.m. Monday-Wednesday, July 27-29\r8:30 a.m.-8 p.m. Thursday, July 30\r8:30-10 p.m. Friday, July 31\r8:30 a.m.-8 p.m. Saturday, Aug. 1","longitude":-77.60749,"id":"a62yode9gpy9","address":"17564 Dry Mill Rd.","state":"VA"},"type":"Feature","geometry":{"type":"Point","coordinates":[-77.60749,39.132704]}},{"properties":{"city":"Annapolis","zip":21401.0,"latitude":38.996313,"event":"Maryland Renaissance Festival","times/dates":"Aug. 29-Oct. 25:\r10 a.m.-7 p.m. Saturday-Sunday","longitude":-76.586773,"id":"a62yodc4usfp","address":"1821 Crownsville Rd.","state":"MD"},"type":"Feature","geometry":{"type":"Point","coordinates":[-76.586773,38.996313]}},{"properties":{"city":"Washington","zip":20011.0,"latitude":38.95248,"event":"Metro DC Dances","times/dates":"7:30 p.m. Saturday, Aug. 15","longitude":-77.036439,"id":"a62yod8i30k6","address":"16th Street and Colorado Avenue NW","state":"DC"},"type":"Feature","geometry":{"type":"Point","coordinates":[-77.036439,38.95248]}},{"properties":{"city":"Washington","zip":20560.0,"latitude":38.887397,"event":"Moving Perspectives: Shahzia Sikander and Sun Xun","times/dates":"July 18-Nov. 8:\r10 a.m.-5:30 p.m. dail","longitude":-77.02657,"id":"a62yodcceowk","address":"1050 Independence Ave. SW","state":"DC"},"type":"Feature","geometry":{"type":"Point","coordinates":[-77.02657,38.887397]}},{"properties":{"city":"Washington","zip":20003.0,"latitude":38.889245,"event":"Renwick Craft Invitational 2009","times/dates":"Aug. 7-Jan. 3:\r10 a.m.-5:30 p.m. Monday-Sunday Closed January 20, 2009 Closed December 25","longitude":-76.980774,"id":"a62yodatkreo","address":"17th Street and Pennsylvania Avenue NW","state":"DC"},"type":"Feature","geometry":{"type":"Point","coordinates":[-76.980774,38.889245]}},{"properties":{"city":"Reston","zip":20194.0,"latitude":38.970782,"event":"Reston Asian Festival","times/dates":"10 a.m.-10 p.m. Saturday, Aug. 1\r11 a.m.-6 p.m. Sunday, Aug. 2","longitude":-77.342801,"id":"a62yodgvcnaq","address":"11452 Baron Cameron Ave.","state":"VA"},"type":"Feature","geometry":{"type":"Point","coordinates":[-77.342801,38.970782]}},{"properties":{"city":"Washington","zip":20006.0,"latitude":38.8963,"event":"Sargent and the Sea","times/dates":"Sept. 12-Jan. 3:\r10 a.m.-5 p.m. Wednesday, Friday-Sunday\r10 a.m.-9 p.m. Thursday","longitude":-77.039505,"id":"a62yodfxkb0o","address":"500 17th St. NW","state":"DC"},"type":"Feature","geometry":{"type":"Point","coordinates":[-77.039505,38.8963]}},{"properties":{"city":"Washington","zip":20560.0,"latitude":38.91985,"event":"Since Darwin: The Evolution of Evolution","times/dates":"Sept. 12-July 18:\r10 a.m.-5:30 p.m. daily","longitude":-77.025984,"id":"a62yodabxbl4","address":"10th Street and Constitution Avenue NW","state":"DC"},"type":"Feature","geometry":{"type":"Point","coordinates":[-77.025984,38.91985]}},{"properties":{"city":"Silver Spring","zip":20910.0,"latitude":38.985366,"event":"Takoma Park Folk Festival","times/dates":"11 a.m.-6:30 p.m. Sunday, Sept. 13","longitude":-77.014196,"id":"a62yodjfxps9","address":"7611 Piney Branch Road","state":"MD"},"type":"Feature","geometry":{"type":"Point","coordinates":[-77.014196,38.985366]}},{"properties":{"city":"Vienna","zip":22182.0,"latitude":38.939501,"event":"The Lord of the Rings -- The Two Towers","times/dates":"7:30 p.m. Friday-Saturday, Aug. 28-29","longitude":-77.267127,"id":"a62yodhs4562","address":"1551 Trap Rd","state":"VA"},"type":"Feature","geometry":{"type":"Point","coordinates":[-77.267127,38.939501]}}],"is_temporal":false,"author":{"url":"http://www.washingtonpost.com/gog/best-bets/best-bets-dc-lists.html","metadata":"http://www.washingtonpost.com/gog/best-bets/best-bets-dc-lists.html","contact_name":"","contact_address":"","source":"The Washington Post","contact_phone":""},"source":"http://www.washingtonpost.com/gog/best-bets/best-bets-dc-lists.html","pagination":{"sort":null,"start":0,"total":15,"limit":1000000},"state":"complete","tags":"2009,august,best,dc,events,july,post,september,washington","published":"2009-01-01T12:00:00Z","id":14765}