{"type":"FeatureCollection","data_type":"Dataset","url_type":null,"permissions":[{"permissions":{"download":true,"view":true},"group_id":"everyone"}],"classification":null,"title":"JROTC target list 2009","count":721,"stream_id":14781,"contributor":{"url":"http://geocommons.com/users/4320","name":"kfisher"},"data_attributes":null,"calculation_params":null,"icon_link":null,"link":"http://geocommons.com/overlays/14781.json","extent":[-158.082,13.517,144.836,71.2901],"geometry_types":["point"],"unique_name":null,"name":"JROTC target list 2009","feature_count":721,"description":"Schools on the &quot;waiting list&quot; for new Junior Reserve Officer Training Corps (JROTC) programs.","next_feature":null,"is_raster":false,"short_classification":"Y","stats":{"BG_LONG":{"max":144.835999,"mean":-89.3874114368931,"variance":261.933334911425,"stdev":16.1843546337636,"min":-158.081904,"median":-84.841532},"BG_LAT":{"max":71.290082,"mean":35.0271881012483,"variance":23.3550752334534,"stdev":4.83270889185903,"min":13.517,"median":34.965435}},"features":[{"properties":{"CITY":"ABBEVILLE","ZIP":"","BRANCH":"Army","BG_LONG":-82.373947,"STATE":"SC","id":"a622jycmh0g1","SCHOOL":"ABBEVIlLE HIGH SCHOOL","BG_LAT":34.18433},"type":"Feature","geometry":{"type":"Point","coordinates":[-82.373947,34.18433]}},{"properties":{"CITY":"HOUSTON","ZIP":"","BRANCH":"Army","BG_LONG":-95.369781,"STATE":"TX","id":"a622jy5f0cxg","SCHOOL":"ACCELERATED LEARNING &amp; TRANSITION ACADEM","BG_LAT":29.76045},"type":"Feature","geometry":{"type":"Point","coordinates":[-95.369781,29.76045]}},{"properties":{"CITY":"PALOS HEIGHTS","ZIP":"","BRANCH":"Army","BG_LONG":-87.807544,"STATE":"IL","id":"a622jy3xyotj","SCHOOL":"ALAN B SHEPARD HIGH SCHOOL","BG_LAT":41.6751},"type":"Feature","geometry":{"type":"Point","coordinates":[-87.807544,41.6751]}},{"properties":{"CITY":"SCOTTSVILLE","ZIP":"","BRANCH":"Army","BG_LONG":-86.209124,"STATE":"KY","id":"a622jxyks97m","SCHOOL":"ALLEN CNTY SCOTTSVILLE HS","BG_LAT":36.94354},"type":"Feature","geometry":{"type":"Point","coordinates":[-86.209124,36.94354]}},{"properties":{"CITY":"SMYRNA","ZIP":"","BRANCH":"Army","BG_LONG":-86.512133,"STATE":"TN","id":"a622jy0fxy2v","SCHOOL":"ALMAVILLE HIGH SCHOOL","BG_LAT":35.974664},"type":"Feature","geometry":{"type":"Point","coordinates":[-86.512133,35.974664]}},{"properties":{"CITY":"HOLIDAY","ZIP":"","BRANCH":"Army","BG_LONG":-82.78345,"STATE":"FL","id":"a622jy30ggoi","SCHOOL":"ANCLOTE HS","BG_LAT":28.172879},"type":"Feature","geometry":{"type":"Point","coordinates":[-82.78345,28.172879]}},{"properties":{"CITY":"WINDER","ZIP":"","BRANCH":"Army","BG_LONG":-83.722489,"STATE":"GA","id":"a622jy88ps2c","SCHOOL":"APALACHEE HIGH SCHOOL","BG_LAT":33.99121},"type":"Feature","geometry":{"type":"Point","coordinates":[-83.722489,33.99121]}},{"properties":{"CITY":"CHATTANOOGA","ZIP":"","BRANCH":"Army","BG_LONG":-85.098931,"STATE":"TN","id":"a622jyacqp1g","SCHOOL":"APISON (HAMILTON COUNTY)","BG_LAT":35.069101},"type":"Feature","geometry":{"type":"Point","coordinates":[-85.098931,35.069101]}},{"properties":{"CITY":"ODESSA","ZIP":"","BRANCH":"Army","BG_LONG":-75.659999,"STATE":"DE","id":"a622jy3soent","SCHOOL":"APPOQUINIMINK HS","BG_LAT":39.45609},"type":"Feature","geometry":{"type":"Point","coordinates":[-75.659999,39.45609]}},{"properties":{"CITY":"CHARLOTTE","ZIP":"","BRANCH":"Army","BG_LONG":-80.831906,"STATE":"NC","id":"a622jxzkruph","SCHOOL":"ARDREY KELL HIGH SCHOOL","BG_LAT":35.167922},"type":"Feature","geometry":{"type":"Point","coordinates":[-80.831906,35.167922]}},{"properties":{"CITY":"Galloway","ZIP":"","BRANCH":"Marines","BG_LONG":-74.509956,"STATE":"NJ","id":"a622jy6sw427","SCHOOL":"Absegami High School","BG_LAT":39.480671},"type":"Feature","geometry":{"type":"Point","coordinates":[-74.509956,39.480671]}},{"properties":{"CITY":"Albemarle","ZIP":"28001","BRANCH":"Air Force","BG_LONG":-80.19342,"STATE":"NC","id":"a622jy36jzsk","SCHOOL":"Albemarle High School","BG_LAT":35.370171},"type":"Feature","geometry":{"type":"Point","coordinates":[-80.19342,35.370171]}},{"properties":{"CITY":"Wilmington","ZIP":"19807","BRANCH":"Air Force","BG_LONG":-75.611498,"STATE":"DE","id":"a622jybfof0i","SCHOOL":"Alexis I. duPont High School","BG_LAT":39.804285},"type":"Feature","geometry":{"type":"Point","coordinates":[-75.611498,39.804285]}},{"properties":{"CITY":"Bronx","ZIP":"","BRANCH":"Marines","BG_LONG":-73.923249,"STATE":"NY","id":"a622jye6s03m","SCHOOL":"Alfred B Smith High School","BG_LAT":40.825745},"type":"Feature","geometry":{"type":"Point","coordinates":[-73.923249,40.825745]}},{"properties":{"CITY":"Marietta","ZIP":"30060","BRANCH":"Air Force","BG_LONG":-84.545879,"STATE":"GA","id":"a622jy85nvza","SCHOOL":"Allatoona High School","BG_LAT":33.953195},"type":"Feature","geometry":{"type":"Point","coordinates":[-84.545879,33.953195]}},{"properties":{"CITY":"Parish","ZIP":"","BRANCH":"Marines","BG_LONG":-76.126182,"STATE":"NY","id":"a622jxzb9o37","SCHOOL":"Altmar Parish Williamston High School","BG_LAT":43.406514},"type":"Feature","geometry":{"type":"Point","coordinates":[-76.126182,43.406514]}},{"properties":{"CITY":"Lawrenceburg","ZIP":"40342","BRANCH":"Air Force","BG_LONG":-84.895834,"STATE":"KY","id":"a622jy9cj1z6","SCHOOL":"Anderson County High School","BG_LAT":38.037185},"type":"Feature","geometry":{"type":"Point","coordinates":[-84.895834,38.037185]}},{"properties":{"CITY":"Austin","ZIP":"78739","BRANCH":"Navy","BG_LONG":-97.753464,"STATE":"TX","id":"a622jxyjo17p","SCHOOL":"Anderson High School","BG_LAT":30.377501},"type":"Feature","geometry":{"type":"Point","coordinates":[-97.753464,30.377501]}},{"properties":{"CITY":"Anderson","ZIP":"46011","BRANCH":"Air Force","BG_LONG":-85.738679,"STATE":"IN","id":"a622jy98k0ts","SCHOOL":"Anderson Preparatory Academy","BG_LAT":40.10155},"type":"Feature","geometry":{"type":"Point","coordinates":[-85.738679,40.10155]}},{"properties":{"CITY":"Middletown","ZIP":"19709","BRANCH":"Navy","BG_LONG":-75.716774,"STATE":"DE","id":"a622jxy8x91c","SCHOOL":"Appoquinimink High School","BG_LAT":39.45003},"type":"Feature","geometry":{"type":"Point","coordinates":[-75.716774,39.45003]}},{"properties":{"CITY":"Meraux","ZIP":"","BRANCH":"Marines","BG_LONG":-89.923218,"STATE":"LA","id":"a622jy6ptoa1","SCHOOL":"Archbishop Hannan High School","BG_LAT":29.934151},"type":"Feature","geometry":{"type":"Point","coordinates":[-89.923218,29.934151]}},{"properties":{"CITY":"Arlington","ZIP":"38002","BRANCH":"Navy","BG_LONG":-89.674309,"STATE":"TN","id":"a622jya4ey5i","SCHOOL":"Arlington High School","BG_LAT":35.291145},"type":"Feature","geometry":{"type":"Point","coordinates":[-89.674309,35.291145]}},{"properties":{"CITY":"Asbury Park","ZIP":"07712","BRANCH":"Navy","BG_LONG":-74.012917,"STATE":"NJ","id":"a622jyah4jk0","SCHOOL":"Asbury Park","BG_LAT":40.227638},"type":"Feature","geometry":{"type":"Point","coordinates":[-74.012917,40.227638]}},{"properties":{"CITY":"Ashtabula","ZIP":"44004","BRANCH":"Navy","BG_LONG":-80.786736,"STATE":"OH","id":"a622jxya22ko","SCHOOL":"Ashtabula Lakeside High School","BG_LAT":41.889273},"type":"Feature","geometry":{"type":"Point","coordinates":[-80.786736,41.889273]}},{"properties":{"CITY":"Albuquerque","ZIP":"","BRANCH":"Marines","BG_LONG":-106.648639,"STATE":"NM","id":"a622jyanxld6","SCHOOL":"Atrisco Heritage Academy High School","BG_LAT":35.08418},"type":"Feature","geometry":{"type":"Point","coordinates":[-106.648639,35.08418]}},{"properties":{"CITY":"Avon","ZIP":"44011","BRANCH":"Navy","BG_LONG":-82.04023,"STATE":"OH","id":"a622jy2bn1e2","SCHOOL":"Avon","BG_LAT":41.447609},"type":"Feature","geometry":{"type":"Point","coordinates":[-82.04023,41.447609]}},{"properties":{"CITY":"Rosenberg","ZIP":"77471","BRANCH":"Air Force","BG_LONG":-95.805384,"STATE":"TX","id":"a622jydjqmu7","SCHOOL":"B.F Terry High School","BG_LAT":29.54771},"type":"Feature","geometry":{"type":"Point","coordinates":[-95.805384,29.54771]}},{"properties":{"CITY":"HOMER","ZIP":"","BRANCH":"Army","BG_LONG":-83.495193,"STATE":"GA","id":"a622jy2zd56y","SCHOOL":"BANKS COUNTY HIGH SCHOOL","BG_LAT":34.307362},"type":"Feature","geometry":{"type":"Point","coordinates":[-83.495193,34.307362]}},{"properties":{"CITY":"MONT BELVIEU","ZIP":"","BRANCH":"Army","BG_LONG":-94.93231,"STATE":"TX","id":"a622jy43gtmw","SCHOOL":"BARBERS HILL HS","BG_LAT":29.852091},"type":"Feature","geometry":{"type":"Point","coordinates":[-94.93231,29.852091]}},{"properties":{"CITY":"GLASGLOW","ZIP":"","BRANCH":"Army","BG_LONG":-85.957787,"STATE":"KY","id":"a622jy852qbf","SCHOOL":"BARREN COUNTY HIGH SCHOOL","BG_LAT":36.94635},"type":"Feature","geometry":{"type":"Point","coordinates":[-85.957787,36.94635]}},{"properties":{"CITY":"BARROW","ZIP":"","BRANCH":"Army","BG_LONG":-156.788799,"STATE":"AK","id":"a622jy0tjy1s","SCHOOL":"BARROW HIGH SCHOOL","BG_LAT":71.290082},"type":"Feature","geometry":{"type":"Point","coordinates":[-156.788799,71.290082]}},{"properties":{"CITY":"BELLEVILLE","ZIP":"","BRANCH":"Army","BG_LONG":-83.493568,"STATE":"MI","id":"a622jy80fv1z","SCHOOL":"BELLEVILLE HIGH SCHOOL","BG_LAT":42.20351},"type":"Feature","geometry":{"type":"Point","coordinates":[-83.493568,42.20351]}},{"properties":{"CITY":"RICHARDSON","ZIP":"","BRANCH":"Army","BG_LONG":-96.695152,"STATE":"TX","id":"a622jy5bwgwk","SCHOOL":"BERKNER HIGH SCHOOL","BG_LAT":32.93858},"type":"Feature","geometry":{"type":"Point","coordinates":[-96.695152,32.93858]}},{"properties":{"CITY":"PHOENIX","ZIP":"","BRANCH":"Army","BG_LONG":-112.075774,"STATE":"AZ","id":"a622jy6otblj","SCHOOL":"BETTY FAIRFAX HS","BG_LAT":33.44826},"type":"Feature","geometry":{"type":"Point","coordinates":[-112.075774,33.44826]}},{"properties":{"CITY":"IDAHO FALLS","ZIP":"","BRANCH":"Army","BG_LONG":-111.971313,"STATE":"ID","id":"a622jxzkzg0m","SCHOOL":"BONNEVILLE HIGH SCHOOL","BG_LAT":43.52581},"type":"Feature","geometry":{"type":"Point","coordinates":[-111.971313,43.52581]}},{"properties":{"CITY":"CLEVELAND","ZIP":"","BRANCH":"Army","BG_LONG":-84.875324,"STATE":"TN","id":"a622jy3me5ms","SCHOOL":"BRADLEY CENTRAL HS","BG_LAT":35.160185},"type":"Feature","geometry":{"type":"Point","coordinates":[-84.875324,35.160185]}},{"properties":{"CITY":"BRANCHVILLE","ZIP":"","BRANCH":"Army","BG_LONG":-80.816158,"STATE":"SC","id":"a622jybqwfjg","SCHOOL":"BRANCHVILLE HIGH SCHOOL","BG_LAT":33.250548},"type":"Feature","geometry":{"type":"Point","coordinates":[-80.816158,33.250548]}},{"properties":{"CITY":"SUTTON","ZIP":"","BRANCH":"Army","BG_LONG":-80.659072,"STATE":"WV","id":"a622jy6qakdl","SCHOOL":"BRAXTON COUNTY HIGH SCHOOL","BG_LAT":38.677319},"type":"Feature","geometry":{"type":"Point","coordinates":[-80.659072,38.677319]}},{"properties":{"CITY":"BREAUX BRIDGE","ZIP":"","BRANCH":"Army","BG_LONG":-91.89962,"STATE":"LA","id":"a622jy8qbk4s","SCHOOL":"BREAUX BRIDGE HIGH SCHOOL","BG_LAT":30.2733},"type":"Feature","geometry":{"type":"Point","coordinates":[-91.89962,30.2733]}},{"properties":{"CITY":"DEVILLE","ZIP":"","BRANCH":"Army","BG_LONG":-92.164959,"STATE":"LA","id":"a622jy01k5ef","SCHOOL":"BUCKEYE HS","BG_LAT":31.35962},"type":"Feature","geometry":{"type":"Point","coordinates":[-92.164959,31.35962]}},{"properties":{"CITY":"BUFFALO","ZIP":"","BRANCH":"Army","BG_LONG":-78.878441,"STATE":"NY","id":"a622jy55mm3k","SCHOOL":"BUFFALO ACADEMY FOR VISUAL &amp; PERFORMING","BG_LAT":42.885441},"type":"Feature","geometry":{"type":"Point","coordinates":[-78.878441,42.885441]}},{"properties":{"CITY":"Banning","ZIP":"92220","BRANCH":"Navy","BG_LONG":-116.878166,"STATE":"CA","id":"a622jy4i6nil","SCHOOL":"Banning High School","BG_LAT":33.918091},"type":"Feature","geometry":{"type":"Point","coordinates":[-116.878166,33.918091]}},{"properties":{"CITY":"Miami","ZIP":"","BRANCH":"Marines","BG_LONG":-80.344261,"STATE":"FL","id":"a622jy5l38vm","SCHOOL":"Barbara Goleman Senior High School","BG_LAT":25.902479},"type":"Feature","geometry":{"type":"Point","coordinates":[-80.344261,25.902479]}},{"properties":{"CITY":"Barnegat","ZIP":"08005","BRANCH":"Navy","BG_LONG":-74.411217,"STATE":"NJ","id":"a622jy16lkam","SCHOOL":"Barnegat Township","BG_LAT":39.812183},"type":"Feature","geometry":{"type":"Point","coordinates":[-74.411217,39.812183]}},{"properties":{"CITY":"Blackville","ZIP":"29817","BRANCH":"Air Force","BG_LONG":-81.2708,"STATE":"SC","id":"a622jy6i9ddf","SCHOOL":"Barnwell County Career Center","BG_LAT":33.354245},"type":"Feature","geometry":{"type":"Point","coordinates":[-81.2708,33.354245]}},{"properties":{"CITY":"Barrow","ZIP":"","BRANCH":"Marines","BG_LONG":-156.788799,"STATE":"AK","id":"a622jyamy4j7","SCHOOL":"Barrow High School","BG_LAT":71.290082},"type":"Feature","geometry":{"type":"Point","coordinates":[-156.788799,71.290082]}},{"properties":{"CITY":"Hendersonville","ZIP":"37075","BRANCH":"Air Force","BG_LONG":-86.602318,"STATE":"TN","id":"a622jy4wwx6s","SCHOOL":"Beech High School","BG_LAT":36.37027},"type":"Feature","geometry":{"type":"Point","coordinates":[-86.602318,36.37027]}},{"properties":{"CITY":"Belvidere","ZIP":"61008","BRANCH":"Navy","BG_LONG":-88.831963,"STATE":"IL","id":"a622jxydn3v7","SCHOOL":"Belvidere High School","BG_LAT":42.244709},"type":"Feature","geometry":{"type":"Point","coordinates":[-88.831963,42.244709]}},{"properties":{"CITY":"Benson","ZIP":"85602","BRANCH":"Air Force","BG_LONG":-110.297951,"STATE":"AZ","id":"a622jy2ws9pd","SCHOOL":"Benson High School","BG_LAT":31.965879},"type":"Feature","geometry":{"type":"Point","coordinates":[-110.297951,31.965879]}},{"properties":{"CITY":"Hernalilto","ZIP":"87004","BRANCH":"Air Force","BG_LONG":-106.549179,"STATE":"NM","id":"a622jy0yqj1j","SCHOOL":"Bernalillo High School","BG_LAT":35.304482},"type":"Feature","geometry":{"type":"Point","coordinates":[-106.549179,35.304482]}},{"properties":{"CITY":"Skipwith","ZIP":"23968","BRANCH":"Navy","BG_LONG":-78.483383,"STATE":"VA","id":"a622jy0gl1h8","SCHOOL":"Bluestone High School","BG_LAT":36.688987},"type":"Feature","geometry":{"type":"Point","coordinates":[-78.483383,36.688987]}},{"properties":{"CITY":"Skipwith","ZIP":"23968","BRANCH":"Air Force","BG_LONG":-78.483383,"STATE":"VA","id":"a622jy74y0vr","SCHOOL":"Bluestone High School","BG_LAT":36.688987},"type":"Feature","geometry":{"type":"Point","coordinates":[-78.483383,36.688987]}},{"properties":{"CITY":"Bolivar","ZIP":"","BRANCH":"Marines","BG_LONG":-93.365471,"STATE":"MN","id":"a622jy6iggt6","SCHOOL":"Bolivar High School","BG_LAT":46.441929},"type":"Feature","geometry":{"type":"Point","coordinates":[-93.365471,46.441929]}},{"properties":{"CITY":"Paris","ZIP":"40361","BRANCH":"Navy","BG_LONG":-84.252659,"STATE":"KY","id":"a622jxyw4xul","SCHOOL":"Bourbon County High School","BG_LAT":38.209735},"type":"Feature","geometry":{"type":"Point","coordinates":[-84.252659,38.209735]}},{"properties":{"CITY":"Prescott Valloy","ZIP":"86314","BRANCH":"Air Force","BG_LONG":-112.343071,"STATE":"M .","id":"a622jy9xdpf5","SCHOOL":"Bradshaw Mountain High School","BG_LAT":34.600208},"type":"Feature","geometry":{"type":"Point","coordinates":[-112.343071,34.600208]}},{"properties":{"CITY":"Brea","ZIP":"92821","BRANCH":"Air Force","BG_LONG":-117.874481,"STATE":"CA","id":"a622jya3t86f","SCHOOL":"Brea Olinda High School","BG_LAT":33.930279},"type":"Feature","geometry":{"type":"Point","coordinates":[-117.874481,33.930279]}},{"properties":{"CITY":"San Antonio","ZIP":"78253","BRANCH":"Air Force","BG_LONG":-98.738099,"STATE":"TX","id":"a622jyaq0jlz","SCHOOL":"Brennan High School","BG_LAT":29.46567},"type":"Feature","geometry":{"type":"Point","coordinates":[-98.738099,29.46567]}},{"properties":{"CITY":"San Antonio","ZIP":"78253","BRANCH":"Navy","BG_LONG":-98.738099,"STATE":"TX","id":"a622jxzzh0y4","SCHOOL":"Brennan High School","BG_LAT":29.46567},"type":"Feature","geometry":{"type":"Point","coordinates":[-98.738099,29.46567]}},{"properties":{"CITY":"Brighton","ZIP":"38011","BRANCH":"Navy","BG_LONG":-89.745003,"STATE":"TN","id":"a622jy1q173f","SCHOOL":"Brighton  High School","BG_LAT":35.47662},"type":"Feature","geometry":{"type":"Point","coordinates":[-89.745003,35.47662]}},{"properties":{"CITY":"Buckhannon","ZIP":"","BRANCH":"Marines","BG_LONG":-80.24346,"STATE":"WV","id":"a622jxzw0dlu","SCHOOL":"Buckhannon-Upshur High School","BG_LAT":38.951522},"type":"Feature","geometry":{"type":"Point","coordinates":[-80.24346,38.951522]}},{"properties":{"CITY":"Mt Washington","ZIP":"40047","BRANCH":"Navy","BG_LONG":-85.536264,"STATE":"KY","id":"a622jyb3jdtk","SCHOOL":"Bullitt East High School","BG_LAT":38.042271},"type":"Feature","geometry":{"type":"Point","coordinates":[-85.536264,38.042271]}},{"properties":{"CITY":"Eagle Pass","ZIP":"78852","BRANCH":"Air Force","BG_LONG":-100.462203,"STATE":"TX","id":"a622jyee2igs","SCHOOL":"C. C. Winn High School","BG_LAT":28.687199},"type":"Feature","geometry":{"type":"Point","coordinates":[-100.462203,28.687199]}},{"properties":{"CITY":"EDISON","ZIP":"","BRANCH":"Army","BG_LONG":-84.738724,"STATE":"GA","id":"a622jy7yapmj","SCHOOL":"CALHOUN CO MIDDLE/HIGH SCHOOL","BG_LAT":31.558259},"type":"Feature","geometry":{"type":"Point","coordinates":[-84.738724,31.558259]}},{"properties":{"CITY":"WOODBURY","ZIP":"","BRANCH":"Army","BG_LONG":-86.059753,"STATE":"TN","id":"a622jy9z0ovs","SCHOOL":"CANNON COUNTY HIGH SCHOOL","BG_LAT":35.82267},"type":"Feature","geometry":{"type":"Point","coordinates":[-86.059753,35.82267]}},{"properties":{"CITY":"FISCHER","ZIP":"","BRANCH":"Army","BG_LONG":-98.264751,"STATE":"TX","id":"a622jxz140ed","SCHOOL":"CANYON LAKE HIGH SCHOOL","BG_LAT":29.975865},"type":"Feature","geometry":{"type":"Point","coordinates":[-98.264751,29.975865]}},{"properties":{"CITY":"SANTA FE","ZIP":"","BRANCH":"Army","BG_LONG":-106.040154,"STATE":"NM","id":"a622jyat0bwk","SCHOOL":"CAPITAL HIGH SCHOOL","BG_LAT":35.621811},"type":"Feature","geometry":{"type":"Point","coordinates":[-106.040154,35.621811]}},{"properties":{"CITY":"BATON ROUGE","ZIP":"","BRANCH":"Army","BG_LONG":-91.186874,"STATE":"LA","id":"a622jyb6rukm","SCHOOL":"CAPITOL HIGH ACADEMY","BG_LAT":30.44342},"type":"Feature","geometry":{"type":"Point","coordinates":[-91.186874,30.44342]}},{"properties":{"CITY":"CARBON HILL","ZIP":"","BRANCH":"Army","BG_LONG":-87.528889,"STATE":"AL","id":"a622jydrj5in","SCHOOL":"CARBON HILL HIGH SCHOOL","BG_LAT":33.88848},"type":"Feature","geometry":{"type":"Point","coordinates":[-87.528889,33.88848]}},{"properties":{"CITY":"CARVILLE","ZIP":"","BRANCH":"Army","BG_LONG":-91.095074,"STATE":"LA","id":"a622jyc60id9","SCHOOL":"CARVILLE JOB CORPS","BG_LAT":30.214355},"type":"Feature","geometry":{"type":"Point","coordinates":[-91.095074,30.214355]}},{"properties":{"CITY":"HILLSBOROUGH","ZIP":"","BRANCH":"Army","BG_LONG":-79.090219,"STATE":"NC","id":"a622jy8d4qil","SCHOOL":"CEDAR RIDGE HIGH SCHOOL","BG_LAT":36.095475},"type":"Feature","geometry":{"type":"Point","coordinates":[-79.090219,36.095475]}},{"properties":{"CITY":"CELINA","ZIP":"","BRANCH":"Army","BG_LONG":-96.786599,"STATE":"TX","id":"a622jy3u6upp","SCHOOL":"CELINA HIGH SCHOOL","BG_LAT":33.324015},"type":"Feature","geometry":{"type":"Point","coordinates":[-96.786599,33.324015]}},{"properties":{"CITY":"VICTORIA","ZIP":"","BRANCH":"Army","BG_LONG":-78.227047,"STATE":"VA","id":"a622jy4fnigr","SCHOOL":"CENTRAL HIGH SCHOOL","BG_LAT":36.994477},"type":"Feature","geometry":{"type":"Point","coordinates":[-78.227047,36.994477]}},{"properties":{"CITY":"CERES","ZIP":"","BRANCH":"Army","BG_LONG":-120.956299,"STATE":"CA","id":"a622jy54fv9i","SCHOOL":"CENTRAL VALLEY HS","BG_LAT":37.59476},"type":"Feature","geometry":{"type":"Point","coordinates":[-120.956299,37.59476]}},{"properties":{"CITY":"YORK","ZIP":"","BRANCH":"Army","BG_LONG":-76.724289,"STATE":"PA","id":"a622jy7sya0y","SCHOOL":"CENTRAL YORK HS","BG_LAT":39.964535},"type":"Feature","geometry":{"type":"Point","coordinates":[-76.724289,39.964535]}},{"properties":{"CITY":"FREDERICKSBURG","ZIP":"","BRANCH":"Army","BG_LONG":-77.459144,"STATE":"VA","id":"a622jy3cm7cs","SCHOOL":"CHANCELLOR HIGH SCHOOL","BG_LAT":38.30089},"type":"Feature","geometry":{"type":"Point","coordinates":[-77.459144,38.30089]}},{"properties":{"CITY":"DOUGLASVILLE","ZIP":"","BRANCH":"Army","BG_LONG":-84.749124,"STATE":"GA","id":"a622jxz136b9","SCHOOL":"CHAPEL HILL HIGH SCHOOL","BG_LAT":33.75018},"type":"Feature","geometry":{"type":"Point","coordinates":[-84.749124,33.75018]}},{"properties":{"CITY":"CHELSEA","ZIP":"","BRANCH":"Army","BG_LONG":-71.040863,"STATE":"MA","id":"a622jybg2wdk","SCHOOL":"CHELSEA HIGH SCHOOL","BG_LAT":42.39949},"type":"Feature","geometry":{"type":"Point","coordinates":[-71.040863,42.39949]}},{"properties":{"CITY":"CHESNEE","ZIP":"","BRANCH":"Army","BG_LONG":-81.86491,"STATE":"SC","id":"a622jxzs85pz","SCHOOL":"CHESNEE HS","BG_LAT":35.126986},"type":"Feature","geometry":{"type":"Point","coordinates":[-81.86491,35.126986]}},{"properties":{"CITY":"N LAS VEGAS","ZIP":"","BRANCH":"Army","BG_LONG":-115.104789,"STATE":"NV","id":"a622jy1s0srq","SCHOOL":"CHEYENNE HS","BG_LAT":36.21765},"type":"Feature","geometry":{"type":"Point","coordinates":[-115.104789,36.21765]}},{"properties":{"CITY":"EAGLE BUTTE","ZIP":"","BRANCH":"Army","BG_LONG":-101.234769,"STATE":"SD","id":"a622jyb98bq8","SCHOOL":"CHEYENNE-EAGLE BUTTE HS","BG_LAT":45.00038},"type":"Feature","geometry":{"type":"Point","coordinates":[-101.234769,45.00038]}},{"properties":{"CITY":"BOOTHWYN","ZIP":"","BRANCH":"Army","BG_LONG":-75.440899,"STATE":"PA","id":"a622jy2c6qhm","SCHOOL":"CHICHESTER HIGH SCHOOL","BG_LAT":39.82977},"type":"Feature","geometry":{"type":"Point","coordinates":[-75.440899,39.82977]}},{"properties":{"CITY":"CHOCTAW","ZIP":"","BRANCH":"Army","BG_LONG":-89.223785,"STATE":"MS","id":"a622jyd2qx6n","SCHOOL":"CHOCTAW HIGH SCHOOL","BG_LAT":32.781078},"type":"Feature","geometry":{"type":"Point","coordinates":[-89.223785,32.781078]}},{"properties":{"CITY":"NEW TAZEWELL","ZIP":"","BRANCH":"Army","BG_LONG":-83.599078,"STATE":"TN","id":"a622jxyk26da","SCHOOL":"CLAIRBORNE HIGH SCHOOL","BG_LAT":36.442989},"type":"Feature","geometry":{"type":"Point","coordinates":[-83.599078,36.442989]}},{"properties":{"CITY":"CLARKSDALE","ZIP":"","BRANCH":"Army","BG_LONG":-90.606659,"STATE":"MS","id":"a622jy6qdjt7","SCHOOL":"CLARKSDALE HIGH SCHOOL","BG_LAT":34.201859},"type":"Feature","geometry":{"type":"Point","coordinates":[-90.606659,34.201859]}},{"properties":{"CITY":"MANCHESTER","ZIP":"","BRANCH":"Army","BG_LONG":-83.766232,"STATE":"KY","id":"a622jy9dme5a","SCHOOL":"CLAY COUNTY HIGH SCHOOL","BG_LAT":37.160347},"type":"Feature","geometry":{"type":"Point","coordinates":[-83.766232,37.160347]}},{"properties":{"CITY":"CLAYTON","ZIP":"","BRANCH":"Army","BG_LONG":-75.0858,"STATE":"NJ","id":"a622jybbi5ze","SCHOOL":"CLAYTON HIGH SCHOOL","BG_LAT":39.662781},"type":"Feature","geometry":{"type":"Point","coordinates":[-75.0858,39.662781]}},{"properties":{"CITY":"LEAUGE CITY","ZIP":"","BRANCH":"Army","BG_LONG":-98.059471,"STATE":"TX","id":"a622jxynj0er","SCHOOL":"CLEAR SPRINGS HIGH SCHOOL","BG_LAT":29.676069},"type":"Feature","geometry":{"type":"Point","coordinates":[-98.059471,29.676069]}},{"properties":{"CITY":"CLINTON","ZIP":"","BRANCH":"Army","BG_LONG":-78.330719,"STATE":"NC","id":"a622jydepqgz","SCHOOL":"CLINTON HIGH SCHOOL","BG_LAT":34.982262},"type":"Feature","geometry":{"type":"Point","coordinates":[-78.330719,34.982262]}},{"properties":{"CITY":"EL PASO","ZIP":"","BRANCH":"Army","BG_LONG":-106.547211,"STATE":"TX","id":"a622jy13x03y","SCHOOL":"CORONADO HIGH SCHOOL","BG_LAT":31.83534},"type":"Feature","geometry":{"type":"Point","coordinates":[-106.547211,31.83534]}},{"properties":{"CITY":"CROWLEY","ZIP":"","BRANCH":"Army","BG_LONG":-97.374329,"STATE":"TX","id":"a622jy66fqaj","SCHOOL":"CROWLEY HIGH SCHOOL","BG_LAT":32.57922},"type":"Feature","geometry":{"type":"Point","coordinates":[-97.374329,32.57922]}},{"properties":{"CITY":"CRYSTAL CITY","ZIP":"","BRANCH":"Army","BG_LONG":-99.828579,"STATE":"TX","id":"a622jy2rzr6u","SCHOOL":"CRYSTALL CITY HS","BG_LAT":28.678095},"type":"Feature","geometry":{"type":"Point","coordinates":[-99.828579,28.678095]}},{"properties":{"CITY":"CUMBERLAND","ZIP":"","BRANCH":"Army","BG_LONG":-87.632049,"STATE":"TN","id":"a622jy7z7kae","SCHOOL":"CUMBERLAND GAP HIGH SCHOOL","BG_LAT":36.393689},"type":"Feature","geometry":{"type":"Point","coordinates":[-87.632049,36.393689]}},{"properties":{"CITY":"WAXHAW","ZIP":"","BRANCH":"Army","BG_LONG":-80.741974,"STATE":"NC","id":"a622jxy5zi3q","SCHOOL":"CUTHBERTSON HS","BG_LAT":34.965435},"type":"Feature","geometry":{"type":"Point","coordinates":[-80.741974,34.965435]}},{"properties":{"CITY":"San Andreas","ZIP":"95249","BRANCH":"Air Force","BG_LONG":-120.684708,"STATE":"CA","id":"a622jy9n8iqc","SCHOOL":"Calaveras High School","BG_LAT":38.20116},"type":"Feature","geometry":{"type":"Point","coordinates":[-120.684708,38.20116]}},{"properties":{"CITY":"California City","ZIP":"93505","BRANCH":"Navy","BG_LONG":-117.985629,"STATE":"CA","id":"a622jy9upctt","SCHOOL":"California City High School","BG_LAT":35.12894},"type":"Feature","geometry":{"type":"Point","coordinates":[-117.985629,35.12894]}},{"properties":{"CITY":"Cambridge","ZIP":"21613","BRANCH":"Navy","BG_LONG":-76.078063,"STATE":"MD","id":"a622jy5w0h1x","SCHOOL":"Cambridge South Dorchester","BG_LAT":38.563122},"type":"Feature","geometry":{"type":"Point","coordinates":[-76.078063,38.563122]}},{"properties":{"CITY":"Sicklerville","ZIP":"08204","BRANCH":"Navy","BG_LONG":-74.93837,"STATE":"NJ","id":"a622jy7elthe","SCHOOL":"Camden County Technical","BG_LAT":39.80217},"type":"Feature","geometry":{"type":"Point","coordinates":[-74.93837,39.80217]}},{"properties":{"CITY":"Nashville","ZIP":"37013","BRANCH":"Air Force","BG_LONG":-86.671766,"STATE":"TN","id":"a622jyb07g0z","SCHOOL":"Cane Ridge High School","BG_LAT":36.059862},"type":"Feature","geometry":{"type":"Point","coordinates":[-86.671766,36.059862]}},{"properties":{"CITY":"Fischer","ZIP":"78623","BRANCH":"Air Force","BG_LONG":-98.264751,"STATE":"TX","id":"a622jy2uxpyd","SCHOOL":"Canyon Lake High School","BG_LAT":29.975865},"type":"Feature","geometry":{"type":"Point","coordinates":[-98.264751,29.975865]}},{"properties":{"CITY":"Queen Creek","ZIP":"85242","BRANCH":"Air Force","BG_LONG":-111.634519,"STATE":"AZ","id":"a622jy1xxk3z","SCHOOL":"Canyon State Academy","BG_LAT":33.244685},"type":"Feature","geometry":{"type":"Point","coordinates":[-111.634519,33.244685]}},{"properties":{"CITY":"Yuma","ZIP":"","BRANCH":"Marines","BG_LONG":-114.624611,"STATE":"AZ","id":"a622jy2clc5v","SCHOOL":"Carpe Diem Collegiate High School","BG_LAT":32.684849},"type":"Feature","geometry":{"type":"Point","coordinates":[-114.624611,32.684849]}},{"properties":{"CITY":"Huntingdon","ZIP":"38344","BRANCH":"Air Force","BG_LONG":-88.385468,"STATE":"TN","id":"a622jxy2ogf6","SCHOOL":"Carroll County Technical Center","BG_LAT":36.004189},"type":"Feature","geometry":{"type":"Point","coordinates":[-88.385468,36.004189]}},{"properties":{"CITY":"Cedar Park","ZIP":"","BRANCH":"Marines","BG_LONG":-97.831459,"STATE":"TX","id":"a622jxzze94x","SCHOOL":"Cedar Park High School","BG_LAT":30.483879},"type":"Feature","geometry":{"type":"Point","coordinates":[-97.831459,30.483879]}},{"properties":{"CITY":"Cedartown","ZIP":"30125","BRANCH":"Navy","BG_LONG":-85.222313,"STATE":"GA","id":"a622jy0jyqs0","SCHOOL":"Cedartown High School","BG_LAT":34.017448},"type":"Feature","geometry":{"type":"Point","coordinates":[-85.222313,34.017448]}},{"properties":{"CITY":"Corona","ZIP":"","BRANCH":"Marines","BG_LONG":-117.544693,"STATE":"CA","id":"a622jy9zkw9h","SCHOOL":"Centennial High School","BG_LAT":33.858219},"type":"Feature","geometry":{"type":"Point","coordinates":[-117.544693,33.858219]}},{"properties":{"CITY":"Valley Stream","ZIP":"11582","BRANCH":"Navy","BG_LONG":-73.708529,"STATE":"NY","id":"a622jybzugqo","SCHOOL":"Central High School","BG_LAT":40.66404},"type":"Feature","geometry":{"type":"Point","coordinates":[-73.708529,40.66404]}},{"properties":{"CITY":"Victoria","ZIP":"","BRANCH":"Marines","BG_LONG":-78.227047,"STATE":"VA","id":"a622jxyqyrqn","SCHOOL":"Central High School","BG_LAT":36.994477},"type":"Feature","geometry":{"type":"Point","coordinates":[-78.227047,36.994477]}},{"properties":{"CITY":"Victoria","ZIP":"23974","BRANCH":"Air Force","BG_LONG":-78.227047,"STATE":"VA","id":"a622jxzoja88","SCHOOL":"Central High School","BG_LAT":36.994477},"type":"Feature","geometry":{"type":"Point","coordinates":[-78.227047,36.994477]}},{"properties":{"CITY":"Victoria","ZIP":"23974","BRANCH":"Navy","BG_LONG":-78.227047,"STATE":"VA","id":"a622jybn9ar2","SCHOOL":"Central Lunnenburg Senior High School","BG_LAT":36.994477},"type":"Feature","geometry":{"type":"Point","coordinates":[-78.227047,36.994477]}},{"properties":{"CITY":"El Centro","ZIP":"92243","BRANCH":"Navy","BG_LONG":-115.569969,"STATE":"CA","id":"a622jy1jso3b","SCHOOL":"Central Union High School","BG_LAT":32.795805},"type":"Feature","geometry":{"type":"Point","coordinates":[-115.569969,32.795805]}},{"properties":{"CITY":"Ceres","ZIP":"95307","BRANCH":"Navy","BG_LONG":-120.956909,"STATE":"CA","id":"a622jy6wrq9b","SCHOOL":"Central Valley High School","BG_LAT":37.5808},"type":"Feature","geometry":{"type":"Point","coordinates":[-120.956909,37.5808]}},{"properties":{"CITY":"Harper Woods","ZIP":"48225","BRANCH":"Navy","BG_LONG":-82.928166,"STATE":"MI","id":"a622jy9d8qiu","SCHOOL":"Chandler Park Academy Middle High","BG_LAT":42.439459},"type":"Feature","geometry":{"type":"Point","coordinates":[-82.928166,42.439459]}},{"properties":{"CITY":"Oxnard","ZIP":"93033","BRANCH":"Navy","BG_LONG":-119.163689,"STATE":"CA","id":"a622jxy30t5x","SCHOOL":"Channel Islands High School","BG_LAT":34.17165},"type":"Feature","geometry":{"type":"Point","coordinates":[-119.163689,34.17165]}},{"properties":{"CITY":"Chap ml","ZIP":"88081","BRANCH":"Air Force","BG_LONG":-106.410209,"STATE":"NM","id":"a622jy49h1lu","SCHOOL":"Chaparral High School","BG_LAT":32.038125},"type":"Feature","geometry":{"type":"Point","coordinates":[-106.410209,32.038125]}},{"properties":{"CITY":"Anthony","ZIP":"88021","BRANCH":"Navy","BG_LONG":-106.606114,"STATE":"NM","id":"a622jxz62n45","SCHOOL":"Chaparral High School","BG_LAT":32.002225},"type":"Feature","geometry":{"type":"Point","coordinates":[-106.606114,32.002225]}},{"properties":{"CITY":"Folkston","ZIP":"31537","BRANCH":"Air Force","BG_LONG":-82.006519,"STATE":"GA","id":"a622jy4fbofr","SCHOOL":"Chariton County High School","BG_LAT":30.831546},"type":"Feature","geometry":{"type":"Point","coordinates":[-82.006519,30.831546]}},{"properties":{"CITY":"Sand Springs","ZIP":"","BRANCH":"Marines","BG_LONG":-96.108244,"STATE":"OK","id":"a622jy4xjhtw","SCHOOL":"Charles Page High School","BG_LAT":36.139665},"type":"Feature","geometry":{"type":"Point","coordinates":[-96.108244,36.139665]}},{"properties":{"CITY":"Forest City","ZIP":"28043","BRANCH":"Navy","BG_LONG":-81.845711,"STATE":"NC","id":"a622jy3bfy0v","SCHOOL":"Chase","BG_LAT":35.246201},"type":"Feature","geometry":{"type":"Point","coordinates":[-81.845711,35.246201]}},{"properties":{"CITY":"Forest City","ZIP":"28043","BRANCH":"Air Force","BG_LONG":-81.845711,"STATE":"NC","id":"a622jyd3c6z6","SCHOOL":"Chase High School","BG_LAT":35.246201},"type":"Feature","geometry":{"type":"Point","coordinates":[-81.845711,35.246201]}},{"properties":{"CITY":"Summerville","ZIP":"","BRANCH":"Marines","BG_LONG":-85.348329,"STATE":"GA","id":"a622jy1fxo4h","SCHOOL":"Chatooga High School","BG_LAT":34.47745},"type":"Feature","geometry":{"type":"Point","coordinates":[-85.348329,34.47745]}},{"properties":{"CITY":"Chattooga","ZIP":"30747","BRANCH":"Navy","BG_LONG":-85.357819,"STATE":"GA","id":"a622jxy7eeh5","SCHOOL":"Chattooga High School","BG_LAT":34.467331},"type":"Feature","geometry":{"type":"Point","coordinates":[-85.357819,34.467331]}},{"properties":{"CITY":"Chesnee","ZIP":"29323","BRANCH":"Navy","BG_LONG":-81.862511,"STATE":"SC","id":"a622jxy4d33t","SCHOOL":"Chesnee High School","BG_LAT":35.135551},"type":"Feature","geometry":{"type":"Point","coordinates":[-81.862511,35.135551]}},{"properties":{"CITY":"North Las Vegas","ZIP":"","BRANCH":"Marines","BG_LONG":-115.184799,"STATE":"NV","id":"a622jy8is86f","SCHOOL":"Cheyenne High School","BG_LAT":36.231892},"type":"Feature","geometry":{"type":"Point","coordinates":[-115.184799,36.231892]}},{"properties":{"CITY":"Chillicothe","ZIP":"64601","BRANCH":"Navy","BG_LONG":-93.553618,"STATE":"MO","id":"a622jy4ot3qu","SCHOOL":"Chillicothe","BG_LAT":39.79022},"type":"Feature","geometry":{"type":"Point","coordinates":[-93.553618,39.79022]}},{"properties":{"CITY":"Chillicothe","ZIP":"45601","BRANCH":"Air Force","BG_LONG":-82.989014,"STATE":"OH","id":"a622jybt162b","SCHOOL":"Chillicothe High School","BG_LAT":39.341351},"type":"Feature","geometry":{"type":"Point","coordinates":[-82.989014,39.341351]}},{"properties":{"CITY":"Choctaw","ZIP":"","BRANCH":"Marines","BG_LONG":-89.646667,"STATE":"MS","id":"a622jy49310j","SCHOOL":"Choctaw Central High School","BG_LAT":33.831619},"type":"Feature","geometry":{"type":"Point","coordinates":[-89.646667,33.831619]}},{"properties":{"CITY":"Choctaw","ZIP":"39350","BRANCH":"Air Force","BG_LONG":-89.117744,"STATE":"MS","id":"a622jydkwl94","SCHOOL":"Choctaw Central High School","BG_LAT":32.771605},"type":"Feature","geometry":{"type":"Point","coordinates":[-89.117744,32.771605]}},{"properties":{"CITY":"Vail","ZIP":"85641","BRANCH":"Navy","BG_LONG":-110.71202,"STATE":"AZ","id":"a622jxziw39r","SCHOOL":"Cienega High School","BG_LAT":32.047871},"type":"Feature","geometry":{"type":"Point","coordinates":[-110.71202,32.047871]}},{"properties":{"CITY":"Perris","ZIP":"92570","BRANCH":"Navy","BG_LONG":-117.245744,"STATE":"CA","id":"a622jy5ivpze","SCHOOL":"Citrus Hill High School","BG_LAT":33.809285},"type":"Feature","geometry":{"type":"Point","coordinates":[-117.245744,33.809285]}},{"properties":{"CITY":"Berryville","ZIP":"22611","BRANCH":"Air Force","BG_LONG":-78.010986,"STATE":"VA","id":"a622jyc6d5uh","SCHOOL":"Clarke County High School","BG_LAT":39.1479},"type":"Feature","geometry":{"type":"Point","coordinates":[-78.010986,39.1479]}},{"properties":{"CITY":"Manchester","ZIP":"40962","BRANCH":"Air Force","BG_LONG":-83.766232,"STATE":"KY","id":"a622jy8uujca","SCHOOL":"Clay County High School","BG_LAT":37.160347},"type":"Feature","geometry":{"type":"Point","coordinates":[-83.766232,37.160347]}},{"properties":{"CITY":"Clinton","ZIP":"37716","BRANCH":"Navy","BG_LONG":-84.144707,"STATE":"TN","id":"a622jxyi9hxu","SCHOOL":"Clinton High School","BG_LAT":36.095211},"type":"Feature","geometry":{"type":"Point","coordinates":[-84.144707,36.095211]}},{"properties":{"CITY":"Clinton","ZIP":"28328","BRANCH":"Navy","BG_LONG":-78.330719,"STATE":"NC","id":"a622jy7hnps9","SCHOOL":"Clinton High School","BG_LAT":34.982262},"type":"Feature","geometry":{"type":"Point","coordinates":[-78.330719,34.982262]}},{"properties":{"CITY":"Fresno","ZIP":"93720","BRANCH":"Navy","BG_LONG":-119.764389,"STATE":"CA","id":"a622jyd9cv0i","SCHOOL":"Clovis West High School","BG_LAT":36.8592},"type":"Feature","geometry":{"type":"Point","coordinates":[-119.764389,36.8592]}},{"properties":{"CITY":"Coldwater","ZIP":"38618","BRANCH":"Air Force","BG_LONG":-89.984871,"STATE":"MS","id":"a622jyc9uuz5","SCHOOL":"Coldwater High School","BG_LAT":34.685902},"type":"Feature","geometry":{"type":"Point","coordinates":[-89.984871,34.685902]}},{"properties":{"CITY":"Colonial Heights","ZIP":"23834","BRANCH":"Air Force","BG_LONG":-77.390518,"STATE":"VA","id":"a622jy0guuhw","SCHOOL":"Colonial Heights High School","BG_LAT":37.267349},"type":"Feature","geometry":{"type":"Point","coordinates":[-77.390518,37.267349]}},{"properties":{"CITY":"Huntsville","ZIP":"","BRANCH":"Marines","BG_LONG":-86.584961,"STATE":"AL","id":"a622jy9eh83v","SCHOOL":"Columbia High School","BG_LAT":34.729121},"type":"Feature","geometry":{"type":"Point","coordinates":[-86.584961,34.729121]}},{"properties":{"CITY":"Concord","ZIP":"28025","BRANCH":"Air Force","BG_LONG":-80.580009,"STATE":"NC","id":"a622jy9ueiua","SCHOOL":"Concord High School","BG_LAT":35.43401},"type":"Feature","geometry":{"type":"Point","coordinates":[-80.580009,35.43401]}},{"properties":{"CITY":"Tavernier","ZIP":"33070","BRANCH":"Navy","BG_LONG":-80.515339,"STATE":"FL","id":"a622jxyvfxzw","SCHOOL":"Coral Shores High School","BG_LAT":25.01129},"type":"Feature","geometry":{"type":"Point","coordinates":[-80.515339,25.01129]}},{"properties":{"CITY":"Henderson","ZIP":"89052","BRANCH":"Navy","BG_LONG":-115.110244,"STATE":"NV","id":"a622jy9g0nug","SCHOOL":"Coronado County High School","BG_LAT":35.99811},"type":"Feature","geometry":{"type":"Point","coordinates":[-115.110244,35.99811]}},{"properties":{"CITY":"Coweta","ZIP":"","BRANCH":"Marines","BG_LONG":-95.649904,"STATE":"OK","id":"a622jydanh6k","SCHOOL":"Coweta High School","BG_LAT":35.95197},"type":"Feature","geometry":{"type":"Point","coordinates":[-95.649904,35.95197]}},{"properties":{"CITY":"Concord","ZIP":"28027","BRANCH":"Air Force","BG_LONG":-80.614549,"STATE":"NC","id":"a622jxy822nh","SCHOOL":"Cox Mill High School","BG_LAT":35.44727},"type":"Feature","geometry":{"type":"Point","coordinates":[-80.614549,35.44727]}},{"properties":{"CITY":"Concord","ZIP":"28027","BRANCH":"Navy","BG_LONG":-80.614549,"STATE":"NC","id":"a622jy2v5sz4","SCHOOL":"Cox Mill High School","BG_LAT":35.44727},"type":"Feature","geometry":{"type":"Point","coordinates":[-80.614549,35.44727]}},{"properties":{"CITY":"Crete","ZIP":"60417","BRANCH":"Navy","BG_LONG":-87.644333,"STATE":"IL","id":"a622jy6j9c5l","SCHOOL":"Crete Monee","BG_LAT":41.443611},"type":"Feature","geometry":{"type":"Point","coordinates":[-87.644333,41.443611]}},{"properties":{"CITY":"Crowley","ZIP":"76036","BRANCH":"Air Force","BG_LONG":-97.374329,"STATE":"TX","id":"a622jy7vybiu","SCHOOL":"Crowley High School","BG_LAT":32.57922},"type":"Feature","geometry":{"type":"Point","coordinates":[-97.374329,32.57922]}},{"properties":{"CITY":"Cuero","ZIP":"77954","BRANCH":"Navy","BG_LONG":-97.278847,"STATE":"TX","id":"a622jycdol0e","SCHOOL":"Cuero","BG_LAT":29.08938},"type":"Feature","geometry":{"type":"Point","coordinates":[-97.278847,29.08938]}},{"properties":{"CITY":"Houston","ZIP":"77070","BRANCH":"Air Force","BG_LONG":-95.572037,"STATE":"TX","id":"a622jy8uef8l","SCHOOL":"Cypress Creek High School","BG_LAT":29.967199},"type":"Feature","geometry":{"type":"Point","coordinates":[-95.572037,29.967199]}},{"properties":{"CITY":"Katy","ZIP":"77449","BRANCH":"Air Force","BG_LONG":-95.705549,"STATE":"TX","id":"a622jxzkqzps","SCHOOL":"Cypress Lakes High School","BG_LAT":29.873995},"type":"Feature","geometry":{"type":"Point","coordinates":[-95.705549,29.873995]}},{"properties":{"CITY":"Cypress","ZIP":"77433","BRANCH":"Air Force","BG_LONG":-95.705814,"STATE":"TX","id":"a622jy3atnrz","SCHOOL":"Cypress Ranch High School","BG_LAT":29.9663},"type":"Feature","geometry":{"type":"Point","coordinates":[-95.705814,29.9663]}},{"properties":{"CITY":"TRENTON","ZIP":"","BRANCH":"Army","BG_LONG":-85.507089,"STATE":"GA","id":"a622jydlnuyu","SCHOOL":"DADE COUNTY HIGH SCHOOL","BG_LAT":34.875965},"type":"Feature","geometry":{"type":"Point","coordinates":[-85.507089,34.875965]}},{"properties":{"CITY":"HONOLULU","ZIP":"","BRANCH":"Army","BG_LONG":-157.867828,"STATE":"HI","id":"a622jy8ln8hf","SCHOOL":"DAMIEN MEMORIAL HIGH SCHOOL","BG_LAT":21.33116},"type":"Feature","geometry":{"type":"Point","coordinates":[-157.867828,21.33116]}},{"properties":{"CITY":"DAWSONVILLE","ZIP":"","BRANCH":"Army","BG_LONG":-84.116939,"STATE":"GA","id":"a622jy2a1zu6","SCHOOL":"DAWSON HIGH SCHOOL","BG_LAT":34.421275},"type":"Feature","geometry":{"type":"Point","coordinates":[-84.116939,34.421275]}},{"properties":{"CITY":"PEARLAND","ZIP":"","BRANCH":"Army","BG_LONG":-95.256869,"STATE":"TX","id":"a622jy69lqjz","SCHOOL":"DAWSON HIGH SCHOOL","BG_LAT":29.550935},"type":"Feature","geometry":{"type":"Point","coordinates":[-95.256869,29.550935]}},{"properties":{"CITY":"DAYTON","ZIP":"","BRANCH":"Army","BG_LONG":-119.567902,"STATE":"NV","id":"a622jyd1u68j","SCHOOL":"DAYTON  HIGH SCHOOL","BG_LAT":39.242962},"type":"Feature","geometry":{"type":"Point","coordinates":[-119.567902,39.242962]}},{"properties":{"CITY":"DAYTON","ZIP":"","BRANCH":"Army","BG_LONG":-94.907288,"STATE":"TX","id":"a622jy2p8c9u","SCHOOL":"DAYTON HIGH SCHOOL","BG_LAT":30.070669},"type":"Feature","geometry":{"type":"Point","coordinates":[-94.907288,30.070669]}},{"properties":{"CITY":"INDIANAPOLIS","ZIP":"","BRANCH":"Army","BG_LONG":-86.278198,"STATE":"IN","id":"a622jy74z2ki","SCHOOL":"DECATUR CENTRAL HIGH SCHOOL","BG_LAT":39.687969},"type":"Feature","geometry":{"type":"Point","coordinates":[-86.278198,39.687969]}},{"properties":{"CITY":"DEER PARK","ZIP":"","BRANCH":"Army","BG_LONG":-95.128937,"STATE":"TX","id":"a622jy0uchns","SCHOOL":"DEER PARK HIGH SCHOOL","BG_LAT":29.68918},"type":"Feature","geometry":{"type":"Point","coordinates":[-95.128937,29.68918]}},{"properties":{"CITY":"DELTA","ZIP":"","BRANCH":"Army","BG_LONG":-89.73632,"STATE":"AK","id":"a622jy4kx6mb","SCHOOL":"DELTA HIGH SCHOOL","BG_LAT":37.200291},"type":"Feature","geometry":{"type":"Point","coordinates":[-89.73632,37.200291]}},{"properties":{"CITY":"GILBERT","ZIP":"","BRANCH":"Army","BG_LONG":-111.755653,"STATE":"AZ","id":"a622jxz3um2n","SCHOOL":"DESERT HILLS HIGH SCHOOL","BG_LAT":33.32106},"type":"Feature","geometry":{"type":"Point","coordinates":[-111.755653,33.32106]}},{"properties":{"CITY":"FORT WORTH","ZIP":"","BRANCH":"Army","BG_LONG":-97.336472,"STATE":"TX","id":"a622jya0kgw5","SCHOOL":"DIAMOND HILL JARVIS HIGH SCHOOL","BG_LAT":32.807789},"type":"Feature","geometry":{"type":"Point","coordinates":[-97.336472,32.807789]}},{"properties":{"CITY":"DINWIIDDIE","ZIP":"","BRANCH":"Army","BG_LONG":-77.58663,"STATE":"VA","id":"a622jxzlx4cv","SCHOOL":"DINWIDDIE HIGH SCHOOL","BG_LAT":37.078161},"type":"Feature","geometry":{"type":"Point","coordinates":[-77.58663,37.078161]}},{"properties":{"CITY":"COLORADO SPRINGS","ZIP":"","BRANCH":"Army","BG_LONG":-104.744034,"STATE":"CO","id":"a622jxzjr0s8","SCHOOL":"DOHERTY HIGH SCHOOL","BG_LAT":38.896622},"type":"Feature","geometry":{"type":"Point","coordinates":[-104.744034,38.896622]}},{"properties":{"CITY":"DUBLIN","ZIP":"","BRANCH":"Army","BG_LONG":-82.945847,"STATE":"GA","id":"a622jy7dkgze","SCHOOL":"DUBLIN HIGH SCHOOL","BG_LAT":32.542019},"type":"Feature","geometry":{"type":"Point","coordinates":[-82.945847,32.542019]}},{"properties":{"CITY":"Trenton","ZIP":"30752","BRANCH":"Air Force","BG_LONG":-85.507089,"STATE":"GA","id":"a622jy9ap3yu","SCHOOL":"Dade County High School","BG_LAT":34.875965},"type":"Feature","geometry":{"type":"Point","coordinates":[-85.507089,34.875965]}},{"properties":{"CITY":"Dawsonville","ZIP":"30534","BRANCH":"Air Force","BG_LONG":-84.104988,"STATE":"GA","id":"a622jy2xxp6c","SCHOOL":"Dawson County High School","BG_LAT":34.41724},"type":"Feature","geometry":{"type":"Point","coordinates":[-84.104988,34.41724]}},{"properties":{"CITY":"Dayton","ZIP":"","BRANCH":"Marines","BG_LONG":-94.907288,"STATE":"TX","id":"a622jy9rq8ct","SCHOOL":"Dayton High School","BG_LAT":30.070669},"type":"Feature","geometry":{"type":"Point","coordinates":[-94.907288,30.070669]}},{"properties":{"CITY":"New Orleans","ZIP":"70115","BRANCH":"Navy","BG_LONG":-90.102014,"STATE":"LA","id":"a622jy0yygin","SCHOOL":"De La Salle","BG_LAT":29.92707},"type":"Feature","geometry":{"type":"Point","coordinates":[-90.102014,29.92707]}},{"properties":{"CITY":"Edmond","ZIP":"73012","BRANCH":"Air Force","BG_LONG":-97.622551,"STATE":"OK","id":"a622jybagdyv","SCHOOL":"Deer Creek High School","BG_LAT":35.682049},"type":"Feature","geometry":{"type":"Point","coordinates":[-97.622551,35.682049]}},{"properties":{"CITY":"Derry","ZIP":"15627","BRANCH":"Navy","BG_LONG":-79.303205,"STATE":"PA","id":"a622jy7f50xe","SCHOOL":"Derry Area High School","BG_LAT":40.334201},"type":"Feature","geometry":{"type":"Point","coordinates":[-79.303205,40.334201]}},{"properties":{"CITY":"Thermal","ZIP":"","BRANCH":"Marines","BG_LONG":-116.142311,"STATE":"CA","id":"a622jy02tyyd","SCHOOL":"Desert Mirage High School","BG_LAT":33.642101},"type":"Feature","geometry":{"type":"Point","coordinates":[-116.142311,33.642101]}},{"properties":{"CITY":"Desoto","ZIP":"","BRANCH":"Marines","BG_LONG":-94.965119,"STATE":"KS","id":"a622jye75m4t","SCHOOL":"Desoto High School","BG_LAT":38.977465},"type":"Feature","geometry":{"type":"Point","coordinates":[-94.965119,38.977465]}},{"properties":{"CITY":"Dinwiddie","ZIP":"23841","BRANCH":"Air Force","BG_LONG":-77.58663,"STATE":"VA","id":"a622jxz3wors","SCHOOL":"Dinwiddie High School","BG_LAT":37.078161},"type":"Feature","geometry":{"type":"Point","coordinates":[-77.58663,37.078161]}},{"properties":{"CITY":"Philadelphia","ZIP":"19132","BRANCH":"Navy","BG_LONG":-75.159734,"STATE":"PA","id":"a622jycf43gc","SCHOOL":"Dobbins Avt","BG_LAT":39.98913},"type":"Feature","geometry":{"type":"Point","coordinates":[-75.159734,39.98913]}},{"properties":{"CITY":"Houston","ZIP":"77089","BRANCH":"Air Force","BG_LONG":-95.228012,"STATE":"TX","id":"a622jxz7zyvn","SCHOOL":"Dobie High School","BG_LAT":29.607691},"type":"Feature","geometry":{"type":"Point","coordinates":[-95.228012,29.607691]}},{"properties":{"CITY":"Kingsport","ZIP":"","BRANCH":"Marines","BG_LONG":-82.560419,"STATE":"TN","id":"a622jy7nj208","SCHOOL":"Dobyns-Bennett High School","BG_LAT":36.5478},"type":"Feature","geometry":{"type":"Point","coordinates":[-82.560419,36.5478]}},{"properties":{"CITY":"Downingtown","ZIP":"19335","BRANCH":"Navy","BG_LONG":-75.715719,"STATE":"PA","id":"a622jy7mzgdg","SCHOOL":"Downingtown  West Campus","BG_LAT":40.021872},"type":"Feature","geometry":{"type":"Point","coordinates":[-75.715719,40.021872]}},{"properties":{"CITY":"Valdese","ZIP":"28690","BRANCH":"Navy","BG_LONG":-81.564794,"STATE":"NC","id":"a622jy20t8fg","SCHOOL":"Draughn High School","BG_LAT":35.744015},"type":"Feature","geometry":{"type":"Point","coordinates":[-81.564794,35.744015]}},{"properties":{"CITY":"Dublin","ZIP":"31021","BRANCH":"Navy","BG_LONG":-82.945847,"STATE":"GA","id":"a622jxya64pt","SCHOOL":"Dublin High School","BG_LAT":32.542019},"type":"Feature","geometry":{"type":"Point","coordinates":[-82.945847,32.542019]}},{"properties":{"CITY":"Duncanville","ZIP":"75116","BRANCH":"Air Force","BG_LONG":-96.927109,"STATE":"TX","id":"a622jydkamou","SCHOOL":"Duncanville High School","BG_LAT":32.662281},"type":"Feature","geometry":{"type":"Point","coordinates":[-96.927109,32.662281]}},{"properties":{"CITY":"Duncanville","ZIP":"","BRANCH":"Marines","BG_LONG":-96.927109,"STATE":"TX","id":"a622jy2gjjas","SCHOOL":"Duncanville High School","BG_LAT":32.662281},"type":"Feature","geometry":{"type":"Point","coordinates":[-96.927109,32.662281]}},{"properties":{"CITY":"Hampton","ZIP":"30228","BRANCH":"Navy","BG_LONG":-84.282957,"STATE":"GA","id":"a622jxz2u4k2","SCHOOL":"Dutchtown High School","BG_LAT":33.38772},"type":"Feature","geometry":{"type":"Point","coordinates":[-84.282957,33.38772]}},{"properties":{"CITY":"Hampton","ZIP":"","BRANCH":"Marines","BG_LONG":-84.282957,"STATE":"GA","id":"a622jxzsy2qr","SCHOOL":"Dutchtown High School","BG_LAT":33.38772},"type":"Feature","geometry":{"type":"Point","coordinates":[-84.282957,33.38772]}},{"properties":{"CITY":"Paris","ZIP":"","BRANCH":"Marines","BG_LONG":-88.325879,"STATE":"TN","id":"a622jydpkl4i","SCHOOL":"E.W. Grove High School","BG_LAT":36.301885},"type":"Feature","geometry":{"type":"Point","coordinates":[-88.325879,36.301885]}},{"properties":{"CITY":"BLAKLEY","ZIP":"","BRANCH":"Army","BG_LONG":-84.875748,"STATE":"GA","id":"a622jy437jlg","SCHOOL":"EARLY COUNTY HIGH SCHOOL","BG_LAT":31.29563},"type":"Feature","geometry":{"type":"Point","coordinates":[-84.875748,31.29563]}},{"properties":{"CITY":"TURBEVILLE","ZIP":"","BRANCH":"Army","BG_LONG":-80.018572,"STATE":"SC","id":"a622jy50vwz9","SCHOOL":"EAST CLARENDON HIGH SCHOOL","BG_LAT":33.891432},"type":"Feature","geometry":{"type":"Point","coordinates":[-80.018572,33.891432]}},{"properties":{"CITY":"EASTPOINTE","ZIP":"","BRANCH":"Army","BG_LONG":-82.961357,"STATE":"MI","id":"a622jyaby6l4","SCHOOL":"EAST DETROIT HIGH SCHOOL","BG_LAT":42.462078},"type":"Feature","geometry":{"type":"Point","coordinates":[-82.961357,42.462078]}},{"properties":{"CITY":"LYLES","ZIP":"","BRANCH":"Army","BG_LONG":-87.346099,"STATE":"TN","id":"a622jyda5lcf","SCHOOL":"EAST HICKMAN HIGH SCHOOL","BG_LAT":35.92065},"type":"Feature","geometry":{"type":"Point","coordinates":[-87.346099,35.92065]}},{"properties":{"CITY":"DENVER","ZIP":"","BRANCH":"Army","BG_LONG":-81.02533,"STATE":"NC","id":"a622jydjevtv","SCHOOL":"EAST LINCOLN HIGH SCHOOL","BG_LAT":35.45306},"type":"Feature","geometry":{"type":"Point","coordinates":[-81.02533,35.45306]}},{"properties":{"CITY":"CLERMONT","ZIP":"","BRANCH":"Army","BG_LONG":-81.766339,"STATE":"FL","id":"a622jy72o3qd","SCHOOL":"EAST RIDGE HIGH SCHOOL","BG_LAT":28.551295},"type":"Feature","geometry":{"type":"Point","coordinates":[-81.766339,28.551295]}},{"properties":{"CITY":"ORLANDO","ZIP":"","BRANCH":"Army","BG_LONG":-81.179024,"STATE":"FL","id":"a622jybelnfs","SCHOOL":"EAST RIVER HS","BG_LAT":28.542695},"type":"Feature","geometry":{"type":"Point","coordinates":[-81.179024,28.542695]}},{"properties":{"CITY":"RONDA","ZIP":"","BRANCH":"Army","BG_LONG":-80.923851,"STATE":"NC","id":"a622jy9j14c2","SCHOOL":"EAST WILKES HIGH SCHOOL","BG_LAT":36.229599},"type":"Feature","geometry":{"type":"Point","coordinates":[-80.923851,36.229599]}},{"properties":{"CITY":"EASTON","ZIP":"","BRANCH":"Army","BG_LONG":-75.24939,"STATE":"PA","id":"a622jyczz8nh","SCHOOL":"EASTON AREA HIGH SCHOOL","BG_LAT":40.681499},"type":"Feature","geometry":{"type":"Point","coordinates":[-75.24939,40.681499]}},{"properties":{"CITY":"COVINGTON","ZIP":"","BRANCH":"Army","BG_LONG":-83.861634,"STATE":"GA","id":"a622jxyjjeqx","SCHOOL":"EASTSIDE HIGH SCHOOL","BG_LAT":33.59683},"type":"Feature","geometry":{"type":"Point","coordinates":[-83.861634,33.59683]}},{"properties":{"CITY":"ELGIN","ZIP":"","BRANCH":"Army","BG_LONG":-97.378639,"STATE":"TX","id":"a622jycw7836","SCHOOL":"ELGIN HIGH SCHOOL","BG_LAT":30.348539},"type":"Feature","geometry":{"type":"Point","coordinates":[-97.378639,30.348539]}},{"properties":{"CITY":"ELGIN","ZIP":"","BRANCH":"Army","BG_LONG":-98.289874,"STATE":"OK","id":"a622jxymgmg7","SCHOOL":"ELGIN HS","BG_LAT":34.78249},"type":"Feature","geometry":{"type":"Point","coordinates":[-98.289874,34.78249]}},{"properties":{"CITY":"VAIL","ZIP":"","BRANCH":"Army","BG_LONG":-110.71202,"STATE":"AZ","id":"a622jy4tjfxb","SCHOOL":"EMPIRE HIGH SCHOOL","BG_LAT":32.047871},"type":"Feature","geometry":{"type":"Point","coordinates":[-110.71202,32.047871]}},{"properties":{"CITY":"ESPANOLA","ZIP":"","BRANCH":"Army","BG_LONG":-106.080299,"STATE":"NM","id":"a622jyay9qsw","SCHOOL":"ESPANOLA MILITARY ACADEMY","BG_LAT":35.99078},"type":"Feature","geometry":{"type":"Point","coordinates":[-106.080299,35.99078]}},{"properties":{"CITY":"IRVINE","ZIP":"","BRANCH":"Army","BG_LONG":-83.974748,"STATE":"KY","id":"a622jxzv8w3t","SCHOOL":"ESTILL COUNTY HIGH SCHOOL","BG_LAT":37.699951},"type":"Feature","geometry":{"type":"Point","coordinates":[-83.974748,37.699951]}},{"properties":{"CITY":"EVERMAN","ZIP":"","BRANCH":"Army","BG_LONG":-97.287119,"STATE":"TX","id":"a622jy71w8yc","SCHOOL":"EVERMAN JOE C BEAN","BG_LAT":32.63248},"type":"Feature","geometry":{"type":"Point","coordinates":[-97.287119,32.63248]}},{"properties":{"CITY":"Ruskin","ZIP":"33570","BRANCH":"Air Force","BG_LONG":-82.439358,"STATE":"FL","id":"a622jy1xlju1","SCHOOL":"Earl J. Lennard High School","BG_LAT":27.70508},"type":"Feature","geometry":{"type":"Point","coordinates":[-82.439358,27.70508]}},{"properties":{"CITY":"Ruskin","ZIP":"","BRANCH":"Marines","BG_LONG":-82.434009,"STATE":"FL","id":"a622jy4uc8bv","SCHOOL":"Earl Lennard High School","BG_LAT":27.71814},"type":"Feature","geometry":{"type":"Point","coordinates":[-82.434009,27.71814]}},{"properties":{"CITY":"Blakely","ZIP":"31723","BRANCH":"Air Force","BG_LONG":-84.932719,"STATE":"GA","id":"a622jydnfovl","SCHOOL":"Early County High School","BG_LAT":31.37763},"type":"Feature","geometry":{"type":"Point","coordinates":[-84.932719,31.37763]}},{"properties":{"CITY":"North Versailles","ZIP":"15137","BRANCH":"Navy","BG_LONG":-79.806989,"STATE":"PA","id":"a622jxz5j51k","SCHOOL":"East Allegheny High School","BG_LAT":40.37936},"type":"Feature","geometry":{"type":"Point","coordinates":[-79.806989,40.37936]}},{"properties":{"CITY":"Moss Point","ZIP":"39562","BRANCH":"Air Force","BG_LONG":-88.505829,"STATE":"MS","id":"a622jy0t7a34","SCHOOL":"East Central High School","BG_LAT":30.537109},"type":"Feature","geometry":{"type":"Point","coordinates":[-88.505829,30.537109]}},{"properties":{"CITY":"Moss Point","ZIP":"39562","BRANCH":"Navy","BG_LONG":-88.505829,"STATE":"MS","id":"a622jy6j9qor","SCHOOL":"East Central High School","BG_LAT":30.537109},"type":"Feature","geometry":{"type":"Point","coordinates":[-88.505829,30.537109]}},{"properties":{"CITY":"Denver","ZIP":"28037","BRANCH":"Navy","BG_LONG":-81.02533,"STATE":"NC","id":"a622jy23uyk9","SCHOOL":"East Lincoln High School","BG_LAT":35.45306},"type":"Feature","geometry":{"type":"Point","coordinates":[-81.02533,35.45306]}},{"properties":{"CITY":"Denver","ZIP":"","BRANCH":"Marines","BG_LONG":-81.02533,"STATE":"NC","id":"a622jyb3xvee","SCHOOL":"East Lincoln High School","BG_LAT":35.45306},"type":"Feature","geometry":{"type":"Point","coordinates":[-81.02533,35.45306]}},{"properties":{"CITY":"Denver","ZIP":"28037","BRANCH":"Air Force","BG_LONG":-81.02533,"STATE":"NC","id":"a622jxy9vxnz","SCHOOL":"East Lincoln High School","BG_LAT":35.45306},"type":"Feature","geometry":{"type":"Point","coordinates":[-81.02533,35.45306]}},{"properties":{"CITY":"Clermont","ZIP":"34711","BRANCH":"Air Force","BG_LONG":-81.742542,"STATE":"FL","id":"a622jyecp2b4","SCHOOL":"East Ridge High School","BG_LAT":28.539516},"type":"Feature","geometry":{"type":"Point","coordinates":[-81.742542,28.539516]}},{"properties":{"CITY":"Orlando","ZIP":"","BRANCH":"Marines","BG_LONG":-81.377389,"STATE":"FL","id":"a622jy29mva6","SCHOOL":"East River High School","BG_LAT":28.538235},"type":"Feature","geometry":{"type":"Point","coordinates":[-81.377389,28.538235]}},{"properties":{"CITY":"Orlando","ZIP":"32828","BRANCH":"Air Force","BG_LONG":-81.179024,"STATE":"FL","id":"a622jy3z0i7p","SCHOOL":"East River High School","BG_LAT":28.542695},"type":"Feature","geometry":{"type":"Point","coordinates":[-81.179024,28.542695]}},{"properties":{"CITY":"Forest City","ZIP":"","BRANCH":"Marines","BG_LONG":-81.864741,"STATE":"NC","id":"a622jxy4b8sn","SCHOOL":"East Rutherford High School","BG_LAT":35.333767},"type":"Feature","geometry":{"type":"Point","coordinates":[-81.864741,35.333767]}},{"properties":{"CITY":"Spokane","ZIP":"99216","BRANCH":"Navy","BG_LONG":-117.216849,"STATE":"WA","id":"a622jy1ol7ns","SCHOOL":"East Valley","BG_LAT":47.6611},"type":"Feature","geometry":{"type":"Point","coordinates":[-117.216849,47.6611]}},{"properties":{"CITY":"Ronda","ZIP":"","BRANCH":"Marines","BG_LONG":-80.923851,"STATE":"NC","id":"a622jy8o1j78","SCHOOL":"East Wilkes High School","BG_LAT":36.229599},"type":"Feature","geometry":{"type":"Point","coordinates":[-80.923851,36.229599]}},{"properties":{"CITY":"Gibsonville","ZIP":"27249","BRANCH":"Air Force","BG_LONG":-79.613663,"STATE":"NC","id":"a622jy75p65h","SCHOOL":"Eastern Guilford High School","BG_LAT":36.093971},"type":"Feature","geometry":{"type":"Point","coordinates":[-79.613663,36.093971]}},{"properties":{"CITY":"Easton","ZIP":"18045","BRANCH":"Air Force","BG_LONG":-75.24939,"STATE":"PA","id":"a622jy6l9rsy","SCHOOL":"Easton Area High School","BG_LAT":40.681499},"type":"Feature","geometry":{"type":"Point","coordinates":[-75.24939,40.681499]}},{"properties":{"CITY":"El Paso","ZIP":"79928","BRANCH":"Navy","BG_LONG":-106.186659,"STATE":"TX","id":"a622jy42602g","SCHOOL":"El Dorado High School","BG_LAT":31.682741},"type":"Feature","geometry":{"type":"Point","coordinates":[-106.186659,31.682741]}},{"properties":{"CITY":"Vail","ZIP":"85641","BRANCH":"Navy","BG_LONG":-110.71202,"STATE":"AZ","id":"a622jy3jc903","SCHOOL":"Empire High School","BG_LAT":32.047871},"type":"Feature","geometry":{"type":"Point","coordinates":[-110.71202,32.047871]}},{"properties":{"CITY":"Tucson","ZIP":"85747","BRANCH":"Air Force","BG_LONG":-110.756897,"STATE":"AZ","id":"a622jy2nzis4","SCHOOL":"Empire High School","BG_LAT":32.095114},"type":"Feature","geometry":{"type":"Point","coordinates":[-110.756897,32.095114]}},{"properties":{"CITY":"Tucson","ZIP":"","BRANCH":"Marines","BG_LONG":-110.969754,"STATE":"AZ","id":"a622jy5ag7ck","SCHOOL":"Empire High School","BG_LAT":32.221553},"type":"Feature","geometry":{"type":"Point","coordinates":[-110.969754,32.221553]}},{"properties":{"CITY":"Estacada","ZIP":"97023","BRANCH":"Navy","BG_LONG":-122.331818,"STATE":"OR","id":"a622jyb085sw","SCHOOL":"Estacada High School","BG_LAT":45.294231},"type":"Feature","geometry":{"type":"Point","coordinates":[-122.331818,45.294231]}},{"properties":{"CITY":"Irvine","ZIP":"40336","BRANCH":"Navy","BG_LONG":-83.991379,"STATE":"KY","id":"a622jy7m1wj3","SCHOOL":"Estill County High School","BG_LAT":37.70164},"type":"Feature","geometry":{"type":"Point","coordinates":[-83.991379,37.70164]}},{"properties":{"CITY":"Irvine","ZIP":"40336","BRANCH":"Air Force","BG_LONG":-83.974748,"STATE":"KY","id":"a622jy5cdgqa","SCHOOL":"Estill County High School","BG_LAT":37.699951},"type":"Feature","geometry":{"type":"Point","coordinates":[-83.974748,37.699951]}},{"properties":{"CITY":"Goodyear","ZIP":"85338","BRANCH":"Air Force","BG_LONG":-112.425004,"STATE":"AZ","id":"a622jy790yy2","SCHOOL":"Estrella Foothills High School","BG_LAT":33.32904},"type":"Feature","geometry":{"type":"Point","coordinates":[-112.425004,33.32904]}},{"properties":{"CITY":"Seattle","ZIP":"98146","BRANCH":"Navy","BG_LONG":-122.344803,"STATE":"WA","id":"a622jyb74cwg","SCHOOL":"Evergreen High School","BG_LAT":47.499271},"type":"Feature","geometry":{"type":"Point","coordinates":[-122.344803,47.499271]}},{"properties":{"CITY":"Excelsior","ZIP":"64024","BRANCH":"Navy","BG_LONG":-94.226174,"STATE":"MO","id":"a622jy45qtyh","SCHOOL":"Excelsior Springs High School","BG_LAT":39.33921},"type":"Feature","geometry":{"type":"Point","coordinates":[-94.226174,39.33921]}},{"properties":{"CITY":"FAYETTEVILLE","ZIP":"","BRANCH":"Army","BG_LONG":-84.459892,"STATE":"GA","id":"a622jydb786t","SCHOOL":"FAYETTE COUNTY HIGH SCHOOL","BG_LAT":33.456612},"type":"Feature","geometry":{"type":"Point","coordinates":[-84.459892,33.456612]}},{"properties":{"CITY":"FAYETTEVILLE","ZIP":"","BRANCH":"Army","BG_LONG":-78.877579,"STATE":"NC","id":"a622jy2xdiwn","SCHOOL":"FAYETTEVILLE CHRISTIAN SCHOOL","BG_LAT":35.054495},"type":"Feature","geometry":{"type":"Point","coordinates":[-78.877579,35.054495]}},{"properties":{"CITY":"WOODBRIDGE","ZIP":"","BRANCH":"Army","BG_LONG":-77.247875,"STATE":"VA","id":"a622jy0xoe30","SCHOOL":"FOREST PARK HIGH SCHOOL","BG_LAT":38.660595},"type":"Feature","geometry":{"type":"Point","coordinates":[-77.247875,38.660595]}},{"properties":{"CITY":"FORT TOTTEN","ZIP":"","BRANCH":"Army","BG_LONG":-98.996314,"STATE":"ND","id":"a622jy689ae6","SCHOOL":"FOUR WINDS HIGH SCHOOL","BG_LAT":47.98753},"type":"Feature","geometry":{"type":"Point","coordinates":[-98.996314,47.98753]}},{"properties":{"CITY":"OCALA","ZIP":"","BRANCH":"Army","BG_LONG":-82.140394,"STATE":"FL","id":"a622jy505my0","SCHOOL":"FRANCIS MARION MILITARY ACADEMY","BG_LAT":29.187525},"type":"Feature","geometry":{"type":"Point","coordinates":[-82.140394,29.187525]}},{"properties":{"CITY":"FRANKLIN","ZIP":"","BRANCH":"Army","BG_LONG":-76.92714,"STATE":"VA","id":"a622jy40ffrd","SCHOOL":"FRANKLIN HS","BG_LAT":36.681134},"type":"Feature","geometry":{"type":"Point","coordinates":[-76.92714,36.681134]}},{"properties":{"CITY":"FREDERICK","ZIP":"","BRANCH":"Army","BG_LONG":-77.42498,"STATE":"MD","id":"a622jy161suc","SCHOOL":"FREDERICK HIGH SCHOOL","BG_LAT":39.416721},"type":"Feature","geometry":{"type":"Point","coordinates":[-77.42498,39.416721]}},{"properties":{"CITY":"FRUITA","ZIP":"","BRANCH":"Army","BG_LONG":-108.735899,"STATE":"CO","id":"a622jydb1ldn","SCHOOL":"FRUITA MONUMENT HS","BG_LAT":39.15978},"type":"Feature","geometry":{"type":"Point","coordinates":[-108.735899,39.15978]}},{"properties":{"CITY":"Fairmont","ZIP":"26554","BRANCH":"Air Force","BG_LONG":-80.147154,"STATE":"WV","id":"a622jybzsy5y","SCHOOL":"Fairmont Senior High School","BG_LAT":39.48161},"type":"Feature","geometry":{"type":"Point","coordinates":[-80.147154,39.48161]}},{"properties":{"CITY":"Fayetteville","ZIP":"30214","BRANCH":"Air Force","BG_LONG":-84.459892,"STATE":"GA","id":"a622jy71jh60","SCHOOL":"Fayette County High School","BG_LAT":33.456612},"type":"Feature","geometry":{"type":"Point","coordinates":[-84.459892,33.456612]}},{"properties":{"CITY":"Tallahassee","ZIP":"32311","BRANCH":"Air Force","BG_LONG":-84.117919,"STATE":"FL","id":"a622jyd4qjqs","SCHOOL":"Florida State University School","BG_LAT":30.42243},"type":"Feature","geometry":{"type":"Point","coordinates":[-84.117919,30.42243]}},{"properties":{"CITY":"Tallahassee","ZIP":"32311","BRANCH":"Navy","BG_LONG":-84.117919,"STATE":"FL","id":"a622jy91y269","SCHOOL":"Florida State University School","BG_LAT":30.42243},"type":"Feature","geometry":{"type":"Point","coordinates":[-84.117919,30.42243]}},{"properties":{"CITY":"Palmyra","ZIP":"22963","BRANCH":"Air Force","BG_LONG":-78.263631,"STATE":"VA","id":"a622jy0te66s","SCHOOL":"Fluvanna County High School","BG_LAT":37.861215},"type":"Feature","geometry":{"type":"Point","coordinates":[-78.263631,37.861215]}},{"properties":{"CITY":"Forney","ZIP":"","BRANCH":"Marines","BG_LONG":-96.481148,"STATE":"TX","id":"a622jy5d7rqk","SCHOOL":"Forney High School","BG_LAT":32.736992},"type":"Feature","geometry":{"type":"Point","coordinates":[-96.481148,32.736992]}},{"properties":{"CITY":"Fort Morgan","ZIP":"80701","BRANCH":"Navy","BG_LONG":-103.793556,"STATE":"CO","id":"a622jy8215ww","SCHOOL":"Fort Morgan High School","BG_LAT":40.261131},"type":"Feature","geometry":{"type":"Point","coordinates":[-103.793556,40.261131]}},{"properties":{"CITY":"Fort White","ZIP":"32038","BRANCH":"Navy","BG_LONG":-82.707728,"STATE":"FL","id":"a622jy6d7pwi","SCHOOL":"Fort White High School","BG_LAT":29.91669},"type":"Feature","geometry":{"type":"Point","coordinates":[-82.707728,29.91669]}},{"properties":{"CITY":"North Augusta","ZIP":"29861","BRANCH":"Air Force","BG_LONG":-81.970085,"STATE":"SC","id":"a622jy59j3ey","SCHOOL":"Fox Creek High School","BG_LAT":33.495782},"type":"Feature","geometry":{"type":"Point","coordinates":[-81.970085,33.495782]}},{"properties":{"CITY":"Ocala","ZIP":"34479","BRANCH":"Navy","BG_LONG":-82.115874,"STATE":"FL","id":"a622jybyarme","SCHOOL":"Francis Marion Military Academy","BG_LAT":29.2516},"type":"Feature","geometry":{"type":"Point","coordinates":[-82.115874,29.2516]}},{"properties":{"CITY":"Ocala","ZIP":"34479","BRANCH":"Air Force","BG_LONG":-82.115874,"STATE":"FL","id":"a622jydu33w2","SCHOOL":"Francis Marion MilitaryAcademy","BG_LAT":29.2516},"type":"Feature","geometry":{"type":"Point","coordinates":[-82.115874,29.2516]}},{"properties":{"CITY":"Philadelphia","ZIP":"19137","BRANCH":"Navy","BG_LONG":-75.073302,"STATE":"PA","id":"a622jy4nchml","SCHOOL":"Franklin Towne Charter","BG_LAT":40.001773},"type":"Feature","geometry":{"type":"Point","coordinates":[-75.073302,40.001773]}},{"properties":{"CITY":"Freeport","ZIP":"32578","BRANCH":"Navy","BG_LONG":-86.486664,"STATE":"FL","id":"a622jy6ehvbs","SCHOOL":"Freeport High School","BG_LAT":30.52063},"type":"Feature","geometry":{"type":"Point","coordinates":[-86.486664,30.52063]}},{"properties":{"CITY":"Fuquay Varina","ZIP":"27526","BRANCH":"Navy","BG_LONG":-78.795189,"STATE":"NC","id":"a622jya4fr22","SCHOOL":"Fuquay Varina High School","BG_LAT":35.59676},"type":"Feature","geometry":{"type":"Point","coordinates":[-78.795189,35.59676]}},{"properties":{"CITY":"Philadelphia","ZIP":"19148","BRANCH":"Navy","BG_LONG":-75.162129,"STATE":"PA","id":"a622jy4ary07","SCHOOL":"Furness High School","BG_LAT":39.914261},"type":"Feature","geometry":{"type":"Point","coordinates":[-75.162129,39.914261]}},{"properties":{"CITY":"GAHANNA","ZIP":"","BRANCH":"Army","BG_LONG":-82.875061,"STATE":"OH","id":"a622jy4u6hnt","SCHOOL":"GAHANNA LINCOLN HIGH SCHOOL","BG_LAT":39.972691},"type":"Feature","geometry":{"type":"Point","coordinates":[-82.875061,39.972691]}},{"properties":{"CITY":"GARDENA","ZIP":"","BRANCH":"Army","BG_LONG":-118.307504,"STATE":"CA","id":"a622jy5rd5rr","SCHOOL":"GARDENA HIGH SCHOOL","BG_LAT":33.88379},"type":"Feature","geometry":{"type":"Point","coordinates":[-118.307504,33.88379]}},{"properties":{"CITY":"FORT MYERS","ZIP":"","BRANCH":"Army","BG_LONG":-81.868194,"STATE":"FL","id":"a622jy6zk0mk","SCHOOL":"GATEWAY CHARTER HIGH SCHOOL","BG_LAT":26.640845},"type":"Feature","geometry":{"type":"Point","coordinates":[-81.868194,26.640845]}},{"properties":{"CITY":"DYER","ZIP":"","BRANCH":"Army","BG_LONG":-88.993104,"STATE":"TN","id":"a622jy9j8k7l","SCHOOL":"GIBSON HIGH SCHOOL","BG_LAT":36.065525},"type":"Feature","geometry":{"type":"Point","coordinates":[-88.993104,36.065525]}},{"properties":{"CITY":"CALHOUN","ZIP":"","BRANCH":"Army","BG_LONG":-84.923798,"STATE":"GA","id":"a622jycwa53s","SCHOOL":"GORDON CENTRAL HIGH SCHOOL","BG_LAT":34.514809},"type":"Feature","geometry":{"type":"Point","coordinates":[-84.923798,34.514809]}},{"properties":{"CITY":"STEM","ZIP":"","BRANCH":"Army","BG_LONG":-78.7238,"STATE":"NC","id":"a622jy0bkq8v","SCHOOL":"GRANVILLE CENTRAL HIGH SCHOOL","BG_LAT":36.201958},"type":"Feature","geometry":{"type":"Point","coordinates":[-78.7238,36.201958]}},{"properties":{"CITY":"MAYFIELD","ZIP":"","BRANCH":"Army","BG_LONG":-88.634589,"STATE":"KY","id":"a622jy0yi2yt","SCHOOL":"GRAVES COUNTY HIGH SCHOOL","BG_LAT":36.7411},"type":"Feature","geometry":{"type":"Point","coordinates":[-88.634589,36.7411]}},{"properties":{"CITY":"GREENVILLE","ZIP":"","BRANCH":"Army","BG_LONG":-96.106784,"STATE":"TX","id":"a622jy78702s","SCHOOL":"GREENVILLE HS","BG_LAT":33.13907},"type":"Feature","geometry":{"type":"Point","coordinates":[-96.106784,33.13907]}},{"properties":{"CITY":"GROVETOWN","ZIP":"","BRANCH":"Army","BG_LONG":-82.203619,"STATE":"GA","id":"a622jy2jh6sv","SCHOOL":"GROVETOWN HIGH SCHOOL","BG_LAT":33.452365},"type":"Feature","geometry":{"type":"Point","coordinates":[-82.203619,33.452365]}},{"properties":{"CITY":"GURDON","ZIP":"","BRANCH":"Army","BG_LONG":-93.149389,"STATE":"AR","id":"a622jy8rivrn","SCHOOL":"GURDON HIGH SCHOOL","BG_LAT":33.92192},"type":"Feature","geometry":{"type":"Point","coordinates":[-93.149389,33.92192]}},{"properties":{"CITY":"Ganado","ZIP":"","BRANCH":"Marines","BG_LONG":-109.542604,"STATE":"AZ","id":"a622jy7feznb","SCHOOL":"Ganado High School","BG_LAT":35.708915},"type":"Feature","geometry":{"type":"Point","coordinates":[-109.542604,35.708915]}},{"properties":{"CITY":"Gardena","ZIP":"90248","BRANCH":"Navy","BG_LONG":-118.267519,"STATE":"CA","id":"a622jy69nl1p","SCHOOL":"Gardena High School","BG_LAT":33.893165},"type":"Feature","geometry":{"type":"Point","coordinates":[-118.267519,33.893165]}},{"properties":{"CITY":"Gardner","ZIP":"","BRANCH":"Marines","BG_LONG":-94.927238,"STATE":"KS","id":"a622jyazisf0","SCHOOL":"Gardner Edgerton High School","BG_LAT":38.811039},"type":"Feature","geometry":{"type":"Point","coordinates":[-94.927238,38.811039]}},{"properties":{"CITY":"Richmond","ZIP":"","BRANCH":"Marines","BG_LONG":-95.762199,"STATE":"TX","id":"a622jy8yw7f8","SCHOOL":"George Ranch High School","BG_LAT":29.582675},"type":"Feature","geometry":{"type":"Point","coordinates":[-95.762199,29.582675]}},{"properties":{"CITY":"Lutz","ZIP":"33558","BRANCH":"Air Force","BG_LONG":-82.514003,"STATE":"FL","id":"a622jy3bg8zg","SCHOOL":"George Steinbrenner High School*","BG_LAT":28.148538},"type":"Feature","geometry":{"type":"Point","coordinates":[-82.514003,28.148538]}},{"properties":{"CITY":"Dyer","ZIP":"38330","BRANCH":"Air Force","BG_LONG":-88.993104,"STATE":"TN","id":"a622jy1qdaz4","SCHOOL":"Gibson County High School","BG_LAT":36.065525},"type":"Feature","geometry":{"type":"Point","coordinates":[-88.993104,36.065525]}},{"properties":{"CITY":"Gilbert","ZIP":"29054","BRANCH":"Navy","BG_LONG":-81.393341,"STATE":"SC","id":"a622jy0kyo3k","SCHOOL":"Gilbert High School","BG_LAT":33.92244},"type":"Feature","geometry":{"type":"Point","coordinates":[-81.393341,33.92244]}},{"properties":{"CITY":"Gilbert","ZIP":"","BRANCH":"Marines","BG_LONG":-81.393341,"STATE":"SC","id":"a622jyb34qvz","SCHOOL":"Gilbert High School","BG_LAT":33.92244},"type":"Feature","geometry":{"type":"Point","coordinates":[-81.393341,33.92244]}},{"properties":{"CITY":"Ellijay","ZIP":"30540","BRANCH":"Air Force","BG_LONG":-84.482902,"STATE":"GA","id":"a622jy24wstg","SCHOOL":"Gilmer High School","BG_LAT":34.694511},"type":"Feature","geometry":{"type":"Point","coordinates":[-84.482902,34.694511]}},{"properties":{"CITY":"Ellijay","ZIP":"30540","BRANCH":"Navy","BG_LONG":-84.482902,"STATE":"GA","id":"a622jybv3rqr","SCHOOL":"Gilmer High School","BG_LAT":34.694511},"type":"Feature","geometry":{"type":"Point","coordinates":[-84.482902,34.694511]}},{"properties":{"CITY":"Gilroy","ZIP":"95020","BRANCH":"Navy","BG_LONG":-121.57592,"STATE":"CA","id":"a622jy13cece","SCHOOL":"Gilroy High School","BG_LAT":36.997269},"type":"Feature","geometry":{"type":"Point","coordinates":[-121.57592,36.997269]}},{"properties":{"CITY":"Goochland","ZIP":"23063","BRANCH":"Navy","BG_LONG":-77.887383,"STATE":"VA","id":"a622jy0dtdi9","SCHOOL":"Goochland High School","BG_LAT":37.69487},"type":"Feature","geometry":{"type":"Point","coordinates":[-77.887383,37.69487]}},{"properties":{"CITY":"Baytown","ZIP":"","BRANCH":"Marines","BG_LONG":-94.996952,"STATE":"TX","id":"a622jybmd17w","SCHOOL":"Goose Creek Memorial High School","BG_LAT":29.728405},"type":"Feature","geometry":{"type":"Point","coordinates":[-94.996952,29.728405]}},{"properties":{"CITY":"West Valley City","ZIP":"84119","BRANCH":"Navy","BG_LONG":-111.977051,"STATE":"UT","id":"a622jy7l9u4w","SCHOOL":"Granger High School","BG_LAT":40.692032},"type":"Feature","geometry":{"type":"Point","coordinates":[-111.977051,40.692032]}},{"properties":{"CITY":"Mayfield","ZIP":"42066","BRANCH":"Air Force","BG_LONG":-88.634589,"STATE":"KY","id":"a622jyd5j5wp","SCHOOL":"Graves County High School","BG_LAT":36.7411},"type":"Feature","geometry":{"type":"Point","coordinates":[-88.634589,36.7411]}},{"properties":{"CITY":"Greenville","ZIP":"75402","BRANCH":"Air Force","BG_LONG":-96.121307,"STATE":"TX","id":"a622jxyv719q","SCHOOL":"Greenville High School","BG_LAT":33.106201},"type":"Feature","geometry":{"type":"Point","coordinates":[-96.121307,33.106201]}},{"properties":{"CITY":"Grovetown","ZIP":"30813","BRANCH":"Navy","BG_LONG":-82.203619,"STATE":"GA","id":"a622jxyic8yb","SCHOOL":"Grovetown High School","BG_LAT":33.452365},"type":"Feature","geometry":{"type":"Point","coordinates":[-82.203619,33.452365]}},{"properties":{"CITY":"Grovetown","ZIP":"30907","BRANCH":"Air Force","BG_LONG":-82.073995,"STATE":"GA","id":"a622jy4glcee","SCHOOL":"Grovetown High School","BG_LAT":33.516391},"type":"Feature","geometry":{"type":"Point","coordinates":[-82.073995,33.516391]}},{"properties":{"CITY":"MOUNT AIRY","ZIP":"","BRANCH":"Army","BG_LONG":-83.501642,"STATE":"GA","id":"a622jy3oa9yl","SCHOOL":"HABERSHAM HIGH SCHOOL","BG_LAT":34.515337},"type":"Feature","geometry":{"type":"Point","coordinates":[-83.501642,34.515337]}},{"properties":{"CITY":"HAMILTON","ZIP":"","BRANCH":"Army","BG_LONG":-86.781985,"STATE":"TN","id":"a622jxya3b1i","SCHOOL":"HAMILTON COUNTY SCHOOL DIST","BG_LAT":35.117997},"type":"Feature","geometry":{"type":"Point","coordinates":[-86.781985,35.117997]}},{"properties":{"CITY":"MARION","ZIP":"","BRANCH":"Army","BG_LONG":-83.121498,"STATE":"OH","id":"a622jy5jbm7g","SCHOOL":"HARDING HIGH SCHOOL","BG_LAT":40.582008},"type":"Feature","geometry":{"type":"Point","coordinates":[-83.121498,40.582008]}},{"properties":{"CITY":"OAK LAWN","ZIP":"","BRANCH":"Army","BG_LONG":-87.752689,"STATE":"IL","id":"a622jyd2qd3w","SCHOOL":"HAROLD L RICHARDS HS","BG_LAT":41.72029},"type":"Feature","geometry":{"type":"Point","coordinates":[-87.752689,41.72029]}},{"properties":{"CITY":"TOWN CREEK","ZIP":"","BRANCH":"Army","BG_LONG":-87.41494,"STATE":"AL","id":"a622jyczl1yx","SCHOOL":"HATTON HIGH SCHOOL","BG_LAT":34.56134},"type":"Feature","geometry":{"type":"Point","coordinates":[-87.41494,34.56134]}},{"properties":{"CITY":"POWDER SPRINGS","ZIP":"","BRANCH":"Army","BG_LONG":-84.684379,"STATE":"GA","id":"a622jybkszn8","SCHOOL":"HILLGROVE HIGH SCHOOL","BG_LAT":33.86013},"type":"Feature","geometry":{"type":"Point","coordinates":[-84.684379,33.86013]}},{"properties":{"CITY":"HITCHCOCK","ZIP":"","BRANCH":"Army","BG_LONG":-95.010524,"STATE":"TX","id":"a622jy4wvcd5","SCHOOL":"HITCHCOCK HS","BG_LAT":29.34666},"type":"Feature","geometry":{"type":"Point","coordinates":[-95.010524,29.34666]}},{"properties":{"CITY":"HOLLYWOOD","ZIP":"","BRANCH":"Army","BG_LONG":-80.160084,"STATE":"FL","id":"a622jyc0ha6k","SCHOOL":"HOLLYWOOD HIGH SCHOOL","BG_LAT":26.010403},"type":"Feature","geometry":{"type":"Point","coordinates":[-80.160084,26.010403]}},{"properties":{"CITY":"BIRMINGHAM","ZIP":"","BRANCH":"Army","BG_LONG":-86.881844,"STATE":"AL","id":"a622jy19enpc","SCHOOL":"HOLY FAMILY HIGH","BG_LAT":33.51022},"type":"Feature","geometry":{"type":"Point","coordinates":[-86.881844,33.51022]}},{"properties":{"CITY":"Fishers","ZIP":"46037","BRANCH":"Air Force","BG_LONG":-85.916779,"STATE":"IN","id":"a622jy3uf8p2","SCHOOL":"Hamilton Southeastern High School","BG_LAT":39.972431},"type":"Feature","geometry":{"type":"Point","coordinates":[-85.916779,39.972431]}},{"properties":{"CITY":"Savannah","ZIP":"38372","BRANCH":"Air Force","BG_LONG":-88.245639,"STATE":"TN","id":"a622jyb8xwef","SCHOOL":"Hardin County High School","BG_LAT":35.224485},"type":"Feature","geometry":{"type":"Point","coordinates":[-88.245639,35.224485]}},{"properties":{"CITY":"Oak Lawn","ZIP":"","BRANCH":"Marines","BG_LONG":-87.752689,"STATE":"IL","id":"a622jy82pcjd","SCHOOL":"Harold L Richard High School","BG_LAT":41.72029},"type":"Feature","geometry":{"type":"Point","coordinates":[-87.752689,41.72029]}},{"properties":{"CITY":"Halwey","ZIP":"79525","BRANCH":"Air Force","BG_LONG":-99.811729,"STATE":"TX","id":"a622jy1msk3i","SCHOOL":"Hawley High School","BG_LAT":32.61288},"type":"Feature","geometry":{"type":"Point","coordinates":[-99.811729,32.61288]}},{"properties":{"CITY":"Hayti","ZIP":"63851","BRANCH":"Air Force","BG_LONG":-89.747963,"STATE":"MO","id":"a622jy149vq0","SCHOOL":"Hayti High School","BG_LAT":36.23708},"type":"Feature","geometry":{"type":"Point","coordinates":[-89.747963,36.23708]}},{"properties":{"CITY":"Heber Springs","ZIP":"72543","BRANCH":"Navy","BG_LONG":-92.036849,"STATE":"AR","id":"a622jyd4kqg4","SCHOOL":"Heber Springs High School","BG_LAT":35.491905},"type":"Feature","geometry":{"type":"Point","coordinates":[-92.036849,35.491905]}},{"properties":{"CITY":"Hedgesville","ZIP":"25427","BRANCH":"Air Force","BG_LONG":-77.995111,"STATE":"WV","id":"a622jy8gnusa","SCHOOL":"Hedgesville High School","BG_LAT":39.553865},"type":"Feature","geometry":{"type":"Point","coordinates":[-77.995111,39.553865]}},{"properties":{"CITY":"Landisville","ZIP":"","BRANCH":"Marines","BG_LONG":-76.410805,"STATE":"PA","id":"a622jy3f8kjl","SCHOOL":"Hempfield High School","BG_LAT":40.095471},"type":"Feature","geometry":{"type":"Point","coordinates":[-76.410805,40.095471]}},{"properties":{"CITY":"Henderson","ZIP":"75653","BRANCH":"Navy","BG_LONG":-94.799269,"STATE":"TX","id":"a622jy7ehfoz","SCHOOL":"Henderson  High School","BG_LAT":32.153264},"type":"Feature","geometry":{"type":"Point","coordinates":[-94.799269,32.153264]}},{"properties":{"CITY":"Pflugerville","ZIP":"78660","BRANCH":"Navy","BG_LONG":-97.619934,"STATE":"TX","id":"a622jycrr0qy","SCHOOL":"Hendrickson","BG_LAT":30.440565},"type":"Feature","geometry":{"type":"Point","coordinates":[-97.619934,30.440565]}},{"properties":{"CITY":"Pflugerville","ZIP":"","BRANCH":"Marines","BG_LONG":-97.619934,"STATE":"TX","id":"a622jy9hzj53","SCHOOL":"Hendrickson High School","BG_LAT":30.440565},"type":"Feature","geometry":{"type":"Point","coordinates":[-97.619934,30.440565]}},{"properties":{"CITY":"Pflugerville","ZIP":"78660","BRANCH":"Air Force","BG_LONG":-97.619934,"STATE":"TX","id":"a622jy32xnf8","SCHOOL":"Hendrickson High School","BG_LAT":30.440565},"type":"Feature","geometry":{"type":"Point","coordinates":[-97.619934,30.440565]}},{"properties":{"CITY":"Paris","ZIP":"","BRANCH":"Marines","BG_LONG":-88.325879,"STATE":"TN","id":"a622jxyh1yrj","SCHOOL":"Henry County High School","BG_LAT":36.301885},"type":"Feature","geometry":{"type":"Point","coordinates":[-88.325879,36.301885]}},{"properties":{"CITY":"Harrisburg","ZIP":"28075","BRANCH":"Air Force","BG_LONG":-80.661514,"STATE":"NC","id":"a622jybkpnni","SCHOOL":"Hickory Ridge High School","BG_LAT":35.32101},"type":"Feature","geometry":{"type":"Point","coordinates":[-80.661514,35.32101]}},{"properties":{"CITY":"Jonesboro","ZIP":"30236","BRANCH":"Navy","BG_LONG":-84.335888,"STATE":"GA","id":"a622jy1sccrv","SCHOOL":"High School #9 High School","BG_LAT":33.530389},"type":"Feature","geometry":{"type":"Point","coordinates":[-84.335888,33.530389]}},{"properties":{"CITY":"Mont Belvieu","ZIP":"77580","BRANCH":"Navy","BG_LONG":-94.892569,"STATE":"TX","id":"a622jy238skh","SCHOOL":"Hill High School","BG_LAT":29.84984},"type":"Feature","geometry":{"type":"Point","coordinates":[-94.892569,29.84984]}},{"properties":{"CITY":"Simpsonville","ZIP":"","BRANCH":"Marines","BG_LONG":-82.255599,"STATE":"SC","id":"a622jy4f5hqs","SCHOOL":"Hillcrest Senior High School","BG_LAT":34.73833},"type":"Feature","geometry":{"type":"Point","coordinates":[-82.255599,34.73833]}},{"properties":{"CITY":"Powder Springs","ZIP":"30127","BRANCH":"Air Force","BG_LONG":-84.684379,"STATE":"GA","id":"a622jy291upz","SCHOOL":"Hillgrove High School","BG_LAT":33.86013},"type":"Feature","geometry":{"type":"Point","coordinates":[-84.684379,33.86013]}},{"properties":{"CITY":"Hilliard","ZIP":"","BRANCH":"Marines","BG_LONG":-81.91848,"STATE":"FL","id":"a622jy713c11","SCHOOL":"Hilliard Middle Senior High School","BG_LAT":30.690531},"type":"Feature","geometry":{"type":"Point","coordinates":[-81.91848,30.690531]}},{"properties":{"CITY":"Hope","ZIP":"71801","BRANCH":"Air Force","BG_LONG":-93.589834,"STATE":"AR","id":"a622jy1bsycv","SCHOOL":"Hope High School","BG_LAT":33.667415},"type":"Feature","geometry":{"type":"Point","coordinates":[-93.589834,33.667415]}},{"properties":{"CITY":"Arkansas","ZIP":"71801","BRANCH":"Navy","BG_LONG":-93.589834,"STATE":"AR","id":"a622jycp7qol","SCHOOL":"Hope High School","BG_LAT":33.667415},"type":"Feature","geometry":{"type":"Point","coordinates":[-93.589834,33.667415]}},{"properties":{"CITY":"Horseheads","ZIP":"14845","BRANCH":"Air Force","BG_LONG":-76.899538,"STATE":"OH","id":"a622jyb1fqqg","SCHOOL":"Horseheads High School","BG_LAT":42.21264},"type":"Feature","geometry":{"type":"Point","coordinates":[-76.899538,42.21264]}},{"properties":{"CITY":"Macon","ZIP":"31210","BRANCH":"Navy","BG_LONG":-83.717249,"STATE":"GA","id":"a622jyc0gezy","SCHOOL":"Howard High School","BG_LAT":32.93649},"type":"Feature","geometry":{"type":"Point","coordinates":[-83.717249,32.93649]}},{"properties":{"CITY":"Humboldt","ZIP":"38343","BRANCH":"Air Force","BG_LONG":-88.908287,"STATE":"TN","id":"a622jy3io8ph","SCHOOL":"Humboldt High School","BG_LAT":35.840099},"type":"Feature","geometry":{"type":"Point","coordinates":[-88.908287,35.840099]}},{"properties":{"CITY":"Belzoni","ZIP":"39038","BRANCH":"Air Force","BG_LONG":-90.485413,"STATE":"MS","id":"a622jy88qp7c","SCHOOL":"Humphreys County High School","BG_LAT":33.186089},"type":"Feature","geometry":{"type":"Point","coordinates":[-90.485413,33.186089]}},{"properties":{"CITY":"INDEPENDENCE","ZIP":"","BRANCH":"Army","BG_LONG":-90.494461,"STATE":"LA","id":"a622jy9cgztk","SCHOOL":"INDEPENDENCE HIGH SCHOOL","BG_LAT":30.634859},"type":"Feature","geometry":{"type":"Point","coordinates":[-90.494461,30.634859]}},{"properties":{"CITY":"INDIO","ZIP":"","BRANCH":"Army","BG_LONG":-116.239807,"STATE":"CA","id":"a622jy9fe9z1","SCHOOL":"INDIO HIGH SCHOOL","BG_LAT":33.714771},"type":"Feature","geometry":{"type":"Point","coordinates":[-116.239807,33.714771]}},{"properties":{"CITY":"OCILLA","ZIP":"","BRANCH":"Army","BG_LONG":-83.250513,"STATE":"GA","id":"a622jydukktf","SCHOOL":"IRWIN COUNTY HIGH SCHOOL","BG_LAT":31.594855},"type":"Feature","geometry":{"type":"Point","coordinates":[-83.250513,31.594855]}},{"properties":{"CITY":"CAPE CORAL","ZIP":"","BRANCH":"Army","BG_LONG":-81.956939,"STATE":"FL","id":"a622jy2cko8w","SCHOOL":"ISLAND COAST HIGH SCHOOL","BG_LAT":26.62982},"type":"Feature","geometry":{"type":"Point","coordinates":[-81.956939,26.62982]}},{"properties":{"CITY":"Independence","ZIP":"","BRANCH":"Marines","BG_LONG":-90.494461,"STATE":"LA","id":"a622jyafw020","SCHOOL":"Independence High School","BG_LAT":30.634859},"type":"Feature","geometry":{"type":"Point","coordinates":[-90.494461,30.634859]}},{"properties":{"CITY":"Independence","ZIP":"38638","BRANCH":"Air Force","BG_LONG":-89.810245,"STATE":"MS","id":"a622jyb04evc","SCHOOL":"Independence High School","BG_LAT":34.706384},"type":"Feature","geometry":{"type":"Point","coordinates":[-89.810245,34.706384]}},{"properties":{"CITY":"JACKSONVILLE","ZIP":"","BRANCH":"Army","BG_LONG":-95.25322,"STATE":"TX","id":"a622jy66s4px","SCHOOL":"JACKSONVILLE HIGH SCHOOL","BG_LAT":31.9543},"type":"Feature","geometry":{"type":"Point","coordinates":[-95.25322,31.9543]}},{"properties":{"CITY":"JAMAICA","ZIP":"","BRANCH":"Army","BG_LONG":-73.797462,"STATE":"NY","id":"a622jyd0fpvc","SCHOOL":"JAMAICA HIGH SCHOOL","BG_LAT":40.713181},"type":"Feature","geometry":{"type":"Point","coordinates":[-73.797462,40.713181]}},{"properties":{"CITY":"MONTICELLO","ZIP":"","BRANCH":"Army","BG_LONG":-83.682995,"STATE":"GA","id":"a622jy4dkzsz","SCHOOL":"JASPER HIGH SCHOOL","BG_LAT":33.304408},"type":"Feature","geometry":{"type":"Point","coordinates":[-83.682995,33.304408]}},{"properties":{"CITY":"CHINA GROVE","ZIP":"","BRANCH":"Army","BG_LONG":-80.579909,"STATE":"NC","id":"a622jy917ytd","SCHOOL":"JESSE C CARSON HS (NEED 3126)","BG_LAT":35.57191},"type":"Feature","geometry":{"type":"Point","coordinates":[-80.579909,35.57191]}},{"properties":{"CITY":"VALDESE","ZIP":"","BRANCH":"Army","BG_LONG":-81.564794,"STATE":"NC","id":"a622jy7y1ing","SCHOOL":"JIMMY C DRAUGHN HS","BG_LAT":35.744015},"type":"Feature","geometry":{"type":"Point","coordinates":[-81.564794,35.744015]}},{"properties":{"CITY":"INDIANAPOLIS","ZIP":"","BRANCH":"Army","BG_LONG":-86.149964,"STATE":"IN","id":"a622jydd2zjj","SCHOOL":"JOHN MARSHALL HIGH SCHOOL","BG_LAT":39.76691},"type":"Feature","geometry":{"type":"Point","coordinates":[-86.149964,39.76691]}},{"properties":{"CITY":"SILER CITY","ZIP":"","BRANCH":"Army","BG_LONG":-79.462484,"STATE":"NC","id":"a622jy2kpgr3","SCHOOL":"JORDAN MATTHEWS HS","BG_LAT":35.723855},"type":"Feature","geometry":{"type":"Point","coordinates":[-79.462484,35.723855]}},{"properties":{"CITY":"FAIRFAX","ZIP":"","BRANCH":"Army","BG_LONG":-77.308132,"STATE":"VA","id":"a622jyantono","SCHOOL":"JW ROBINSON SECONDARY SCH","BG_LAT":38.841574},"type":"Feature","geometry":{"type":"Point","coordinates":[-77.308132,38.841574]}},{"properties":{"CITY":"Lafayette","ZIP":"47905","BRANCH":"Navy","BG_LONG":-86.876518,"STATE":"IN","id":"a622jy8jk94x","SCHOOL":"Jefferson High School","BG_LAT":40.39859},"type":"Feature","geometry":{"type":"Point","coordinates":[-86.876518,40.39859]}},{"properties":{"CITY":"Baltimore","ZIP":"21213","BRANCH":"Navy","BG_LONG":-76.579977,"STATE":"MD","id":"a622jxziyi6n","SCHOOL":"Jemison Academy","BG_LAT":39.314238},"type":"Feature","geometry":{"type":"Point","coordinates":[-76.579977,39.314238]}},{"properties":{"CITY":"Valdese","ZIP":"","BRANCH":"Marines","BG_LONG":-81.564794,"STATE":"NC","id":"a622jy8xeq9i","SCHOOL":"Jimmy C Draughn High School","BG_LAT":35.744015},"type":"Feature","geometry":{"type":"Point","coordinates":[-81.564794,35.744015]}},{"properties":{"CITY":"Miami","ZIP":"","BRANCH":"Marines","BG_LONG":-80.237419,"STATE":"FL","id":"a622jychjrpa","SCHOOL":"John A Ferguson Senior High School","BG_LAT":25.728985},"type":"Feature","geometry":{"type":"Point","coordinates":[-80.237419,25.728985]}},{"properties":{"CITY":"Goshen","ZIP":"","BRANCH":"Marines","BG_LONG":-74.340561,"STATE":"NY","id":"a622jycl0b75","SCHOOL":"John S. Burke Catholic High School","BG_LAT":41.406898},"type":"Feature","geometry":{"type":"Point","coordinates":[-74.340561,41.406898]}},{"properties":{"CITY":"KEYSTONE HEIGHTS","ZIP":"","BRANCH":"Army","BG_LONG":-82.031288,"STATE":"FL","id":"a622jye7n8dt","SCHOOL":"KEYSTONE HEIGHTS HIGH SCHOOL","BG_LAT":29.78558},"type":"Feature","geometry":{"type":"Point","coordinates":[-82.031288,29.78558]}},{"properties":{"CITY":"WOODSTOCK","ZIP":"","BRANCH":"Army","BG_LONG":-84.518794,"STATE":"GA","id":"a622jyamqozv","SCHOOL":"KINGS ACADEMY","BG_LAT":34.102845},"type":"Feature","geometry":{"type":"Point","coordinates":[-84.518794,34.102845]}},{"properties":{"CITY":"KINGS MOUNTAIN","ZIP":"","BRANCH":"Army","BG_LONG":-81.365883,"STATE":"NC","id":"a622jy7ck9sv","SCHOOL":"KINGS MOUNTAIN HIGH SCHOOL","BG_LAT":35.235691},"type":"Feature","geometry":{"type":"Point","coordinates":[-81.365883,35.235691]}},{"properties":{"CITY":"KINGWOOD","ZIP":"","BRANCH":"Army","BG_LONG":-95.208107,"STATE":"TX","id":"a622jy119nsv","SCHOOL":"KINGWOOD HIGH SCHOOL","BG_LAT":30.045891},"type":"Feature","geometry":{"type":"Point","coordinates":[-95.208107,30.045891]}},{"properties":{"CITY":"Kapolei","ZIP":"96707","BRANCH":"Navy","BG_LONG":-158.081904,"STATE":"HI","id":"a622jy2tzgjk","SCHOOL":"Kapolei High School","BG_LAT":21.33422},"type":"Feature","geometry":{"type":"Point","coordinates":[-158.081904,21.33422]}},{"properties":{"CITY":"Katy","ZIP":"77494","BRANCH":"Navy","BG_LONG":-95.811829,"STATE":"TX","id":"a622jy2t69fs","SCHOOL":"Katy High School","BG_LAT":29.7808},"type":"Feature","geometry":{"type":"Point","coordinates":[-95.811829,29.7808]}},{"properties":{"CITY":"Marietta","ZIP":"30066","BRANCH":"Air Force","BG_LONG":-84.53244,"STATE":"GA","id":"a622jy8hu7xt","SCHOOL":"Kell High School","BG_LAT":33.986978},"type":"Feature","geometry":{"type":"Point","coordinates":[-84.53244,33.986978]}},{"properties":{"CITY":"Marietta","ZIP":"30066","BRANCH":"Navy","BG_LONG":-84.53244,"STATE":"GA","id":"a622jy6u4kdy","SCHOOL":"Kell High School","BG_LAT":33.986978},"type":"Feature","geometry":{"type":"Point","coordinates":[-84.53244,33.986978]}},{"properties":{"CITY":"Worton","ZIP":"21678","BRANCH":"Air Force","BG_LONG":-76.076241,"STATE":"MD","id":"a622jybpns8r","SCHOOL":"Kent County High School","BG_LAT":39.29504},"type":"Feature","geometry":{"type":"Point","coordinates":[-76.076241,39.29504]}},{"properties":{"CITY":"Worton","ZIP":"","BRANCH":"Marines","BG_LONG":-76.076241,"STATE":"MD","id":"a622jy9v9vva","SCHOOL":"Kent County High School","BG_LAT":39.29504},"type":"Feature","geometry":{"type":"Point","coordinates":[-76.076241,39.29504]}},{"properties":{"CITY":"Keystone Heights","ZIP":"32656","BRANCH":"Navy","BG_LONG":-81.982294,"STATE":"FL","id":"a622jye55gwl","SCHOOL":"Keystone Heights Jr Sr High School","BG_LAT":29.80387},"type":"Feature","geometry":{"type":"Point","coordinates":[-81.982294,29.80387]}},{"properties":{"CITY":"Kings Mountain","ZIP":"","BRANCH":"Marines","BG_LONG":-81.365883,"STATE":"NC","id":"a622jydhztp8","SCHOOL":"Kings Mountain High School","BG_LAT":35.235691},"type":"Feature","geometry":{"type":"Point","coordinates":[-81.365883,35.235691]}},{"properties":{"CITY":"Kings Mountain","ZIP":"28086","BRANCH":"Air Force","BG_LONG":-81.365883,"STATE":"NC","id":"a622jye2jvug","SCHOOL":"Kings Mountain High School","BG_LAT":35.235691},"type":"Feature","geometry":{"type":"Point","coordinates":[-81.365883,35.235691]}},{"properties":{"CITY":"Woolwich Township","ZIP":"8085","BRANCH":"Air Force","BG_LONG":-75.304466,"STATE":"NJ","id":"a622jy6f9wdl","SCHOOL":"Kingsway Regional High School","BG_LAT":39.754951},"type":"Feature","geometry":{"type":"Point","coordinates":[-75.304466,39.754951]}},{"properties":{"CITY":"Kingwood","ZIP":"77339","BRANCH":"Navy","BG_LONG":-95.197615,"STATE":"TX","id":"a622jxzrei5m","SCHOOL":"Kingwood Park High School","BG_LAT":30.041053},"type":"Feature","geometry":{"type":"Point","coordinates":[-95.197615,30.041053]}},{"properties":{"CITY":"Saxonburg","ZIP":"16056","BRANCH":"Air Force","BG_LONG":-79.814373,"STATE":"PA","id":"a622jxy7q0rk","SCHOOL":"Knoch High School*","BG_LAT":40.726236},"type":"Feature","geometry":{"type":"Point","coordinates":[-79.814373,40.726236]}},{"properties":{"CITY":"Barbourville","ZIP":"","BRANCH":"Marines","BG_LONG":-83.887654,"STATE":"KY","id":"a622jy3ta3gl","SCHOOL":"Knox Central High School","BG_LAT":36.865715},"type":"Feature","geometry":{"type":"Point","coordinates":[-83.887654,36.865715]}},{"properties":{"CITY":"LA FERIA","ZIP":"","BRANCH":"Army","BG_LONG":-97.828293,"STATE":"TX","id":"a622jy870na1","SCHOOL":"LA FERIA HIGH SCHOOL","BG_LAT":26.16164},"type":"Feature","geometry":{"type":"Point","coordinates":[-97.828293,26.16164]}},{"properties":{"CITY":"LA JOYA","ZIP":"","BRANCH":"Army","BG_LONG":-98.479499,"STATE":"TX","id":"a622jy8sgxpd","SCHOOL":"LA JOYA JUAREZ-LINCOLN HIGH SCHOOL","BG_LAT":26.247615},"type":"Feature","geometry":{"type":"Point","coordinates":[-98.479499,26.247615]}},{"properties":{"CITY":"LAHAINA","ZIP":"","BRANCH":"Army","BG_LONG":-156.660095,"STATE":"HI","id":"a622jya7s0ud","SCHOOL":"LAHAINALUNA HIGH SCHOOL","BG_LAT":20.887159},"type":"Feature","geometry":{"type":"Point","coordinates":[-156.660095,20.887159]}},{"properties":{"CITY":"MANDEVILLE","ZIP":"","BRANCH":"Army","BG_LONG":-90.060866,"STATE":"LA","id":"a622jy5u3ek5","SCHOOL":"LAKESHORE HS","BG_LAT":30.394314},"type":"Feature","geometry":{"type":"Point","coordinates":[-90.060866,30.394314]}},{"properties":{"CITY":"BARNESVILLE","ZIP":"","BRANCH":"Army","BG_LONG":-84.152844,"STATE":"GA","id":"a622jxzpla9l","SCHOOL":"LAMAR CTY COMP HIGH SCHOOL","BG_LAT":33.054565},"type":"Feature","geometry":{"type":"Point","coordinates":[-84.152844,33.054565]}},{"properties":{"CITY":"LATHROP","ZIP":"","BRANCH":"Army","BG_LONG":-121.302544,"STATE":"CA","id":"a622jye98z4e","SCHOOL":"LATHROP HIGH SCHOOL","BG_LAT":37.804395},"type":"Feature","geometry":{"type":"Point","coordinates":[-121.302544,37.804395]}},{"properties":{"CITY":"RUSKIN","ZIP":"","BRANCH":"Army","BG_LONG":-82.434009,"STATE":"FL","id":"a622jxyoyez6","SCHOOL":"LENNARD HIGH SCHOOL","BG_LAT":27.71814},"type":"Feature","geometry":{"type":"Point","coordinates":[-82.434009,27.71814]}},{"properties":{"CITY":"KISSIMMEE","ZIP":"","BRANCH":"Army","BG_LONG":-81.406744,"STATE":"FL","id":"a622jxy8gvmz","SCHOOL":"LIBERTY HIGH SCHOOL","BG_LAT":28.29443},"type":"Feature","geometry":{"type":"Point","coordinates":[-81.406744,28.29443]}},{"properties":{"CITY":"LIVINGSTON","ZIP":"","BRANCH":"Army","BG_LONG":-94.937894,"STATE":"TX","id":"a622jy6bw9io","SCHOOL":"LIVINGSTON HIGH SCHOOL","BG_LAT":30.710945},"type":"Feature","geometry":{"type":"Point","coordinates":[-94.937894,30.710945]}},{"properties":{"CITY":"LOCUST GROVE","ZIP":"","BRANCH":"Army","BG_LONG":-84.14598,"STATE":"GA","id":"a622jy00d87n","SCHOOL":"LOCUST GROVE HS","BG_LAT":33.304562},"type":"Feature","geometry":{"type":"Point","coordinates":[-84.14598,33.304562]}},{"properties":{"CITY":"LUDOWICI","ZIP":"","BRANCH":"Army","BG_LONG":-81.741043,"STATE":"GA","id":"a622jy54x8fo","SCHOOL":"LONG COUNTY HIGH SCHOOL","BG_LAT":31.706605},"type":"Feature","geometry":{"type":"Point","coordinates":[-81.741043,31.706605]}},{"properties":{"CITY":"MIDDLE ISLAND","ZIP":"","BRANCH":"Army","BG_LONG":-72.936546,"STATE":"NY","id":"a622jy1k0e3d","SCHOOL":"LONGWOOD HIGH SCHOOL","BG_LAT":40.865379},"type":"Feature","geometry":{"type":"Point","coordinates":[-72.936546,40.865379]}},{"properties":{"CITY":"HUMMELSTOWN","ZIP":"","BRANCH":"Army","BG_LONG":-76.707594,"STATE":"PA","id":"a622jycvnikp","SCHOOL":"LOWER DAUPHIN SR HIGH SCHOOL","BG_LAT":40.26268},"type":"Feature","geometry":{"type":"Point","coordinates":[-76.707594,40.26268]}},{"properties":{"CITY":"Visalia","ZIP":"93292","BRANCH":"Navy","BG_LONG":-119.274132,"STATE":"CA","id":"a622jy617edb","SCHOOL":"La Sierra High  School","BG_LAT":36.34182},"type":"Feature","geometry":{"type":"Point","coordinates":[-119.274132,36.34182]}},{"properties":{"CITY":"La Vernia","ZIP":"78121","BRANCH":"Air Force","BG_LONG":-98.110947,"STATE":"TX","id":"a622jy8ruqtq","SCHOOL":"La Vernia High School","BG_LAT":29.35751},"type":"Feature","geometry":{"type":"Point","coordinates":[-98.110947,29.35751]}},{"properties":{"CITY":"Lanoka Harbor","ZIP":"08734","BRANCH":"Navy","BG_LONG":-74.175117,"STATE":"NJ","id":"a622jy3j8d5o","SCHOOL":"Lacey Township High School","BG_LAT":39.855961},"type":"Feature","geometry":{"type":"Point","coordinates":[-74.175117,39.855961]}},{"properties":{"CITY":"Lahaina","ZIP":"96761","BRANCH":"Air Force","BG_LONG":-156.660095,"STATE":"HI","id":"a622jye1219w","SCHOOL":"Lahainaluna High School","BG_LAT":20.887159},"type":"Feature","geometry":{"type":"Point","coordinates":[-156.660095,20.887159]}},{"properties":{"CITY":"Burke","ZIP":"22042","BRANCH":"Navy","BG_LONG":-77.193449,"STATE":"VA","id":"a622jy4t8agk","SCHOOL":"Lake Braddock  Secondary School","BG_LAT":38.86635},"type":"Feature","geometry":{"type":"Point","coordinates":[-77.193449,38.86635]}},{"properties":{"CITY":"Burke","ZIP":"22015","BRANCH":"Air Force","BG_LONG":-77.272279,"STATE":"VA","id":"a622jy3txgog","SCHOOL":"Lake Braddock Secondary School*","BG_LAT":38.793234},"type":"Feature","geometry":{"type":"Point","coordinates":[-77.272279,38.793234]}},{"properties":{"CITY":"Austin","ZIP":"","BRANCH":"Marines","BG_LONG":-97.950859,"STATE":"TX","id":"a622jy918xlx","SCHOOL":"Lake Travis High School","BG_LAT":30.31884},"type":"Feature","geometry":{"type":"Point","coordinates":[-97.950859,30.31884]}},{"properties":{"CITY":"Uniontown","ZIP":"15401","BRANCH":"Navy","BG_LONG":-79.717048,"STATE":"PA","id":"a622jya1iux1","SCHOOL":"Laurel Highlands","BG_LAT":39.880959},"type":"Feature","geometry":{"type":"Point","coordinates":[-79.717048,39.880959]}},{"properties":{"CITY":"Lebanon","ZIP":"","BRANCH":"Marines","BG_LONG":-76.425934,"STATE":"PA","id":"a622jy3liblk","SCHOOL":"Lebanon High School","BG_LAT":40.330195},"type":"Feature","geometry":{"type":"Point","coordinates":[-76.425934,40.330195]}},{"properties":{"CITY":"Staunton","ZIP":"24401","BRANCH":"Navy","BG_LONG":-79.072719,"STATE":"VA","id":"a622jy1naeqc","SCHOOL":"Lee High School","BG_LAT":38.150015},"type":"Feature","geometry":{"type":"Point","coordinates":[-79.072719,38.150015]}},{"properties":{"CITY":"Kyle","ZIP":"78640","BRANCH":"Air Force","BG_LONG":-97.877369,"STATE":"TX","id":"a622jyberztp","SCHOOL":"Lehman High School","BG_LAT":29.98837},"type":"Feature","geometry":{"type":"Point","coordinates":[-97.877369,29.98837]}},{"properties":{"CITY":"Ruskin","ZIP":"33570","BRANCH":"Navy","BG_LONG":-82.434009,"STATE":"FL","id":"a622jy5swpvd","SCHOOL":"Lennard High School","BG_LAT":27.71814},"type":"Feature","geometry":{"type":"Point","coordinates":[-82.434009,27.71814]}},{"properties":{"CITY":"Stanford","ZIP":"","BRANCH":"Marines","BG_LONG":-84.659779,"STATE":"KY","id":"a622jy6xybqx","SCHOOL":"Lincoln High School","BG_LAT":37.52957},"type":"Feature","geometry":{"type":"Point","coordinates":[-84.659779,37.52957]}},{"properties":{"CITY":"New Lenox","ZIP":"60451","BRANCH":"Navy","BG_LONG":-87.968869,"STATE":"IL","id":"a622jy4yunwt","SCHOOL":"Lincoln-Way West High School","BG_LAT":41.51211},"type":"Feature","geometry":{"type":"Point","coordinates":[-87.968869,41.51211]}},{"properties":{"CITY":"Long Branch","ZIP":"7740","BRANCH":"Air Force","BG_LONG":-73.993538,"STATE":"NJ","id":"a622jy0g35jl","SCHOOL":"Long Branch High School","BG_LAT":40.292091},"type":"Feature","geometry":{"type":"Point","coordinates":[-73.993538,40.292091]}},{"properties":{"CITY":"Leesburg","ZIP":"20175","BRANCH":"Air Force","BG_LONG":-77.578339,"STATE":"VA","id":"a622jy2hczv4","SCHOOL":"Loudoun County High School","BG_LAT":39.1106},"type":"Feature","geometry":{"type":"Point","coordinates":[-77.578339,39.1106]}},{"properties":{"CITY":"Mineral","ZIP":"","BRANCH":"Marines","BG_LONG":-77.907949,"STATE":"VA","id":"a622jy9q7oe9","SCHOOL":"Louisa High School","BG_LAT":38.01073},"type":"Feature","geometry":{"type":"Point","coordinates":[-77.907949,38.01073]}},{"properties":{"CITY":"Cape May","ZIP":"08204","BRANCH":"Navy","BG_LONG":-74.948929,"STATE":"NJ","id":"a622jy4a4h26","SCHOOL":"Lower Cape May Regional","BG_LAT":38.973202},"type":"Feature","geometry":{"type":"Point","coordinates":[-74.948929,38.973202]}},{"properties":{"CITY":"Parkland","ZIP":"","BRANCH":"Marines","BG_LONG":-80.25132,"STATE":"FL","id":"a622jy1amddv","SCHOOL":"M.S. Douglas High School","BG_LAT":26.31624},"type":"Feature","geometry":{"type":"Point","coordinates":[-80.25132,26.31624]}},{"properties":{"CITY":"MABANK","ZIP":"","BRANCH":"Army","BG_LONG":-96.11425,"STATE":"TX","id":"a622jy3bvned","SCHOOL":"MABANK HIGH SCHOOL","BG_LAT":32.36974},"type":"Feature","geometry":{"type":"Point","coordinates":[-96.11425,32.36974]}},{"properties":{"CITY":"MADISON","ZIP":"","BRANCH":"Army","BG_LONG":-84.017906,"STATE":"MI","id":"a622jy98v0na","SCHOOL":"MADISON HIGH SCHOOL","BG_LAT":41.866692},"type":"Feature","geometry":{"type":"Point","coordinates":[-84.017906,41.866692]}},{"properties":{"CITY":"CHARLOTTE","ZIP":"","BRANCH":"Army","BG_LONG":-80.831906,"STATE":"NC","id":"a622jy7q4sla","SCHOOL":"MALLARD CREEK HIGH SCHOOL","BG_LAT":35.167922},"type":"Feature","geometry":{"type":"Point","coordinates":[-80.831906,35.167922]}},{"properties":{"CITY":"MANSFIELD","ZIP":"","BRANCH":"Army","BG_LONG":-97.141939,"STATE":"TX","id":"a622jxytfjxl","SCHOOL":"MANSFIELD LEGACY HIGH SCHOOL","BG_LAT":32.564385},"type":"Feature","geometry":{"type":"Point","coordinates":[-97.141939,32.564385]}},{"properties":{"CITY":"QUEENS VILLAGE","ZIP":"","BRANCH":"Army","BG_LONG":-73.739929,"STATE":"NY","id":"a622jxz5k28x","SCHOOL":"MARTIN VAN BUREN HIGH SCHOOL","BG_LAT":40.732681},"type":"Feature","geometry":{"type":"Point","coordinates":[-73.739929,40.732681]}},{"properties":{"CITY":"FREDERICKSBURG","ZIP":"","BRANCH":"Army","BG_LONG":-77.520242,"STATE":"VA","id":"a622jybi9v7k","SCHOOL":"MASSAPONAX HIGH SCHOOL","BG_LAT":38.194312},"type":"Feature","geometry":{"type":"Point","coordinates":[-77.520242,38.194312]}},{"properties":{"CITY":"MCBEE","ZIP":"","BRANCH":"Army","BG_LONG":-80.256234,"STATE":"SC","id":"a622jy7tc7yw","SCHOOL":"MCBEE HIGH SCHOOL","BG_LAT":34.468385},"type":"Feature","geometry":{"type":"Point","coordinates":[-80.256234,34.468385]}},{"properties":{"CITY":"WELCH","ZIP":"","BRANCH":"Army","BG_LONG":-81.58506,"STATE":"WV","id":"a622jy20lx54","SCHOOL":"MCDOWELL COUNTY CAREER &amp; TECH","BG_LAT":37.428982},"type":"Feature","geometry":{"type":"Point","coordinates":[-81.58506,37.428982]}},{"properties":{"CITY":"BATON ROUGE","ZIP":"","BRANCH":"Army","BG_LONG":-91.186874,"STATE":"LA","id":"a622jxyia9n2","SCHOOL":"MCKINLEY HIGH SCHOOL","BG_LAT":30.44342},"type":"Feature","geometry":{"type":"Point","coordinates":[-91.186874,30.44342]}},{"properties":{"CITY":"WASHINGTON","ZIP":"","BRANCH":"Army","BG_LONG":-77.031959,"STATE":"DC","id":"a622jy8kxj7k","SCHOOL":"MCKINLEY TECH HIGH SCHOOL","BG_LAT":38.89037},"type":"Feature","geometry":{"type":"Point","coordinates":[-77.031959,38.89037]}},{"properties":{"CITY":"BUFFALO","ZIP":"","BRANCH":"Army","BG_LONG":-78.878464,"STATE":"NY","id":"a622jyeeet8b","SCHOOL":"MIDDLE COLLEGE HIGH SCHOOL","BG_LAT":42.88544},"type":"Feature","geometry":{"type":"Point","coordinates":[-78.878464,42.88544]}},{"properties":{"CITY":"MILIANI","ZIP":"","BRANCH":"Army","BG_LONG":-158.007675,"STATE":"HI","id":"a622jy5v2uhb","SCHOOL":"MILILANI HIGH SCHOOL","BG_LAT":21.45392},"type":"Feature","geometry":{"type":"Point","coordinates":[-158.007675,21.45392]}},{"properties":{"CITY":"MINDEN","ZIP":"","BRANCH":"Army","BG_LONG":-93.285999,"STATE":"LA","id":"a622jy7ankrn","SCHOOL":"MINDEN HIGH SCHOOL","BG_LAT":32.61518},"type":"Feature","geometry":{"type":"Point","coordinates":[-93.285999,32.61518]}},{"properties":{"CITY":"DENVER","ZIP":"","BRANCH":"Army","BG_LONG":-104.902544,"STATE":"CO","id":"a622jya90a95","SCHOOL":"MLK EARLY JR COLLEGE","BG_LAT":39.761975},"type":"Feature","geometry":{"type":"Point","coordinates":[-104.902544,39.761975]}},{"properties":{"CITY":"MONTICELLO","ZIP":"","BRANCH":"Army","BG_LONG":-91.81205,"STATE":"AR","id":"a622jy8ta5c5","SCHOOL":"MONTICELLO HIGH SCHOOL","BG_LAT":33.613548},"type":"Feature","geometry":{"type":"Point","coordinates":[-91.81205,33.613548]}},{"properties":{"CITY":"WARTBURG","ZIP":"","BRANCH":"Army","BG_LONG":-84.547637,"STATE":"TN","id":"a622jye7om7j","SCHOOL":"MORGAN COUNTY VO-TECH","BG_LAT":36.078455},"type":"Feature","geometry":{"type":"Point","coordinates":[-84.547637,36.078455]}},{"properties":{"CITY":"CHATSWORTH","ZIP":"","BRANCH":"Army","BG_LONG":-84.769577,"STATE":"GA","id":"a622jy6j26th","SCHOOL":"MURRAY COUNTY (School not named)","BG_LAT":34.7668},"type":"Feature","geometry":{"type":"Point","coordinates":[-84.769577,34.7668]}},{"properties":{"CITY":"Mabank","ZIP":"75147","BRANCH":"Navy","BG_LONG":-96.11425,"STATE":"TX","id":"a622jy0emm6b","SCHOOL":"Mabank High School","BG_LAT":32.36974},"type":"Feature","geometry":{"type":"Point","coordinates":[-96.11425,32.36974]}},{"properties":{"CITY":"Marshall","ZIP":"","BRANCH":"Marines","BG_LONG":-82.633796,"STATE":"NC","id":"a622jybq7yvk","SCHOOL":"Madison High School","BG_LAT":35.826895},"type":"Feature","geometry":{"type":"Point","coordinates":[-82.633796,35.826895]}},{"properties":{"CITY":"Magnolia","ZIP":"77354","BRANCH":"Navy","BG_LONG":-95.595885,"STATE":"TX","id":"a622jycfmx9d","SCHOOL":"Magnolia West High School","BG_LAT":30.155458},"type":"Feature","geometry":{"type":"Point","coordinates":[-95.595885,30.155458]}},{"properties":{"CITY":"Manor","ZIP":"78653","BRANCH":"Navy","BG_LONG":-97.560898,"STATE":"TX","id":"a622jya9ovzc","SCHOOL":"Manor","BG_LAT":30.353081},"type":"Feature","geometry":{"type":"Point","coordinates":[-97.560898,30.353081]}},{"properties":{"CITY":"Maple Heights","ZIP":"44137","BRANCH":"Air Force","BG_LONG":-81.583434,"STATE":"OH","id":"a622jyaavzch","SCHOOL":"Maple Heights Senior High School","BG_LAT":41.41983},"type":"Feature","geometry":{"type":"Point","coordinates":[-81.583434,41.41983]}},{"properties":{"CITY":"Tucson","ZIP":"85743","BRANCH":"Air Force","BG_LONG":-111.220879,"STATE":"AZ","id":"a622jy8hwga0","SCHOOL":"Marana High School","BG_LAT":32.366199},"type":"Feature","geometry":{"type":"Point","coordinates":[-111.220879,32.366199]}},{"properties":{"CITY":"Maricopa","ZIP":"85239","BRANCH":"Air Force","BG_LONG":-112.200984,"STATE":"AZ","id":"a622jyb1nw2p","SCHOOL":"Maricopa High School","BG_LAT":33.07217},"type":"Feature","geometry":{"type":"Point","coordinates":[-112.200984,33.07217]}},{"properties":{"CITY":"Jasper","ZIP":"37347","BRANCH":"Navy","BG_LONG":-85.624809,"STATE":"TN","id":"a622jy27yeuh","SCHOOL":"Marion Academy","BG_LAT":35.080285},"type":"Feature","geometry":{"type":"Point","coordinates":[-85.624809,35.080285]}},{"properties":{"CITY":"Jasper","ZIP":"37347","BRANCH":"Navy","BG_LONG":-85.624809,"STATE":"TN","id":"a622jychboef","SCHOOL":"Marion County High School","BG_LAT":35.080285},"type":"Feature","geometry":{"type":"Point","coordinates":[-85.624809,35.080285]}},{"properties":{"CITY":"Philadelphia","ZIP":"19137","BRANCH":"Navy","BG_LONG":-75.070114,"STATE":"PA","id":"a622jy4xq037","SCHOOL":"Maritime Academy Charter","BG_LAT":40.000155},"type":"Feature","geometry":{"type":"Point","coordinates":[-75.070114,40.000155]}},{"properties":{"CITY":"Aberdeen","ZIP":"07747","BRANCH":"Navy","BG_LONG":-74.225471,"STATE":"NJ","id":"a622jycpu1ck","SCHOOL":"Matawan Regional High School","BG_LAT":40.40691},"type":"Feature","geometry":{"type":"Point","coordinates":[-74.225471,40.40691]}},{"properties":{"CITY":"Aberdeen","ZIP":"7747","BRANCH":"Air Force","BG_LONG":-74.225471,"STATE":"NJ","id":"a622jy7gbfk7","SCHOOL":"Matawan Regional High School","BG_LAT":40.40691},"type":"Feature","geometry":{"type":"Point","coordinates":[-74.225471,40.40691]}},{"properties":{"CITY":"Hialeah Gardens","ZIP":"33016","BRANCH":"Navy","BG_LONG":-80.338942,"STATE":"FL","id":"a622jy1g8chj","SCHOOL":"Mater Academy Charter High","BG_LAT":25.86792},"type":"Feature","geometry":{"type":"Point","coordinates":[-80.338942,25.86792]}},{"properties":{"CITY":"Mathis","ZIP":"78368","BRANCH":"Navy","BG_LONG":-97.816017,"STATE":"TX","id":"a622jybwyfpy","SCHOOL":"Mathis High School","BG_LAT":28.085079},"type":"Feature","geometry":{"type":"Point","coordinates":[-97.816017,28.085079]}},{"properties":{"CITY":"Ettrick","ZIP":"","BRANCH":"Marines","BG_LONG":-77.472733,"STATE":"VA","id":"a622jxy0xukb","SCHOOL":"Matoaca High School","BG_LAT":37.255268},"type":"Feature","geometry":{"type":"Point","coordinates":[-77.472733,37.255268]}},{"properties":{"CITY":"Swan Quarter","ZIP":"27885","BRANCH":"Air Force","BG_LONG":-76.216856,"STATE":"NC","id":"a622jyawv7cq","SCHOOL":"Mattamuskeet High School","BG_LAT":35.441768},"type":"Feature","geometry":{"type":"Point","coordinates":[-76.216856,35.441768]}},{"properties":{"CITY":"Selmer","ZIP":"38375","BRANCH":"Air Force","BG_LONG":-88.591809,"STATE":"TN","id":"a622jydriyp7","SCHOOL":"McNairy Central High School","BG_LAT":35.169775},"type":"Feature","geometry":{"type":"Point","coordinates":[-88.591809,35.169775]}},{"properties":{"CITY":"Mexia","ZIP":"76667","BRANCH":"Air Force","BG_LONG":-96.474953,"STATE":"TX","id":"a622jy6spooe","SCHOOL":"Mexia High School","BG_LAT":31.694389},"type":"Feature","geometry":{"type":"Point","coordinates":[-96.474953,31.694389]}},{"properties":{"CITY":"Raleigh","ZIP":"27615","BRANCH":"Navy","BG_LONG":-78.602661,"STATE":"NC","id":"a622jy33hoqk","SCHOOL":"Millbrook High School","BG_LAT":35.863251},"type":"Feature","geometry":{"type":"Point","coordinates":[-78.602661,35.863251]}},{"properties":{"CITY":"Minden","ZIP":"71058","BRANCH":"Air Force","BG_LONG":-93.285999,"STATE":"LA","id":"a622jy785kop","SCHOOL":"Minden High School","BG_LAT":32.61518},"type":"Feature","geometry":{"type":"Point","coordinates":[-93.285999,32.61518]}},{"properties":{"CITY":"Bakersville","ZIP":"28705","BRANCH":"Navy","BG_LONG":-82.158446,"STATE":"NC","id":"a622jy6dnzke","SCHOOL":"Mitchell High School","BG_LAT":36.015274},"type":"Feature","geometry":{"type":"Point","coordinates":[-82.158446,36.015274]}},{"properties":{"CITY":"North Las Vegas","ZIP":"","BRANCH":"Marines","BG_LONG":-115.184601,"STATE":"NV","id":"a622jya6or6s","SCHOOL":"Mojave High School","BG_LAT":36.232071},"type":"Feature","geometry":{"type":"Point","coordinates":[-115.184601,36.232071]}},{"properties":{"CITY":"Mojave","ZIP":"93501","BRANCH":"Air Force","BG_LONG":-118.167267,"STATE":"CA","id":"a622jy2e5fhv","SCHOOL":"Mojave Senior High School","BG_LAT":35.051418},"type":"Feature","geometry":{"type":"Point","coordinates":[-118.167267,35.051418]}},{"properties":{"CITY":"Montgomery","ZIP":"","BRANCH":"Marines","BG_LONG":-95.711403,"STATE":"TX","id":"a622jy11pn1a","SCHOOL":"Montgomery High School","BG_LAT":30.38826},"type":"Feature","geometry":{"type":"Point","coordinates":[-95.711403,30.38826]}},{"properties":{"CITY":"Montgomery","ZIP":"77356","BRANCH":"Air Force","BG_LONG":-95.711403,"STATE":"TX","id":"a622jy66dobq","SCHOOL":"Montgomery High School","BG_LAT":30.38826},"type":"Feature","geometry":{"type":"Point","coordinates":[-95.711403,30.38826]}},{"properties":{"CITY":"Montgomery","ZIP":"77356","BRANCH":"Navy","BG_LONG":-95.711403,"STATE":"TX","id":"a622jy5x2pyc","SCHOOL":"Montgomery High School","BG_LAT":30.38826},"type":"Feature","geometry":{"type":"Point","coordinates":[-95.711403,30.38826]}},{"properties":{"CITY":"Miami","ZIP":"33177","BRANCH":"Navy","BG_LONG":-80.429544,"STATE":"FL","id":"a622jy7br18s","SCHOOL":"Morgan Educational Center","BG_LAT":25.60983},"type":"Feature","geometry":{"type":"Point","coordinates":[-80.429544,25.60983]}},{"properties":{"CITY":"Burnsville","ZIP":"","BRANCH":"Marines","BG_LONG":-82.29846,"STATE":"NC","id":"a622jyd3skqd","SCHOOL":"Mountain Heritage High School","BG_LAT":35.917142},"type":"Feature","geometry":{"type":"Point","coordinates":[-82.29846,35.917142]}},{"properties":{"CITY":"Murphy","ZIP":"","BRANCH":"Marines","BG_LONG":-84.033857,"STATE":"NC","id":"a622jy2pi6yw","SCHOOL":"Murphy High School","BG_LAT":35.087396},"type":"Feature","geometry":{"type":"Point","coordinates":[-84.033857,35.087396]}},{"properties":{"CITY":"Unknown","ZIP":"","BRANCH":"Marines","BG_LONG":-84.764832,"STATE":"GA","id":"a622jy2v5ig6","SCHOOL":"Murray County P. School","BG_LAT":34.78569},"type":"Feature","geometry":{"type":"Point","coordinates":[-84.764832,34.78569]}},{"properties":{"CITY":"Murrieta","ZIP":"92562","BRANCH":"Navy","BG_LONG":-117.211484,"STATE":"CA","id":"a622jxzf1fx0","SCHOOL":"Murrieta Mesa High School","BG_LAT":33.55815},"type":"Feature","geometry":{"type":"Point","coordinates":[-117.211484,33.55815]}},{"properties":{"CITY":"Inwood","ZIP":"25428","BRANCH":"Air Force","BG_LONG":-78.041844,"STATE":"WV","id":"a622jxyh7inv","SCHOOL":"Musselman High School","BG_LAT":39.36196},"type":"Feature","geometry":{"type":"Point","coordinates":[-78.041844,39.36196]}},{"properties":{"CITY":"DECATUR","ZIP":"","BRANCH":"Army","BG_LONG":-89.106583,"STATE":"MS","id":"a622jydksgsn","SCHOOL":"NEWTON COUNTY HIGH SCHOOL","BG_LAT":32.437599},"type":"Feature","geometry":{"type":"Point","coordinates":[-89.106583,32.437599]}},{"properties":{"CITY":"NORTH ADAMS","ZIP":"","BRANCH":"Army","BG_LONG":-84.526459,"STATE":"MI","id":"a622jyadizq7","SCHOOL":"NORTH ADAMS-JEROME","BG_LAT":41.9709},"type":"Feature","geometry":{"type":"Point","coordinates":[-84.526459,41.9709]}},{"properties":{"CITY":"CROWLEY","ZIP":"","BRANCH":"Army","BG_LONG":-97.352224,"STATE":"TX","id":"a622jy1hwdlp","SCHOOL":"NORTH CROWLEY HS","BG_LAT":32.582245},"type":"Feature","geometry":{"type":"Point","coordinates":[-97.352224,32.582245]}},{"properties":{"CITY":"DALLAS","ZIP":"","BRANCH":"Army","BG_LONG":-81.175869,"STATE":"NC","id":"a622jy74zmwy","SCHOOL":"NORTH GASTON SENIOR HS","BG_LAT":35.316015},"type":"Feature","geometry":{"type":"Point","coordinates":[-81.175869,35.316015]}},{"properties":{"CITY":"NORTH","ZIP":"","BRANCH":"Army","BG_LONG":-81.102951,"STATE":"SC","id":"a622jy5a2v2w","SCHOOL":"NORTH MIDDLE HIGH SCHOOL","BG_LAT":33.61454},"type":"Feature","geometry":{"type":"Point","coordinates":[-81.102951,33.61454]}},{"properties":{"CITY":"DALLAS","ZIP":"","BRANCH":"Army","BG_LONG":-84.841532,"STATE":"GA","id":"a622jy8bmfg3","SCHOOL":"NORTH PAULDING COUNTY HIGH SCHOOL","BG_LAT":33.925182},"type":"Feature","geometry":{"type":"Point","coordinates":[-84.841532,33.925182]}},{"properties":{"CITY":"Brooksville","ZIP":"34601","BRANCH":"Navy","BG_LONG":-82.387824,"STATE":"FL","id":"a622jxylhj3g","SCHOOL":"Nature Coast Technical High School","BG_LAT":28.554515},"type":"Feature","geometry":{"type":"Point","coordinates":[-82.387824,28.554515]}},{"properties":{"CITY":"Navasota","ZIP":"77868","BRANCH":"Air Force","BG_LONG":-96.087802,"STATE":"TX","id":"a622jy3ifv15","SCHOOL":"Navasota High School","BG_LAT":30.388154},"type":"Feature","geometry":{"type":"Point","coordinates":[-96.087802,30.388154]}},{"properties":{"CITY":"Reno","ZIP":"86506","BRANCH":"Navy","BG_LONG":-109.220769,"STATE":"NV","id":"a622jxzxqkui","SCHOOL":"Nevada High School","BG_LAT":35.26738},"type":"Feature","geometry":{"type":"Point","coordinates":[-109.220769,35.26738]}},{"properties":{"CITY":"Balitmore","ZIP":"21225","BRANCH":"Navy","BG_LONG":-76.637244,"STATE":"MD","id":"a622jydzp97f","SCHOOL":"New Era Academy","BG_LAT":39.21703},"type":"Feature","geometry":{"type":"Point","coordinates":[-76.637244,39.21703]}},{"properties":{"CITY":"New Iberia","ZIP":"","BRANCH":"Marines","BG_LONG":-91.811508,"STATE":"LA","id":"a622jy5myshl","SCHOOL":"New Iberia Senior High School","BG_LAT":29.98035},"type":"Feature","geometry":{"type":"Point","coordinates":[-91.811508,29.98035]}},{"properties":{"CITY":"Orange City","ZIP":"0","BRANCH":"Air Force","BG_LONG":-81.296997,"STATE":"FL","id":"a622jyd40y6z","SCHOOL":"New School","BG_LAT":28.948771},"type":"Feature","geometry":{"type":"Point","coordinates":[-81.296997,28.948771]}},{"properties":{"CITY":"New Smyrna Beach","ZIP":"32169","BRANCH":"Navy","BG_LONG":-80.918121,"STATE":"FL","id":"a622jy81t8if","SCHOOL":"New Smyrna Beach High School","BG_LAT":29.036779},"type":"Feature","geometry":{"type":"Point","coordinates":[-80.918121,29.036779]}},{"properties":{"CITY":"Newark","ZIP":"43055","BRANCH":"Navy","BG_LONG":-82.418243,"STATE":"OH","id":"a622jy9vo3rf","SCHOOL":"Newark High School","BG_LAT":40.062641},"type":"Feature","geometry":{"type":"Point","coordinates":[-82.418243,40.062641]}},{"properties":{"CITY":"Newcomb","ZIP":"","BRANCH":"Marines","BG_LONG":-108.701354,"STATE":"NM","id":"a622jy2l6ai3","SCHOOL":"Newcomb High School","BG_LAT":36.75442},"type":"Feature","geometry":{"type":"Point","coordinates":[-108.701354,36.75442]}},{"properties":{"CITY":"Carrollton","ZIP":"75006","BRANCH":"Navy","BG_LONG":-96.890244,"STATE":"TX","id":"a622jyamkiak","SCHOOL":"Newman Smith High School","BG_LAT":32.978931},"type":"Feature","geometry":{"type":"Point","coordinates":[-96.890244,32.978931]}},{"properties":{"CITY":"St. Louis","ZIP":"63120","BRANCH":"Air Force","BG_LONG":-90.260139,"STATE":"MO","id":"a622jybxp81w","SCHOOL":"Normandy Technical High School","BG_LAT":38.6931},"type":"Feature","geometry":{"type":"Point","coordinates":[-90.260139,38.6931]}},{"properties":{"CITY":"Riverside","ZIP":"","BRANCH":"Marines","BG_LONG":-117.472603,"STATE":"CA","id":"a622jy52z8yb","SCHOOL":"Norte Vista High School","BG_LAT":33.94994},"type":"Feature","geometry":{"type":"Point","coordinates":[-117.472603,33.94994]}},{"properties":{"CITY":"Coconut Creek","ZIP":"33073","BRANCH":"Navy","BG_LONG":-80.186279,"STATE":"FL","id":"a622jydkn04h","SCHOOL":"North Broward Preparatory Schools","BG_LAT":26.30147},"type":"Feature","geometry":{"type":"Point","coordinates":[-80.186279,26.30147]}},{"properties":{"CITY":"Forney","ZIP":"75126","BRANCH":"Air Force","BG_LONG":-96.449937,"STATE":"TX","id":"a622jy642a0m","SCHOOL":"North Forney High School","BG_LAT":32.743743},"type":"Feature","geometry":{"type":"Point","coordinates":[-96.449937,32.743743]}},{"properties":{"CITY":"North St. Paul","ZIP":"","BRANCH":"Marines","BG_LONG":-93.093326,"STATE":"MN","id":"a622jy580c8o","SCHOOL":"North High School","BG_LAT":44.943829},"type":"Feature","geometry":{"type":"Point","coordinates":[-93.093326,44.943829]}},{"properties":{"CITY":"LaGrange","ZIP":"28551","BRANCH":"Air Force","BG_LONG":-77.675049,"STATE":"NC","id":"a622jy5ll4pl","SCHOOL":"North Lenoir High School","BG_LAT":35.34103},"type":"Feature","geometry":{"type":"Point","coordinates":[-77.675049,35.34103]}},{"properties":{"CITY":"Lincolnton","ZIP":"28092","BRANCH":"Air Force","BG_LONG":-81.256074,"STATE":"NC","id":"a622jyct722e","SCHOOL":"North Lincoln High School","BG_LAT":35.47164},"type":"Feature","geometry":{"type":"Point","coordinates":[-81.256074,35.47164]}},{"properties":{"CITY":"Farmington","ZIP":"26571","BRANCH":"Air Force","BG_LONG":-80.250872,"STATE":"WV","id":"a622jydpqm32","SCHOOL":"North Marion High School","BG_LAT":39.512724},"type":"Feature","geometry":{"type":"Point","coordinates":[-80.250872,39.512724]}},{"properties":{"CITY":"Chatsworth","ZIP":"30705","BRANCH":"Air Force","BG_LONG":-84.756704,"STATE":"GA","id":"a622jy8zhyax","SCHOOL":"North Murray High School","BG_LAT":34.824603},"type":"Feature","geometry":{"type":"Point","coordinates":[-84.756704,34.824603]}},{"properties":{"CITY":"Dallas","ZIP":"30132","BRANCH":"Navy","BG_LONG":-84.841532,"STATE":"GA","id":"a622jybc0zzy","SCHOOL":"North Paulding High School","BG_LAT":33.925182},"type":"Feature","geometry":{"type":"Point","coordinates":[-84.841532,33.925182]}},{"properties":{"CITY":"Dallas","ZIP":"","BRANCH":"Marines","BG_LONG":-84.841532,"STATE":"GA","id":"a622jydgetfi","SCHOOL":"North Paulding High School","BG_LAT":33.925182},"type":"Feature","geometry":{"type":"Point","coordinates":[-84.841532,33.925182]}},{"properties":{"CITY":"Dallas","ZIP":"30132","BRANCH":"Air Force","BG_LONG":-84.841532,"STATE":"GA","id":"a622jy2rm07d","SCHOOL":"North Paulding High School","BG_LAT":33.925182},"type":"Feature","geometry":{"type":"Point","coordinates":[-84.841532,33.925182]}},{"properties":{"CITY":"Eastville","ZIP":"23347","BRANCH":"Navy","BG_LONG":-75.946167,"STATE":"VA","id":"a622jxyc1ftj","SCHOOL":"Northampton","BG_LAT":37.352261},"type":"Feature","geometry":{"type":"Point","coordinates":[-75.946167,37.352261]}},{"properties":{"CITY":"Columbus","ZIP":"8022","BRANCH":"Air Force","BG_LONG":-74.738197,"STATE":"NJ","id":"a622jy1alrd0","SCHOOL":"Northern Burlington County High Scho","BG_LAT":40.126404},"type":"Feature","geometry":{"type":"Point","coordinates":[-74.738197,40.126404]}},{"properties":{"CITY":"Germantown","ZIP":"","BRANCH":"Marines","BG_LONG":-77.27004,"STATE":"MD","id":"a622jxya3z48","SCHOOL":"Northwest High School","BG_LAT":39.182185},"type":"Feature","geometry":{"type":"Point","coordinates":[-77.27004,39.182185]}},{"properties":{"CITY":"Silver Spring","ZIP":"20901","BRANCH":"Air Force","BG_LONG":-77.008526,"STATE":"MD","id":"a622jy6dehea","SCHOOL":"Northwood High School","BG_LAT":38.99883},"type":"Feature","geometry":{"type":"Point","coordinates":[-77.008526,38.99883]}},{"properties":{"CITY":"HATTIESBURG","ZIP":"","BRANCH":"Army","BG_LONG":-89.290719,"STATE":"MS","id":"a622jxzzr9oz","SCHOOL":"OAK GROVE HIGH SCHOOL","BG_LAT":31.327357},"type":"Feature","geometry":{"type":"Point","coordinates":[-89.290719,31.327357]}},{"properties":{"CITY":"HESPERIA","ZIP":"","BRANCH":"Army","BG_LONG":-117.319209,"STATE":"CA","id":"a622jy5eo8f2","SCHOOL":"OAK HILLS HS","BG_LAT":34.424145},"type":"Feature","geometry":{"type":"Point","coordinates":[-117.319209,34.424145]}},{"properties":{"CITY":"CAPE CORAL","ZIP":"","BRANCH":"Army","BG_LONG":-81.956939,"STATE":"FL","id":"a622jy3pduff","SCHOOL":"OASIS HIGH SCHOOL","BG_LAT":26.62982},"type":"Feature","geometry":{"type":"Point","coordinates":[-81.956939,26.62982]}},{"properties":{"CITY":"HARTFORD","ZIP":"","BRANCH":"Army","BG_LONG":-86.908919,"STATE":"KY","id":"a622jyci5oqw","SCHOOL":"OHIO COUNTY HIGH SCHOOL","BG_LAT":37.451055},"type":"Feature","geometry":{"type":"Point","coordinates":[-86.908919,37.451055]}},{"properties":{"CITY":"OKLAHOMA CITY","ZIP":"","BRANCH":"Army","BG_LONG":-97.520334,"STATE":"OK","id":"a622jxz1x9cv","SCHOOL":"OKLAHOMA CENTENNIAL HS","BG_LAT":35.472005},"type":"Feature","geometry":{"type":"Point","coordinates":[-97.520334,35.472005]}},{"properties":{"CITY":"MCDONOUGH","ZIP":"","BRANCH":"Army","BG_LONG":-84.147729,"STATE":"GA","id":"a622jy9yjl3u","SCHOOL":"OLA HIGH SCHOOL","BG_LAT":33.447745},"type":"Feature","geometry":{"type":"Point","coordinates":[-84.147729,33.447745]}},{"properties":{"CITY":"WASHINGTON","ZIP":"","BRANCH":"Army","BG_LONG":-77.031959,"STATE":"DC","id":"a622jyaiajix","SCHOOL":"OPTIONS PUBLIC CHARTER HS","BG_LAT":38.89037},"type":"Feature","geometry":{"type":"Point","coordinates":[-77.031959,38.89037]}},{"properties":{"CITY":"MAPLE GROVE","ZIP":"","BRANCH":"Army","BG_LONG":-93.4431,"STATE":"MN","id":"a622jy08olin","SCHOOL":"OSSEO SENIOR HIGH SCHOOL","BG_LAT":45.098291},"type":"Feature","geometry":{"type":"Point","coordinates":[-93.4431,45.098291]}},{"properties":{"CITY":"Hartford","ZIP":"42347","BRANCH":"Navy","BG_LONG":-86.908919,"STATE":"KY","id":"a622jxyshywc","SCHOOL":"Ohio  County High School","BG_LAT":37.451055},"type":"Feature","geometry":{"type":"Point","coordinates":[-86.908919,37.451055]}},{"properties":{"CITY":"Hartford","ZIP":"42347","BRANCH":"Air Force","BG_LONG":-86.908919,"STATE":"KY","id":"a622jydzvgqa","SCHOOL":"Ohio County High School","BG_LAT":37.451055},"type":"Feature","geometry":{"type":"Point","coordinates":[-86.908919,37.451055]}},{"properties":{"CITY":"Hartford","ZIP":"","BRANCH":"Marines","BG_LONG":-86.908919,"STATE":"KY","id":"a622jy4glrt3","SCHOOL":"Ohio County High School","BG_LAT":37.451055},"type":"Feature","geometry":{"type":"Point","coordinates":[-86.908919,37.451055]}},{"properties":{"CITY":"Okmulgee","ZIP":"74447","BRANCH":"Navy","BG_LONG":-95.975854,"STATE":"OK","id":"a622jy9ivg8n","SCHOOL":"Okmulgee High School","BG_LAT":35.623275},"type":"Feature","geometry":{"type":"Point","coordinates":[-95.975854,35.623275]}},{"properties":{"CITY":"Mcdonough","ZIP":"30252","BRANCH":"Navy","BG_LONG":-84.08307,"STATE":"GA","id":"a622jy76x9to","SCHOOL":"Ola High School","BG_LAT":33.537462},"type":"Feature","geometry":{"type":"Point","coordinates":[-84.08307,33.537462]}},{"properties":{"CITY":"McDonough","ZIP":"30252","BRANCH":"Air Force","BG_LONG":-84.08307,"STATE":"GA","id":"a622jyan9whe","SCHOOL":"Ola High School","BG_LAT":33.537462},"type":"Feature","geometry":{"type":"Point","coordinates":[-84.08307,33.537462]}},{"properties":{"CITY":"Philadelphia","ZIP":"19120","BRANCH":"Navy","BG_LONG":-75.101479,"STATE":"PA","id":"a622jybq92a0","SCHOOL":"Olney West","BG_LAT":40.04479},"type":"Feature","geometry":{"type":"Point","coordinates":[-75.101479,40.04479]}},{"properties":{"CITY":"Ontario","ZIP":"","BRANCH":"Marines","BG_LONG":-117.665588,"STATE":"CA","id":"a622jyd2eb8l","SCHOOL":"Ontario High School","BG_LAT":34.04097},"type":"Feature","geometry":{"type":"Point","coordinates":[-117.665588,34.04097]}},{"properties":{"CITY":"LA JOYA","ZIP":"","BRANCH":"Army","BG_LONG":-98.479499,"STATE":"TX","id":"a622jy9lu7ci","SCHOOL":"PALMVIEW HIGH SCHOOL","BG_LAT":26.247615},"type":"Feature","geometry":{"type":"Point","coordinates":[-98.479499,26.247615]}},{"properties":{"CITY":"PASADENA","ZIP":"","BRANCH":"Army","BG_LONG":-95.196308,"STATE":"TX","id":"a622jy57kq63","SCHOOL":"PASADENA MEMORIAL HIGH SCHOOL","BG_LAT":29.690847},"type":"Feature","geometry":{"type":"Point","coordinates":[-95.196308,29.690847]}},{"properties":{"CITY":"PATERSON","ZIP":"","BRANCH":"Army","BG_LONG":-74.171082,"STATE":"NJ","id":"a622jya7afv5","SCHOOL":"PATERSON CHARTER SCH &amp; TECH","BG_LAT":40.916481},"type":"Feature","geometry":{"type":"Point","coordinates":[-74.171082,40.916481]}},{"properties":{"CITY":"WASHINGTON","ZIP":"","BRANCH":"Army","BG_LONG":-77.031959,"STATE":"DC","id":"a622jydw5rj3","SCHOOL":"PHELPS HIGH SCHOOL","BG_LAT":38.89037},"type":"Feature","geometry":{"type":"Point","coordinates":[-77.031959,38.89037]}},{"properties":{"CITY":"PHILADELPHIA","ZIP":"","BRANCH":"Army","BG_LONG":-89.110947,"STATE":"MS","id":"a622jy6zljsg","SCHOOL":"PHILADELPHIA HIGH SCHOOL","BG_LAT":32.773151},"type":"Feature","geometry":{"type":"Point","coordinates":[-89.110947,32.773151]}},{"properties":{"CITY":"ZEBULON","ZIP":"","BRANCH":"Army","BG_LONG":-84.341662,"STATE":"GA","id":"a622jy15edna","SCHOOL":"PIKE COUNTY HIGH SCHOOL","BG_LAT":33.098026},"type":"Feature","geometry":{"type":"Point","coordinates":[-84.341662,33.098026]}},{"properties":{"CITY":"PLAINVIEW","ZIP":"","BRANCH":"Army","BG_LONG":-101.724701,"STATE":"TX","id":"a622jy1ypqwv","SCHOOL":"PLAINVIEW HIGH SCHOOL","BG_LAT":34.196411},"type":"Feature","geometry":{"type":"Point","coordinates":[-101.724701,34.196411]}},{"properties":{"CITY":"POCA","ZIP":"","BRANCH":"Army","BG_LONG":-81.814034,"STATE":"WV","id":"a622jy41cu8q","SCHOOL":"POCA HIGH SCHOOL","BG_LAT":38.4729},"type":"Feature","geometry":{"type":"Point","coordinates":[-81.814034,38.4729]}},{"properties":{"CITY":"PORT JERVIS","ZIP":"","BRANCH":"Army","BG_LONG":-74.691234,"STATE":"NY","id":"a622jy8crxjn","SCHOOL":"PORT JERVIS HS","BG_LAT":41.374695},"type":"Feature","geometry":{"type":"Point","coordinates":[-74.691234,41.374695]}},{"properties":{"CITY":"LAGRANGE","ZIP":"","BRANCH":"Army","BG_LONG":-85.417959,"STATE":"IN","id":"a622jybkapj8","SCHOOL":"PRAIRIE HEIGHTS HS","BG_LAT":41.644415},"type":"Feature","geometry":{"type":"Point","coordinates":[-85.417959,41.644415]}},{"properties":{"CITY":"PURVIS","ZIP":"","BRANCH":"Army","BG_LONG":-89.411614,"STATE":"MS","id":"a622jyd4174b","SCHOOL":"PURVIS HIGH SCHOOL","BG_LAT":31.14321},"type":"Feature","geometry":{"type":"Point","coordinates":[-89.411614,31.14321]}},{"properties":{"CITY":"Page","ZIP":"","BRANCH":"Marines","BG_LONG":-111.461758,"STATE":"AZ","id":"a622jyc4lpk9","SCHOOL":"Page High School","BG_LAT":36.919837},"type":"Feature","geometry":{"type":"Point","coordinates":[-111.461758,36.919837]}},{"properties":{"CITY":"West Palm Beach","ZIP":"","BRANCH":"Marines","BG_LONG":-80.036615,"STATE":"FL","id":"a622jy2z50kf","SCHOOL":"Palm Beach Lakes Community High School","BG_LAT":26.702884},"type":"Feature","geometry":{"type":"Point","coordinates":[-80.036615,26.702884]}},{"properties":{"CITY":"Palmdale","ZIP":"93550","BRANCH":"Navy","BG_LONG":-118.092819,"STATE":"CA","id":"a622jy3uf3r3","SCHOOL":"Palmdale High School","BG_LAT":34.57267},"type":"Feature","geometry":{"type":"Point","coordinates":[-118.092819,34.57267]}},{"properties":{"CITY":"Morganton","ZIP":"28655","BRANCH":"Navy","BG_LONG":-81.685859,"STATE":"NC","id":"a622jye36gj0","SCHOOL":"Patton High School","BG_LAT":35.7468},"type":"Feature","geometry":{"type":"Point","coordinates":[-81.685859,35.7468]}},{"properties":{"CITY":"Suwanee","ZIP":"","BRANCH":"Marines","BG_LONG":-84.065333,"STATE":"GA","id":"a622jyc1rmrd","SCHOOL":"Peachtree Ridge High School","BG_LAT":34.056886},"type":"Feature","geometry":{"type":"Point","coordinates":[-84.065333,34.056886]}},{"properties":{"CITY":"Nashville","ZIP":"37208","BRANCH":"Air Force","BG_LONG":-86.806283,"STATE":"TN","id":"a622jy43zq6t","SCHOOL":"Pearl-Cohn Business Magnet High Scho","BG_LAT":36.176163},"type":"Feature","geometry":{"type":"Point","coordinates":[-86.806283,36.176163]}},{"properties":{"CITY":"Pendleton","ZIP":"","BRANCH":"Marines","BG_LONG":-82.78424,"STATE":"SC","id":"a622jy3y4yen","SCHOOL":"Pendleton Area High School","BG_LAT":34.652936},"type":"Feature","geometry":{"type":"Point","coordinates":[-82.78424,34.652936]}},{"properties":{"CITY":"Pendleton","ZIP":"29670","BRANCH":"Navy","BG_LONG":-82.78424,"STATE":"SC","id":"a622jxyg8yxg","SCHOOL":"Pendleton High School","BG_LAT":34.652936},"type":"Feature","geometry":{"type":"Point","coordinates":[-82.78424,34.652936]}},{"properties":{"CITY":"Perrysburg","ZIP":"43551","BRANCH":"Air Force","BG_LONG":-83.628899,"STATE":"OH","id":"a622jy6kxdtn","SCHOOL":"Penta Career Center","BG_LAT":41.55671},"type":"Feature","geometry":{"type":"Point","coordinates":[-83.628899,41.55671]}},{"properties":{"CITY":"Zebulon","ZIP":"30295","BRANCH":"Navy","BG_LONG":-84.341662,"STATE":"GA","id":"a622jy8cjqqp","SCHOOL":"Pike County","BG_LAT":33.098026},"type":"Feature","geometry":{"type":"Point","coordinates":[-84.341662,33.098026]}},{"properties":{"CITY":"Zebulon","ZIP":"30295","BRANCH":"Air Force","BG_LONG":-84.341662,"STATE":"GA","id":"a622jy9129u8","SCHOOL":"Pike County High School","BG_LAT":33.098026},"type":"Feature","geometry":{"type":"Point","coordinates":[-84.341662,33.098026]}},{"properties":{"CITY":"Gibsonia","ZIP":"15044","BRANCH":"Air Force","BG_LONG":-79.976562,"STATE":"PA","id":"a622jxz2pxbu","SCHOOL":"Pine -Richland High School","BG_LAT":40.659431},"type":"Feature","geometry":{"type":"Point","coordinates":[-79.976562,40.659431]}},{"properties":{"CITY":"Pine Bush","ZIP":"","BRANCH":"Marines","BG_LONG":-74.300776,"STATE":"NY","id":"a622jybg76vt","SCHOOL":"Pine Bush High School","BG_LAT":41.611031},"type":"Feature","geometry":{"type":"Point","coordinates":[-74.300776,41.611031]}},{"properties":{"CITY":"Plano","ZIP":"60545","BRANCH":"Navy","BG_LONG":-88.551079,"STATE":"IL","id":"a622jxzzgdp4","SCHOOL":"Plano","BG_LAT":41.666},"type":"Feature","geometry":{"type":"Point","coordinates":[-88.551079,41.666]}},{"properties":{"CITY":"Columbus","ZIP":"28722","BRANCH":"Air Force","BG_LONG":-82.193724,"STATE":"NC","id":"a622jyc4plyz","SCHOOL":"Polk County High School","BG_LAT":35.25613},"type":"Feature","geometry":{"type":"Point","coordinates":[-82.193724,35.25613]}},{"properties":{"CITY":"Poplarville","ZIP":"39470","BRANCH":"Navy","BG_LONG":-89.535544,"STATE":"MS","id":"a622jxz6r9t7","SCHOOL":"Poplarville","BG_LAT":30.84403},"type":"Feature","geometry":{"type":"Point","coordinates":[-89.535544,30.84403]}},{"properties":{"CITY":"Poplarville","ZIP":"39470","BRANCH":"Air Force","BG_LONG":-89.535544,"STATE":"MS","id":"a622jya9p94j","SCHOOL":"Poplarville High School","BG_LAT":30.84403},"type":"Feature","geometry":{"type":"Point","coordinates":[-89.535544,30.84403]}},{"properties":{"CITY":"Indian Trail","ZIP":"28079","BRANCH":"Air Force","BG_LONG":-80.670184,"STATE":"NC","id":"a622jy5s2342","SCHOOL":"Porter Ridge High School","BG_LAT":35.079016},"type":"Feature","geometry":{"type":"Point","coordinates":[-80.670184,35.079016]}},{"properties":{"CITY":"Spencer","ZIP":"01562","BRANCH":"Navy","BG_LONG":-71.995979,"STATE":"MA","id":"a622jy3e7fz7","SCHOOL":"Prouty High School","BG_LAT":42.245697},"type":"Feature","geometry":{"type":"Point","coordinates":[-71.995979,42.245697]}},{"properties":{"CITY":"San Bernardino","ZIP":"92408","BRANCH":"Navy","BG_LONG":-117.254629,"STATE":"CA","id":"a622jy9fw2ic","SCHOOL":"Public Safety Academy","BG_LAT":34.071105},"type":"Feature","geometry":{"type":"Point","coordinates":[-117.254629,34.071105]}},{"properties":{"CITY":"Quartz Hill","ZIP":"93536","BRANCH":"Navy","BG_LONG":-118.237602,"STATE":"CA","id":"a622jxy3x12b","SCHOOL":"Quartz Hill High School","BG_LAT":34.660042},"type":"Feature","geometry":{"type":"Point","coordinates":[-118.237602,34.660042]}},{"properties":{"CITY":"SAN ANTONIO","ZIP":"","BRANCH":"Army","BG_LONG":-98.494624,"STATE":"TX","id":"a622jy7ockmv","SCHOOL":"RADIANCE ACADEMY OF LEARNING-WESTLAKES","BG_LAT":29.42449},"type":"Feature","geometry":{"type":"Point","coordinates":[-98.494624,29.42449]}},{"properties":{"CITY":"ORANGE","ZIP":"","BRANCH":"Army","BG_LONG":-72.310082,"STATE":"MA","id":"a622jya64zo6","SCHOOL":"RC MAHAR HIGH SCHOOL","BG_LAT":42.59157},"type":"Feature","geometry":{"type":"Point","coordinates":[-72.310082,42.59157]}},{"properties":{"CITY":"RICHMOND","ZIP":"","BRANCH":"Army","BG_LONG":-80.771794,"STATE":"OH","id":"a622jy5k1aff","SCHOOL":"RICHMOND HEIGHTS HIGH SCHOOL","BG_LAT":40.43316},"type":"Feature","geometry":{"type":"Point","coordinates":[-80.771794,40.43316]}},{"properties":{"CITY":"WATKINS","ZIP":"","BRANCH":"Army","BG_LONG":-104.603104,"STATE":"CO","id":"a622jy12uu9a","SCHOOL":"RIDGE VIEW ACADEMY","BG_LAT":39.738985},"type":"Feature","geometry":{"type":"Point","coordinates":[-104.603104,39.738985]}},{"properties":{"CITY":"RIO RICO","ZIP":"","BRANCH":"Army","BG_LONG":-111.030584,"STATE":"AZ","id":"a622jy0vu5hi","SCHOOL":"RIO RICO HS","BG_LAT":31.532086},"type":"Feature","geometry":{"type":"Point","coordinates":[-111.030584,31.532086]}},{"properties":{"CITY":"RIPLEY","ZIP":"","BRANCH":"Army","BG_LONG":-88.943787,"STATE":"MS","id":"a622jy7kyh2y","SCHOOL":"RIPLEY HIGH SCHOOL","BG_LAT":34.72406},"type":"Feature","geometry":{"type":"Point","coordinates":[-88.943787,34.72406]}},{"properties":{"CITY":"FREDERICKSBURG","ZIP":"","BRANCH":"Army","BG_LONG":-77.459144,"STATE":"VA","id":"a622jxzl5bk9","SCHOOL":"RIVERBEND HIGH SCHOOL","BG_LAT":38.30089},"type":"Feature","geometry":{"type":"Point","coordinates":[-77.459144,38.30089]}},{"properties":{"CITY":"SANDY SPRINGS","ZIP":"","BRANCH":"Army","BG_LONG":-84.414581,"STATE":"GA","id":"a622jy8b0qw0","SCHOOL":"RIVERWOOD HIGH SCHOOL","BG_LAT":33.917122},"type":"Feature","geometry":{"type":"Point","coordinates":[-84.414581,33.917122]}},{"properties":{"CITY":"ROBERSONVILLE","ZIP":"","BRANCH":"Army","BG_LONG":-77.253534,"STATE":"NC","id":"a622jybe2ph7","SCHOOL":"ROANOKE HIGH SCHOOL","BG_LAT":35.82566},"type":"Feature","geometry":{"type":"Point","coordinates":[-77.253534,35.82566]}},{"properties":{"CITY":"ROANOKE RAPIDS","ZIP":"","BRANCH":"Army","BG_LONG":-77.654427,"STATE":"NC","id":"a622jy6g54hc","SCHOOL":"ROANOKE RAPIDS HIGH SCHOOL","BG_LAT":36.459278},"type":"Feature","geometry":{"type":"Point","coordinates":[-77.654427,36.459278]}},{"properties":{"CITY":"MORGANTON","ZIP":"","BRANCH":"Army","BG_LONG":-81.685859,"STATE":"NC","id":"a622jy5x1g6p","SCHOOL":"ROBERT L PATTON HS","BG_LAT":35.7468},"type":"Feature","geometry":{"type":"Point","coordinates":[-81.685859,35.7468]}},{"properties":{"CITY":"ROCKMART","ZIP":"","BRANCH":"Army","BG_LONG":-85.041399,"STATE":"GA","id":"a622jy78bfnf","SCHOOL":"ROCKMART COMPREHENSIVE HS","BG_LAT":34.0032},"type":"Feature","geometry":{"type":"Point","coordinates":[-85.041399,34.0032]}},{"properties":{"CITY":"CHICAGO","ZIP":"","BRANCH":"Army","BG_LONG":-87.632409,"STATE":"IL","id":"a622jy18xz1l","SCHOOL":"ROGER C. SULLIVAN HIGH SCHOOL","BG_LAT":41.88415},"type":"Feature","geometry":{"type":"Point","coordinates":[-87.632409,41.88415]}},{"properties":{"CITY":"STOCKTON","ZIP":"","BRANCH":"Army","BG_LONG":-121.299871,"STATE":"CA","id":"a622jy9owq1k","SCHOOL":"RONALD E. MCNAIR HIGH SCHOOL","BG_LAT":38.037556},"type":"Feature","geometry":{"type":"Point","coordinates":[-121.299871,38.037556]}},{"properties":{"CITY":"SIOUX FALLS","ZIP":"","BRANCH":"Army","BG_LONG":-96.807961,"STATE":"SD","id":"a622jy89xqhi","SCHOOL":"ROOSEVELT HIGH SCHOOL","BG_LAT":43.514881},"type":"Feature","geometry":{"type":"Point","coordinates":[-96.807961,43.514881]}},{"properties":{"CITY":"WYANDOTTE","ZIP":"","BRANCH":"Army","BG_LONG":-83.149999,"STATE":"MI","id":"a622jybmoi6q","SCHOOL":"ROOSEVELT HS","BG_LAT":42.201615},"type":"Feature","geometry":{"type":"Point","coordinates":[-83.149999,42.201615]}},{"properties":{"CITY":"RUSSELLVILLE","ZIP":"","BRANCH":"Army","BG_LONG":-87.737183,"STATE":"AL","id":"a622jy35zadx","SCHOOL":"RUSSELLVILLE HIGH SCHOOL","BG_LAT":34.525249},"type":"Feature","geometry":{"type":"Point","coordinates":[-87.737183,34.525249]}},{"properties":{"CITY":"RUSSELLVILLE","ZIP":"","BRANCH":"Army","BG_LONG":-93.120872,"STATE":"AR","id":"a622jyc83nxr","SCHOOL":"RUSSELLVILLE HIGH SCHOOL","BG_LAT":35.25877},"type":"Feature","geometry":{"type":"Point","coordinates":[-93.120872,35.25877]}},{"properties":{"CITY":"Richmond","ZIP":"77469","BRANCH":"Navy","BG_LONG":-95.762199,"STATE":"TX","id":"a622jxzpghpg","SCHOOL":"Ranch","BG_LAT":29.582675},"type":"Feature","geometry":{"type":"Point","coordinates":[-95.762199,29.582675]}},{"properties":{"CITY":"Raytown","ZIP":"64133","BRANCH":"Air Force","BG_LONG":-94.462464,"STATE":"MO","id":"a622jy2zhvq1","SCHOOL":"Raytown High School","BG_LAT":39.010525},"type":"Feature","geometry":{"type":"Point","coordinates":[-94.462464,39.010525]}},{"properties":{"CITY":"Raytown","ZIP":"64138","BRANCH":"Air Force","BG_LONG":-94.477589,"STATE":"MC","id":"a622jychslf5","SCHOOL":"Raytown South High School","BG_LAT":38.970695},"type":"Feature","geometry":{"type":"Point","coordinates":[-94.477589,38.970695]}},{"properties":{"CITY":"Teec Nos Pos","ZIP":"86514","BRANCH":"Air Force","BG_LONG":-109.091624,"STATE":"AZ","id":"a622jycxyuh9","SCHOOL":"Red Mesa High School","BG_LAT":36.92327},"type":"Feature","geometry":{"type":"Point","coordinates":[-109.091624,36.92327]}},{"properties":{"CITY":"Teec Nos. Pos.","ZIP":"","BRANCH":"Marines","BG_LONG":-109.091621,"STATE":"AZ","id":"a622jy4p62dk","SCHOOL":"Red Mesa Higjh School","BG_LAT":36.923271},"type":"Feature","geometry":{"type":"Point","coordinates":[-109.091621,36.923271]}},{"properties":{"CITY":"Long Beach","ZIP":"90813","BRANCH":"Navy","BG_LONG":-118.191939,"STATE":"CA","id":"a622jy2njtyf","SCHOOL":"Renaissance Career Academy","BG_LAT":33.78144},"type":"Feature","geometry":{"type":"Point","coordinates":[-118.191939,33.78144]}},{"properties":{"CITY":"Chicago","ZIP":"60655","BRANCH":"Navy","BG_LONG":-87.708368,"STATE":"IL","id":"a622jy2gg090","SCHOOL":"Rice","BG_LAT":41.697835},"type":"Feature","geometry":{"type":"Point","coordinates":[-87.708368,41.697835]}},{"properties":{"CITY":"Rio Rico","ZIP":"","BRANCH":"Marines","BG_LONG":-111.013321,"STATE":"AZ","id":"a622jybmjv8r","SCHOOL":"Rio Rico High School","BG_LAT":31.506201},"type":"Feature","geometry":{"type":"Point","coordinates":[-111.013321,31.506201]}},{"properties":{"CITY":"West Sacramento","ZIP":"95691","BRANCH":"Air Force","BG_LONG":-121.550158,"STATE":"CA","id":"a622jxyzmqxd","SCHOOL":"River City High School","BG_LAT":38.57101},"type":"Feature","geometry":{"type":"Point","coordinates":[-121.550158,38.57101]}},{"properties":{"CITY":"Roanoke Rapids .","ZIP":"27870","BRANCH":"Air Force","BG_LONG":-77.654427,"STATE":"NC","id":"a622jya5mk2f","SCHOOL":"Roanoke Rapids High School","BG_LAT":36.459278},"type":"Feature","geometry":{"type":"Point","coordinates":[-77.654427,36.459278]}},{"properties":{"CITY":"Morganton","ZIP":"","BRANCH":"Marines","BG_LONG":-81.68586,"STATE":"NC","id":"a622jy3lcua3","SCHOOL":"Robert L Patton High School","BG_LAT":35.746799},"type":"Feature","geometry":{"type":"Point","coordinates":[-81.68586,35.746799]}},{"properties":{"CITY":"Morganton","ZIP":"28655","BRANCH":"Air Force","BG_LONG":-81.685859,"STATE":"NC","id":"a622jxz6ldg5","SCHOOL":"Robert L. Patton High School","BG_LAT":35.7468},"type":"Feature","geometry":{"type":"Point","coordinates":[-81.685859,35.7468]}},{"properties":{"CITY":"Rockport","ZIP":"","BRANCH":"Marines","BG_LONG":-97.054839,"STATE":"TX","id":"a622jy6vat4h","SCHOOL":"Rockport-Fullton High School","BG_LAT":28.02727},"type":"Feature","geometry":{"type":"Point","coordinates":[-97.054839,28.02727]}},{"properties":{"CITY":"Sacramento","ZIP":"95827","BRANCH":"Navy","BG_LONG":-121.319893,"STATE":"CA","id":"a622jy2tzqh9","SCHOOL":"Rosemont High School","BG_LAT":38.580249},"type":"Feature","geometry":{"type":"Point","coordinates":[-121.319893,38.580249]}},{"properties":{"CITY":"Round Lake","ZIP":"60073","BRANCH":"Navy","BG_LONG":-88.071029,"STATE":"IL","id":"a622jy3t8vxd","SCHOOL":"Round Lake High School","BG_LAT":42.383265},"type":"Feature","geometry":{"type":"Point","coordinates":[-88.071029,42.383265]}},{"properties":{"CITY":"Pattison","ZIP":"77466","BRANCH":"Air Force","BG_LONG":-95.969551,"STATE":"TX","id":"a622jy1t88az","SCHOOL":"Royal High School","BG_LAT":29.807739},"type":"Feature","geometry":{"type":"Point","coordinates":[-95.969551,29.807739]}},{"properties":{"CITY":"RUSKIN","ZIP":"","BRANCH":"Army","BG_LONG":-82.434009,"STATE":"FL","id":"a622jxyddsu1","SCHOOL":"S. COUNTY CAREER CENTER","BG_LAT":27.71814},"type":"Feature","geometry":{"type":"Point","coordinates":[-82.434009,27.71814]}},{"properties":{"CITY":"SCOTTSDALE","ZIP":"","BRANCH":"Army","BG_LONG":-111.921409,"STATE":"AZ","id":"a622jy2cungo","SCHOOL":"SALT RIVER HIGH SCHOOL","BG_LAT":33.49401},"type":"Feature","geometry":{"type":"Point","coordinates":[-111.921409,33.49401]}},{"properties":{"CITY":"SAN CARLOS","ZIP":"","BRANCH":"Army","BG_LONG":-110.452454,"STATE":"AZ","id":"a622jy23cdcr","SCHOOL":"SAN CARLOS HIGH SCHOOL","BG_LAT":33.351385},"type":"Feature","geometry":{"type":"Point","coordinates":[-110.452454,33.351385]}},{"properties":{"CITY":"SAN MARCOS","ZIP":"","BRANCH":"Army","BG_LONG":-117.206009,"STATE":"CA","id":"a622jy58mafr","SCHOOL":"SAN MARCOS HIGH SCHOOL","BG_LAT":33.13121},"type":"Feature","geometry":{"type":"Point","coordinates":[-117.206009,33.13121]}},{"properties":{"CITY":"SARALAND","ZIP":"","BRANCH":"Army","BG_LONG":-88.071688,"STATE":"AL","id":"a622jycelz9p","SCHOOL":"SARALAND HIGH SCHOOL","BG_LAT":30.80659},"type":"Feature","geometry":{"type":"Point","coordinates":[-88.071688,30.80659]}},{"properties":{"CITY":"ELLAVILLE","ZIP":"","BRANCH":"Army","BG_LONG":-84.308579,"STATE":"GA","id":"a622jy62ogmz","SCHOOL":"SCHLEY CO HIGH SCHOOL","BG_LAT":32.238125},"type":"Feature","geometry":{"type":"Point","coordinates":[-84.308579,32.238125]}},{"properties":{"CITY":"SODDY DAISY","ZIP":"","BRANCH":"Army","BG_LONG":-85.17617,"STATE":"TN","id":"a622jy6szp5b","SCHOOL":"SEQUOYAH HIGH SCHOOL","BG_LAT":35.243533},"type":"Feature","geometry":{"type":"Point","coordinates":[-85.17617,35.243533]}},{"properties":{"CITY":"MISSION","ZIP":"","BRANCH":"Army","BG_LONG":-98.325794,"STATE":"TX","id":"a622jxyps8op","SCHOOL":"SHARYLAND HIGH SHOOL","BG_LAT":26.215335},"type":"Feature","geometry":{"type":"Point","coordinates":[-98.325794,26.215335]}},{"properties":{"CITY":"THORNTON","ZIP":"","BRANCH":"Army","BG_LONG":-104.984825,"STATE":"CO","id":"a622jye5pkoq","SCHOOL":"SKYVIEW ACADEMY HS","BG_LAT":39.869207},"type":"Feature","geometry":{"type":"Point","coordinates":[-104.984825,39.869207]}},{"properties":{"CITY":"MARION","ZIP":"","BRANCH":"Army","BG_LONG":-81.517342,"STATE":"VA","id":"a622jy4hbjad","SCHOOL":"SMYTH CAREER &amp; TEC CTR","BG_LAT":36.833981},"type":"Feature","geometry":{"type":"Point","coordinates":[-81.517342,36.833981]}},{"properties":{"CITY":"SOCIAL CIRCLE","ZIP":"","BRANCH":"Army","BG_LONG":-83.721123,"STATE":"GA","id":"a622jy816bg5","SCHOOL":"SOCIAL CIRCLE HIGH SCHOOL","BG_LAT":33.65789},"type":"Feature","geometry":{"type":"Point","coordinates":[-83.721123,33.65789]}},{"properties":{"CITY":"CALHOUN","ZIP":"","BRANCH":"Army","BG_LONG":-84.911113,"STATE":"GA","id":"a622jxzsesqn","SCHOOL":"SONORAVILLE HIGH SCHOOL","BG_LAT":34.520926},"type":"Feature","geometry":{"type":"Point","coordinates":[-84.911113,34.520926]}},{"properties":{"CITY":"WEST PLAINS","ZIP":"","BRANCH":"Army","BG_LONG":-91.844482,"STATE":"MO","id":"a622jy5joko9","SCHOOL":"SOUTH CENTRAL CAREER CENTER","BG_LAT":36.73457},"type":"Feature","geometry":{"type":"Point","coordinates":[-91.844482,36.73457]}},{"properties":{"CITY":"FAIRBURN","ZIP":"","BRANCH":"Army","BG_LONG":-84.586707,"STATE":"GA","id":"a622jy0jg8nq","SCHOOL":"SOUTH FULTON HIGH SCHOOL","BG_LAT":33.566596},"type":"Feature","geometry":{"type":"Point","coordinates":[-84.586707,33.566596]}},{"properties":{"CITY":"SOUTH GATE","ZIP":"","BRANCH":"Army","BG_LONG":-118.205774,"STATE":"CA","id":"a622jxz6gtlq","SCHOOL":"SOUTH GATE HIGH SCHOOL","BG_LAT":33.956305},"type":"Feature","geometry":{"type":"Point","coordinates":[-118.205774,33.956305]}},{"properties":{"CITY":"DOUGLASVILLE","ZIP":"","BRANCH":"Army","BG_LONG":-84.749124,"STATE":"GA","id":"a622jydv7ipm","SCHOOL":"SOUTH PAULDING HIGH SCHOOL","BG_LAT":33.75018},"type":"Feature","geometry":{"type":"Point","coordinates":[-84.749124,33.75018]}},{"properties":{"CITY":"CHINA GROVE","ZIP":"","BRANCH":"Army","BG_LONG":-80.579909,"STATE":"NC","id":"a622jxxxyyvl","SCHOOL":"SOUTHEAST HIGH SCHOOL","BG_LAT":35.57191},"type":"Feature","geometry":{"type":"Point","coordinates":[-80.579909,35.57191]}},{"properties":{"CITY":"GREENSBORO","ZIP":"","BRANCH":"Army","BG_LONG":-79.794704,"STATE":"NC","id":"a622jy9zizze","SCHOOL":"SOUTHERN GUILFORD HS","BG_LAT":36.068994},"type":"Feature","geometry":{"type":"Point","coordinates":[-79.794704,36.068994]}},{"properties":{"CITY":"ODENVILLE","ZIP":"","BRANCH":"Army","BG_LONG":-86.394599,"STATE":"AL","id":"a622jy5m2rfa","SCHOOL":"ST CLAIR COUNTY HS","BG_LAT":33.68546},"type":"Feature","geometry":{"type":"Point","coordinates":[-86.394599,33.68546]}},{"properties":{"CITY":"ST CLAIR","ZIP":"","BRANCH":"Army","BG_LONG":-90.978317,"STATE":"MO","id":"a622jybg7hrd","SCHOOL":"ST CLAIR HIGH SCHOOL","BG_LAT":38.33725},"type":"Feature","geometry":{"type":"Point","coordinates":[-90.978317,38.33725]}},{"properties":{"CITY":"FALMOUTH","ZIP":"","BRANCH":"Army","BG_LONG":-77.468674,"STATE":"VA","id":"a622jy3vdgh5","SCHOOL":"STAFFORD HIGH SCHOOL","BG_LAT":38.323615},"type":"Feature","geometry":{"type":"Point","coordinates":[-77.468674,38.323615]}},{"properties":{"CITY":"FORT YATES","ZIP":"","BRANCH":"Army","BG_LONG":-100.628429,"STATE":"ND","id":"a622jy10hdbb","SCHOOL":"STANDING ROCK COMMUNITY SCHOOL","BG_LAT":46.088505},"type":"Feature","geometry":{"type":"Point","coordinates":[-100.628429,46.088505]}},{"properties":{"CITY":"BOONVILLE","ZIP":"","BRANCH":"Army","BG_LONG":-80.770653,"STATE":"NC","id":"a622jybhm52y","SCHOOL":"STARMOUNT HIGH SCHOOL","BG_LAT":36.189041},"type":"Feature","geometry":{"type":"Point","coordinates":[-80.770653,36.189041]}},{"properties":{"CITY":"LUTZ","ZIP":"","BRANCH":"Army","BG_LONG":-82.461504,"STATE":"FL","id":"a622jybfddtf","SCHOOL":"STEINBRENNER HS","BG_LAT":28.15235},"type":"Feature","geometry":{"type":"Point","coordinates":[-82.461504,28.15235]}},{"properties":{"CITY":"LUMPKIN","ZIP":"","BRANCH":"Army","BG_LONG":-84.794494,"STATE":"GA","id":"a622jy1q51mj","SCHOOL":"STEWART QUITMAN HS","BG_LAT":32.05105},"type":"Feature","geometry":{"type":"Point","coordinates":[-84.794494,32.05105]}},{"properties":{"CITY":"DOVER","ZIP":"","BRANCH":"Army","BG_LONG":-82.210015,"STATE":"FL","id":"a622jyc371hx","SCHOOL":"STRAWBERRY CREST HS","BG_LAT":27.995325},"type":"Feature","geometry":{"type":"Point","coordinates":[-82.210015,27.995325]}},{"properties":{"CITY":"SUMRALL","ZIP":"","BRANCH":"Army","BG_LONG":-89.545822,"STATE":"MS","id":"a622jy59hq0o","SCHOOL":"SUMRALL MIDDLE &amp; HIGH SCHOOL","BG_LAT":31.41926},"type":"Feature","geometry":{"type":"Point","coordinates":[-89.545822,31.41926]}},{"properties":{"CITY":"LAND O'LAKES","ZIP":"","BRANCH":"Army","BG_LONG":-82.45755,"STATE":"FL","id":"a622jyakv6r5","SCHOOL":"SUNLAKE HIGH SCHOOL","BG_LAT":28.22327},"type":"Feature","geometry":{"type":"Point","coordinates":[-82.45755,28.22327]}},{"properties":{"CITY":"HARRISBURG","ZIP":"","BRANCH":"Army","BG_LONG":-76.882222,"STATE":"PA","id":"a622jy5msywp","SCHOOL":"SUSQUEHANNA TWNSHP HIGH SCHOOL","BG_LAT":40.259876},"type":"Feature","geometry":{"type":"Point","coordinates":[-76.882222,40.259876]}},{"properties":{"CITY":"Saginaw","ZIP":"76179","BRANCH":"Air Force","BG_LONG":-97.369887,"STATE":"TX","id":"a622jy4zgqcs","SCHOOL":"Saginaw High School","BG_LAT":32.858562},"type":"Feature","geometry":{"type":"Point","coordinates":[-97.369887,32.858562]}},{"properties":{"CITY":"Cordova","ZIP":"38016","BRANCH":"Navy","BG_LONG":-89.729598,"STATE":"TN","id":"a622jyb6mq3k","SCHOOL":"Saint Benedict At Auburndale","BG_LAT":35.187084},"type":"Feature","geometry":{"type":"Point","coordinates":[-89.729598,35.187084]}},{"properties":{"CITY":"Saint Clair","ZIP":"63077","BRANCH":"Navy","BG_LONG":-90.981424,"STATE":"MO","id":"a622jyd6rgzl","SCHOOL":"Saint Clair","BG_LAT":38.347025},"type":"Feature","geometry":{"type":"Point","coordinates":[-90.981424,38.347025]}},{"properties":{"CITY":"San Clemente","ZIP":"92673","BRANCH":"Navy","BG_LONG":-117.621727,"STATE":"CA","id":"a622jy1qf9p7","SCHOOL":"San Clemente High School","BG_LAT":33.439018},"type":"Feature","geometry":{"type":"Point","coordinates":[-117.621727,33.439018]}},{"properties":{"CITY":"San Dimas","ZIP":"91773","BRANCH":"Navy","BG_LONG":-117.821632,"STATE":"CA","id":"a622jy52o2ew","SCHOOL":"San Dimas High School","BG_LAT":34.099232},"type":"Feature","geometry":{"type":"Point","coordinates":[-117.821632,34.099232]}},{"properties":{"CITY":"San Marcos","ZIP":"92078","BRANCH":"Navy","BG_LONG":-117.206009,"STATE":"CA","id":"a622jy10ynko","SCHOOL":"San Marcos High School","BG_LAT":33.13121},"type":"Feature","geometry":{"type":"Point","coordinates":[-117.206009,33.13121]}},{"properties":{"CITY":"Sanders","ZIP":"","BRANCH":"Marines","BG_LONG":-109.332734,"STATE":"AZ","id":"a622jxz24a4r","SCHOOL":"Sanders Valley High School","BG_LAT":35.2152},"type":"Feature","geometry":{"type":"Point","coordinates":[-109.332734,35.2152]}},{"properties":{"CITY":"Eloy","ZIP":"","BRANCH":"Marines","BG_LONG":-111.555554,"STATE":"AZ","id":"a622jye5blge","SCHOOL":"Santa Cruz Valley Unknown High Scho","BG_LAT":32.75242},"type":"Feature","geometry":{"type":"Point","coordinates":[-111.555554,32.75242]}},{"properties":{"CITY":"Palm Bay","ZIP":"32907","BRANCH":"Navy","BG_LONG":-80.672634,"STATE":"FL","id":"a622jy73peuy","SCHOOL":"School Ccc High School","BG_LAT":27.999545},"type":"Feature","geometry":{"type":"Point","coordinates":[-80.672634,27.999545]}},{"properties":{"CITY":"Reagan","ZIP":"38368","BRANCH":"Air Force","BG_LONG":-88.293793,"STATE":"TN","id":"a622jy00fnj2","SCHOOL":"Scotts Hill High School","BG_LAT":35.44231},"type":"Feature","geometry":{"type":"Point","coordinates":[-88.293793,35.44231]}},{"properties":{"CITY":"Scottsville","ZIP":"42164","BRANCH":"Navy","BG_LONG":-86.189919,"STATE":"KY","id":"a622jycnnjrs","SCHOOL":"Scottsville","BG_LAT":36.753204},"type":"Feature","geometry":{"type":"Point","coordinates":[-86.189919,36.753204]}},{"properties":{"CITY":"Sylvania","ZIP":"","BRANCH":"Marines","BG_LONG":-81.650474,"STATE":"GA","id":"a622jy6dyovb","SCHOOL":"Screven County High School","BG_LAT":32.75458},"type":"Feature","geometry":{"type":"Point","coordinates":[-81.650474,32.75458]}},{"properties":{"CITY":"Sylvania","ZIP":"30467","BRANCH":"Navy","BG_LONG":-81.650474,"STATE":"GA","id":"a622jybzw2m8","SCHOOL":"Screven County High School","BG_LAT":32.75458},"type":"Feature","geometry":{"type":"Point","coordinates":[-81.650474,32.75458]}},{"properties":{"CITY":"Tabernacle","ZIP":"8088","BRANCH":"Air Force","BG_LONG":-74.710228,"STATE":"NJ","id":"a622jxy9pypf","SCHOOL":"Seneca High School","BG_LAT":39.84407},"type":"Feature","geometry":{"type":"Point","coordinates":[-74.710228,39.84407]}},{"properties":{"CITY":"Coal Township","ZIP":"17866","BRANCH":"Navy","BG_LONG":-76.564725,"STATE":"PA","id":"a622jxyo0vmj","SCHOOL":"Shamokin Junior/Senior","BG_LAT":40.7869},"type":"Feature","geometry":{"type":"Point","coordinates":[-76.564725,40.7869]}},{"properties":{"CITY":"Palos Heights","ZIP":"60463","BRANCH":"Navy","BG_LONG":-87.790769,"STATE":"IL","id":"a622jy0palvb","SCHOOL":"Shepard High School","BG_LAT":41.66264},"type":"Feature","geometry":{"type":"Point","coordinates":[-87.790769,41.66264]}},{"properties":{"CITY":"Shonto","ZIP":"","BRANCH":"Marines","BG_LONG":-110.658228,"STATE":"AZ","id":"a622jy3bdqwp","SCHOOL":"Shonto Preparatory School","BG_LAT":36.591812},"type":"Feature","geometry":{"type":"Point","coordinates":[-110.658228,36.591812]}},{"properties":{"CITY":"Sidney","ZIP":"45365","BRANCH":"Air Force","BG_LONG":-84.172653,"STATE":"OH","id":"a622jy5nary4","SCHOOL":"Sidney High School","BG_LAT":40.28035},"type":"Feature","geometry":{"type":"Point","coordinates":[-84.172653,40.28035]}},{"properties":{"CITY":"Sidney","ZIP":"45365","BRANCH":"Navy","BG_LONG":-84.172653,"STATE":"OH","id":"a622jy6t304d","SCHOOL":"Sidney High School","BG_LAT":40.28035},"type":"Feature","geometry":{"type":"Point","coordinates":[-84.172653,40.28035]}},{"properties":{"CITY":"Inver Grove Heigh","ZIP":"","BRANCH":"Marines","BG_LONG":-93.062803,"STATE":"MN","id":"a622jy9nf1ku","SCHOOL":"Simley High School","BG_LAT":44.831202},"type":"Feature","geometry":{"type":"Point","coordinates":[-93.062803,44.831202]}},{"properties":{"CITY":"Thornton","ZIP":"80229","BRANCH":"Air Force","BG_LONG":-104.959068,"STATE":"CO","id":"a622jyditq35","SCHOOL":"Skyview High School","BG_LAT":39.859501},"type":"Feature","geometry":{"type":"Point","coordinates":[-104.959068,39.859501]}},{"properties":{"CITY":"Marion","ZIP":"","BRANCH":"Marines","BG_LONG":-81.517341,"STATE":"VA","id":"a622jy3ex5ow","SCHOOL":"Smyth County Technology Center","BG_LAT":36.833983},"type":"Feature","geometry":{"type":"Point","coordinates":[-81.517341,36.833983]}},{"properties":{"CITY":"Monmouth Junction","ZIP":"08852","BRANCH":"Navy","BG_LONG":-74.548248,"STATE":"NJ","id":"a622jydbwlon","SCHOOL":"South Brunswick High School","BG_LAT":40.378502},"type":"Feature","geometry":{"type":"Point","coordinates":[-74.548248,40.378502]}},{"properties":{"CITY":"Deep Run","ZIP":"28525","BRANCH":"Air Force","BG_LONG":-77.705452,"STATE":"NC","id":"a622jy0mxi35","SCHOOL":"South Lenoir High School","BG_LAT":35.14397},"type":"Feature","geometry":{"type":"Point","coordinates":[-77.705452,35.14397]}},{"properties":{"CITY":"Dallas","ZIP":"","BRANCH":"Marines","BG_LONG":-84.841532,"STATE":"GA","id":"a622jye38kiq","SCHOOL":"South Paulding High School","BG_LAT":33.925182},"type":"Feature","geometry":{"type":"Point","coordinates":[-84.841532,33.925182]}},{"properties":{"CITY":"Dallas","ZIP":"30132","BRANCH":"Navy","BG_LONG":-84.829348,"STATE":"GA","id":"a622jy6yio65","SCHOOL":"South Paulding High School","BG_LAT":33.912694},"type":"Feature","geometry":{"type":"Point","coordinates":[-84.829348,33.912694]}},{"properties":{"CITY":"Douglasville","ZIP":"30134","BRANCH":"Air Force","BG_LONG":-84.749124,"STATE":"GA","id":"a622jy82shih","SCHOOL":"South Paulding High School","BG_LAT":33.75018},"type":"Feature","geometry":{"type":"Point","coordinates":[-84.749124,33.75018]}},{"properties":{"CITY":"Piasa","ZIP":"","BRANCH":"Marines","BG_LONG":-90.122574,"STATE":"IL","id":"a622jy7f9js1","SCHOOL":"South Western High School","BG_LAT":39.116231},"type":"Feature","geometry":{"type":"Point","coordinates":[-90.122574,39.116231]}},{"properties":{"CITY":"Courtland","ZIP":"23837","BRANCH":"Navy","BG_LONG":-77.10778,"STATE":"VA","id":"a622jy8220dh","SCHOOL":"Southampton","BG_LAT":36.70248},"type":"Feature","geometry":{"type":"Point","coordinates":[-77.10778,36.70248]}},{"properties":{"CITY":"Courtland","ZIP":"23837","BRANCH":"Air Force","BG_LONG":-77.10778,"STATE":"VA","id":"a622jya6fvn3","SCHOOL":"Southampton High School","BG_LAT":36.70248},"type":"Feature","geometry":{"type":"Point","coordinates":[-77.10778,36.70248]}},{"properties":{"CITY":"Southaven","ZIP":"38671","BRANCH":"Air Force","BG_LONG":-90.005524,"STATE":"MS","id":"a622jybqhlhk","SCHOOL":"Southaven High School","BG_LAT":34.97736},"type":"Feature","geometry":{"type":"Point","coordinates":[-90.005524,34.97736]}},{"properties":{"CITY":"Southbridge","ZIP":"01550","BRANCH":"Navy","BG_LONG":-72.041588,"STATE":"MA","id":"a622jy7nsqma","SCHOOL":"Southbridge","BG_LAT":42.074619},"type":"Feature","geometry":{"type":"Point","coordinates":[-72.041588,42.074619]}},{"properties":{"CITY":"Dalton","ZIP":"30721","BRANCH":"Air Force","BG_LONG":-84.938614,"STATE":"GA","id":"a622jyc0hw6x","SCHOOL":"Southeast Whitfield High School","BG_LAT":34.85138},"type":"Feature","geometry":{"type":"Point","coordinates":[-84.938614,34.85138]}},{"properties":{"CITY":"Chivowinity","ZIP":"","BRANCH":"Marines","BG_LONG":-77.043221,"STATE":"NC","id":"a622jy32v4ty","SCHOOL":"Southside High School","BG_LAT":35.43602},"type":"Feature","geometry":{"type":"Point","coordinates":[-77.043221,35.43602]}},{"properties":{"CITY":"Chocowinity","ZIP":"27817","BRANCH":"Air Force","BG_LONG":-77.043221,"STATE":"NC","id":"a622jy6km1v8","SCHOOL":"Southside High School","BG_LAT":35.43602},"type":"Feature","geometry":{"type":"Point","coordinates":[-77.043221,35.43602]}},{"properties":{"CITY":"Chocowinity","ZIP":"27817","BRANCH":"Navy","BG_LONG":-77.043221,"STATE":"NC","id":"a622jy3275uy","SCHOOL":"Southside High School","BG_LAT":35.43602},"type":"Feature","geometry":{"type":"Point","coordinates":[-77.043221,35.43602]}},{"properties":{"CITY":"Seven Springs","ZIP":"28578","BRANCH":"Air Force","BG_LONG":-77.846214,"STATE":"NC","id":"a622jy2vl5lt","SCHOOL":"Spring Creek High School","BG_LAT":35.225245},"type":"Feature","geometry":{"type":"Point","coordinates":[-77.846214,35.225245]}},{"properties":{"CITY":"Las Vegas","ZIP":"","BRANCH":"Marines","BG_LONG":-115.139974,"STATE":"NV","id":"a622jycw3wu3","SCHOOL":"Spring Valley High School","BG_LAT":36.171915},"type":"Feature","geometry":{"type":"Point","coordinates":[-115.139974,36.171915]}},{"properties":{"CITY":"Steilacoom","ZIP":"98388","BRANCH":"Navy","BG_LONG":-122.574478,"STATE":"WA","id":"a622jy3qoqcm","SCHOOL":"Steilacoom High School","BG_LAT":47.177731},"type":"Feature","geometry":{"type":"Point","coordinates":[-122.574478,47.177731]}},{"properties":{"CITY":"Lutz","ZIP":"33558","BRANCH":"Navy","BG_LONG":-82.514003,"STATE":"FL","id":"a622jycff80b","SCHOOL":"Steinbrenner High School","BG_LAT":28.148538},"type":"Feature","geometry":{"type":"Point","coordinates":[-82.514003,28.148538]}},{"properties":{"CITY":"Wiggins","ZIP":"39577","BRANCH":"Air Force","BG_LONG":-89.134071,"STATE":"MS","id":"a622jyab657x","SCHOOL":"Stone High School","BG_LAT":30.855631},"type":"Feature","geometry":{"type":"Point","coordinates":[-89.134071,30.855631]}},{"properties":{"CITY":"Dover","ZIP":"33527","BRANCH":"Air Force","BG_LONG":-82.210015,"STATE":"FL","id":"a622jy9b4vn8","SCHOOL":"Strawberry Crest High School","BG_LAT":27.995325},"type":"Feature","geometry":{"type":"Point","coordinates":[-82.210015,27.995325]}},{"properties":{"CITY":"Dover","ZIP":"33527","BRANCH":"Navy","BG_LONG":-82.210015,"STATE":"FL","id":"a622jy56o8hb","SCHOOL":"Strawberry Crest High School","BG_LAT":27.995325},"type":"Feature","geometry":{"type":"Point","coordinates":[-82.210015,27.995325]}},{"properties":{"CITY":"Sulphur","ZIP":"","BRANCH":"Marines","BG_LONG":-93.377969,"STATE":"LA","id":"a622jy43m7sz","SCHOOL":"Sulphur High School","BG_LAT":30.236595},"type":"Feature","geometry":{"type":"Point","coordinates":[-93.377969,30.236595]}},{"properties":{"CITY":"Land O Lakes","ZIP":"34638","BRANCH":"Navy","BG_LONG":-82.495149,"STATE":"FL","id":"a622jy0xoirq","SCHOOL":"Sunlake High School","BG_LAT":28.25001},"type":"Feature","geometry":{"type":"Point","coordinates":[-82.495149,28.25001]}},{"properties":{"CITY":"Land O Lakes","ZIP":"34638","BRANCH":"Air Force","BG_LONG":-82.495149,"STATE":"FL","id":"a622jy0k5iul","SCHOOL":"Sunlake High School","BG_LAT":28.25001},"type":"Feature","geometry":{"type":"Point","coordinates":[-82.495149,28.25001]}},{"properties":{"CITY":"Syracuse","ZIP":"13204","BRANCH":"Navy","BG_LONG":-76.176056,"STATE":"NY","id":"a622jy25fl0j","SCHOOL":"Syracuse Academy Of Science","BG_LAT":43.049443},"type":"Feature","geometry":{"type":"Point","coordinates":[-76.176056,43.049443]}},{"properties":{"CITY":"PIERSON","ZIP":"","BRANCH":"Army","BG_LONG":-81.46302,"STATE":"FL","id":"a622jy55y0c6","SCHOOL":"T DEWITT TAYLOR MIDDLE HIGH SCHOOL","BG_LAT":29.24304},"type":"Feature","geometry":{"type":"Point","coordinates":[-81.46302,29.24304]}},{"properties":{"CITY":"BUTLER","ZIP":"","BRANCH":"Army","BG_LONG":-84.232999,"STATE":"GA","id":"a622jy9jdx2l","SCHOOL":"TAYLOR COUNTY HIGH SCHOOL","BG_LAT":32.55608},"type":"Feature","geometry":{"type":"Point","coordinates":[-84.232999,32.55608]}},{"properties":{"CITY":"TAZEWELL","ZIP":"","BRANCH":"Army","BG_LONG":-81.50721,"STATE":"VA","id":"a622jy2i5j05","SCHOOL":"TAZEWELL HIGH SCHOOL","BG_LAT":37.122089},"type":"Feature","geometry":{"type":"Point","coordinates":[-81.50721,37.122089]}},{"properties":{"CITY":"Lockport","ZIP":"60441","BRANCH":"Air Force","BG_LONG":-88.041439,"STATE":"IL","id":"a622jy3ogm4q","SCHOOL":"TBD*","BG_LAT":41.58919},"type":"Feature","geometry":{"type":"Point","coordinates":[-88.041439,41.58919]}},{"properties":{"CITY":"LAKELAND","ZIP":"","BRANCH":"Army","BG_LONG":-81.858334,"STATE":"FL","id":"a622jy57ko4k","SCHOOL":"TENOROC HS","BG_LAT":28.109156},"type":"Feature","geometry":{"type":"Point","coordinates":[-81.858334,28.109156]}},{"properties":{"CITY":"DAWSON","ZIP":"","BRANCH":"Army","BG_LONG":-84.446384,"STATE":"GA","id":"a622jy1kjib7","SCHOOL":"TERRELL MIDDLE HIGH SCHOOL","BG_LAT":31.773584},"type":"Feature","geometry":{"type":"Point","coordinates":[-84.446384,31.773584]}},{"properties":{"CITY":"HAMSPTEAD","ZIP":"","BRANCH":"Army","BG_LONG":-77.676666,"STATE":"NC","id":"a622jy6mxo8f","SCHOOL":"TOPSAIL HIGH SCHOOL","BG_LAT":34.394711},"type":"Feature","geometry":{"type":"Point","coordinates":[-77.676666,34.394711]}},{"properties":{"CITY":"RICHMOND","ZIP":"","BRANCH":"Army","BG_LONG":-95.762199,"STATE":"TX","id":"a622jy2kb7o9","SCHOOL":"TRAVIS HIGH SCHOOL","BG_LAT":29.582675},"type":"Feature","geometry":{"type":"Point","coordinates":[-95.762199,29.582675]}},{"properties":{"CITY":"FRANKFORT","ZIP":"","BRANCH":"Army","BG_LONG":-84.878694,"STATE":"KY","id":"a622jy1ys0x9","SCHOOL":"TRIGG HIGH SCHOOL","BG_LAT":38.19506},"type":"Feature","geometry":{"type":"Point","coordinates":[-84.878694,38.19506]}},{"properties":{"CITY":"TROY","ZIP":"","BRANCH":"Army","BG_LONG":-115.895489,"STATE":"MT","id":"a622jy395c2e","SCHOOL":"TROY HIGH SCHOOL","BG_LAT":48.46266},"type":"Feature","geometry":{"type":"Point","coordinates":[-115.895489,48.46266]}},{"properties":{"CITY":"Lincoln City","ZIP":"97367","BRANCH":"Navy","BG_LONG":-124.016714,"STATE":"OR","id":"a622jy534rkx","SCHOOL":"Taft High School","BG_LAT":44.92951},"type":"Feature","geometry":{"type":"Point","coordinates":[-124.016714,44.92951]}},{"properties":{"CITY":"Oxford","ZIP":"45056","BRANCH":"Navy","BG_LONG":-84.74427,"STATE":"OH","id":"a622jy5aw639","SCHOOL":"Talawanda High School","BG_LAT":39.500622},"type":"Feature","geometry":{"type":"Point","coordinates":[-84.74427,39.500622]}},{"properties":{"CITY":"Tarpon Springs","ZIP":"34689","BRANCH":"Air Force","BG_LONG":-82.777283,"STATE":"FL","id":"a622jxywo5eo","SCHOOL":"Tarpon Springs High School","BG_LAT":28.14506},"type":"Feature","geometry":{"type":"Point","coordinates":[-82.777283,28.14506]}},{"properties":{"CITY":"Tavares","ZIP":"","BRANCH":"Marines","BG_LONG":-81.727913,"STATE":"FL","id":"a622jy3em1au","SCHOOL":"Tavares High School","BG_LAT":28.80691},"type":"Feature","geometry":{"type":"Point","coordinates":[-81.727913,28.80691]}},{"properties":{"CITY":"North Bend","ZIP":"45052","BRANCH":"Navy","BG_LONG":-84.745422,"STATE":"OH","id":"a622jy5b8hk1","SCHOOL":"Taylor High School","BG_LAT":39.154461},"type":"Feature","geometry":{"type":"Point","coordinates":[-84.745422,39.154461]}},{"properties":{"CITY":"Taylor","ZIP":"76574","BRANCH":"Navy","BG_LONG":-97.413811,"STATE":"TX","id":"a622jy75aipu","SCHOOL":"Taylor High School","BG_LAT":30.59411},"type":"Feature","geometry":{"type":"Point","coordinates":[-97.413811,30.59411]}},{"properties":{"CITY":"Tazewell","ZIP":"24651","BRANCH":"Navy","BG_LONG":-81.50721,"STATE":"VA","id":"a622jy121v8r","SCHOOL":"Tazewell High School","BG_LAT":37.122089},"type":"Feature","geometry":{"type":"Point","coordinates":[-81.50721,37.122089]}},{"properties":{"CITY":"Tomball","ZIP":"77375","BRANCH":"Navy","BG_LONG":-95.62912,"STATE":"TX","id":"a622jybb4ysu","SCHOOL":"Tomball High School","BG_LAT":30.10869},"type":"Feature","geometry":{"type":"Point","coordinates":[-95.62912,30.10869]}},{"properties":{"CITY":"Toms River","ZIP":"08753","BRANCH":"Navy","BG_LONG":-74.193771,"STATE":"NJ","id":"a622jxz30qoa","SCHOOL":"Toms River East High School","BG_LAT":39.952881},"type":"Feature","geometry":{"type":"Point","coordinates":[-74.193771,39.952881]}},{"properties":{"CITY":"Hampstead","ZIP":"28443","BRANCH":"Navy","BG_LONG":-77.676666,"STATE":"NC","id":"a622jy24f7z6","SCHOOL":"Topsail High School","BG_LAT":34.394711},"type":"Feature","geometry":{"type":"Point","coordinates":[-77.676666,34.394711]}},{"properties":{"CITY":"Richmond","ZIP":"77469","BRANCH":"Air Force","BG_LONG":-95.762199,"STATE":"TX","id":"a622jyddb28w","SCHOOL":"Travis High School","BG_LAT":29.582675},"type":"Feature","geometry":{"type":"Point","coordinates":[-95.762199,29.582675]}},{"properties":{"CITY":"Richmond","ZIP":"77469","BRANCH":"Navy","BG_LONG":-95.762199,"STATE":"TX","id":"a622jy72k4r3","SCHOOL":"Travis High School","BG_LAT":29.582675},"type":"Feature","geometry":{"type":"Point","coordinates":[-95.762199,29.582675]}},{"properties":{"CITY":"Marion","ZIP":"46952","BRANCH":"Navy","BG_LONG":-85.660384,"STATE":"IN","id":"a622jxzkm3ci","SCHOOL":"Tucker Career And Technical Center","BG_LAT":40.558805},"type":"Feature","geometry":{"type":"Point","coordinates":[-85.660384,40.558805]}},{"properties":{"CITY":"Miami","ZIP":"33147","BRANCH":"Navy","BG_LONG":-80.236989,"STATE":"FL","id":"a622jyb1pmur","SCHOOL":"Turner Technical Arts High School","BG_LAT":25.856615},"type":"Feature","geometry":{"type":"Point","coordinates":[-80.236989,25.856615]}},{"properties":{"CITY":"Tylertown","ZIP":"39667","BRANCH":"Air Force","BG_LONG":-90.140589,"STATE":"MS","id":"a622jyateuwj","SCHOOL":"Tylertown High School","BG_LAT":31.11589},"type":"Feature","geometry":{"type":"Point","coordinates":[-90.140589,31.11589]}},{"properties":{"CITY":"DEDEDO","ZIP":"","BRANCH":"Army","BG_LONG":144.835999,"STATE":"GU","id":"a622jxzxgv1i","SCHOOL":"UJUDO HIGH SCHOOL","BG_LAT":13.517},"type":"Feature","geometry":{"type":"Point","coordinates":[144.835999,13.517]}},{"properties":{"CITY":"Morganfield","ZIP":"42437","BRANCH":"Navy","BG_LONG":-87.916193,"STATE":"KY","id":"a622jy80bqu7","SCHOOL":"Union County High School","BG_LAT":37.683396},"type":"Feature","geometry":{"type":"Point","coordinates":[-87.916193,37.683396]}},{"properties":{"CITY":"Union","ZIP":"39365","BRANCH":"Air Force","BG_LONG":-89.121925,"STATE":"MS","id":"a622jy7jo9d4","SCHOOL":"Union High School","BG_LAT":32.571331},"type":"Feature","geometry":{"type":"Point","coordinates":[-89.121925,32.571331]}},{"properties":{"CITY":"Chatsworth","ZIP":"30705","BRANCH":"Navy","BG_LONG":-84.769579,"STATE":"GA","id":"a622jy786tu3","SCHOOL":"Unnamed High School","BG_LAT":34.766805},"type":"Feature","geometry":{"type":"Point","coordinates":[-84.769579,34.766805]}},{"properties":{"CITY":"LOS LUNAS","ZIP":"","BRANCH":"Army","BG_LONG":-106.742584,"STATE":"NM","id":"a622jy6tvu6j","SCHOOL":"VALENCIA HIGH SCHOOL","BG_LAT":34.81163},"type":"Feature","geometry":{"type":"Point","coordinates":[-106.742584,34.81163]}},{"properties":{"CITY":"SPENCER","ZIP":"","BRANCH":"Army","BG_LONG":-85.464668,"STATE":"TN","id":"a622jy92mszt","SCHOOL":"VAN BUREN HIGH SCHOOL","BG_LAT":35.746948},"type":"Feature","geometry":{"type":"Point","coordinates":[-85.464668,35.746948]}},{"properties":{"CITY":"KATHLEEN","ZIP":"31047","BRANCH":"Air Force","BG_LONG":-83.610079,"STATE":"GA","id":"a622jy2lj4qq","SCHOOL":"VETERANS HIGH SCHOOL","BG_LAT":32.49124},"type":"Feature","geometry":{"type":"Point","coordinates":[-83.610079,32.49124]}},{"properties":{"CITY":"VIDALIA","ZIP":"","BRANCH":"Army","BG_LONG":-82.412424,"STATE":"GA","id":"a622jydhqx5z","SCHOOL":"VIDALIA HIGH SCHOOL","BG_LAT":32.217275},"type":"Feature","geometry":{"type":"Point","coordinates":[-82.412424,32.217275]}},{"properties":{"CITY":"VIERA","ZIP":"","BRANCH":"Army","BG_LONG":-80.737909,"STATE":"FL","id":"a622jy951iag","SCHOOL":"VIERA HIGH SCHOOL","BG_LAT":28.24569},"type":"Feature","geometry":{"type":"Point","coordinates":[-80.737909,28.24569]}},{"properties":{"CITY":"FAYETTEVILLE","ZIP":"","BRANCH":"Army","BG_LONG":-78.877579,"STATE":"NC","id":"a622jy74upq5","SCHOOL":"VILLAGE CHRISTIAN ACADEMY","BG_LAT":35.054495},"type":"Feature","geometry":{"type":"Point","coordinates":[-78.877579,35.054495]}},{"properties":{"CITY":"VINCENNES","ZIP":"","BRANCH":"Army","BG_LONG":-87.532245,"STATE":"IN","id":"a622jy3pooff","SCHOOL":"VINCENNES HS","BG_LAT":38.678105},"type":"Feature","geometry":{"type":"Point","coordinates":[-87.532245,38.678105]}},{"properties":{"CITY":"COLORADO SPRINGS","ZIP":"","BRANCH":"Army","BG_LONG":-104.821729,"STATE":"CO","id":"a622jybbps08","SCHOOL":"VISTA RIDGE HIGH SCHOOL","BG_LAT":38.83311},"type":"Feature","geometry":{"type":"Point","coordinates":[-104.821729,38.83311]}},{"properties":{"CITY":"Surprise","ZIP":"85374","BRANCH":"Air Force","BG_LONG":-112.326939,"STATE":"AZ","id":"a622jyci4hjw","SCHOOL":"Valley Vista High School","BG_LAT":33.63861},"type":"Feature","geometry":{"type":"Point","coordinates":[-112.326939,33.63861]}},{"properties":{"CITY":"Villa Rica","ZIP":"30180","BRANCH":"Navy","BG_LONG":-84.944557,"STATE":"GA","id":"a622jybqfxnm","SCHOOL":"Villa Rica","BG_LAT":33.728859},"type":"Feature","geometry":{"type":"Point","coordinates":[-84.944557,33.728859]}},{"properties":{"CITY":"Villa Rica","ZIP":"","BRANCH":"Marines","BG_LONG":-84.944557,"STATE":"GA","id":"a622jxy35rd3","SCHOOL":"Villa Rica High School","BG_LAT":33.728859},"type":"Feature","geometry":{"type":"Point","coordinates":[-84.944557,33.728859]}},{"properties":{"CITY":"Vineland","ZIP":"08361","BRANCH":"Navy","BG_LONG":-75.017998,"STATE":"NJ","id":"a622jxyt1a4n","SCHOOL":"Vineland North High School","BG_LAT":39.432991},"type":"Feature","geometry":{"type":"Point","coordinates":[-75.017998,39.432991]}},{"properties":{"CITY":"Vinita","ZIP":"74301","BRANCH":"Navy","BG_LONG":-95.153834,"STATE":"OK","id":"a622jy1n0p4j","SCHOOL":"Vinita High School","BG_LAT":36.638515},"type":"Feature","geometry":{"type":"Point","coordinates":[-95.153834,36.638515]}},{"properties":{"CITY":"WALKER","ZIP":"","BRANCH":"Army","BG_LONG":-90.860686,"STATE":"LA","id":"a622jy3pw0tc","SCHOOL":"WALKER HGH SCHOOL","BG_LAT":30.488336},"type":"Feature","geometry":{"type":"Point","coordinates":[-90.860686,30.488336]}},{"properties":{"CITY":"WARE SHOALS","ZIP":"","BRANCH":"Army","BG_LONG":-82.24659,"STATE":"SC","id":"a622jyaqaau1","SCHOOL":"WARE SHOALS JR/SR HIGH SCHOOL","BG_LAT":34.39864},"type":"Feature","geometry":{"type":"Point","coordinates":[-82.24659,34.39864]}},{"properties":{"CITY":"SHAWNEE","ZIP":"","BRANCH":"Army","BG_LONG":-94.715434,"STATE":"KS","id":"a622jy3qpqts","SCHOOL":"WASHBURN RURAL HS","BG_LAT":39.022905},"type":"Feature","geometry":{"type":"Point","coordinates":[-94.715434,39.022905]}},{"properties":{"CITY":"MONTROSS","ZIP":"","BRANCH":"Army","BG_LONG":-76.819878,"STATE":"VA","id":"a622jyacnz5x","SCHOOL":"WASHINGTON &amp; LEE HIGH SCHOOL","BG_LAT":38.094849},"type":"Feature","geometry":{"type":"Point","coordinates":[-76.819878,38.094849]}},{"properties":{"CITY":"WASHINGTON","ZIP":"","BRANCH":"Army","BG_LONG":-82.739637,"STATE":"GA","id":"a622jy55ap0f","SCHOOL":"WASHINGTON-WILKES HS","BG_LAT":33.735355},"type":"Feature","geometry":{"type":"Point","coordinates":[-82.739637,33.735355]}},{"properties":{"CITY":"WEAVER","ZIP":"","BRANCH":"Army","BG_LONG":-85.835052,"STATE":"AL","id":"a622jy416wvx","SCHOOL":"WEAVER HIGH SCHOOL","BG_LAT":33.746899},"type":"Feature","geometry":{"type":"Point","coordinates":[-85.835052,33.746899]}},{"properties":{"CITY":"APOPKA","ZIP":"","BRANCH":"Army","BG_LONG":-81.507604,"STATE":"FL","id":"a622jyapx94m","SCHOOL":"WEKIVA HIGH SCHOOL","BG_LAT":28.67312},"type":"Feature","geometry":{"type":"Point","coordinates":[-81.507604,28.67312]}},{"properties":{"CITY":"MIRAMAR","ZIP":"","BRANCH":"Army","BG_LONG":-80.220529,"STATE":"FL","id":"a622jy3x05kr","SCHOOL":"WEST BROWARD HIGH SCHOOL (LLL)","BG_LAT":25.982056},"type":"Feature","geometry":{"type":"Point","coordinates":[-80.220529,25.982056]}},{"properties":{"CITY":"MARIETTA","ZIP":"","BRANCH":"Army","BG_LONG":-84.545879,"STATE":"GA","id":"a622jy0ibx59","SCHOOL":"WEST COBB HIGH SCHOOL","BG_LAT":33.953195},"type":"Feature","geometry":{"type":"Point","coordinates":[-84.545879,33.953195]}},{"properties":{"CITY":"CLARKSVILLE","ZIP":"","BRANCH":"Army","BG_LONG":-87.359769,"STATE":"TN","id":"a622jy8jh9tg","SCHOOL":"WEST CREEK HIGH SCHOOL","BG_LAT":36.530755},"type":"Feature","geometry":{"type":"Point","coordinates":[-87.359769,36.530755]}},{"properties":{"CITY":"GULFPORT","ZIP":"","BRANCH":"Army","BG_LONG":-89.049924,"STATE":"MS","id":"a622jy72bmvf","SCHOOL":"WEST HARRISON HS","BG_LAT":30.406425},"type":"Feature","geometry":{"type":"Point","coordinates":[-89.049924,30.406425]}},{"properties":{"CITY":"LAS VEGAS","ZIP":"","BRANCH":"Army","BG_LONG":-115.277554,"STATE":"NV","id":"a622jycxwqoy","SCHOOL":"WEST PREP","BG_LAT":36.30968},"type":"Feature","geometry":{"type":"Point","coordinates":[-115.277554,36.30968]}},{"properties":{"CITY":"WILLISTON","ZIP":"","BRANCH":"Army","BG_LONG":-81.530078,"STATE":"SC","id":"a622jy7ps0a7","SCHOOL":"WILLISTON-ELKO HS","BG_LAT":33.39946},"type":"Feature","geometry":{"type":"Point","coordinates":[-81.530078,33.39946]}},{"properties":{"CITY":"WINDER","ZIP":"","BRANCH":"Army","BG_LONG":-83.722489,"STATE":"GA","id":"a622jy4pnef2","SCHOOL":"WINDER-BARROW HS","BG_LAT":33.99121},"type":"Feature","geometry":{"type":"Point","coordinates":[-83.722489,33.99121]}},{"properties":{"CITY":"ASTORIA","ZIP":"","BRANCH":"Army","BG_LONG":-73.925973,"STATE":"NY","id":"a622jxzl4321","SCHOOL":"WM CULLEN BRYANT HS","BG_LAT":40.772148},"type":"Feature","geometry":{"type":"Point","coordinates":[-73.925973,40.772148]}},{"properties":{"CITY":"STOCKBRIDGE","ZIP":"","BRANCH":"Army","BG_LONG":-84.193484,"STATE":"GA","id":"a622jy8pfm4n","SCHOOL":"WOODLAND HS","BG_LAT":33.53082},"type":"Feature","geometry":{"type":"Point","coordinates":[-84.193484,33.53082]}},{"properties":{"CITY":"DORCESTER","ZIP":"","BRANCH":"Army","BG_LONG":-80.395789,"STATE":"SC","id":"a622jy9wf3hh","SCHOOL":"WOODLAWN HIGH SCHOOL","BG_LAT":33.13902},"type":"Feature","geometry":{"type":"Point","coordinates":[-80.395789,33.13902]}},{"properties":{"CITY":"PIEDMONT","ZIP":"","BRANCH":"Army","BG_LONG":-82.473503,"STATE":"SC","id":"a622jybypcr0","SCHOOL":"WOODMONT HIGH SCHOOL","BG_LAT":34.757061},"type":"Feature","geometry":{"type":"Point","coordinates":[-82.473503,34.757061]}},{"properties":{"CITY":"WYLIE","ZIP":"","BRANCH":"Army","BG_LONG":-96.514819,"STATE":"TX","id":"a622jy33gxic","SCHOOL":"WYLIE EAST HS","BG_LAT":33.022894},"type":"Feature","geometry":{"type":"Point","coordinates":[-96.514819,33.022894]}},{"properties":{"CITY":"Waco","ZIP":"76710","BRANCH":"Air Force","BG_LONG":-97.184921,"STATE":"TX","id":"a622jy1vmjkh","SCHOOL":"Waco High School","BG_LAT":31.544161},"type":"Feature","geometry":{"type":"Point","coordinates":[-97.184921,31.544161]}},{"properties":{"CITY":"Wagoner","ZIP":"","BRANCH":"Marines","BG_LONG":-95.359802,"STATE":"OK","id":"a622jy5r46gg","SCHOOL":"Wagoner High School","BG_LAT":35.961399},"type":"Feature","geometry":{"type":"Point","coordinates":[-95.359802,35.961399]}},{"properties":{"CITY":"Wagoner","ZIP":"74467","BRANCH":"Navy","BG_LONG":-95.359802,"STATE":"OK","id":"a622jyalgoyo","SCHOOL":"Wagoner High School","BG_LAT":35.961399},"type":"Feature","geometry":{"type":"Point","coordinates":[-95.359802,35.961399]}},{"properties":{"CITY":"Waller","ZIP":"77484","BRANCH":"Navy","BG_LONG":-95.923539,"STATE":"TX","id":"a622jye0uu21","SCHOOL":"Waller High School","BG_LAT":30.055885},"type":"Feature","geometry":{"type":"Point","coordinates":[-95.923539,30.055885]}},{"properties":{"CITY":"Palin","ZIP":"08859","BRANCH":"Navy","BG_LONG":-74.327141,"STATE":"NJ","id":"a622jyct1dhn","SCHOOL":"War Memorial High School","BG_LAT":40.462158},"type":"Feature","geometry":{"type":"Point","coordinates":[-74.327141,40.462158]}},{"properties":{"CITY":"Montross","ZIP":"22520","BRANCH":"Navy","BG_LONG":-76.757056,"STATE":"VA","id":"a622jy5oqnlo","SCHOOL":"Washington &amp; Lee High School","BG_LAT":38.124075},"type":"Feature","geometry":{"type":"Point","coordinates":[-76.757056,38.124075]}},{"properties":{"CITY":"Charles Town","ZIP":"25414","BRANCH":"Air Force","BG_LONG":-77.859291,"STATE":"WV","id":"a622jy6ox1gx","SCHOOL":"Washington High School","BG_LAT":39.289289},"type":"Feature","geometry":{"type":"Point","coordinates":[-77.859291,39.289289]}},{"properties":{"CITY":"Washington","ZIP":"30673","BRANCH":"Navy","BG_LONG":-82.739637,"STATE":"GA","id":"a622jyc5fhvt","SCHOOL":"Washington Wilkes Comprehensive","BG_LAT":33.735355},"type":"Feature","geometry":{"type":"Point","coordinates":[-82.739637,33.735355]}},{"properties":{"CITY":"Warren","ZIP":"7059","BRANCH":"Air Force","BG_LONG":-74.477928,"STATE":"NJ","id":"a622jyamcgf4","SCHOOL":"Watchung Hills Regional High School","BG_LAT":40.650848},"type":"Feature","geometry":{"type":"Point","coordinates":[-74.477928,40.650848]}},{"properties":{"CITY":"Weaver","ZIP":"36277","BRANCH":"Air Force","BG_LONG":-85.835052,"STATE":"AL","id":"a622jy381jb6","SCHOOL":"Weaver High School","BG_LAT":33.746899},"type":"Feature","geometry":{"type":"Point","coordinates":[-85.835052,33.746899]}},{"properties":{"CITY":"Matthews","ZIP":"28104","BRANCH":"Navy","BG_LONG":-80.755316,"STATE":"NC","id":"a622jy28y8bc","SCHOOL":"Weddington High School","BG_LAT":35.018601},"type":"Feature","geometry":{"type":"Point","coordinates":[-80.755316,35.018601]}},{"properties":{"CITY":"Wellington","ZIP":"67152","BRANCH":"Air Force","BG_LONG":-97.394287,"STATE":"KS","id":"a622jxz28e4r","SCHOOL":"Wellington High School","BG_LAT":37.270931},"type":"Feature","geometry":{"type":"Point","coordinates":[-97.394287,37.270931]}},{"properties":{"CITY":"Wesley Chapel","ZIP":"33544","BRANCH":"Navy","BG_LONG":-82.363983,"STATE":"FL","id":"a622jxyml3ui","SCHOOL":"Wesley Chapel High School","BG_LAT":28.238398},"type":"Feature","geometry":{"type":"Point","coordinates":[-82.363983,28.238398]}},{"properties":{"CITY":"Pensacola","ZIP":"32526","BRANCH":"Navy","BG_LONG":-87.322259,"STATE":"FL","id":"a622jye44s6p","SCHOOL":"West Florida High School Of Advanced Tec","BG_LAT":30.483888},"type":"Feature","geometry":{"type":"Point","coordinates":[-87.322259,30.483888]}},{"properties":{"CITY":"Mosheim","ZIP":"37818","BRANCH":"Navy","BG_LONG":-82.974197,"STATE":"TN","id":"a622jxzup1sv","SCHOOL":"West Greene","BG_LAT":36.183788},"type":"Feature","geometry":{"type":"Point","coordinates":[-82.974197,36.183788]}},{"properties":{"CITY":"Gulfport","ZIP":"39503","BRANCH":"Navy","BG_LONG":-89.094259,"STATE":"MS","id":"a622jy057lgj","SCHOOL":"West Harrison High School","BG_LAT":30.414995},"type":"Feature","geometry":{"type":"Point","coordinates":[-89.094259,30.414995]}},{"properties":{"CITY":"Foxworth","ZIP":"","BRANCH":"Marines","BG_LONG":-89.875504,"STATE":"MS","id":"a622jy86r8c2","SCHOOL":"West Marion High School","BG_LAT":31.23597},"type":"Feature","geometry":{"type":"Point","coordinates":[-89.875504,31.23597]}},{"properties":{"CITY":"Philadelphia","ZIP":"19139","BRANCH":"Navy","BG_LONG":-75.211418,"STATE":"PA","id":"a622jyci3gwr","SCHOOL":"West Philadelphia Catholic","BG_LAT":39.956741},"type":"Feature","geometry":{"type":"Point","coordinates":[-75.211418,39.956741]}},{"properties":{"CITY":"Louisville","ZIP":"40216","BRANCH":"Air Force","BG_LONG":-85.806304,"STATE":"KY","id":"a622jyd3yojs","SCHOOL":"Western MST High School*","BG_LAT":38.194775},"type":"Feature","geometry":{"type":"Point","coordinates":[-85.806304,38.194775]}},{"properties":{"CITY":"Westerville","ZIP":"43081","BRANCH":"Navy","BG_LONG":-82.897858,"STATE":"OH","id":"a622jy8yspmv","SCHOOL":"Westerville North","BG_LAT":40.131889},"type":"Feature","geometry":{"type":"Point","coordinates":[-82.897858,40.131889]}},{"properties":{"CITY":"Westerville","ZIP":"43018","BRANCH":"Navy","BG_LONG":-82.683259,"STATE":"OH","id":"a622jychpsud","SCHOOL":"Westerville South High School","BG_LAT":39.95731},"type":"Feature","geometry":{"type":"Point","coordinates":[-82.683259,39.95731]}},{"properties":{"CITY":"Chicago","ZIP":"60624","BRANCH":"Navy","BG_LONG":-87.632409,"STATE":"IL","id":"a622jy0lmmlf","SCHOOL":"Westinghouse High School","BG_LAT":41.88415},"type":"Feature","geometry":{"type":"Point","coordinates":[-87.632409,41.88415]}},{"properties":{"CITY":"Trinity","ZIP":"27263","BRANCH":"Air Force","BG_LONG":-79.963149,"STATE":"NC","id":"a622jy7emi3t","SCHOOL":"Wheatmore High School","BG_LAT":35.8997},"type":"Feature","geometry":{"type":"Point","coordinates":[-79.963149,35.8997]}},{"properties":{"CITY":"Wildwood","ZIP":"34785","BRANCH":"Air Force","BG_LONG":-82.036689,"STATE":"FL","id":"a622jxxzighy","SCHOOL":"Wiidwood High School","BG_LAT":28.865515},"type":"Feature","geometry":{"type":"Point","coordinates":[-82.036689,28.865515]}},{"properties":{"CITY":"Wildwood","ZIP":"","BRANCH":"Marines","BG_LONG":-82.033127,"STATE":"FL","id":"a622jy57bxmb","SCHOOL":"Wildwood High School","BG_LAT":28.85815},"type":"Feature","geometry":{"type":"Point","coordinates":[-82.033127,28.85815]}},{"properties":{"CITY":"Richmond","ZIP":"","BRANCH":"Marines","BG_LONG":-95.762199,"STATE":"TX","id":"a622jy25lwcm","SCHOOL":"William B Travis High School","BG_LAT":29.58267},"type":"Feature","geometry":{"type":"Point","coordinates":[-95.762199,29.58267]}},{"properties":{"CITY":"Parish","ZIP":"13131","BRANCH":"Navy","BG_LONG":-76.126182,"STATE":"NY","id":"a622jy7ip3ln","SCHOOL":"Williamstown High School","BG_LAT":43.406514},"type":"Feature","geometry":{"type":"Point","coordinates":[-76.126182,43.406514]}},{"properties":{"CITY":"Williston","ZIP":"","BRANCH":"Marines","BG_LONG":-82.452118,"STATE":"FL","id":"a622jy0zvgps","SCHOOL":"Williston High School","BG_LAT":29.38653},"type":"Feature","geometry":{"type":"Point","coordinates":[-82.452118,29.38653]}},{"properties":{"CITY":"Windham","ZIP":"03087","BRANCH":"Navy","BG_LONG":-71.297867,"STATE":"NH","id":"a622jycautrb","SCHOOL":"Windham High School","BG_LAT":42.806549},"type":"Feature","geometry":{"type":"Point","coordinates":[-71.297867,42.806549]}},{"properties":{"CITY":"Fort Defiance","ZIP":"","BRANCH":"Marines","BG_LONG":-109.083175,"STATE":"AZ","id":"a622jy6rflvb","SCHOOL":"Window Rock High School","BG_LAT":35.787955},"type":"Feature","geometry":{"type":"Point","coordinates":[-109.083175,35.787955]}},{"properties":{"CITY":"Stockbridge","ZIP":"30281","BRANCH":"Navy","BG_LONG":-84.227709,"STATE":"GA","id":"a622jy95u4xe","SCHOOL":"Woodland High School","BG_LAT":33.543789},"type":"Feature","geometry":{"type":"Point","coordinates":[-84.227709,33.543789]}},{"properties":{"CITY":"Dorchester","ZIP":"29437","BRANCH":"Air Force","BG_LONG":-80.492317,"STATE":"SC","id":"a622jy1q93v7","SCHOOL":"Woodland High School","BG_LAT":33.16555},"type":"Feature","geometry":{"type":"Point","coordinates":[-80.492317,33.16555]}},{"properties":{"CITY":"Cartersville","ZIP":"30120","BRANCH":"Air Force","BG_LONG":-84.825157,"STATE":"GA","id":"a622jy4mds50","SCHOOL":"Woodland High School","BG_LAT":34.116348},"type":"Feature","geometry":{"type":"Point","coordinates":[-84.825157,34.116348]}},{"properties":{"CITY":"Stockbridge","ZIP":"30281","BRANCH":"Air Force","BG_LONG":-84.227709,"STATE":"GA","id":"a622jy1drj5r","SCHOOL":"Woodland High School","BG_LAT":33.543789},"type":"Feature","geometry":{"type":"Point","coordinates":[-84.227709,33.543789]}},{"properties":{"CITY":"Dorchester","ZIP":"","BRANCH":"Marines","BG_LONG":-80.395789,"STATE":"SC","id":"a622jydxlx8j","SCHOOL":"Woodland Hills High School","BG_LAT":33.13902},"type":"Feature","geometry":{"type":"Point","coordinates":[-80.395789,33.13902]}},{"properties":{"CITY":"Pittsburg","ZIP":"","BRANCH":"Marines","BG_LONG":-79.997449,"STATE":"PA","id":"a622jy7a5h7t","SCHOOL":"Woodland Hills High School","BG_LAT":40.438315},"type":"Feature","geometry":{"type":"Point","coordinates":[-79.997449,40.438315]}},{"properties":{"CITY":"Abilene","ZIP":"79606","BRANCH":"Navy","BG_LONG":-99.784187,"STATE":"TX","id":"a622jydnv9kk","SCHOOL":"Wylie","BG_LAT":32.373219},"type":"Feature","geometry":{"type":"Point","coordinates":[-99.784187,32.373219]}},{"properties":{"CITY":"Wylie","ZIP":"75098","BRANCH":"Navy","BG_LONG":-96.514819,"STATE":"TX","id":"a622jy7efcgk","SCHOOL":"Wylie East","BG_LAT":33.022894},"type":"Feature","geometry":{"type":"Point","coordinates":[-96.514819,33.022894]}},{"properties":{"CITY":"Wylie","ZIP":"75098","BRANCH":"Air Force","BG_LONG":-96.514819,"STATE":"TX","id":"a622jy1ltycb","SCHOOL":"Wylie East High School","BG_LAT":33.022894},"type":"Feature","geometry":{"type":"Point","coordinates":[-96.514819,33.022894]}},{"properties":{"CITY":"DALLAS","ZIP":"","BRANCH":"Army","BG_LONG":-96.795404,"STATE":"TX","id":"a622jxz6rz4f","SCHOOL":"YVONNE EWELL TOWNVIEW CENTER","BG_LAT":32.778155},"type":"Feature","geometry":{"type":"Point","coordinates":[-96.795404,32.778155]}},{"properties":{"CITY":"Buckeye","ZIP":"","BRANCH":"Marines","BG_LONG":-112.590104,"STATE":"AZ","id":"a622jy29o2aw","SCHOOL":"Younger High School","BG_LAT":33.37046},"type":"Feature","geometry":{"type":"Point","coordinates":[-112.590104,33.37046]}},{"properties":{"CITY":"Buckeye","ZIP":"85326","BRANCH":"Navy","BG_LONG":-112.590104,"STATE":"AZ","id":"a622jy0l9xka","SCHOOL":"Youngker High School","BG_LAT":33.37046},"type":"Feature","geometry":{"type":"Point","coordinates":[-112.590104,33.37046]}}],"is_temporal":false,"author":{"url":"http://www.peaceworkmagazine.org","metadata":"","contact_name":"Katherine Fisher","contact_address":"kath.fisher@gmail.com","source":"","contact_phone":""},"source":"http://www.peaceworkmagazine.org","pagination":{"sort":null,"start":0,"total":721,"limit":1000000},"state":"complete","tags":"","published":"2009-07-24T12:00:00Z","id":14781}