{"type":"FeatureCollection","data_type":"Dataset","url_type":null,"permissions":[{"permissions":{"download":true,"view":true},"group_id":"everyone"}],"classification":null,"title":"CCD7 Respondent Map","count":307,"stream_id":1479,"contributor":{"url":"http://geocommons.com/users/83","name":"TDUBEN"},"data_attributes":null,"calculation_params":null,"icon_link":null,"link":"http://geocommons.com/overlays/1479.json","extent":[-117.113,32.7421,-117.007,32.9208],"geometry_types":["point"],"unique_name":null,"name":"CCD7 Respondent Map","feature_count":307,"description":"","next_feature":null,"is_raster":false,"short_classification":"Y","stats":{"zip code":{"max":92131,"mean":92119.5016286645,"variance":11.9566966851888,"stdev":3.45784567110633,"min":92105,"median":92120},"lat":{"max":32.920846,"mean":32.7963645667752,"variance":0.000628470328246348,"stdev":0.0250693104860574,"min":32.742093,"median":32.797514},"long":{"max":-117.006746,"mean":-117.06460234202,"variance":0.000687370983650608,"stdev":0.0262177608435695,"min":-117.112707,"median":-117.06653}},"features":[{"properties":{"city":"San Diego","zip code":92124,"id":"a692u2wor674","address":"10225 Collett Way","lat":32.814676,"state":"CA","long":-117.108178},"type":"Feature","geometry":{"type":"Point","coordinates":[-117.108178,32.814676]}},{"properties":{"city":"San Diego","zip code":92124,"id":"a692u31n99xa","address":"10376 Veracruz Ct","lat":32.831785,"state":"CA","long":-117.106335},"type":"Feature","geometry":{"type":"Point","coordinates":[-117.106335,32.831785]}},{"properties":{"city":"San Diego","zip code":92124,"id":"a692u2vsthxr","address":"10468 El Comal Dr","lat":32.837978,"state":"CA","long":-117.101522},"type":"Feature","geometry":{"type":"Point","coordinates":[-117.101522,32.837978]}},{"properties":{"city":"San Diego","zip code":92124,"id":"a692u30ddf1f","address":"10474 La Morada Dr","lat":32.839072,"state":"CA","long":-117.101483},"type":"Feature","geometry":{"type":"Point","coordinates":[-117.101483,32.839072]}},{"properties":{"city":"San Diego","zip code":92124,"id":"a692u2vcpuyv","address":"10480 El Comal Dr","lat":32.837969,"state":"CA","long":-117.101206},"type":"Feature","geometry":{"type":"Point","coordinates":[-117.101206,32.837969]}},{"properties":{"city":"San Diego","zip code":92124,"id":"a692u30njtql","address":"10506 El Comal Dr","lat":32.837949,"state":"CA","long":-117.100523},"type":"Feature","geometry":{"type":"Point","coordinates":[-117.100523,32.837949]}},{"properties":{"city":"San Diego","zip code":92124,"id":"a692u39etkdd","address":"10515 Gabacho Dr","lat":32.830997,"state":"CA","long":-117.101565},"type":"Feature","geometry":{"type":"Point","coordinates":[-117.101565,32.830997]}},{"properties":{"city":"San Diego","zip code":92124,"id":"a692u32nfie7","address":"10519 Orozco Rd","lat":32.836974,"state":"CA","long":-117.100667},"type":"Feature","geometry":{"type":"Point","coordinates":[-117.100667,32.836974]}},{"properties":{"city":"San Diego","zip code":92124,"id":"a692u2zvwnaa","address":"10531 El Comal Dr","lat":32.837591,"state":"CA","long":-117.099459},"type":"Feature","geometry":{"type":"Point","coordinates":[-117.099459,32.837591]}},{"properties":{"city":"San Diego","zip code":92124,"id":"a692u2wf0icy","address":"10566 Viacha Dr","lat":32.811894,"state":"CA","long":-117.096499},"type":"Feature","geometry":{"type":"Point","coordinates":[-117.096499,32.811894]}},{"properties":{"city":"San Diego","zip code":92124,"id":"a692u30ehtnx","address":"10637 Viacha Dr","lat":32.813462,"state":"CA","long":-117.096056},"type":"Feature","geometry":{"type":"Point","coordinates":[-117.096056,32.813462]}},{"properties":{"city":"San Diego","zip code":92124,"id":"a692u2zx9d33","address":"10698 Esmeraldas Dr","lat":32.827166,"state":"CA","long":-117.099893},"type":"Feature","geometry":{"type":"Point","coordinates":[-117.099893,32.827166]}},{"properties":{"city":"San Diego","zip code":92124,"id":"a692u38jut9y","address":"10716 Escobar Dr","lat":32.823929,"state":"CA","long":-117.100083},"type":"Feature","geometry":{"type":"Point","coordinates":[-117.100083,32.823929]}},{"properties":{"city":"San Diego","zip code":92124,"id":"a692u301n1i7","address":"10751 Gabacho Dr","lat":32.830887,"state":"CA","long":-117.098436},"type":"Feature","geometry":{"type":"Point","coordinates":[-117.098436,32.830887]}},{"properties":{"city":"San Diego","zip code":92124,"id":"a692u37u1jcv","address":"10770 Escobar Dr","lat":32.82368,"state":"CA","long":-117.099405},"type":"Feature","geometry":{"type":"Point","coordinates":[-117.099405,32.82368]}},{"properties":{"city":"San Diego","zip code":92124,"id":"a692u39z045k","address":"10811 Via Cascabel","lat":32.820633,"state":"CA","long":-117.09282},"type":"Feature","geometry":{"type":"Point","coordinates":[-117.09282,32.820633]}},{"properties":{"city":"San Diego","zip code":92124,"id":"a692u34qdwf1","address":"10815 Via Cascabel","lat":32.820585,"state":"CA","long":-117.092793},"type":"Feature","geometry":{"type":"Point","coordinates":[-117.092793,32.820585]}},{"properties":{"city":"San Diego","zip code":92124,"id":"a692u3771xvt","address":"10837 Viacha Dr","lat":32.815596,"state":"CA","long":-117.095293},"type":"Feature","geometry":{"type":"Point","coordinates":[-117.095293,32.815596]}},{"properties":{"city":"San Diego","zip code":92124,"id":"a692u2vx3esm","address":"10858 Viacha Dr","lat":32.816307,"state":"CA","long":-117.095346},"type":"Feature","geometry":{"type":"Point","coordinates":[-117.095346,32.816307]}},{"properties":{"city":"San Diego","zip code":92124,"id":"a692u37p6dzb","address":"10865 Montego Dr","lat":32.828312,"state":"CA","long":-117.095822},"type":"Feature","geometry":{"type":"Point","coordinates":[-117.095822,32.828312]}},{"properties":{"city":"San Diego","zip code":92124,"id":"a692u3a2msr9","address":"10867 Valiente Ct","lat":32.82089,"state":"CA","long":-117.091123},"type":"Feature","geometry":{"type":"Point","coordinates":[-117.091123,32.82089]}},{"properties":{"city":"San Diego","zip code":92124,"id":"a692u2zxburg","address":"10918 Valldemosa Ln","lat":32.818104,"state":"CA","long":-117.098909},"type":"Feature","geometry":{"type":"Point","coordinates":[-117.098909,32.818104]}},{"properties":{"city":"San Diego","zip code":92124,"id":"a692u2xdbc8q","address":"10931 Vivaracho Way","lat":32.825617,"state":"CA","long":-117.089773},"type":"Feature","geometry":{"type":"Point","coordinates":[-117.089773,32.825617]}},{"properties":{"city":"San Diego","zip code":92124,"id":"a692u39ierli","address":"11085 Zagala Ct","lat":32.823148,"state":"CA","long":-117.085834},"type":"Feature","geometry":{"type":"Point","coordinates":[-117.085834,32.823148]}},{"properties":{"city":"San Diego","zip code":92124,"id":"a692u34k5659","address":"11090 Viacha Dr","lat":32.817305,"state":"CA","long":-117.091444},"type":"Feature","geometry":{"type":"Point","coordinates":[-117.091444,32.817305]}},{"properties":{"city":"San Diego","zip code":92124,"id":"a692u2zz7nnm","address":"11152 Portobelo Dr","lat":32.841015,"state":"CA","long":-117.087621},"type":"Feature","geometry":{"type":"Point","coordinates":[-117.087621,32.841015]}},{"properties":{"city":"San Diego","zip code":92124,"id":"a692u397pp9s","address":"11160 Alejo Pl","lat":32.833008,"state":"CA","long":-117.08345},"type":"Feature","geometry":{"type":"Point","coordinates":[-117.08345,32.833008]}},{"properties":{"city":"San Diego","zip code":92124,"id":"a692u2vbrg7p","address":"11170 Collegio Dr","lat":32.831997,"state":"CA","long":-117.082795},"type":"Feature","geometry":{"type":"Point","coordinates":[-117.082795,32.831997]}},{"properties":{"city":"San Diego","zip code":92124,"id":"a692u2yj8k48","address":"11265 Carroza Ct","lat":32.82536,"state":"CA","long":-117.086591},"type":"Feature","geometry":{"type":"Point","coordinates":[-117.086591,32.82536]}},{"properties":{"city":"San Diego","zip code":92124,"id":"a692u37xbsyx","address":"11274 Corte Playa Corona","lat":32.835071,"state":"CA","long":-117.087407},"type":"Feature","geometry":{"type":"Point","coordinates":[-117.087407,32.835071]}},{"properties":{"city":"San Diego","zip code":92124,"id":"a692u39l7obc","address":"11297 Corte Playa Azteca","lat":32.836556,"state":"CA","long":-117.086604},"type":"Feature","geometry":{"type":"Point","coordinates":[-117.086604,32.836556]}},{"properties":{"city":"San Diego","zip code":92131,"id":"a692u32rmpml","address":"11348 Vista Elevada","lat":32.920846,"state":"CA","long":-117.062354},"type":"Feature","geometry":{"type":"Point","coordinates":[-117.062354,32.920846]}},{"properties":{"city":"San Diego","zip code":92124,"id":"a692u2wtvin8","address":"11425 Cascada Way","lat":32.812491,"state":"CA","long":-117.081181},"type":"Feature","geometry":{"type":"Point","coordinates":[-117.081181,32.812491]}},{"properties":{"city":"San Diego","zip code":92124,"id":"a692u34ahago","address":"11435 Madera Rosa Way","lat":32.814104,"state":"CA","long":-117.082198},"type":"Feature","geometry":{"type":"Point","coordinates":[-117.082198,32.814104]}},{"properties":{"city":"San Diego","zip code":92124,"id":"a692u33q5ywo","address":"11585 Madera Rosa Way","lat":32.813336,"state":"CA","long":-117.079061},"type":"Feature","geometry":{"type":"Point","coordinates":[-117.079061,32.813336]}},{"properties":{"city":"San Diego","zip code":92115,"id":"a692u2uars2s","address":"3428 Glade St","lat":32.742826,"state":"CA","long":-117.064258},"type":"Feature","geometry":{"type":"Point","coordinates":[-117.064258,32.742826]}},{"properties":{"city":"San Diego","zip code":92115,"id":"a692u2un1j2u","address":"3439 Rowe St","lat":32.74264,"state":"CA","long":-117.062782},"type":"Feature","geometry":{"type":"Point","coordinates":[-117.062782,32.74264]}},{"properties":{"city":"San Diego","zip code":92115,"id":"a692u2uf3ths","address":"3461 Glade St","lat":32.743459,"state":"CA","long":-117.064265},"type":"Feature","geometry":{"type":"Point","coordinates":[-117.064265,32.743459]}},{"properties":{"city":"San Diego","zip code":92115,"id":"a692u35nygnw","address":"3464 Hershey St","lat":32.743771,"state":"CA","long":-117.059402},"type":"Feature","geometry":{"type":"Point","coordinates":[-117.059402,32.743771]}},{"properties":{"city":"San Diego","zip code":92105,"id":"a692u2y8qhu8","address":"3465 Altadena Ave","lat":32.742271,"state":"CA","long":-117.086211},"type":"Feature","geometry":{"type":"Point","coordinates":[-117.086211,32.742271]}},{"properties":{"city":"San Diego","zip code":92120,"id":"a692u38kj4zw","address":"3647 Mission Mesa Way","lat":32.812188,"state":"CA","long":-117.068394},"type":"Feature","geometry":{"type":"Point","coordinates":[-117.068394,32.812188]}},{"properties":{"city":"San Diego","zip code":92124,"id":"a692u38fhzwx","address":"3730 Catamarca Dr","lat":32.81253,"state":"CA","long":-117.095106},"type":"Feature","geometry":{"type":"Point","coordinates":[-117.095106,32.81253]}},{"properties":{"city":"San Diego","zip code":92115,"id":"a692u38uzvgr","address":"3736 Odom St","lat":32.74746,"state":"CA","long":-117.060033},"type":"Feature","geometry":{"type":"Point","coordinates":[-117.060033,32.74746]}},{"properties":{"city":"San Diego","zip code":92115,"id":"a692u33ml5au","address":"3810 Aragon Dr","lat":32.746388,"state":"CA","long":-117.051987},"type":"Feature","geometry":{"type":"Point","coordinates":[-117.051987,32.746388]}},{"properties":{"city":"San Diego","zip code":92124,"id":"a692u33uojnl","address":"3810 Catamarca Dr","lat":32.81347,"state":"CA","long":-117.094468},"type":"Feature","geometry":{"type":"Point","coordinates":[-117.094468,32.81347]}},{"properties":{"city":"San Diego","zip code":92115,"id":"a692u2voorlv","address":"3843 Brems St","lat":32.748783,"state":"CA","long":-117.060926},"type":"Feature","geometry":{"type":"Point","coordinates":[-117.060926,32.748783]}},{"properties":{"city":"San Diego","zip code":92115,"id":"a692u2v2lopu","address":"3844 Gayle St","lat":32.748435,"state":"CA","long":-117.064124},"type":"Feature","geometry":{"type":"Point","coordinates":[-117.064124,32.748435]}},{"properties":{"city":"San Diego","zip code":92115,"id":"a692u32xzgqu","address":"3926 Marron St","lat":32.749489,"state":"CA","long":-117.066272},"type":"Feature","geometry":{"type":"Point","coordinates":[-117.066272,32.749489]}},{"properties":{"city":"San Diego","zip code":92124,"id":"a692u2z7ii6u","address":"3934 Catamarca Dr","lat":32.815894,"state":"CA","long":-117.091213},"type":"Feature","geometry":{"type":"Point","coordinates":[-117.091213,32.815894]}},{"properties":{"city":"San Diego","zip code":92115,"id":"a692u39u1ihf","address":"3948 Vista Grande Dr","lat":32.749011,"state":"CA","long":-117.054068},"type":"Feature","geometry":{"type":"Point","coordinates":[-117.054068,32.749011]}},{"properties":{"city":"San Diego","zip code":92124,"id":"a692u34mh0wo","address":"3958 Catamarca Dr","lat":32.816102,"state":"CA","long":-117.090489},"type":"Feature","geometry":{"type":"Point","coordinates":[-117.090489,32.816102]}},{"properties":{"city":"San Diego","zip code":92115,"id":"a692u2ve3aiz","address":"4116 Mandarin Ter","lat":32.752392,"state":"CA","long":-117.077507},"type":"Feature","geometry":{"type":"Point","coordinates":[-117.077507,32.752392]}},{"properties":{"city":"San Diego","zip code":92124,"id":"a692u2ugx2yv","address":"4226 Cartulina Rd","lat":32.821314,"state":"CA","long":-117.088861},"type":"Feature","geometry":{"type":"Point","coordinates":[-117.088861,32.821314]}},{"properties":{"city":"San Diego","zip code":92115,"id":"a692u31jcyq7","address":"4286 49Th St","lat":32.754551,"state":"CA","long":-117.089161},"type":"Feature","geometry":{"type":"Point","coordinates":[-117.089161,32.754551]}},{"properties":{"city":"San Diego","zip code":92124,"id":"a692u30on946","address":"4290 Calle De Vida","lat":32.823413,"state":"CA","long":-117.087547},"type":"Feature","geometry":{"type":"Point","coordinates":[-117.087547,32.823413]}},{"properties":{"city":"San Diego","zip code":92115,"id":"a692u39kcn73","address":"4330 Lerida Dr","lat":32.756474,"state":"CA","long":-117.058868},"type":"Feature","geometry":{"type":"Point","coordinates":[-117.058868,32.756474]}},{"properties":{"city":"San Diego","zip code":92115,"id":"a692u32glije","address":"4356 Revillo Dr","lat":32.756715,"state":"CA","long":-117.057771},"type":"Feature","geometry":{"type":"Point","coordinates":[-117.057771,32.756715]}},{"properties":{"city":"San Diego","zip code":92120,"id":"a692u37pfqmu","address":"4525 Twain Ave","lat":32.784851,"state":"CA","long":-117.09728},"type":"Feature","geometry":{"type":"Point","coordinates":[-117.09728,32.784851]}},{"properties":{"city":"San Diego","zip code":92115,"id":"a692u313fcqh","address":"4544 Aragon Dr","lat":32.760161,"state":"CA","long":-117.05757},"type":"Feature","geometry":{"type":"Point","coordinates":[-117.05757,32.760161]}},{"properties":{"city":"San Diego","zip code":92115,"id":"a692u2uv18jx","address":"4545 Collwood Blvd","lat":32.760297,"state":"CA","long":-117.080913},"type":"Feature","geometry":{"type":"Point","coordinates":[-117.080913,32.760297]}},{"properties":{"city":"San Diego","zip code":92115,"id":"a692u2xsxych","address":"4611 Catherine Ave","lat":32.761283,"state":"CA","long":-117.059952},"type":"Feature","geometry":{"type":"Point","coordinates":[-117.059952,32.761283]}},{"properties":{"city":"San Diego","zip code":92115,"id":"a692u2yx0mb4","address":"4620 Revillo Way","lat":32.760911,"state":"CA","long":-117.058452},"type":"Feature","geometry":{"type":"Point","coordinates":[-117.058452,32.760911]}},{"properties":{"city":"San Diego","zip code":92124,"id":"a692u2u8xdw6","address":"4626 Terraza Cir","lat":32.825184,"state":"CA","long":-117.084211},"type":"Feature","geometry":{"type":"Point","coordinates":[-117.084211,32.825184]}},{"properties":{"city":"San Diego","zip code":92115,"id":"a692u2ui1z56","address":"4640 Hinson Pl","lat":32.76207,"state":"CA","long":-117.079076},"type":"Feature","geometry":{"type":"Point","coordinates":[-117.079076,32.76207]}},{"properties":{"city":"San Diego","zip code":92115,"id":"a692u332iap6","address":"4661 El Cerrito Dr","lat":32.761863,"state":"CA","long":-117.07345},"type":"Feature","geometry":{"type":"Point","coordinates":[-117.07345,32.761863]}},{"properties":{"city":"San Diego","zip code":92124,"id":"a692u389fz2h","address":"4737 Ocana Pl","lat":32.828764,"state":"CA","long":-117.080075},"type":"Feature","geometry":{"type":"Point","coordinates":[-117.080075,32.828764]}},{"properties":{"city":"San Diego","zip code":92115,"id":"a692u30lvu2z","address":"4739 55Th St","lat":32.763206,"state":"CA","long":-117.075895},"type":"Feature","geometry":{"type":"Point","coordinates":[-117.075895,32.763206]}},{"properties":{"city":"San Diego","zip code":92120,"id":"a692u32i1vlk","address":"4752 Tobey St","lat":32.787014,"state":"CA","long":-117.093271},"type":"Feature","geometry":{"type":"Point","coordinates":[-117.093271,32.787014]}},{"properties":{"city":"San Diego","zip code":92124,"id":"a692u2vpo1l6","address":"4759 La Cuenta Dr","lat":32.818076,"state":"CA","long":-117.09956},"type":"Feature","geometry":{"type":"Point","coordinates":[-117.09956,32.818076]}},{"properties":{"city":"San Diego","zip code":92124,"id":"a692u2uyppk0","address":"4777 Quito Ct","lat":32.829043,"state":"CA","long":-117.081358},"type":"Feature","geometry":{"type":"Point","coordinates":[-117.081358,32.829043]}},{"properties":{"city":"San Diego","zip code":92105,"id":"a692u2wqhc4h","address":"4787 Castle Ave","lat":32.744994,"state":"CA","long":-117.091759},"type":"Feature","geometry":{"type":"Point","coordinates":[-117.091759,32.744994]}},{"properties":{"city":"San Diego","zip code":92120,"id":"a692u32018j1","address":"4798 Old Cliffs Rd","lat":32.799761,"state":"CA","long":-117.089832},"type":"Feature","geometry":{"type":"Point","coordinates":[-117.089832,32.799761]}},{"properties":{"city":"San Diego","zip code":92115,"id":"a692u36rgz4p","address":"4810 Barbarossa Dr","lat":32.764184,"state":"CA","long":-117.071594},"type":"Feature","geometry":{"type":"Point","coordinates":[-117.071594,32.764184]}},{"properties":{"city":"San Diego","zip code":92120,"id":"a692u2vjgewh","address":"4818 Old Cliffs Rd","lat":32.799759,"state":"CA","long":-117.089677},"type":"Feature","geometry":{"type":"Point","coordinates":[-117.089677,32.799759]}},{"properties":{"city":"San Diego","zip code":92120,"id":"a692u39me5si","address":"4819 Greenbrier Ave","lat":32.795374,"state":"CA","long":-117.090096},"type":"Feature","geometry":{"type":"Point","coordinates":[-117.090096,32.795374]}},{"properties":{"city":"San Diego","zip code":92115,"id":"a692u35o1vhv","address":"4823 68Th St","lat":32.76635,"state":"CA","long":-117.050945},"type":"Feature","geometry":{"type":"Point","coordinates":[-117.050945,32.76635]}},{"properties":{"city":"San Diego","zip code":92124,"id":"a692u347qw8w","address":"4843 Casals Pl","lat":32.831266,"state":"CA","long":-117.081557},"type":"Feature","geometry":{"type":"Point","coordinates":[-117.081557,32.831266]}},{"properties":{"city":"San Diego","zip code":92124,"id":"a692u32afrj1","address":"4906 La Cuenta Dr","lat":32.820872,"state":"CA","long":-117.098775},"type":"Feature","geometry":{"type":"Point","coordinates":[-117.098775,32.820872]}},{"properties":{"city":"San Diego","zip code":92115,"id":"a692u325sjpe","address":"4912 73Rd St","lat":32.767959,"state":"CA","long":-117.040551},"type":"Feature","geometry":{"type":"Point","coordinates":[-117.040551,32.767959]}},{"properties":{"city":"San Diego","zip code":92120,"id":"a692u37xh4l0","address":"4915 Orcutt Ave","lat":32.791139,"state":"CA","long":-117.086429},"type":"Feature","geometry":{"type":"Point","coordinates":[-117.086429,32.791139]}},{"properties":{"city":"San Diego","zip code":92120,"id":"a692u2yh9eq7","address":"4918 Old Cliffs Rd","lat":32.799751,"state":"CA","long":-117.088902},"type":"Feature","geometry":{"type":"Point","coordinates":[-117.088902,32.799751]}},{"properties":{"city":"San Diego","zip code":92120,"id":"a692u31tlkz5","address":"4927 Greenbrier Ave","lat":32.79558,"state":"CA","long":-117.085605},"type":"Feature","geometry":{"type":"Point","coordinates":[-117.085605,32.79558]}},{"properties":{"city":"San Diego","zip code":92120,"id":"a692u3ahj8lg","address":"4944 Old Cliffs Rd","lat":32.799749,"state":"CA","long":-117.088701},"type":"Feature","geometry":{"type":"Point","coordinates":[-117.088701,32.799749]}},{"properties":{"city":"San Diego","zip code":92115,"id":"a692u2vty6uq","address":"4950 Campanile Dr","lat":32.767405,"state":"CA","long":-117.071751},"type":"Feature","geometry":{"type":"Point","coordinates":[-117.071751,32.767405]}},{"properties":{"city":"San Diego","zip code":92105,"id":"a692u2wvsibt","address":"4960 Lantana Dr","lat":32.743424,"state":"CA","long":-117.090212},"type":"Feature","geometry":{"type":"Point","coordinates":[-117.090212,32.743424]}},{"properties":{"city":"San Diego","zip code":92120,"id":"a692u2xm53s4","address":"4962 Old Cliffs Rd","lat":32.799747,"state":"CA","long":-117.088561},"type":"Feature","geometry":{"type":"Point","coordinates":[-117.088561,32.799747]}},{"properties":{"city":"San Diego","zip code":92120,"id":"a692u30ueq7t","address":"4966 Chaucer Ave","lat":32.794434,"state":"CA","long":-117.085111},"type":"Feature","geometry":{"type":"Point","coordinates":[-117.085111,32.794434]}},{"properties":{"city":"San Diego","zip code":92120,"id":"a692u367rcg8","address":"4983 Old Cliffs Rd","lat":32.799477,"state":"CA","long":-117.08841},"type":"Feature","geometry":{"type":"Point","coordinates":[-117.08841,32.799477]}},{"properties":{"city":"San Diego","zip code":92124,"id":"a692u320yihp","address":"5002 Montessa St","lat":32.832131,"state":"CA","long":-117.080947},"type":"Feature","geometry":{"type":"Point","coordinates":[-117.080947,32.832131]}},{"properties":{"city":"San Diego","zip code":92120,"id":"a692u2yuo7ih","address":"5012 Old Cliffs Rd","lat":32.799746,"state":"CA","long":-117.088178},"type":"Feature","geometry":{"type":"Point","coordinates":[-117.088178,32.799746]}},{"properties":{"city":"San Diego","zip code":92120,"id":"a692u2wwn6ug","address":"5035 Old Cliffs Rd","lat":32.799479,"state":"CA","long":-117.088003},"type":"Feature","geometry":{"type":"Point","coordinates":[-117.088003,32.799479]}},{"properties":{"city":"San Diego","zip code":92124,"id":"a692u36q0c0m","address":"5037 Camino Playa Prtfn","lat":32.835576,"state":"CA","long":-117.095484},"type":"Feature","geometry":{"type":"Point","coordinates":[-117.095484,32.835576]}},{"properties":{"city":"San Diego","zip code":92120,"id":"a692u391vxuj","address":"5075 Rodman Ave","lat":32.793433,"state":"CA","long":-117.083842},"type":"Feature","geometry":{"type":"Point","coordinates":[-117.083842,32.793433]}},{"properties":{"city":"San Diego","zip code":92120,"id":"a692u2ytxadw","address":"5109 Fontaine St","lat":32.800852,"state":"CA","long":-117.082771},"type":"Feature","geometry":{"type":"Point","coordinates":[-117.082771,32.800852]}},{"properties":{"city":"San Diego","zip code":92115,"id":"a692u342pvcr","address":"5125 63Rd St","lat":32.77076,"state":"CA","long":-117.06377},"type":"Feature","geometry":{"type":"Point","coordinates":[-117.06377,32.77076]}},{"properties":{"city":"San Diego","zip code":92115,"id":"a692u3873zfx","address":"5127 E Falls View Dr","lat":32.771593,"state":"CA","long":-117.06413},"type":"Feature","geometry":{"type":"Point","coordinates":[-117.06413,32.771593]}},{"properties":{"city":"San Diego","zip code":92124,"id":"a692u334rloz","address":"5131 Camino Playa Malag","lat":32.834501,"state":"CA","long":-117.093263},"type":"Feature","geometry":{"type":"Point","coordinates":[-117.093263,32.834501]}},{"properties":{"city":"San Diego","zip code":92124,"id":"a692u2ynn5td","address":"5162 Avenida Playa Cncn","lat":32.838181,"state":"CA","long":-117.08391},"type":"Feature","geometry":{"type":"Point","coordinates":[-117.08391,32.838181]}},{"properties":{"city":"San Diego","zip code":92124,"id":"a692u2z2s4ng","address":"5164 Camino Playa Prtfn","lat":32.836579,"state":"CA","long":-117.094174},"type":"Feature","geometry":{"type":"Point","coordinates":[-117.094174,32.836579]}},{"properties":{"city":"San Diego","zip code":92115,"id":"a692u3348oxc","address":"5177 Remington Rd","lat":32.775926,"state":"CA","long":-117.083517},"type":"Feature","geometry":{"type":"Point","coordinates":[-117.083517,32.775926]}},{"properties":{"city":"San Diego","zip code":92115,"id":"a692u2ytnmc9","address":"5195 68Th St","lat":32.772082,"state":"CA","long":-117.051474},"type":"Feature","geometry":{"type":"Point","coordinates":[-117.051474,32.772082]}},{"properties":{"city":"San Diego","zip code":92124,"id":"a692u34739nt","address":"5221 Camino Playa Malag","lat":32.834484,"state":"CA","long":-117.091302},"type":"Feature","geometry":{"type":"Point","coordinates":[-117.091302,32.834484]}},{"properties":{"city":"San Diego","zip code":92105,"id":"a692u31g4of4","address":"5238 Streamview Dr","lat":32.743354,"state":"CA","long":-117.083358},"type":"Feature","geometry":{"type":"Point","coordinates":[-117.083358,32.743354]}},{"properties":{"city":"San Diego","zip code":92124,"id":"a692u36grp4l","address":"5241 Edge Park Way","lat":32.829319,"state":"CA","long":-117.11195},"type":"Feature","geometry":{"type":"Point","coordinates":[-117.11195,32.829319]}},{"properties":{"city":"San Diego","zip code":92115,"id":"a692u2yxln3h","address":"5245 Reservoir Dr","lat":32.771454,"state":"CA","long":-117.055496},"type":"Feature","geometry":{"type":"Point","coordinates":[-117.055496,32.771454]}},{"properties":{"city":"San Diego","zip code":92120,"id":"a692u31wece8","address":"5260 Waring Rd","lat":32.794155,"state":"CA","long":-117.079503},"type":"Feature","geometry":{"type":"Point","coordinates":[-117.079503,32.794155]}},{"properties":{"city":"San Diego","zip code":92124,"id":"a692u36h0s95","address":"5290 Belardo Dr","lat":32.836261,"state":"CA","long":-117.081305},"type":"Feature","geometry":{"type":"Point","coordinates":[-117.081305,32.836261]}},{"properties":{"city":"San Diego","zip code":92124,"id":"a692u35v7qwg","address":"5328 Repecho Dr","lat":32.830156,"state":"CA","long":-117.112374},"type":"Feature","geometry":{"type":"Point","coordinates":[-117.112374,32.830156]}},{"properties":{"city":"San Diego","zip code":92115,"id":"a692u2wl1cwo","address":"5330 Orange Ave","lat":32.753283,"state":"CA","long":-117.080802},"type":"Feature","geometry":{"type":"Point","coordinates":[-117.080802,32.753283]}},{"properties":{"city":"San Diego","zip code":92124,"id":"a692u30lw163","address":"5350 La Cuenta Dr","lat":32.827756,"state":"CA","long":-117.096012},"type":"Feature","geometry":{"type":"Point","coordinates":[-117.096012,32.827756]}},{"properties":{"city":"San Diego","zip code":92124,"id":"a692u30g1017","address":"5368 Camino Playa Malag","lat":32.833651,"state":"CA","long":-117.088707},"type":"Feature","geometry":{"type":"Point","coordinates":[-117.088707,32.833651]}},{"properties":{"city":"San Diego","zip code":92124,"id":"a692u32f70ri","address":"5394 Camino Playa Norte","lat":32.834449,"state":"CA","long":-117.086618},"type":"Feature","geometry":{"type":"Point","coordinates":[-117.086618,32.834449]}},{"properties":{"city":"San Diego","zip code":92120,"id":"a692u37lfrfb","address":"5444 Reservoir Dr","lat":32.775129,"state":"CA","long":-117.056829},"type":"Feature","geometry":{"type":"Point","coordinates":[-117.056829,32.775129]}},{"properties":{"city":"San Diego","zip code":92120,"id":"a692u3arczcn","address":"5452 Forbes Ave","lat":32.80075,"state":"CA","long":-117.072049},"type":"Feature","geometry":{"type":"Point","coordinates":[-117.072049,32.80075]}},{"properties":{"city":"San Diego","zip code":92115,"id":"a692u3247w49","address":"5454 Siesta Dr","lat":32.761764,"state":"CA","long":-117.076724},"type":"Feature","geometry":{"type":"Point","coordinates":[-117.076724,32.761764]}},{"properties":{"city":"San Diego","zip code":92124,"id":"a692u35lpdqi","address":"5481 Azores Ct","lat":32.830226,"state":"CA","long":-117.100649},"type":"Feature","geometry":{"type":"Point","coordinates":[-117.100649,32.830226]}},{"properties":{"city":"San Diego","zip code":92120,"id":"a692u353g4w2","address":"5482 Brunswick Ave","lat":32.798785,"state":"CA","long":-117.073265},"type":"Feature","geometry":{"type":"Point","coordinates":[-117.073265,32.798785]}},{"properties":{"city":"San Diego","zip code":92120,"id":"a692u352d9nt","address":"5515 Hamill Ave","lat":32.801093,"state":"CA","long":-117.070656},"type":"Feature","geometry":{"type":"Point","coordinates":[-117.070656,32.801093]}},{"properties":{"city":"San Diego","zip code":92120,"id":"a692u2w53b8z","address":"5542 Cambria Ct","lat":32.788055,"state":"CA","long":-117.076433},"type":"Feature","geometry":{"type":"Point","coordinates":[-117.076433,32.788055]}},{"properties":{"city":"San Diego","zip code":92124,"id":"a692u2zkdcdj","address":"5580 La Cuenta Dr","lat":32.83139,"state":"CA","long":-117.096329},"type":"Feature","geometry":{"type":"Point","coordinates":[-117.096329,32.83139]}},{"properties":{"city":"San Diego","zip code":92120,"id":"a692u2y0fg3j","address":"5593 Del Cerro Blvd","lat":32.784209,"state":"CA","long":-117.079206},"type":"Feature","geometry":{"type":"Point","coordinates":[-117.079206,32.784209]}},{"properties":{"city":"San Diego","zip code":92120,"id":"a692u2wspupa","address":"5604 Red River Dr","lat":32.804974,"state":"CA","long":-117.073048},"type":"Feature","geometry":{"type":"Point","coordinates":[-117.073048,32.804974]}},{"properties":{"city":"San Diego","zip code":92115,"id":"a692u35x9n0y","address":"5616 Campanile Way","lat":32.765821,"state":"CA","long":-117.074717},"type":"Feature","geometry":{"type":"Point","coordinates":[-117.074717,32.765821]}},{"properties":{"city":"San Diego","zip code":92115,"id":"a692u39uflxw","address":"5621 Spartan Dr","lat":32.753327,"state":"CA","long":-117.074396},"type":"Feature","geometry":{"type":"Point","coordinates":[-117.074396,32.753327]}},{"properties":{"city":"San Diego","zip code":92105,"id":"a692u2w5c59i","address":"5622 University Ave","lat":32.74794,"state":"CA","long":-117.076341},"type":"Feature","geometry":{"type":"Point","coordinates":[-117.076341,32.74794]}},{"properties":{"city":"San Diego","zip code":92120,"id":"a692u31ysn9d","address":"5625 Barclay Ave","lat":32.795305,"state":"CA","long":-117.070964},"type":"Feature","geometry":{"type":"Point","coordinates":[-117.070964,32.795305]}},{"properties":{"city":"San Diego","zip code":92120,"id":"a692u2xqpviq","address":"5634 Raymar Ave","lat":32.781218,"state":"CA","long":-117.061317},"type":"Feature","geometry":{"type":"Point","coordinates":[-117.061317,32.781218]}},{"properties":{"city":"San Diego","zip code":92115,"id":"a692u31si8pv","address":"5667 Dorothy Way","lat":32.767838,"state":"CA","long":-117.072959},"type":"Feature","geometry":{"type":"Point","coordinates":[-117.072959,32.767838]}},{"properties":{"city":"San Diego","zip code":92120,"id":"a692u2yr3u6v","address":"5681 Del Cerro Blvd","lat":32.78448,"state":"CA","long":-117.076946},"type":"Feature","geometry":{"type":"Point","coordinates":[-117.076946,32.78448]}},{"properties":{"city":"San Diego","zip code":92115,"id":"a692u3a9yt30","address":"5704 Bates St","lat":32.74658,"state":"CA","long":-117.074441},"type":"Feature","geometry":{"type":"Point","coordinates":[-117.074441,32.74658]}},{"properties":{"city":"San Diego","zip code":92120,"id":"a692u345uruw","address":"5711 Malvern Ct","lat":32.784656,"state":"CA","long":-117.072487},"type":"Feature","geometry":{"type":"Point","coordinates":[-117.072487,32.784656]}},{"properties":{"city":"San Diego","zip code":92124,"id":"a692u31xflkv","address":"5715 Avenida Circo","lat":32.83684,"state":"CA","long":-117.106491},"type":"Feature","geometry":{"type":"Point","coordinates":[-117.106491,32.83684]}},{"properties":{"city":"San Diego","zip code":92120,"id":"a692u3adzono","address":"5735 Red River Dr","lat":32.804872,"state":"CA","long":-117.070484},"type":"Feature","geometry":{"type":"Point","coordinates":[-117.070484,32.804872]}},{"properties":{"city":"San Diego","zip code":92115,"id":"a692u36ig0f4","address":"5748 Campanile Way","lat":32.765688,"state":"CA","long":-117.073278},"type":"Feature","geometry":{"type":"Point","coordinates":[-117.073278,32.765688]}},{"properties":{"city":"San Diego","zip code":92115,"id":"a692u37ug1xa","address":"5755 Adams Ave","lat":32.762477,"state":"CA","long":-117.072943},"type":"Feature","geometry":{"type":"Point","coordinates":[-117.072943,32.762477]}},{"properties":{"city":"San Diego","zip code":92115,"id":"a692u320co0o","address":"5756 Mary Lane Dr","lat":32.769887,"state":"CA","long":-117.072845},"type":"Feature","geometry":{"type":"Point","coordinates":[-117.072845,32.769887]}},{"properties":{"city":"San Diego","zip code":92120,"id":"a692u30th8ei","address":"5775 Malvern Ct","lat":32.785226,"state":"CA","long":-117.073539},"type":"Feature","geometry":{"type":"Point","coordinates":[-117.073539,32.785226]}},{"properties":{"city":"San Diego","zip code":92115,"id":"a692u35zazgt","address":"5815 Vale Way","lat":32.756213,"state":"CA","long":-117.072424},"type":"Feature","geometry":{"type":"Point","coordinates":[-117.072424,32.756213]}},{"properties":{"city":"San Diego","zip code":92120,"id":"a692u39awc8u","address":"5821 Ridgemoor Dr","lat":32.786052,"state":"CA","long":-117.051486},"type":"Feature","geometry":{"type":"Point","coordinates":[-117.051486,32.786052]}},{"properties":{"city":"San Diego","zip code":92120,"id":"a692u3aqrcdd","address":"5822 Lancaster Dr","lat":32.785693,"state":"CA","long":-117.073025},"type":"Feature","geometry":{"type":"Point","coordinates":[-117.073025,32.785693]}},{"properties":{"city":"San Diego","zip code":92124,"id":"a692u35gu704","address":"5825 Menorca Dr","lat":32.8369,"state":"CA","long":-117.097295},"type":"Feature","geometry":{"type":"Point","coordinates":[-117.097295,32.8369]}},{"properties":{"city":"San Diego","zip code":92124,"id":"a692u2ybra5w","address":"5838 Antigua Blvd","lat":32.834087,"state":"CA","long":-117.102649},"type":"Feature","geometry":{"type":"Point","coordinates":[-117.102649,32.834087]}},{"properties":{"city":"San Diego","zip code":92120,"id":"a692u37p15cz","address":"5862 Lancaster Dr","lat":32.785471,"state":"CA","long":-117.072526},"type":"Feature","geometry":{"type":"Point","coordinates":[-117.072526,32.785471]}},{"properties":{"city":"San Diego","zip code":92120,"id":"a692u30napsa","address":"5863 Overlake Ave","lat":32.786862,"state":"CA","long":-117.051027},"type":"Feature","geometry":{"type":"Point","coordinates":[-117.051027,32.786862]}},{"properties":{"city":"San Diego","zip code":92115,"id":"a692u30ew321","address":"5880 Adelaide Ave","lat":32.757747,"state":"CA","long":-117.070921},"type":"Feature","geometry":{"type":"Point","coordinates":[-117.070921,32.757747]}},{"properties":{"city":"San Diego","zip code":92120,"id":"a692u30hpmdd","address":"5932 Henley Dr","lat":32.7864,"state":"CA","long":-117.071047},"type":"Feature","geometry":{"type":"Point","coordinates":[-117.071047,32.7864]}},{"properties":{"city":"San Diego","zip code":92120,"id":"a692u37aqx6x","address":"5934 Eldergardens St","lat":32.790541,"state":"CA","long":-117.067417},"type":"Feature","geometry":{"type":"Point","coordinates":[-117.067417,32.790541]}},{"properties":{"city":"San Diego","zip code":92120,"id":"a692u3789gcf","address":"5942 Quiet Slope Dr","lat":32.80317,"state":"CA","long":-117.064749},"type":"Feature","geometry":{"type":"Point","coordinates":[-117.064749,32.80317]}},{"properties":{"city":"San Diego","zip code":92120,"id":"a692u37k15np","address":"5957 Bounty St","lat":32.792778,"state":"CA","long":-117.068683},"type":"Feature","geometry":{"type":"Point","coordinates":[-117.068683,32.792778]}},{"properties":{"city":"San Diego","zip code":92120,"id":"a692u2xc4s8e","address":"5969 Larchwood Ave","lat":32.807785,"state":"CA","long":-117.065496},"type":"Feature","geometry":{"type":"Point","coordinates":[-117.065496,32.807785]}},{"properties":{"city":"San Diego","zip code":92120,"id":"a692u36e9rle","address":"5971 Lance St","lat":32.791771,"state":"CA","long":-117.067846},"type":"Feature","geometry":{"type":"Point","coordinates":[-117.067846,32.791771]}},{"properties":{"city":"San Diego","zip code":92120,"id":"a692u32pjeyl","address":"6019 Wenrich Dr","lat":32.786776,"state":"CA","long":-117.066438},"type":"Feature","geometry":{"type":"Point","coordinates":[-117.066438,32.786776]}},{"properties":{"city":"San Diego","zip code":92120,"id":"a692u3adtock","address":"6072 Del Cerro Blvd","lat":32.784091,"state":"CA","long":-117.069003},"type":"Feature","geometry":{"type":"Point","coordinates":[-117.069003,32.784091]}},{"properties":{"city":"San Diego","zip code":92120,"id":"a692u31q72ks","address":"6072 Hodson St","lat":32.784643,"state":"CA","long":-117.092585},"type":"Feature","geometry":{"type":"Point","coordinates":[-117.092585,32.784643]}},{"properties":{"city":"San Diego","zip code":92124,"id":"a692u2uz3a85","address":"6106 Calle Mariselda","lat":32.833492,"state":"CA","long":-117.097505},"type":"Feature","geometry":{"type":"Point","coordinates":[-117.097505,32.833492]}},{"properties":{"city":"San Diego","zip code":92120,"id":"a692u33oges1","address":"6126 Chrismark Ave","lat":32.788525,"state":"CA","long":-117.06653},"type":"Feature","geometry":{"type":"Point","coordinates":[-117.06653,32.788525]}},{"properties":{"city":"San Diego","zip code":92115,"id":"a692u3ahweef","address":"6132 Tarragona Dr","lat":32.755228,"state":"CA","long":-117.064451},"type":"Feature","geometry":{"type":"Point","coordinates":[-117.064451,32.755228]}},{"properties":{"city":"San Diego","zip code":92120,"id":"a692u38mejyq","address":"6138 Madra Ave","lat":32.789881,"state":"CA","long":-117.056086},"type":"Feature","geometry":{"type":"Point","coordinates":[-117.056086,32.789881]}},{"properties":{"city":"San Diego","zip code":92115,"id":"a692u33gnkk9","address":"6152 Lorca Dr","lat":32.758204,"state":"CA","long":-117.06371},"type":"Feature","geometry":{"type":"Point","coordinates":[-117.06371,32.758204]}},{"properties":{"city":"San Diego","zip code":92120,"id":"a692u34nenzn","address":"6160 Caminito Plata","lat":32.790707,"state":"CA","long":-117.061643},"type":"Feature","geometry":{"type":"Point","coordinates":[-117.061643,32.790707]}},{"properties":{"city":"San Diego","zip code":92120,"id":"a692u2w1jmmt","address":"6194 Camino Rico","lat":32.795619,"state":"CA","long":-117.061824},"type":"Feature","geometry":{"type":"Point","coordinates":[-117.061824,32.795619]}},{"properties":{"city":"San Diego","zip code":92120,"id":"a692u3acw1zj","address":"6204 Seaman St","lat":32.7878,"state":"CA","long":-117.092253},"type":"Feature","geometry":{"type":"Point","coordinates":[-117.092253,32.7878]}},{"properties":{"city":"San Diego","zip code":92120,"id":"a692u30ihbrs","address":"6210 Calle Empinada","lat":32.796347,"state":"CA","long":-117.061779},"type":"Feature","geometry":{"type":"Point","coordinates":[-117.061779,32.796347]}},{"properties":{"city":"San Diego","zip code":92119,"id":"a692u30upf66","address":"6215 Lake Apopka Pl","lat":32.792422,"state":"CA","long":-117.008436},"type":"Feature","geometry":{"type":"Point","coordinates":[-117.008436,32.792422]}},{"properties":{"city":"San Diego","zip code":92120,"id":"a692u2zz5hc8","address":"6215 Loukelton Cir","lat":32.786317,"state":"CA","long":-117.091182},"type":"Feature","geometry":{"type":"Point","coordinates":[-117.091182,32.786317]}},{"properties":{"city":"San Diego","zip code":92120,"id":"a692u34mymn7","address":"6225 Del Cerro Blvd","lat":32.782643,"state":"CA","long":-117.065116},"type":"Feature","geometry":{"type":"Point","coordinates":[-117.065116,32.782643]}},{"properties":{"city":"San Diego","zip code":92119,"id":"a692u2ujw63l","address":"6225 Lake Alamor Ave","lat":32.7924,"state":"CA","long":-117.016906},"type":"Feature","geometry":{"type":"Point","coordinates":[-117.016906,32.7924]}},{"properties":{"city":"San Diego","zip code":92120,"id":"a692u2x3xcsm","address":"6228 Loukelton Cir","lat":32.786632,"state":"CA","long":-117.091272},"type":"Feature","geometry":{"type":"Point","coordinates":[-117.091272,32.786632]}},{"properties":{"city":"San Diego","zip code":92119,"id":"a692u34759gz","address":"6229 Lake Ariana Ave","lat":32.792915,"state":"CA","long":-117.011492},"type":"Feature","geometry":{"type":"Point","coordinates":[-117.011492,32.792915]}},{"properties":{"city":"San Diego","zip code":92120,"id":"a692u2um9ljy","address":"6232 Estrella Ave","lat":32.78636,"state":"CA","long":-117.090341},"type":"Feature","geometry":{"type":"Point","coordinates":[-117.090341,32.78636]}},{"properties":{"city":"San Diego","zip code":92119,"id":"a692u37vq3jn","address":"6234 Lake Lomond Dr","lat":32.792805,"state":"CA","long":-117.034744},"type":"Feature","geometry":{"type":"Point","coordinates":[-117.034744,32.792805]}},{"properties":{"city":"San Diego","zip code":92119,"id":"a692u2w0ajod","address":"6236 Lake Alturas Ave","lat":32.792748,"state":"CA","long":-117.016573},"type":"Feature","geometry":{"type":"Point","coordinates":[-117.016573,32.792748]}},{"properties":{"city":"San Diego","zip code":92119,"id":"a692u307hnka","address":"6236 Ruby Lake Ave","lat":32.792263,"state":"CA","long":-117.021987},"type":"Feature","geometry":{"type":"Point","coordinates":[-117.021987,32.792263]}},{"properties":{"city":"San Diego","zip code":92120,"id":"a692u38jjgt5","address":"6248 Camino Corto","lat":32.798195,"state":"CA","long":-117.060486},"type":"Feature","geometry":{"type":"Point","coordinates":[-117.060486,32.798195]}},{"properties":{"city":"San Diego","zip code":92120,"id":"a692u31son5b","address":"6254 Snowbond St","lat":32.78879,"state":"CA","long":-117.069748},"type":"Feature","geometry":{"type":"Point","coordinates":[-117.069748,32.78879]}},{"properties":{"city":"San Diego","zip code":92120,"id":"a692u2yit9bf","address":"6257 Del Cerro Blvd","lat":32.782627,"state":"CA","long":-117.063923},"type":"Feature","geometry":{"type":"Point","coordinates":[-117.063923,32.782627]}},{"properties":{"city":"San Diego","zip code":92115,"id":"a692u2zr6w6h","address":"6258 Montezuma Rd","lat":32.770681,"state":"CA","long":-117.064865},"type":"Feature","geometry":{"type":"Point","coordinates":[-117.064865,32.770681]}},{"properties":{"city":"San Diego","zip code":92115,"id":"a692u34fg6b7","address":"6266 Madeline St","lat":32.759734,"state":"CA","long":-117.06301},"type":"Feature","geometry":{"type":"Point","coordinates":[-117.06301,32.759734]}},{"properties":{"city":"San Diego","zip code":92115,"id":"a692u38574ev","address":"6274 Streamview Dr","lat":32.744222,"state":"CA","long":-117.061571},"type":"Feature","geometry":{"type":"Point","coordinates":[-117.061571,32.744222]}},{"properties":{"city":"San Diego","zip code":92120,"id":"a692u2zxmyjz","address":"6277 Lance Pl","lat":32.791023,"state":"CA","long":-117.068102},"type":"Feature","geometry":{"type":"Point","coordinates":[-117.068102,32.791023]}},{"properties":{"city":"San Diego","zip code":92120,"id":"a692u2v1s8wh","address":"6284 Del Paso Ave","lat":32.795541,"state":"CA","long":-117.059534},"type":"Feature","geometry":{"type":"Point","coordinates":[-117.059534,32.795541]}},{"properties":{"city":"San Diego","zip code":92120,"id":"a692u34s77fw","address":"6306 Camino Corto","lat":32.798647,"state":"CA","long":-117.058979},"type":"Feature","geometry":{"type":"Point","coordinates":[-117.058979,32.798647]}},{"properties":{"city":"San Diego","zip code":92115,"id":"a692u33wqjnp","address":"6315 Thorn St","lat":32.742093,"state":"CA","long":-117.060675},"type":"Feature","geometry":{"type":"Point","coordinates":[-117.060675,32.742093]}},{"properties":{"city":"San Diego","zip code":92119,"id":"a692u39curvk","address":"6319 Lake Shore Dr","lat":32.795255,"state":"CA","long":-117.036181},"type":"Feature","geometry":{"type":"Point","coordinates":[-117.036181,32.795255]}},{"properties":{"city":"San Diego","zip code":92120,"id":"a692u2x01y35","address":"6319 Wenrich Dr","lat":32.79147,"state":"CA","long":-117.069288},"type":"Feature","geometry":{"type":"Point","coordinates":[-117.069288,32.79147]}},{"properties":{"city":"San Diego","zip code":92119,"id":"a692u346p6ik","address":"6325 Lake Badin Ave","lat":32.795592,"state":"CA","long":-117.023039},"type":"Feature","geometry":{"type":"Point","coordinates":[-117.023039,32.795592]}},{"properties":{"city":"San Diego","zip code":92120,"id":"a692u35zga2h","address":"6326 Clara Lee Ave","lat":32.788581,"state":"CA","long":-117.090507},"type":"Feature","geometry":{"type":"Point","coordinates":[-117.090507,32.788581]}},{"properties":{"city":"San Diego","zip code":92119,"id":"a692u2xhwokj","address":"6331 Twin Lake Dr","lat":32.797821,"state":"CA","long":-117.030968},"type":"Feature","geometry":{"type":"Point","coordinates":[-117.030968,32.797821]}},{"properties":{"city":"San Diego","zip code":92119,"id":"a692u2uzhrwu","address":"6346 Lake Shore Dr","lat":32.796218,"state":"CA","long":-117.036107},"type":"Feature","geometry":{"type":"Point","coordinates":[-117.036107,32.796218]}},{"properties":{"city":"San Diego","zip code":92120,"id":"a692u35ynv0e","address":"6352 50Th St","lat":32.788521,"state":"CA","long":-117.086539},"type":"Feature","geometry":{"type":"Point","coordinates":[-117.086539,32.788521]}},{"properties":{"city":"San Diego","zip code":92120,"id":"a692u38ljujt","address":"6355 Crawford St","lat":32.789301,"state":"CA","long":-117.093694},"type":"Feature","geometry":{"type":"Point","coordinates":[-117.093694,32.789301]}},{"properties":{"city":"San Diego","zip code":92119,"id":"a692u32kuvx8","address":"6356 E Lake Dr","lat":32.796156,"state":"CA","long":-117.006766},"type":"Feature","geometry":{"type":"Point","coordinates":[-117.006766,32.796156]}},{"properties":{"city":"San Diego","zip code":92119,"id":"a692u3ab8l7h","address":"6357 Budlong Lake Ave","lat":32.796063,"state":"CA","long":-117.02055},"type":"Feature","geometry":{"type":"Point","coordinates":[-117.02055,32.796063]}},{"properties":{"city":"San Diego","zip code":92119,"id":"a692u2xetodc","address":"6380 Balsam Lake Ave","lat":32.796661,"state":"CA","long":-117.019787},"type":"Feature","geometry":{"type":"Point","coordinates":[-117.019787,32.796661]}},{"properties":{"city":"San Diego","zip code":92115,"id":"a692u3anfoza","address":"6383 Celia Vista Dr","lat":32.751488,"state":"CA","long":-117.059951},"type":"Feature","geometry":{"type":"Point","coordinates":[-117.059951,32.751488]}},{"properties":{"city":"San Diego","zip code":92120,"id":"a692u33b21m0","address":"6408 Del Paso Ave","lat":32.797075,"state":"CA","long":-117.057174},"type":"Feature","geometry":{"type":"Point","coordinates":[-117.057174,32.797075]}},{"properties":{"city":"San Diego","zip code":92115,"id":"a692u30d6020","address":"6425 Bradford St","lat":32.759237,"state":"CA","long":-117.060573},"type":"Feature","geometry":{"type":"Point","coordinates":[-117.060573,32.759237]}},{"properties":{"city":"San Diego","zip code":92119,"id":"a692u32rdjur","address":"6428 Sunny Brae Dr","lat":32.794794,"state":"CA","long":-117.043159},"type":"Feature","geometry":{"type":"Point","coordinates":[-117.043159,32.794794]}},{"properties":{"city":"San Diego","zip code":92120,"id":"a692u3ae8wcg","address":"6448 Lochmoor Dr","lat":32.792985,"state":"CA","long":-117.051805},"type":"Feature","geometry":{"type":"Point","coordinates":[-117.051805,32.792985]}},{"properties":{"city":"San Diego","zip code":92120,"id":"a692u370w6dl","address":"6451 Glenroy St","lat":32.790537,"state":"CA","long":-117.083809},"type":"Feature","geometry":{"type":"Point","coordinates":[-117.083809,32.790537]}},{"properties":{"city":"San Diego","zip code":92120,"id":"a692u33174tx","address":"6454 Caminito Estrellad","lat":32.791943,"state":"CA","long":-117.063129},"type":"Feature","geometry":{"type":"Point","coordinates":[-117.063129,32.791943]}},{"properties":{"city":"San Diego","zip code":92119,"id":"a692u38nxr47","address":"6463 Bisby Lake Ave","lat":32.799804,"state":"CA","long":-117.014434},"type":"Feature","geometry":{"type":"Point","coordinates":[-117.014434,32.799804]}},{"properties":{"city":"San Diego","zip code":92119,"id":"a692u3a71id5","address":"6465 Coral Lake Ave","lat":32.798824,"state":"CA","long":-117.027328},"type":"Feature","geometry":{"type":"Point","coordinates":[-117.027328,32.798824]}},{"properties":{"city":"San Diego","zip code":92119,"id":"a692u388ct3d","address":"6470 E Lake Dr","lat":32.799929,"state":"CA","long":-117.006746},"type":"Feature","geometry":{"type":"Point","coordinates":[-117.006746,32.799929]}},{"properties":{"city":"San Diego","zip code":92120,"id":"a692u2vp5te1","address":"6473 Decanture St","lat":32.802641,"state":"CA","long":-117.054306},"type":"Feature","geometry":{"type":"Point","coordinates":[-117.054306,32.802641]}},{"properties":{"city":"San Diego","zip code":92119,"id":"a692u37qhs30","address":"6481 Lake Mere Ct","lat":32.799552,"state":"CA","long":-117.007556},"type":"Feature","geometry":{"type":"Point","coordinates":[-117.007556,32.799552]}},{"properties":{"city":"San Diego","zip code":92119,"id":"a692u2ywpn1h","address":"6482 Lake Shore Dr","lat":32.799784,"state":"CA","long":-117.034481},"type":"Feature","geometry":{"type":"Point","coordinates":[-117.034481,32.799784]}},{"properties":{"city":"San Diego","zip code":92119,"id":"a692u35hnksu","address":"6486 Bisby Lake Ave","lat":32.800166,"state":"CA","long":-117.014516},"type":"Feature","geometry":{"type":"Point","coordinates":[-117.014516,32.800166]}},{"properties":{"city":"San Diego","zip code":92120,"id":"a692u350wjf2","address":"6521 Lochmoor Dr","lat":32.794064,"state":"CA","long":-117.051047},"type":"Feature","geometry":{"type":"Point","coordinates":[-117.051047,32.794064]}},{"properties":{"city":"San Diego","zip code":92120,"id":"a692u2wbaa52","address":"6531 Hopedale Ct","lat":32.792421,"state":"CA","long":-117.055089},"type":"Feature","geometry":{"type":"Point","coordinates":[-117.055089,32.792421]}},{"properties":{"city":"San Diego","zip code":92120,"id":"a692u2yv5ovg","address":"6536 Crystalaire Dr","lat":32.789124,"state":"CA","long":-117.056248},"type":"Feature","geometry":{"type":"Point","coordinates":[-117.056248,32.789124]}},{"properties":{"city":"San Diego","zip code":92120,"id":"a692u38epvlp","address":"6536 Ridge Manor Ave","lat":32.793953,"state":"CA","long":-117.058269},"type":"Feature","geometry":{"type":"Point","coordinates":[-117.058269,32.793953]}},{"properties":{"city":"San Diego","zip code":92120,"id":"a692u2ulnky7","address":"6548 Cibola Rd","lat":32.80623,"state":"CA","long":-117.05456},"type":"Feature","geometry":{"type":"Point","coordinates":[-117.05456,32.80623]}},{"properties":{"city":"San Diego","zip code":92120,"id":"a692u2u9i0mr","address":"6553 Amberly St","lat":32.80171,"state":"CA","long":-117.053964},"type":"Feature","geometry":{"type":"Point","coordinates":[-117.053964,32.80171]}},{"properties":{"city":"San Diego","zip code":92115,"id":"a692u35q1ud0","address":"6554 Zena Dr","lat":32.745875,"state":"CA","long":-117.055642},"type":"Feature","geometry":{"type":"Point","coordinates":[-117.055642,32.745875]}},{"properties":{"city":"San Diego","zip code":92120,"id":"a692u2xqsqy1","address":"6557 Glenroy St","lat":32.791962,"state":"CA","long":-117.082564},"type":"Feature","geometry":{"type":"Point","coordinates":[-117.082564,32.791962]}},{"properties":{"city":"San Diego","zip code":92120,"id":"a692u385kdq2","address":"6564 Brynwood Way","lat":32.793682,"state":"CA","long":-117.059075},"type":"Feature","geometry":{"type":"Point","coordinates":[-117.059075,32.793682]}},{"properties":{"city":"San Diego","zip code":92119,"id":"a692u34f59z7","address":"6576 Golfcrest Dr","lat":32.796095,"state":"CA","long":-117.042175},"type":"Feature","geometry":{"type":"Point","coordinates":[-117.042175,32.796095]}},{"properties":{"city":"San Diego","zip code":92120,"id":"a692u39ut9r7","address":"6602 Clara Lee Ave","lat":32.79308,"state":"CA","long":-117.089067},"type":"Feature","geometry":{"type":"Point","coordinates":[-117.089067,32.79308]}},{"properties":{"city":"San Diego","zip code":92120,"id":"a692u2yqoggx","address":"6606 Winona Ave","lat":32.793035,"state":"CA","long":-117.08636},"type":"Feature","geometry":{"type":"Point","coordinates":[-117.08636,32.793035]}},{"properties":{"city":"San Diego","zip code":92119,"id":"a692u2vpmkah","address":"6618 Belle Glade Ave","lat":32.79682,"state":"CA","long":-117.046298},"type":"Feature","geometry":{"type":"Point","coordinates":[-117.046298,32.79682]}},{"properties":{"city":"San Diego","zip code":92120,"id":"a692u2y9v0xd","address":"6621 Seaman St","lat":32.793139,"state":"CA","long":-117.091706},"type":"Feature","geometry":{"type":"Point","coordinates":[-117.091706,32.793139]}},{"properties":{"city":"San Diego","zip code":92119,"id":"a692u36p3sjy","address":"6631 Littler Dr","lat":32.798089,"state":"CA","long":-117.038542},"type":"Feature","geometry":{"type":"Point","coordinates":[-117.038542,32.798089]}},{"properties":{"city":"San Diego","zip code":92120,"id":"a692u33a68di","address":"6635 Burgundy St","lat":32.793699,"state":"CA","long":-117.092724},"type":"Feature","geometry":{"type":"Point","coordinates":[-117.092724,32.793699]}},{"properties":{"city":"San Diego","zip code":92119,"id":"a692u2w7g4ks","address":"6641 Jackson Dr","lat":32.794609,"state":"CA","long":-117.025014},"type":"Feature","geometry":{"type":"Point","coordinates":[-117.025014,32.794609]}},{"properties":{"city":"San Diego","zip code":92115,"id":"a692u366q0j4","address":"6650 Amherst St","lat":32.766831,"state":"CA","long":-117.05532},"type":"Feature","geometry":{"type":"Point","coordinates":[-117.05532,32.766831]}},{"properties":{"city":"San Diego","zip code":92115,"id":"a692u319efyh","address":"6650 Richard St","lat":32.773904,"state":"CA","long":-117.054443},"type":"Feature","geometry":{"type":"Point","coordinates":[-117.054443,32.773904]}},{"properties":{"city":"San Diego","zip code":92119,"id":"a692u390edkg","address":"6650 Sunny Brae Dr","lat":32.798203,"state":"CA","long":-117.043079},"type":"Feature","geometry":{"type":"Point","coordinates":[-117.043079,32.798203]}},{"properties":{"city":"San Diego","zip code":92119,"id":"a692u36cdny4","address":"6663 Maury Dr","lat":32.804734,"state":"CA","long":-117.014245},"type":"Feature","geometry":{"type":"Point","coordinates":[-117.014245,32.804734]}},{"properties":{"city":"San Diego","zip code":92120,"id":"a692u2wbfnu8","address":"6686 Delbarton St","lat":32.794357,"state":"CA","long":-117.089412},"type":"Feature","geometry":{"type":"Point","coordinates":[-117.089412,32.794357]}},{"properties":{"city":"San Diego","zip code":92120,"id":"a692u38l2fzw","address":"6692 Cabaret St","lat":32.804286,"state":"CA","long":-117.052173},"type":"Feature","geometry":{"type":"Point","coordinates":[-117.052173,32.804286]}},{"properties":{"city":"San Diego","zip code":92120,"id":"a692u35gj4gc","address":"6710 Del Cerro Blvd","lat":32.780463,"state":"CA","long":-117.052038},"type":"Feature","geometry":{"type":"Point","coordinates":[-117.052038,32.780463]}},{"properties":{"city":"San Diego","zip code":92120,"id":"a692u2w9zcqd","address":"6725 Greenbrier Ct","lat":32.794979,"state":"CA","long":-117.086871},"type":"Feature","geometry":{"type":"Point","coordinates":[-117.086871,32.794979]}},{"properties":{"city":"San Diego","zip code":92120,"id":"a692u2wdo1xn","address":"6728 Del Cerro Blvd","lat":32.780483,"state":"CA","long":-117.051488},"type":"Feature","geometry":{"type":"Point","coordinates":[-117.051488,32.780483]}},{"properties":{"city":"San Diego","zip code":92119,"id":"a692u2zp5k7d","address":"6728 Tuxedo Rd","lat":32.811386,"state":"CA","long":-117.050617},"type":"Feature","geometry":{"type":"Point","coordinates":[-117.050617,32.811386]}},{"properties":{"city":"San Diego","zip code":92115,"id":"a692u2uwyv2p","address":"6735 El Cajon Blvd","lat":32.768479,"state":"CA","long":-117.052824},"type":"Feature","geometry":{"type":"Point","coordinates":[-117.052824,32.768479]}},{"properties":{"city":"San Diego","zip code":92115,"id":"a692u37euryn","address":"6777 Saranac St","lat":32.770594,"state":"CA","long":-117.052143},"type":"Feature","geometry":{"type":"Point","coordinates":[-117.052143,32.770594]}},{"properties":{"city":"San Diego","zip code":92120,"id":"a692u39ium8c","address":"6825 Cartwright St","lat":32.796326,"state":"CA","long":-117.090874},"type":"Feature","geometry":{"type":"Point","coordinates":[-117.090874,32.796326]}},{"properties":{"city":"San Diego","zip code":92115,"id":"a692u2yd93u4","address":"6842 Harvala St","lat":32.753773,"state":"CA","long":-117.051268},"type":"Feature","geometry":{"type":"Point","coordinates":[-117.051268,32.753773]}},{"properties":{"city":"San Diego","zip code":92119,"id":"a692u34fnadp","address":"6852 Hyde Park Dr","lat":32.800868,"state":"CA","long":-117.047633},"type":"Feature","geometry":{"type":"Point","coordinates":[-117.047633,32.800868]}},{"properties":{"city":"San Diego","zip code":92119,"id":"a692u34p22af","address":"6866 Renkrib Ave","lat":32.807493,"state":"CA","long":-117.019871},"type":"Feature","geometry":{"type":"Point","coordinates":[-117.019871,32.807493]}},{"properties":{"city":"San Diego","zip code":92119,"id":"a692u36hbajq","address":"6867 Tuxedo Rd","lat":32.809144,"state":"CA","long":-117.048705},"type":"Feature","geometry":{"type":"Point","coordinates":[-117.048705,32.809144]}},{"properties":{"city":"San Diego","zip code":92120,"id":"a692u2xqr0cu","address":"6875 Ridge Manor Ave","lat":32.796834,"state":"CA","long":-117.059612},"type":"Feature","geometry":{"type":"Point","coordinates":[-117.059612,32.796834]}},{"properties":{"city":"San Diego","zip code":92119,"id":"a692u2y5wcwq","address":"6876 Hyde Park Dr","lat":32.800971,"state":"CA","long":-117.047449},"type":"Feature","geometry":{"type":"Point","coordinates":[-117.047449,32.800971]}},{"properties":{"city":"San Diego","zip code":92119,"id":"a692u2yossov","address":"6878 Navajo Rd","lat":32.803513,"state":"CA","long":-117.047204},"type":"Feature","geometry":{"type":"Point","coordinates":[-117.047204,32.803513]}},{"properties":{"city":"San Diego","zip code":92119,"id":"a692u38rzy1b","address":"6888 Golfcrest Dr","lat":32.802204,"state":"CA","long":-117.039307},"type":"Feature","geometry":{"type":"Point","coordinates":[-117.039307,32.802204]}},{"properties":{"city":"San Diego","zip code":92119,"id":"a692u35o0zmx","address":"6932 Renkrib Ave","lat":32.808504,"state":"CA","long":-117.018981},"type":"Feature","geometry":{"type":"Point","coordinates":[-117.018981,32.808504]}},{"properties":{"city":"San Diego","zip code":92119,"id":"a692u33y5g23","address":"6935 Maury Dr","lat":32.807597,"state":"CA","long":-117.010804},"type":"Feature","geometry":{"type":"Point","coordinates":[-117.010804,32.807597]}},{"properties":{"city":"San Diego","zip code":92120,"id":"a692u368lrf1","address":"6936 Carthage St","lat":32.796554,"state":"CA","long":-117.073858},"type":"Feature","geometry":{"type":"Point","coordinates":[-117.073858,32.796554]}},{"properties":{"city":"San Diego","zip code":92120,"id":"a692u30thfc4","address":"6952 Del Cerro Blvd","lat":32.781933,"state":"CA","long":-117.049585},"type":"Feature","geometry":{"type":"Point","coordinates":[-117.049585,32.781933]}},{"properties":{"city":"San Diego","zip code":92119,"id":"a692u2z9fyof","address":"6958 Everglades Ave","lat":32.801399,"state":"CA","long":-117.044779},"type":"Feature","geometry":{"type":"Point","coordinates":[-117.044779,32.801399]}},{"properties":{"city":"San Diego","zip code":92120,"id":"a692u2v1fw7t","address":"7002 Birchwood St","lat":32.798649,"state":"CA","long":-117.072915},"type":"Feature","geometry":{"type":"Point","coordinates":[-117.072915,32.798649]}},{"properties":{"city":"San Diego","zip code":92120,"id":"a692u367dnit","address":"7003 Birchwood St","lat":32.798618,"state":"CA","long":-117.072776},"type":"Feature","geometry":{"type":"Point","coordinates":[-117.072776,32.798618]}},{"properties":{"city":"San Diego","zip code":92119,"id":"a692u38ch0xx","address":"7016 Regner Rd","lat":32.809425,"state":"CA","long":-117.013288},"type":"Feature","geometry":{"type":"Point","coordinates":[-117.013288,32.809425]}},{"properties":{"city":"San Diego","zip code":92120,"id":"a692u2xexj5q","address":"7027 Galewood St","lat":32.794145,"state":"CA","long":-117.06906},"type":"Feature","geometry":{"type":"Point","coordinates":[-117.06906,32.794145]}},{"properties":{"city":"San Diego","zip code":92120,"id":"a692u39bi5ia","address":"7030 Keighley Ct","lat":32.799135,"state":"CA","long":-117.080936},"type":"Feature","geometry":{"type":"Point","coordinates":[-117.080936,32.799135]}},{"properties":{"city":"San Diego","zip code":92119,"id":"a692u2ytam04","address":"7160 Cowles Mountain Blvd","lat":32.811832,"state":"CA","long":-117.017973},"type":"Feature","geometry":{"type":"Point","coordinates":[-117.017973,32.811832]}},{"properties":{"city":"San Diego","zip code":92119,"id":"a692u2zkgmmd","address":"7164 Crowley Ct","lat":32.809352,"state":"CA","long":-117.040054},"type":"Feature","geometry":{"type":"Point","coordinates":[-117.040054,32.809352]}},{"properties":{"city":"San Diego","zip code":92120,"id":"a692u342uc6b","address":"7166 Hillsboro St","lat":32.802084,"state":"CA","long":-117.07356},"type":"Feature","geometry":{"type":"Point","coordinates":[-117.07356,32.802084]}},{"properties":{"city":"San Diego","zip code":92119,"id":"a692u2w1o6cb","address":"7206 Golfcrest Dr","lat":32.806389,"state":"CA","long":-117.038235},"type":"Feature","geometry":{"type":"Point","coordinates":[-117.038235,32.806389]}},{"properties":{"city":"San Diego","zip code":92120,"id":"a692u32riumz","address":"7232 Caminito Carlotta","lat":32.804225,"state":"CA","long":-117.050327},"type":"Feature","geometry":{"type":"Point","coordinates":[-117.050327,32.804225]}},{"properties":{"city":"San Diego","zip code":92120,"id":"a692u2wmjiqr","address":"7262 Conestoga Way","lat":32.802929,"state":"CA","long":-117.076747},"type":"Feature","geometry":{"type":"Point","coordinates":[-117.076747,32.802929]}},{"properties":{"city":"San Diego","zip code":92119,"id":"a692u2x5vxha","address":"7274 Jackson Dr","lat":32.801298,"state":"CA","long":-117.040699},"type":"Feature","geometry":{"type":"Point","coordinates":[-117.040699,32.801298]}},{"properties":{"city":"San Diego","zip code":92119,"id":"a692u2y1o810","address":"7322 Player Dr","lat":32.798506,"state":"CA","long":-117.039113},"type":"Feature","geometry":{"type":"Point","coordinates":[-117.039113,32.798506]}},{"properties":{"city":"San Diego","zip code":92120,"id":"a692u31fbyg3","address":"7339 Margerum Ave","lat":32.801521,"state":"CA","long":-117.064132},"type":"Feature","geometry":{"type":"Point","coordinates":[-117.064132,32.801521]}},{"properties":{"city":"San Diego","zip code":92120,"id":"a692u2up83kx","address":"7370 Caminito Carlotta","lat":32.804268,"state":"CA","long":-117.049051},"type":"Feature","geometry":{"type":"Point","coordinates":[-117.049051,32.804268]}},{"properties":{"city":"San Diego","zip code":92119,"id":"a692u34bl5v0","address":"7429 Volclay Dr","lat":32.810532,"state":"CA","long":-117.041542},"type":"Feature","geometry":{"type":"Point","coordinates":[-117.041542,32.810532]}},{"properties":{"city":"San Diego","zip code":92119,"id":"a692u31uact0","address":"7445 Golfcrest Dr","lat":32.810517,"state":"CA","long":-117.042677},"type":"Feature","geometry":{"type":"Point","coordinates":[-117.042677,32.810517]}},{"properties":{"city":"San Diego","zip code":92119,"id":"a692u33s6svw","address":"7473 Golfcrest Dr","lat":32.810938,"state":"CA","long":-117.042843},"type":"Feature","geometry":{"type":"Point","coordinates":[-117.042843,32.810938]}},{"properties":{"city":"San Diego","zip code":92120,"id":"a692u2v1w5y9","address":"7491 Comet View Ct","lat":32.802972,"state":"CA","long":-117.065132},"type":"Feature","geometry":{"type":"Point","coordinates":[-117.065132,32.802972]}},{"properties":{"city":"San Diego","zip code":92119,"id":"a692u39l2862","address":"7530 Melotte St","lat":32.811961,"state":"CA","long":-117.044842},"type":"Feature","geometry":{"type":"Point","coordinates":[-117.044842,32.811961]}},{"properties":{"city":"San Diego","zip code":92119,"id":"a692u2zu3wuc","address":"7554 Jennite Dr","lat":32.813528,"state":"CA","long":-117.042779},"type":"Feature","geometry":{"type":"Point","coordinates":[-117.042779,32.813528]}},{"properties":{"city":"San Diego","zip code":92119,"id":"a692u35bmyzs","address":"7606 Rainswept Ln","lat":32.81613,"state":"CA","long":-117.012322},"type":"Feature","geometry":{"type":"Point","coordinates":[-117.012322,32.81613]}},{"properties":{"city":"San Diego","zip code":92119,"id":"a692u39r56pd","address":"7623 Blue Lake Dr","lat":32.79177,"state":"CA","long":-117.034158},"type":"Feature","geometry":{"type":"Point","coordinates":[-117.034158,32.79177]}},{"properties":{"city":"San Diego","zip code":92119,"id":"a692u39st3p5","address":"7690 Volclay Dr","lat":32.813715,"state":"CA","long":-117.044084},"type":"Feature","geometry":{"type":"Point","coordinates":[-117.044084,32.813715]}},{"properties":{"city":"San Diego","zip code":92120,"id":"a692u35v08ll","address":"7728 Hillandale Dr","lat":32.809123,"state":"CA","long":-117.064841},"type":"Feature","geometry":{"type":"Point","coordinates":[-117.064841,32.809123]}},{"properties":{"city":"San Diego","zip code":92119,"id":"a692u34skfbp","address":"7742 Lake Adlon Dr","lat":32.798802,"state":"CA","long":-117.029314},"type":"Feature","geometry":{"type":"Point","coordinates":[-117.029314,32.798802]}},{"properties":{"city":"San Diego","zip code":92119,"id":"a692u2wde9cr","address":"7787 Tommy St","lat":32.805638,"state":"CA","long":-117.027338},"type":"Feature","geometry":{"type":"Point","coordinates":[-117.027338,32.805638]}},{"properties":{"city":"San Diego","zip code":92119,"id":"a692u3agsvoo","address":"7805 Cedar Lake Ave","lat":32.79256,"state":"CA","long":-117.030759},"type":"Feature","geometry":{"type":"Point","coordinates":[-117.030759,32.79256]}},{"properties":{"city":"San Diego","zip code":92119,"id":"a692u3732288","address":"7855 Cowles Mountain Ct","lat":32.801864,"state":"CA","long":-117.026221},"type":"Feature","geometry":{"type":"Point","coordinates":[-117.026221,32.801864]}},{"properties":{"city":"San Diego","zip code":92120,"id":"a692u394eyax","address":"7867 Deerfield St","lat":32.811549,"state":"CA","long":-117.059436},"type":"Feature","geometry":{"type":"Point","coordinates":[-117.059436,32.811549]}},{"properties":{"city":"San Diego","zip code":92119,"id":"a692u2zxjtfp","address":"7901 Lake Andrita Ave","lat":32.796043,"state":"CA","long":-117.027718},"type":"Feature","geometry":{"type":"Point","coordinates":[-117.027718,32.796043]}},{"properties":{"city":"San Diego","zip code":92119,"id":"a692u31htjei","address":"7919 Lake Andrita Ave","lat":32.795893,"state":"CA","long":-117.027445},"type":"Feature","geometry":{"type":"Point","coordinates":[-117.027445,32.795893]}},{"properties":{"city":"San Diego","zip code":92119,"id":"a692u2zy63t7","address":"7934 Blue Lake Dr","lat":32.79216,"state":"CA","long":-117.027804},"type":"Feature","geometry":{"type":"Point","coordinates":[-117.027804,32.79216]}},{"properties":{"city":"San Diego","zip code":92120,"id":"a692u37mddab","address":"7955 Hillandale Dr","lat":32.813309,"state":"CA","long":-117.063921},"type":"Feature","geometry":{"type":"Point","coordinates":[-117.063921,32.813309]}},{"properties":{"city":"San Diego","zip code":92120,"id":"a692u2vq6nyc","address":"8015 Hillandale Dr","lat":32.814095,"state":"CA","long":-117.063287},"type":"Feature","geometry":{"type":"Point","coordinates":[-117.063287,32.814095]}},{"properties":{"city":"San Diego","zip code":92119,"id":"a692u36agkz5","address":"8039 Blue Lake Dr","lat":32.79184,"state":"CA","long":-117.025722},"type":"Feature","geometry":{"type":"Point","coordinates":[-117.025722,32.79184]}},{"properties":{"city":"San Diego","zip code":92119,"id":"a692u2vvuofn","address":"8053 El Extenso Ct","lat":32.814419,"state":"CA","long":-117.048793},"type":"Feature","geometry":{"type":"Point","coordinates":[-117.048793,32.814419]}},{"properties":{"city":"San Diego","zip code":92119,"id":"a692u32kr88u","address":"8062 Beaver Lake Dr","lat":32.800469,"state":"CA","long":-117.023005},"type":"Feature","geometry":{"type":"Point","coordinates":[-117.023005,32.800469]}},{"properties":{"city":"San Diego","zip code":92120,"id":"a692u2y1b972","address":"8079 Laurelridge Rd","lat":32.808655,"state":"CA","long":-117.055204},"type":"Feature","geometry":{"type":"Point","coordinates":[-117.055204,32.808655]}},{"properties":{"city":"San Diego","zip code":92120,"id":"a692u320zpy7","address":"8151 Hemingway Ave","lat":32.811408,"state":"CA","long":-117.0539},"type":"Feature","geometry":{"type":"Point","coordinates":[-117.0539,32.811408]}},{"properties":{"city":"San Diego","zip code":92119,"id":"a692u3anm8ti","address":"8207 Lake Andrita Ave","lat":32.794516,"state":"CA","long":-117.021993},"type":"Feature","geometry":{"type":"Point","coordinates":[-117.021993,32.794516]}},{"properties":{"city":"San Diego","zip code":92119,"id":"a692u339vr6c","address":"8301 June Lake Dr","lat":32.797905,"state":"CA","long":-117.017932},"type":"Feature","geometry":{"type":"Point","coordinates":[-117.017932,32.797905]}},{"properties":{"city":"San Diego","zip code":92120,"id":"a692u37zo2le","address":"8342 Ridge Route Rd","lat":32.808542,"state":"CA","long":-117.060821},"type":"Feature","geometry":{"type":"Point","coordinates":[-117.060821,32.808542]}},{"properties":{"city":"San Diego","zip code":92119,"id":"a692u38ovxqu","address":"8366 Lake Ben Ave","lat":32.802923,"state":"CA","long":-117.016251},"type":"Feature","geometry":{"type":"Point","coordinates":[-117.016251,32.802923]}},{"properties":{"city":"San Diego","zip code":92119,"id":"a692u3a1kiaj","address":"8385 Suntree Pl","lat":32.815851,"state":"CA","long":-117.014713},"type":"Feature","geometry":{"type":"Point","coordinates":[-117.014713,32.815851]}},{"properties":{"city":"San Diego","zip code":92119,"id":"a692u34ajq2u","address":"8417 June Lake Dr","lat":32.797514,"state":"CA","long":-117.016728},"type":"Feature","geometry":{"type":"Point","coordinates":[-117.016728,32.797514]}},{"properties":{"city":"San Diego","zip code":92119,"id":"a692u34esm2n","address":"8433 June Lake Dr","lat":32.797422,"state":"CA","long":-117.016575},"type":"Feature","geometry":{"type":"Point","coordinates":[-117.016575,32.797422]}},{"properties":{"city":"San Diego","zip code":92119,"id":"a692u2uram5j","address":"8454 Jackie Dr","lat":32.808612,"state":"CA","long":-117.016189},"type":"Feature","geometry":{"type":"Point","coordinates":[-117.016189,32.808612]}},{"properties":{"city":"San Diego","zip code":92119,"id":"a692u323wnsk","address":"8509 Hudson Dr","lat":32.805797,"state":"CA","long":-117.014002},"type":"Feature","geometry":{"type":"Point","coordinates":[-117.014002,32.805797]}},{"properties":{"city":"San Diego","zip code":92119,"id":"a692u2zo683p","address":"8573 Verlane Dr","lat":32.804199,"state":"CA","long":-117.012235},"type":"Feature","geometry":{"type":"Point","coordinates":[-117.012235,32.804199]}},{"properties":{"city":"San Diego","zip code":92119,"id":"a692u32sbmah","address":"8593 Blue Lake Dr","lat":32.79157,"state":"CA","long":-117.013372},"type":"Feature","geometry":{"type":"Point","coordinates":[-117.013372,32.79157]}},{"properties":{"city":"San Diego","zip code":92119,"id":"a692u3a21dpd","address":"8740 Verlane Dr","lat":32.805937,"state":"CA","long":-117.009691},"type":"Feature","geometry":{"type":"Point","coordinates":[-117.009691,32.805937]}},{"properties":{"city":"San Diego","zip code":92119,"id":"a692u36pghvi","address":"8741 Lake Murray Blvd","lat":32.801669,"state":"CA","long":-117.011111},"type":"Feature","geometry":{"type":"Point","coordinates":[-117.011111,32.801669]}},{"properties":{"city":"San Diego","zip code":92119,"id":"a692u35hmc05","address":"8854 Robles Way","lat":32.811172,"state":"CA","long":-117.008373},"type":"Feature","geometry":{"type":"Point","coordinates":[-117.008373,32.811172]}},{"properties":{"city":"San Diego","zip code":92119,"id":"a692u2v8g23v","address":"8865 Whiteport Ln","lat":32.807425,"state":"CA","long":-117.008414},"type":"Feature","geometry":{"type":"Point","coordinates":[-117.008414,32.807425]}},{"properties":{"city":"San Diego","zip code":92124,"id":"a692u2zzrph8","address":"9905 Park Crest Ln","lat":32.827459,"state":"CA","long":-117.112707},"type":"Feature","geometry":{"type":"Point","coordinates":[-117.112707,32.827459]}}],"is_temporal":false,"author":{"url":"","metadata":"","contact_name":"","contact_address":"","source":"","contact_phone":""},"source":"","pagination":{"sort":null,"start":0,"total":307,"limit":1000000},"state":"complete","tags":"","published":"2008-05-19T17:43:41Z","id":1479}