{"type":"FeatureCollection","data_type":"Dataset","url_type":null,"permissions":[{"permissions":{"download":true,"view":true},"group_id":"everyone"}],"classification":null,"title":"FY10 NY Uniques Northport","count":463,"stream_id":148282,"contributor":{"url":"http://geocommons.com/users/31839","name":"santillo"},"data_attributes":null,"calculation_params":null,"icon_link":null,"link":"http://geocommons.com/overlays/148282.json","extent":[-79.302,40.5201,-71.967,44.7225],"geometry_types":["point"],"unique_name":null,"name":"FY10 NY Uniques Northport","feature_count":463,"description":"","next_feature":null,"is_raster":false,"short_classification":"Y","stats":{"fy10 veterans":{"max":803,"mean":71.2829373650108,"variance":18663.7401194918,"stdev":136.615299726977,"min":1,"median":5}},"features":[{"properties":{"city":"Weehawken","fy10 veterans":3,"geo_score":0.746,"zip code":"10001","id":"a6m8kpyl38cx","geo_precision":"zip"},"type":"Feature","geometry":{"type":"Point","coordinates":[-73.996328,40.750422]}},{"properties":{"city":"New York","fy10 veterans":6,"geo_score":0.857,"zip code":"10002","id":"a6m8kpyojhzy","geo_precision":"zip"},"type":"Feature","geometry":{"type":"Point","coordinates":[-73.986427,40.718758]}},{"properties":{"city":"New York","fy10 veterans":1,"geo_score":0.857,"zip code":"10003","id":"a6m8kpu1m7p9","geo_precision":"zip"},"type":"Feature","geometry":{"type":"Point","coordinates":[-73.988564,40.730223]}},{"properties":{"city":"New York","fy10 veterans":1,"geo_score":0.857,"zip code":"10007","id":"a6m8kpw3w1pj","geo_precision":"zip"},"type":"Feature","geometry":{"type":"Point","coordinates":[-74.007401,40.713941]}},{"properties":{"city":"New York","fy10 veterans":1,"geo_score":0.857,"zip code":"10008","id":"a6m8kq0ltbxr","geo_precision":"zip"},"type":"Feature","geometry":{"type":"Point","coordinates":[-73.977182,40.780751]}},{"properties":{"city":"New York","fy10 veterans":5,"geo_score":0.857,"zip code":"10009","id":"a6m8kpujik57","geo_precision":"zip"},"type":"Feature","geometry":{"type":"Point","coordinates":[-73.980396,40.72775]}},{"properties":{"city":"New York","fy10 veterans":6,"geo_score":0.857,"zip code":"10010","id":"a6m8kpqclw50","geo_precision":"zip"},"type":"Feature","geometry":{"type":"Point","coordinates":[-73.983542,40.739024]}},{"properties":{"city":"Hoboken","fy10 veterans":4,"geo_score":0.714,"zip code":"10011","id":"a6m8kpvsz41p","geo_precision":"zip"},"type":"Feature","geometry":{"type":"Point","coordinates":[-73.999769,40.740916]}},{"properties":{"city":"New York","fy10 veterans":1,"geo_score":0.73,"zip code":"10013","id":"a6m8kpt3zbhi","geo_precision":"zip"},"type":"Feature","geometry":{"type":"Point","coordinates":[-73.99625,40.716491]}},{"properties":{"city":"New York","fy10 veterans":2,"geo_score":0.857,"zip code":"10014","id":"a6m8kpr0lilz","geo_precision":"zip"},"type":"Feature","geometry":{"type":"Point","coordinates":[-74.005095,40.738088]}},{"properties":{"city":"New York","fy10 veterans":3,"geo_score":0.857,"zip code":"10016","id":"a6m8kptvk547","geo_precision":"zip"},"type":"Feature","geometry":{"type":"Point","coordinates":[-73.978449,40.745527]}},{"properties":{"city":"Weehawken","fy10 veterans":2,"geo_score":0.746,"zip code":"10019","id":"a6m8kpsus6mp","geo_precision":"zip"},"type":"Feature","geometry":{"type":"Point","coordinates":[-73.985443,40.765926]}},{"properties":{"city":"Guttenberg","fy10 veterans":1,"geo_score":0.743,"zip code":"10021","id":"a6m8kptc7x6v","geo_precision":"zip"},"type":"Feature","geometry":{"type":"Point","coordinates":[-73.960257,40.768823]}},{"properties":{"city":"Weehawken","fy10 veterans":3,"geo_score":0.746,"zip code":"10022","id":"a6m8kppruya4","geo_precision":"zip"},"type":"Feature","geometry":{"type":"Point","coordinates":[-73.967842,40.758775]}},{"properties":{"city":"Guttenberg","fy10 veterans":1,"geo_score":0.743,"zip code":"10023","id":"a6m8kpy7ip2l","geo_precision":"zip"},"type":"Feature","geometry":{"type":"Point","coordinates":[-73.982213,40.776765]}},{"properties":{"city":"Guttenberg","fy10 veterans":3,"geo_score":0.743,"zip code":"10024","id":"a6m8kq17bd4z","geo_precision":"zip"},"type":"Feature","geometry":{"type":"Point","coordinates":[-73.965653,40.80813]}},{"properties":{"city":"Edgewater","fy10 veterans":4,"geo_score":0.746,"zip code":"10025","id":"a6m8kpyb5vw3","geo_precision":"zip"},"type":"Feature","geometry":{"type":"Point","coordinates":[-73.967778,40.798664]}},{"properties":{"city":"Edgewater","fy10 veterans":1,"geo_score":0.746,"zip code":"10026","id":"a6m8kpyfe8qd","geo_precision":"zip"},"type":"Feature","geometry":{"type":"Point","coordinates":[-73.953107,40.802918]}},{"properties":{"city":"Edgewater","fy10 veterans":3,"geo_score":0.746,"zip code":"10027","id":"a6m8kpo76qbo","geo_precision":"zip"},"type":"Feature","geometry":{"type":"Point","coordinates":[-73.9532,40.812242]}},{"properties":{"city":"Guttenberg","fy10 veterans":5,"geo_score":0.743,"zip code":"10028","id":"a6m8kpzq1yzc","geo_precision":"zip"},"type":"Feature","geometry":{"type":"Point","coordinates":[-73.953914,40.776629]}},{"properties":{"city":"Edgewater","fy10 veterans":1,"geo_score":0.746,"zip code":"10029","id":"a6m8kpynicqe","geo_precision":"zip"},"type":"Feature","geometry":{"type":"Point","coordinates":[-73.943517,40.791884]}},{"properties":{"city":"Edgewater","fy10 veterans":1,"geo_score":0.746,"zip code":"10030","id":"a6m8kppk2cmm","geo_precision":"zip"},"type":"Feature","geometry":{"type":"Point","coordinates":[-73.94329,40.818474]}},{"properties":{"city":"Edgewater","fy10 veterans":1,"geo_score":0.746,"zip code":"10031","id":"a6m8kpsxqv9k","geo_precision":"zip"},"type":"Feature","geometry":{"type":"Point","coordinates":[-73.949039,40.823438]}},{"properties":{"city":"Fort Lee","fy10 veterans":1,"geo_score":0.714,"zip code":"10032","id":"a6m8kpv8g2y9","geo_precision":"zip"},"type":"Feature","geometry":{"type":"Point","coordinates":[-73.942181,40.839137]}},{"properties":{"city":"Englewood Cliffs","fy10 veterans":1,"geo_score":0.762,"zip code":"10034","id":"a6m8kpr6kvlc","geo_precision":"zip"},"type":"Feature","geometry":{"type":"Point","coordinates":[-73.926804,40.865656]}},{"properties":{"city":"Edgewater","fy10 veterans":1,"geo_score":0.746,"zip code":"10035","id":"a6m8kpo11oe7","geo_precision":"zip"},"type":"Feature","geometry":{"type":"Point","coordinates":[-73.9347,40.801913]}},{"properties":{"city":"Weehawken","fy10 veterans":5,"geo_score":0.746,"zip code":"10036","id":"a6m8kply27s7","geo_precision":"zip"},"type":"Feature","geometry":{"type":"Point","coordinates":[-73.989847,40.75953]}},{"properties":{"city":"Edgewater","fy10 veterans":1,"geo_score":0.746,"zip code":"10037","id":"a6m8kpzivv5z","geo_precision":"zip"},"type":"Feature","geometry":{"type":"Point","coordinates":[-73.938498,40.813884]}},{"properties":{"city":"New York","fy10 veterans":1,"geo_score":0.857,"zip code":"10038","id":"a6m8kpn50wxd","geo_precision":"zip"},"type":"Feature","geometry":{"type":"Point","coordinates":[-74.003368,40.710223]}},{"properties":{"city":"Englewood Cliffs","fy10 veterans":1,"geo_score":0.752,"zip code":"10040","id":"a6m8kpquvr2g","geo_precision":"zip"},"type":"Feature","geometry":{"type":"Point","coordinates":[-73.930999,40.858692]}},{"properties":{"city":"Guttenberg","fy10 veterans":1,"geo_score":0.743,"zip code":"10044","id":"a6m8kpthr6th","geo_precision":"zip"},"type":"Feature","geometry":{"type":"Point","coordinates":[-73.950521,40.761812]}},{"properties":{"city":"Edgewater","fy10 veterans":1,"geo_score":0.746,"zip code":"10116","id":"a6m8kpsw3x7y","geo_precision":"zip"},"type":"Feature","geometry":{"type":"Point","coordinates":[-73.977182,40.780751]}},{"properties":{"city":"Guttenberg","fy10 veterans":1,"geo_score":0.743,"zip code":"10128","id":"a6m8kpmggl8x","geo_precision":"zip"},"type":"Feature","geometry":{"type":"Point","coordinates":[-73.95158,40.780989]}},{"properties":{"city":"Guttenberg","fy10 veterans":1,"geo_score":0.743,"zip code":"10162","id":"a6m8kpmfaojj","geo_precision":"zip"},"type":"Feature","geometry":{"type":"Point","coordinates":[-73.951117,40.769945]}},{"properties":{"city":"Weehawken","fy10 veterans":1,"geo_score":0.746,"zip code":"10185","id":"a6m8kpuda8t5","geo_precision":"zip"},"type":"Feature","geometry":{"type":"Point","coordinates":[-73.977182,40.780751]}},{"properties":{"city":"New York","fy10 veterans":1,"geo_score":0.857,"zip code":"10280","id":"a6m8kpysoey7","geo_precision":"zip"},"type":"Feature","geometry":{"type":"Point","coordinates":[-74.016217,40.708857]}},{"properties":{"city":"Bayonne","fy10 veterans":2,"geo_score":0.727,"zip code":"10301","id":"a6m8kq014hsi","geo_precision":"zip"},"type":"Feature","geometry":{"type":"Point","coordinates":[-74.138476,40.60316]}},{"properties":{"city":"Bayonne","fy10 veterans":1,"geo_score":0.714,"zip code":"10303","id":"a6m8kpphc9zg","geo_precision":"zip"},"type":"Feature","geometry":{"type":"Point","coordinates":[-74.148754,40.631493]}},{"properties":{"city":"Bayonne","fy10 veterans":1,"geo_score":0.732,"zip code":"10305","id":"a6m8kplnwr4l","geo_precision":"zip"},"type":"Feature","geometry":{"type":"Point","coordinates":[-74.072641,40.598438]}},{"properties":{"city":"Carteret","fy10 veterans":1,"geo_score":0.738,"zip code":"10306","id":"a6m8kq1hjo20","geo_precision":"zip"},"type":"Feature","geometry":{"type":"Point","coordinates":[-74.10292,40.565383]}},{"properties":{"city":"Perth Amboy","fy10 veterans":1,"geo_score":0.735,"zip code":"10307","id":"a6m8kpskt5lk","geo_precision":"zip"},"type":"Feature","geometry":{"type":"Point","coordinates":[-74.229311,40.520106]}},{"properties":{"city":"Carteret","fy10 veterans":1,"geo_score":0.729,"zip code":"10308","id":"a6m8kq1aljbx","geo_precision":"zip"},"type":"Feature","geometry":{"type":"Point","coordinates":[-74.151532,40.554272]}},{"properties":{"city":"Carteret","fy10 veterans":2,"geo_score":0.714,"zip code":"10312","id":"a6m8kpmff5bf","geo_precision":"zip"},"type":"Feature","geometry":{"type":"Point","coordinates":[-74.165699,40.545383]}},{"properties":{"city":"Fort Lee","fy10 veterans":1,"geo_score":0.739,"zip code":"10452","id":"a6m8kpqrv54i","geo_precision":"zip"},"type":"Feature","geometry":{"type":"Point","coordinates":[-73.909303,40.8601]}},{"properties":{"city":"Fort Lee","fy10 veterans":1,"geo_score":0.747,"zip code":"10453","id":"a6m8kq1oz06v","geo_precision":"zip"},"type":"Feature","geometry":{"type":"Point","coordinates":[-73.919859,40.849822]}},{"properties":{"city":"Edgewater","fy10 veterans":2,"geo_score":0.714,"zip code":"10455","id":"a6m8kpz7bneu","geo_precision":"zip"},"type":"Feature","geometry":{"type":"Point","coordinates":[-73.908355,40.815029]}},{"properties":{"city":"Fort Lee","fy10 veterans":4,"geo_score":0.743,"zip code":"10456","id":"a6m8kpojtdi9","geo_precision":"zip"},"type":"Feature","geometry":{"type":"Point","coordinates":[-73.906525,40.829267]}},{"properties":{"city":"Englewood Cliffs","fy10 veterans":2,"geo_score":0.733,"zip code":"10460","id":"a6m8kq0j5c5z","geo_precision":"zip"},"type":"Feature","geometry":{"type":"Point","coordinates":[-73.877636,40.839823]}},{"properties":{"city":"Pelham Manor","fy10 veterans":3,"geo_score":0.74,"zip code":"10461","id":"a6m8kq1eamj6","geo_precision":"zip"},"type":"Feature","geometry":{"type":"Point","coordinates":[-73.85528,40.84722]}},{"properties":{"city":"Pelham Manor","fy10 veterans":2,"geo_score":0.727,"zip code":"10462","id":"a6m8kps280ir","geo_precision":"zip"},"type":"Feature","geometry":{"type":"Point","coordinates":[-73.863746,40.848434]}},{"properties":{"city":"Englewood Cliffs","fy10 veterans":4,"geo_score":0.724,"zip code":"10463","id":"a6m8kpuu6euq","geo_precision":"zip"},"type":"Feature","geometry":{"type":"Point","coordinates":[-73.917359,40.881211]}},{"properties":{"city":"Kings Point","fy10 veterans":2,"geo_score":0.743,"zip code":"10464","id":"a6m8kpzkhicx","geo_precision":"zip"},"type":"Feature","geometry":{"type":"Point","coordinates":[-73.786522,40.847323]}},{"properties":{"city":"Kings Point","fy10 veterans":8,"geo_score":0.792,"zip code":"10465","id":"a6m8kpp11tkm","geo_precision":"zip"},"type":"Feature","geometry":{"type":"Point","coordinates":[-73.802078,40.815934]}},{"properties":{"city":"Mount Vernon","fy10 veterans":2,"geo_score":0.724,"zip code":"10467","id":"a6m8kpq4k0w7","geo_precision":"zip"},"type":"Feature","geometry":{"type":"Point","coordinates":[-73.866246,40.877322]}},{"properties":{"city":"Englewood Cliffs","fy10 veterans":3,"geo_score":0.724,"zip code":"10468","id":"a6m8kpp3cs5k","geo_precision":"zip"},"type":"Feature","geometry":{"type":"Point","coordinates":[-73.900505,40.870978]}},{"properties":{"city":"Pelham Manor","fy10 veterans":4,"geo_score":0.727,"zip code":"10469","id":"a6m8kpr3ip7f","geo_precision":"zip"},"type":"Feature","geometry":{"type":"Point","coordinates":[-73.841246,40.861211]}},{"properties":{"city":"Yonkers","fy10 veterans":2,"geo_score":0.73,"zip code":"10471","id":"a6m8kpyih78p","geo_precision":"zip"},"type":"Feature","geometry":{"type":"Point","coordinates":[-73.90639,40.90056]}},{"properties":{"city":"Fort Lee","fy10 veterans":4,"geo_score":0.735,"zip code":"10472","id":"a6m8kpyj7xf5","geo_precision":"zip"},"type":"Feature","geometry":{"type":"Point","coordinates":[-73.865704,40.829529]}},{"properties":{"city":"Fort Lee","fy10 veterans":5,"geo_score":0.727,"zip code":"10473","id":"a6m8kq1garzw","geo_precision":"zip"},"type":"Feature","geometry":{"type":"Point","coordinates":[-73.949582,40.805656]}},{"properties":{"city":"Pelham Manor","fy10 veterans":3,"geo_score":0.714,"zip code":"10475","id":"a6m8kpxk4rrt","geo_precision":"zip"},"type":"Feature","geometry":{"type":"Point","coordinates":[-78.848366,42.731726]}},{"properties":{"city":"Amawalk","fy10 veterans":1,"geo_score":0.857,"zip code":"10501","id":"a6m8kpy75aov","geo_precision":"zip"},"type":"Feature","geometry":{"type":"Point","coordinates":[-73.759033,41.293169]}},{"properties":{"city":"Ardsley","fy10 veterans":1,"geo_score":0.75,"zip code":"10502","id":"a6m8kpsxze9n","geo_precision":"zip"},"type":"Feature","geometry":{"type":"Point","coordinates":[-73.856523,41.002598]}},{"properties":{"city":"Armonk","fy10 veterans":1,"geo_score":0.726,"zip code":"10504","id":"a6m8kpwtl3p2","geo_precision":"zip"},"type":"Feature","geometry":{"type":"Point","coordinates":[-73.680963,41.147596]}},{"properties":{"city":"Bedford Hills","fy10 veterans":1,"geo_score":0.857,"zip code":"10507","id":"a6m8kpyjg5ve","geo_precision":"zip"},"type":"Feature","geometry":{"type":"Point","coordinates":[-73.697998,41.229037]}},{"properties":{"city":"Carmel","fy10 veterans":2,"geo_score":0.8,"zip code":"10512","id":"a6m8kpzgq3cn","geo_precision":"zip"},"type":"Feature","geometry":{"type":"Point","coordinates":[-73.670963,41.461483]}},{"properties":{"city":"Chappaqua","fy10 veterans":1,"geo_score":0.857,"zip code":"10514","id":"a6m8kpzh0olo","geo_precision":"zip"},"type":"Feature","geometry":{"type":"Point","coordinates":[-73.775547,41.078957]}},{"properties":{"city":"Croton-on-Hudson","fy10 veterans":2,"geo_score":0.724,"zip code":"10520","id":"a6m8kpt3euyr","geo_precision":"zip"},"type":"Feature","geometry":{"type":"Point","coordinates":[-73.914027,41.227872]}},{"properties":{"city":"Dobbs Ferry","fy10 veterans":1,"geo_score":0.857,"zip code":"10522","id":"a6m8kq09njfp","geo_precision":"zip"},"type":"Feature","geometry":{"type":"Point","coordinates":[-73.865178,41.011147]}},{"properties":{"city":"Goldens Bridge","fy10 veterans":1,"geo_score":0.857,"zip code":"10526","id":"a6m8kq0iwavx","geo_precision":"zip"},"type":"Feature","geometry":{"type":"Point","coordinates":[-73.647891,41.300361]}},{"properties":{"city":"Harrison","fy10 veterans":1,"geo_score":0.857,"zip code":"10528","id":"a6m8kpytzrtn","geo_precision":"zip"},"type":"Feature","geometry":{"type":"Point","coordinates":[-73.723036,40.979118]}},{"properties":{"city":"Mahopac","fy10 veterans":1,"geo_score":0.762,"zip code":"10541","id":"a6m8kpzkms3g","geo_precision":"zip"},"type":"Feature","geometry":{"type":"Point","coordinates":[-73.702353,41.371761]}},{"properties":{"city":"Mamaroneck","fy10 veterans":1,"geo_score":0.729,"zip code":"10543","id":"a6m8kpwwoj75","geo_precision":"zip"},"type":"Feature","geometry":{"type":"Point","coordinates":[-73.728464,40.937321]}},{"properties":{"city":"Montrose","fy10 veterans":9,"geo_score":0.857,"zip code":"10548","id":"a6m8kq0evsm2","geo_precision":"zip"},"type":"Feature","geometry":{"type":"Point","coordinates":[-73.942877,41.25126]}},{"properties":{"city":"Mount Vernon","fy10 veterans":3,"geo_score":0.74,"zip code":"10552","id":"a6m8kptb37al","geo_precision":"zip"},"type":"Feature","geometry":{"type":"Point","coordinates":[-73.835967,40.925099]}},{"properties":{"city":"Ossining","fy10 veterans":2,"geo_score":0.738,"zip code":"10562","id":"a6m8kpttkqa2","geo_precision":"zip"},"type":"Feature","geometry":{"type":"Point","coordinates":[-73.838746,41.168706]}},{"properties":{"city":"Peekskill","fy10 veterans":3,"geo_score":0.739,"zip code":"10566","id":"a6m8kptlv0ur","geo_precision":"zip"},"type":"Feature","geometry":{"type":"Point","coordinates":[-73.903749,41.314816]}},{"properties":{"city":"Pleasantville","fy10 veterans":1,"geo_score":0.857,"zip code":"10570","id":"a6m8kpnuq3jp","geo_precision":"zip"},"type":"Feature","geometry":{"type":"Point","coordinates":[-73.792214,41.131069]}},{"properties":{"city":"Port Chester","fy10 veterans":1,"geo_score":0.727,"zip code":"10573","id":"a6m8kpunqt7m","geo_precision":"zip"},"type":"Feature","geometry":{"type":"Point","coordinates":[-73.683462,41.019264]}},{"properties":{"city":"Pound Ridge","fy10 veterans":1,"geo_score":0.736,"zip code":"10576","id":"a6m8kq21pufl","geo_precision":"zip"},"type":"Feature","geometry":{"type":"Point","coordinates":[-73.550681,41.189263]}},{"properties":{"city":"Greenville","fy10 veterans":1,"geo_score":0.726,"zip code":"10583","id":"a6m8kpv1zoh8","geo_precision":"zip"},"type":"Feature","geometry":{"type":"Point","coordinates":[-73.760965,40.994542]}},{"properties":{"city":"Hartsdale","fy10 veterans":1,"geo_score":0.74,"zip code":"10606","id":"a6m8kppuwkoh","geo_precision":"zip"},"type":"Feature","geometry":{"type":"Point","coordinates":[-73.766044,41.021686]}},{"properties":{"city":"Yonkers","fy10 veterans":4,"geo_score":0.857,"zip code":"10701","id":"a6m8kpsnfvhw","geo_precision":"zip"},"type":"Feature","geometry":{"type":"Point","coordinates":[-73.866926,40.946107]}},{"properties":{"city":"Yonkers","fy10 veterans":3,"geo_score":0.857,"zip code":"10705","id":"a6m8kpyhb0ch","geo_precision":"zip"},"type":"Feature","geometry":{"type":"Point","coordinates":[-73.872529,40.926538]}},{"properties":{"city":"Bronxville","fy10 veterans":1,"geo_score":0.857,"zip code":"10708","id":"a6m8kpwoxakw","geo_precision":"zip"},"type":"Feature","geometry":{"type":"Point","coordinates":[-73.829978,40.938448]}},{"properties":{"city":"Eastchester","fy10 veterans":1,"geo_score":0.857,"zip code":"10709","id":"a6m8kps4jlj8","geo_precision":"zip"},"type":"Feature","geometry":{"type":"Point","coordinates":[-73.812177,40.956098]}},{"properties":{"city":"Tuckahoe","fy10 veterans":1,"geo_score":0.732,"zip code":"10710","id":"a6m8kpmc8lyf","geo_precision":"zip"},"type":"Feature","geometry":{"type":"Point","coordinates":[-73.84736,40.967946]}},{"properties":{"city":"New Rochelle","fy10 veterans":1,"geo_score":0.857,"zip code":"10801","id":"a6m8kpytt1qv","geo_precision":"zip"},"type":"Feature","geometry":{"type":"Point","coordinates":[-73.801401,41.035123]}},{"properties":{"city":"New Rochelle","fy10 veterans":1,"geo_score":0.857,"zip code":"10805","id":"a6m8kpt8pb4f","geo_precision":"zip"},"type":"Feature","geometry":{"type":"Point","coordinates":[-73.780976,40.899599]}},{"properties":{"city":"Montebello","fy10 veterans":2,"geo_score":0.727,"zip code":"10901","id":"a6m8kpomj81j","geo_precision":"zip"},"type":"Feature","geometry":{"type":"Point","coordinates":[-74.121532,41.110374]}},{"properties":{"city":"Greenwood Lake","fy10 veterans":1,"geo_score":0.736,"zip code":"10925","id":"a6m8kpotojrw","geo_precision":"zip"},"type":"Feature","geometry":{"type":"Point","coordinates":[-74.312095,41.208428]}},{"properties":{"city":"Unionville","fy10 veterans":1,"geo_score":0.729,"zip code":"10933","id":"a6m8kpv07rfa","geo_precision":"zip"},"type":"Feature","geometry":{"type":"Point","coordinates":[-74.525437,41.372872]}},{"properties":{"city":"Scotchtown","fy10 veterans":1,"geo_score":0.771,"zip code":"10941","id":"a6m8kpxy0z19","geo_precision":"zip"},"type":"Feature","geometry":{"type":"Point","coordinates":[-74.354017,41.370586]}},{"properties":{"city":"Monroe","fy10 veterans":1,"geo_score":0.769,"zip code":"10950","id":"a6m8kpv08yv2","geo_precision":"zip"},"type":"Feature","geometry":{"type":"Point","coordinates":[-74.141812,41.388427]}},{"properties":{"city":"Pearl River","fy10 veterans":1,"geo_score":0.727,"zip code":"10965","id":"a6m8kpyloovn","geo_precision":"zip"},"type":"Feature","geometry":{"type":"Point","coordinates":[-73.992361,41.057041]}},{"properties":{"city":"Washingtonville","fy10 veterans":1,"geo_score":0.857,"zip code":"10992","id":"a6m8kpy0hgp5","geo_precision":"zip"},"type":"Feature","geometry":{"type":"Point","coordinates":[-74.345433,41.407974]}},{"properties":{"city":"Floral Park","fy10 veterans":151,"geo_score":0.857,"zip code":"11001","id":"a6m8kpqp80d3","geo_precision":"zip"},"type":"Feature","geometry":{"type":"Point","coordinates":[-73.706783,40.720051]}},{"properties":{"city":"Floral Park","fy10 veterans":2,"geo_score":0.857,"zip code":"11002","id":"a6m8kpsibjrs","geo_precision":"zip"},"type":"Feature","geometry":{"type":"Point","coordinates":[-73.601772,40.754757]}},{"properties":{"city":"Elmont","fy10 veterans":138,"geo_score":0.724,"zip code":"11003","id":"a6m8kpybanb6","geo_precision":"zip"},"type":"Feature","geometry":{"type":"Point","coordinates":[-73.700131,40.714269]}},{"properties":{"city":"North New Hyde Park","fy10 veterans":47,"geo_score":0.732,"zip code":"11004","id":"a6m8kq05le6a","geo_precision":"zip"},"type":"Feature","geometry":{"type":"Point","coordinates":[-73.711159,40.745263]}},{"properties":{"city":"Lake Success","fy10 veterans":78,"geo_score":0.714,"zip code":"11005","id":"a6m8kpqqlhcl","geo_precision":"zip"},"type":"Feature","geometry":{"type":"Point","coordinates":[-73.7182,40.757057]}},{"properties":{"city":"Franklin Square","fy10 veterans":185,"geo_score":0.857,"zip code":"11010","id":"a6m8kq0yt6xs","geo_precision":"zip"},"type":"Feature","geometry":{"type":"Point","coordinates":[-73.674074,40.700101]}},{"properties":{"city":"Lake Success","fy10 veterans":36,"geo_score":0.748,"zip code":"11020","id":"a6m8kq0i3xx3","geo_precision":"zip"},"type":"Feature","geometry":{"type":"Point","coordinates":[-73.722631,40.777324]}},{"properties":{"city":"Great Neck Plaza","fy10 veterans":109,"geo_score":0.723,"zip code":"11021","id":"a6m8kpmacv27","geo_precision":"zip"},"type":"Feature","geometry":{"type":"Point","coordinates":[-72.715376,40.775933]}},{"properties":{"city":"Great Neck Plaza","fy10 veterans":2,"geo_score":0.806,"zip code":"11022","id":"a6m8kq0t11yx","geo_precision":"zip"},"type":"Feature","geometry":{"type":"Point","coordinates":[-73.601772,40.754757]}},{"properties":{"city":"Great Neck","fy10 veterans":42,"geo_score":0.743,"zip code":"11023","id":"a6m8kpoxfi3m","geo_precision":"zip"},"type":"Feature","geometry":{"type":"Point","coordinates":[-73.748465,40.794268]}},{"properties":{"city":"Kings Point","fy10 veterans":21,"geo_score":0.857,"zip code":"11024","id":"a6m8kq0xznpb","geo_precision":"zip"},"type":"Feature","geometry":{"type":"Point","coordinates":[-73.735132,40.819823]}},{"properties":{"city":"Manhasset","fy10 veterans":134,"geo_score":0.736,"zip code":"11030","id":"a6m8kpu285hz","geo_precision":"zip"},"type":"Feature","geometry":{"type":"Point","coordinates":[-73.697353,40.816212]}},{"properties":{"city":"North New Hyde Park","fy10 veterans":320,"geo_score":0.768,"zip code":"11040","id":"a6m8kpm98m5m","geo_precision":"zip"},"type":"Feature","geometry":{"type":"Point","coordinates":[-73.676519,40.780934]}},{"properties":{"city":"Baxter Estates","fy10 veterans":181,"geo_score":0.736,"zip code":"11050","id":"a6m8kpsosyw7","geo_precision":"zip"},"type":"Feature","geometry":{"type":"Point","coordinates":[-73.718742,40.851767]}},{"properties":{"city":"Inwood","fy10 veterans":16,"geo_score":0.857,"zip code":"11096","id":"a6m8kpz0y82f","geo_precision":"zip"},"type":"Feature","geometry":{"type":"Point","coordinates":[-73.747376,40.620492]}},{"properties":{"city":"New York","fy10 veterans":5,"geo_score":0.724,"zip code":"11101","id":"a6m8kpr818j0","geo_precision":"zip"},"type":"Feature","geometry":{"type":"Point","coordinates":[-73.934502,40.744622]}},{"properties":{"city":"Guttenberg","fy10 veterans":8,"geo_score":0.729,"zip code":"11102","id":"a6m8kptd70la","geo_precision":"zip"},"type":"Feature","geometry":{"type":"Point","coordinates":[-73.92516,40.770808]}},{"properties":{"city":"Guttenberg","fy10 veterans":7,"geo_score":0.743,"zip code":"11103","id":"a6m8kq17vlx8","geo_precision":"zip"},"type":"Feature","geometry":{"type":"Point","coordinates":[-73.903748,40.774546]}},{"properties":{"city":"New York","fy10 veterans":3,"geo_score":0.73,"zip code":"11104","id":"a6m8kq1vkem7","geo_precision":"zip"},"type":"Feature","geometry":{"type":"Point","coordinates":[-73.918216,40.742794]}},{"properties":{"city":"Edgewater","fy10 veterans":10,"geo_score":0.714,"zip code":"11105","id":"a6m8kpznsll8","geo_precision":"zip"},"type":"Feature","geometry":{"type":"Point","coordinates":[-73.908761,40.776468]}},{"properties":{"city":"Guttenberg","fy10 veterans":4,"geo_score":0.729,"zip code":"11106","id":"a6m8kpx1d6e3","geo_precision":"zip"},"type":"Feature","geometry":{"type":"Point","coordinates":[-73.930984,40.760601]}},{"properties":{"city":"New York","fy10 veterans":1,"geo_score":0.724,"zip code":"11109","id":"a6m8kpqqwa50","geo_precision":"zip"},"type":"Feature","geometry":{"type":"Point","coordinates":[-73.870779,40.651378]}},{"properties":{"city":"New York","fy10 veterans":1,"geo_score":0.714,"zip code":"11201","id":"a6m8kptry7hm","geo_precision":"zip"},"type":"Feature","geometry":{"type":"Point","coordinates":[-73.989319,40.694481]}},{"properties":{"city":"New York","fy10 veterans":1,"geo_score":0.714,"zip code":"11202","id":"a6m8kpvqsnar","geo_precision":"zip"},"type":"Feature","geometry":{"type":"Point","coordinates":[-73.945032,40.645099]}},{"properties":{"city":"New York","fy10 veterans":7,"geo_score":0.714,"zip code":"11203","id":"a6m8kpuyl1cx","geo_precision":"zip"},"type":"Feature","geometry":{"type":"Point","coordinates":[-73.949389,40.663551]}},{"properties":{"city":"New York","fy10 veterans":1,"geo_score":0.714,"zip code":"11204","id":"a6m8kpols2q7","geo_precision":"zip"},"type":"Feature","geometry":{"type":"Point","coordinates":[-73.978472,40.63316]}},{"properties":{"city":"New York","fy10 veterans":1,"geo_score":0.714,"zip code":"11205","id":"a6m8kppuvyi7","geo_precision":"zip"},"type":"Feature","geometry":{"type":"Point","coordinates":[-73.936274,40.682507]}},{"properties":{"city":"New York","fy10 veterans":1,"geo_score":0.714,"zip code":"11206","id":"a6m8kptihtty","geo_precision":"zip"},"type":"Feature","geometry":{"type":"Point","coordinates":[-73.949255,40.700453]}},{"properties":{"city":"New York","fy10 veterans":5,"geo_score":0.805,"zip code":"11207","id":"a6m8kprntfoc","geo_precision":"zip"},"type":"Feature","geometry":{"type":"Point","coordinates":[-73.882358,40.66677]}},{"properties":{"city":"New York","fy10 veterans":5,"geo_score":0.714,"zip code":"11208","id":"a6m8kpy44bva","geo_precision":"zip"},"type":"Feature","geometry":{"type":"Point","coordinates":[-73.912945,40.662195]}},{"properties":{"city":"Bayonne","fy10 veterans":7,"geo_score":0.726,"zip code":"11209","id":"a6m8kpu0sv4n","geo_precision":"zip"},"type":"Feature","geometry":{"type":"Point","coordinates":[-74.033196,40.618715]}},{"properties":{"city":"New York","fy10 veterans":3,"geo_score":0.714,"zip code":"11210","id":"a6m8kpsg5mcl","geo_precision":"zip"},"type":"Feature","geometry":{"type":"Point","coordinates":[-73.945521,40.625468]}},{"properties":{"city":"New York","fy10 veterans":5,"geo_score":0.726,"zip code":"11211","id":"a6m8kpzc0rvv","geo_precision":"zip"},"type":"Feature","geometry":{"type":"Point","coordinates":[-73.953471,40.714269]}},{"properties":{"city":"New York","fy10 veterans":2,"geo_score":0.727,"zip code":"11212","id":"a6m8kpo7ap95","geo_precision":"zip"},"type":"Feature","geometry":{"type":"Point","coordinates":[-73.920137,40.660937]}},{"properties":{"city":"New York","fy10 veterans":3,"geo_score":0.714,"zip code":"11213","id":"a6m8kq1dfb0g","geo_precision":"zip"},"type":"Feature","geometry":{"type":"Point","coordinates":[-73.936055,40.67317]}},{"properties":{"city":"Bayonne","fy10 veterans":4,"geo_score":0.746,"zip code":"11214","id":"a6m8kpzszhij","geo_precision":"zip"},"type":"Feature","geometry":{"type":"Point","coordinates":[-74.004306,40.604549]}},{"properties":{"city":"New York","fy10 veterans":6,"geo_score":0.73,"zip code":"11215","id":"a6m8kpluwsy5","geo_precision":"zip"},"type":"Feature","geometry":{"type":"Point","coordinates":[-73.985972,40.670103]}},{"properties":{"city":"New York","fy10 veterans":4,"geo_score":0.714,"zip code":"11216","id":"a6m8kpxnaic7","geo_precision":"zip"},"type":"Feature","geometry":{"type":"Point","coordinates":[-73.946829,40.680474]}},{"properties":{"city":"New York","fy10 veterans":2,"geo_score":0.714,"zip code":"11217","id":"a6m8kpzyycp8","geo_precision":"zip"},"type":"Feature","geometry":{"type":"Point","coordinates":[-73.980613,40.684948]}},{"properties":{"city":"New York","fy10 veterans":2,"geo_score":0.729,"zip code":"11218","id":"a6m8kpuhp8kk","geo_precision":"zip"},"type":"Feature","geometry":{"type":"Point","coordinates":[-73.970694,40.646215]}},{"properties":{"city":"New York","fy10 veterans":1,"geo_score":0.714,"zip code":"11219","id":"a6m8kpvjgv1c","geo_precision":"zip"},"type":"Feature","geometry":{"type":"Point","coordinates":[-73.996953,40.633157]}},{"properties":{"city":"New York","fy10 veterans":6,"geo_score":0.732,"zip code":"11221","id":"a6m8kpsophyd","geo_precision":"zip"},"type":"Feature","geometry":{"type":"Point","coordinates":[-73.918748,40.69427]}},{"properties":{"city":"New York","fy10 veterans":2,"geo_score":0.743,"zip code":"11222","id":"a6m8kprjpnd8","geo_precision":"zip"},"type":"Feature","geometry":{"type":"Point","coordinates":[-73.950971,40.723713]}},{"properties":{"city":"New York","fy10 veterans":2,"geo_score":0.714,"zip code":"11223","id":"a6m8kpxgnza3","geo_precision":"zip"},"type":"Feature","geometry":{"type":"Point","coordinates":[-73.965138,40.597605]}},{"properties":{"city":"Bayonne","fy10 veterans":3,"geo_score":0.74,"zip code":"11224","id":"a6m8kplw7i8c","geo_precision":"zip"},"type":"Feature","geometry":{"type":"Point","coordinates":[-73.994028,40.577883]}},{"properties":{"city":"New York","fy10 veterans":1,"geo_score":0.714,"zip code":"11225","id":"a6m8kq0acowy","geo_precision":"zip"},"type":"Feature","geometry":{"type":"Point","coordinates":[-73.952295,40.661096]}},{"properties":{"city":"New York","fy10 veterans":5,"geo_score":0.714,"zip code":"11226","id":"a6m8kpythcq9","geo_precision":"zip"},"type":"Feature","geometry":{"type":"Point","coordinates":[-73.959027,40.652048]}},{"properties":{"city":"Bayonne","fy10 veterans":3,"geo_score":0.726,"zip code":"11228","id":"a6m8kpv9qpvb","geo_precision":"zip"},"type":"Feature","geometry":{"type":"Point","coordinates":[-74.009584,40.621493]}},{"properties":{"city":"New York","fy10 veterans":7,"geo_score":0.714,"zip code":"11229","id":"a6m8kppj8lgc","geo_precision":"zip"},"type":"Feature","geometry":{"type":"Point","coordinates":[-73.939998,40.600988]}},{"properties":{"city":"New York","fy10 veterans":1,"geo_score":0.714,"zip code":"11230","id":"a6m8kpp8myhp","geo_precision":"zip"},"type":"Feature","geometry":{"type":"Point","coordinates":[-73.966109,40.62251]}},{"properties":{"city":"New York","fy10 veterans":1,"geo_score":0.714,"zip code":"11232","id":"a6m8kppr9gbl","geo_precision":"zip"},"type":"Feature","geometry":{"type":"Point","coordinates":[-73.971708,40.671186]}},{"properties":{"city":"New York","fy10 veterans":5,"geo_score":0.739,"zip code":"11233","id":"a6m8kpytlbp7","geo_precision":"zip"},"type":"Feature","geometry":{"type":"Point","coordinates":[-73.941249,40.683436]}},{"properties":{"city":"New York","fy10 veterans":8,"geo_score":0.714,"zip code":"11234","id":"a6m8kpzjdydw","geo_precision":"zip"},"type":"Feature","geometry":{"type":"Point","coordinates":[-73.913892,40.610947]}},{"properties":{"city":"New York","fy10 veterans":3,"geo_score":0.714,"zip code":"11235","id":"a6m8kprgpljq","geo_precision":"zip"},"type":"Feature","geometry":{"type":"Point","coordinates":[-73.948402,40.584455]}},{"properties":{"city":"New York","fy10 veterans":5,"geo_score":0.714,"zip code":"11236","id":"a6m8kppi26aw","geo_precision":"zip"},"type":"Feature","geometry":{"type":"Point","coordinates":[-73.900692,40.643715]}},{"properties":{"city":"New York","fy10 veterans":3,"geo_score":0.714,"zip code":"11237","id":"a6m8kpsqpny3","geo_precision":"zip"},"type":"Feature","geometry":{"type":"Point","coordinates":[-73.91807,40.702192]}},{"properties":{"city":"New York","fy10 veterans":1,"geo_score":0.714,"zip code":"11238","id":"a6m8kpudp6oi","geo_precision":"zip"},"type":"Feature","geometry":{"type":"Point","coordinates":[-73.964583,40.680936]}},{"properties":{"city":"New York","fy10 veterans":1,"geo_score":0.714,"zip code":"11243","id":"a6m8kpy0ghnr","geo_precision":"zip"},"type":"Feature","geometry":{"type":"Point","coordinates":[-73.945032,40.645099]}},{"properties":{"city":"Saddle Rock","fy10 veterans":20,"geo_score":0.729,"zip code":"11354","id":"a6m8kpq1gwxw","geo_precision":"zip"},"type":"Feature","geometry":{"type":"Point","coordinates":[-73.923471,40.715658]}},{"properties":{"city":"Saddle Rock","fy10 veterans":15,"geo_score":0.714,"zip code":"11355","id":"a6m8kq0xkfjz","geo_precision":"zip"},"type":"Feature","geometry":{"type":"Point","coordinates":[-73.813903,40.750317]}},{"properties":{"city":"Saddle Rock","fy10 veterans":22,"geo_score":0.738,"zip code":"11356","id":"a6m8kpsfci4r","geo_precision":"zip"},"type":"Feature","geometry":{"type":"Point","coordinates":[-73.843641,40.784369]}},{"properties":{"city":"Saddle Rock","fy10 veterans":71,"geo_score":0.714,"zip code":"11357","id":"a6m8kpov79nk","geo_precision":"zip"},"type":"Feature","geometry":{"type":"Point","coordinates":[-73.804578,40.79149]}},{"properties":{"city":"Saddle Rock","fy10 veterans":45,"geo_score":0.714,"zip code":"11358","id":"a6m8kpz05m47","geo_precision":"zip"},"type":"Feature","geometry":{"type":"Point","coordinates":[-73.795788,40.760426]}},{"properties":{"city":"Saddle Rock","fy10 veterans":1,"geo_score":0.729,"zip code":"11359","id":"a6m8kpt4lk1q","geo_precision":"zip"},"type":"Feature","geometry":{"type":"Point","coordinates":[-73.776701,40.79278]}},{"properties":{"city":"Saddle Rock","fy10 veterans":47,"geo_score":0.729,"zip code":"11360","id":"a6m8kq0q6ts4","geo_precision":"zip"},"type":"Feature","geometry":{"type":"Point","coordinates":[-73.803301,40.756745]}},{"properties":{"city":"Great Neck Estates","fy10 veterans":34,"geo_score":0.741,"zip code":"11361","id":"a6m8kps7gmgn","geo_precision":"zip"},"type":"Feature","geometry":{"type":"Point","coordinates":[-73.773026,40.764438]}},{"properties":{"city":"Lake Success","fy10 veterans":72,"geo_score":0.714,"zip code":"11362","id":"a6m8kq16ie4t","geo_precision":"zip"},"type":"Feature","geometry":{"type":"Point","coordinates":[-73.747077,40.768713]}},{"properties":{"city":"University Gardens","fy10 veterans":11,"geo_score":0.739,"zip code":"11363","id":"a6m8kpw0qoi3","geo_precision":"zip"},"type":"Feature","geometry":{"type":"Point","coordinates":[-73.745323,40.771467]}},{"properties":{"city":"Bellerose","fy10 veterans":60,"geo_score":0.735,"zip code":"11364","id":"a6m8kpvem130","geo_precision":"zip"},"type":"Feature","geometry":{"type":"Point","coordinates":[-73.758831,40.742772]}},{"properties":{"city":"Bellerose","fy10 veterans":34,"geo_score":0.75,"zip code":"11365","id":"a6m8kpndgwyt","geo_precision":"zip"},"type":"Feature","geometry":{"type":"Point","coordinates":[-73.790067,40.738884]}},{"properties":{"city":"Bellerose","fy10 veterans":16,"geo_score":0.714,"zip code":"11366","id":"a6m8kpxj1795","geo_precision":"zip"},"type":"Feature","geometry":{"type":"Point","coordinates":[-73.786522,40.727325]}},{"properties":{"city":"Bellerose","fy10 veterans":8,"geo_score":0.73,"zip code":"11367","id":"a6m8kpxvgonx","geo_precision":"zip"},"type":"Feature","geometry":{"type":"Point","coordinates":[-73.821997,40.730164]}},{"properties":{"city":"Saddle Rock","fy10 veterans":7,"geo_score":0.743,"zip code":"11368","id":"a6m8kpyvog9c","geo_precision":"zip"},"type":"Feature","geometry":{"type":"Point","coordinates":[-73.854333,40.748751]}},{"properties":{"city":"Saddle Rock","fy10 veterans":5,"geo_score":0.729,"zip code":"11369","id":"a6m8kq1yurau","geo_precision":"zip"},"type":"Feature","geometry":{"type":"Point","coordinates":[-73.875969,40.765935]}},{"properties":{"city":"Edgewater","fy10 veterans":3,"geo_score":0.75,"zip code":"11370","id":"a6m8kprjk9ia","geo_precision":"zip"},"type":"Feature","geometry":{"type":"Point","coordinates":[-73.891451,40.763771]}},{"properties":{"city":"Edgewater","fy10 veterans":1,"geo_score":0.714,"zip code":"11371","id":"a6m8kpwzq1we","geo_precision":"zip"},"type":"Feature","geometry":{"type":"Point","coordinates":[-73.867514,40.7712]}},{"properties":{"city":"Edgewater","fy10 veterans":5,"geo_score":0.724,"zip code":"11372","id":"a6m8kq1g1na0","geo_precision":"zip"},"type":"Feature","geometry":{"type":"Point","coordinates":[-73.882508,40.751146]}},{"properties":{"city":"New York","fy10 veterans":6,"geo_score":0.732,"zip code":"11373","id":"a6m8kpvvftct","geo_precision":"zip"},"type":"Feature","geometry":{"type":"Point","coordinates":[-73.877562,40.73509]}},{"properties":{"city":"Saddle Rock","fy10 veterans":13,"geo_score":0.743,"zip code":"11374","id":"a6m8kq0byydg","geo_precision":"zip"},"type":"Feature","geometry":{"type":"Point","coordinates":[-73.862069,40.722861]}},{"properties":{"city":"Bellerose","fy10 veterans":20,"geo_score":0.73,"zip code":"11375","id":"a6m8kq0qhs5j","geo_precision":"zip"},"type":"Feature","geometry":{"type":"Point","coordinates":[-73.850969,40.710658]}},{"properties":{"city":"New York","fy10 veterans":13,"geo_score":0.714,"zip code":"11377","id":"a6m8kpntuiye","geo_precision":"zip"},"type":"Feature","geometry":{"type":"Point","coordinates":[-73.905445,40.748372]}},{"properties":{"city":"New York","fy10 veterans":12,"geo_score":0.714,"zip code":"11378","id":"a6m8kpvvmfm6","geo_precision":"zip"},"type":"Feature","geometry":{"type":"Point","coordinates":[-73.908413,40.722848]}},{"properties":{"city":"New York","fy10 veterans":27,"geo_score":0.725,"zip code":"11379","id":"a6m8kpwvxv5f","geo_precision":"zip"},"type":"Feature","geometry":{"type":"Point","coordinates":[-73.892791,40.71924]}},{"properties":{"city":"New York","fy10 veterans":29,"geo_score":0.732,"zip code":"11385","id":"a6m8kpqhngn8","geo_precision":"zip"},"type":"Feature","geometry":{"type":"Point","coordinates":[-73.886803,40.701492]}},{"properties":{"city":"Elmont","fy10 veterans":1,"geo_score":0.735,"zip code":"11411","id":"a6m8kpxws82o","geo_precision":"zip"},"type":"Feature","geometry":{"type":"Point","coordinates":[-73.737064,40.685535]}},{"properties":{"city":"Elmont","fy10 veterans":14,"geo_score":0.74,"zip code":"11412","id":"a6m8kq0pdauu","geo_precision":"zip"},"type":"Feature","geometry":{"type":"Point","coordinates":[-73.761747,40.695829]}},{"properties":{"city":"South Valley Stream","fy10 veterans":10,"geo_score":0.738,"zip code":"11413","id":"a6m8kpr2eyqe","geo_precision":"zip"},"type":"Feature","geometry":{"type":"Point","coordinates":[-73.755926,40.664542]}},{"properties":{"city":"Inwood","fy10 veterans":19,"geo_score":0.736,"zip code":"11414","id":"a6m8kpowtdog","geo_precision":"zip"},"type":"Feature","geometry":{"type":"Point","coordinates":[-73.827357,40.652326]}},{"properties":{"city":"Bellerose","fy10 veterans":8,"geo_score":0.743,"zip code":"11415","id":"a6m8kpw5rujp","geo_precision":"zip"},"type":"Feature","geometry":{"type":"Point","coordinates":[-73.829247,40.707133]}},{"properties":{"city":"Inwood","fy10 veterans":5,"geo_score":0.73,"zip code":"11416","id":"a6m8kppwr3sq","geo_precision":"zip"},"type":"Feature","geometry":{"type":"Point","coordinates":[-73.850708,40.684546]}},{"properties":{"city":"Inwood","fy10 veterans":8,"geo_score":0.73,"zip code":"11417","id":"a6m8kppcoxlp","geo_precision":"zip"},"type":"Feature","geometry":{"type":"Point","coordinates":[-73.844315,40.675056]}},{"properties":{"city":"Elmont","fy10 veterans":12,"geo_score":0.75,"zip code":"11418","id":"a6m8kq0xgdvj","geo_precision":"zip"},"type":"Feature","geometry":{"type":"Point","coordinates":[-73.83127,40.698566]}},{"properties":{"city":"Elmont","fy10 veterans":9,"geo_score":0.739,"zip code":"11419","id":"a6m8kpn1p9g0","geo_precision":"zip"},"type":"Feature","geometry":{"type":"Point","coordinates":[-73.822979,40.686769]}},{"properties":{"city":"Inwood","fy10 veterans":9,"geo_score":0.735,"zip code":"11420","id":"a6m8kpye5n8e","geo_precision":"zip"},"type":"Feature","geometry":{"type":"Point","coordinates":[-73.819013,40.674432]}},{"properties":{"city":"Inwood","fy10 veterans":12,"geo_score":0.746,"zip code":"11421","id":"a6m8kps4x86u","geo_precision":"zip"},"type":"Feature","geometry":{"type":"Point","coordinates":[-73.85666,40.691917]}},{"properties":{"city":"South Valley Stream","fy10 veterans":15,"geo_score":0.748,"zip code":"11422","id":"a6m8kpzw4c78","geo_precision":"zip"},"type":"Feature","geometry":{"type":"Point","coordinates":[-73.736866,40.659418]}},{"properties":{"city":"Bellerose","fy10 veterans":6,"geo_score":0.762,"zip code":"11423","id":"a6m8kpxccz1j","geo_precision":"zip"},"type":"Feature","geometry":{"type":"Point","coordinates":[-73.766897,40.716888]}},{"properties":{"city":"Elmont","fy10 veterans":4,"geo_score":0.735,"zip code":"11425","id":"a6m8kptbmz4a","geo_precision":"zip"},"type":"Feature","geometry":{"type":"Point","coordinates":[-73.870779,40.651378]}},{"properties":{"city":"Bellerose","fy10 veterans":28,"geo_score":0.795,"zip code":"11426","id":"a6m8kpu7y9rs","geo_precision":"zip"},"type":"Feature","geometry":{"type":"Point","coordinates":[-73.725965,40.720658]}},{"properties":{"city":"Bellerose","fy10 veterans":22,"geo_score":0.736,"zip code":"11427","id":"a6m8kpsiqxlo","geo_precision":"zip"},"type":"Feature","geometry":{"type":"Point","coordinates":[-73.749811,40.729293]}},{"properties":{"city":"Bellerose","fy10 veterans":11,"geo_score":0.736,"zip code":"11428","id":"a6m8kpvpp5ak","geo_precision":"zip"},"type":"Feature","geometry":{"type":"Point","coordinates":[-73.742099,40.720639]}},{"properties":{"city":"Elmont","fy10 veterans":10,"geo_score":0.736,"zip code":"11429","id":"a6m8kpvbe5e5","geo_precision":"zip"},"type":"Feature","geometry":{"type":"Point","coordinates":[-73.740151,40.710076]}},{"properties":{"city":"Inwood","fy10 veterans":2,"geo_score":0.714,"zip code":"11430","id":"a6m8kpneei8k","geo_precision":"zip"},"type":"Feature","geometry":{"type":"Point","coordinates":[-73.797769,40.655246]}},{"properties":{"city":"Bellerose","fy10 veterans":1,"geo_score":0.714,"zip code":"11431","id":"a6m8kpufi7fq","geo_precision":"zip"},"type":"Feature","geometry":{"type":"Point","coordinates":[-73.815968,40.690381]}},{"properties":{"city":"Bellerose","fy10 veterans":9,"geo_score":0.714,"zip code":"11432","id":"a6m8kq25ukgm","geo_precision":"zip"},"type":"Feature","geometry":{"type":"Point","coordinates":[-73.794435,40.714531]}},{"properties":{"city":"Elmont","fy10 veterans":5,"geo_score":0.735,"zip code":"11433","id":"a6m8kppzy86x","geo_precision":"zip"},"type":"Feature","geometry":{"type":"Point","coordinates":[-73.786776,40.696533]}},{"properties":{"city":"South Valley Stream","fy10 veterans":16,"geo_score":0.731,"zip code":"11434","id":"a6m8kplu6cn3","geo_precision":"zip"},"type":"Feature","geometry":{"type":"Point","coordinates":[-73.78156,40.674583]}},{"properties":{"city":"Elmont","fy10 veterans":12,"geo_score":0.735,"zip code":"11435","id":"a6m8kq0f44xl","geo_precision":"zip"},"type":"Feature","geometry":{"type":"Point","coordinates":[-73.797278,40.700229]}},{"properties":{"city":"Mineola","fy10 veterans":143,"geo_score":0.857,"zip code":"11501","id":"a6m8kpna65p1","geo_precision":"zip"},"type":"Feature","geometry":{"type":"Point","coordinates":[-73.638061,40.735901]}},{"properties":{"city":"Searingtown","fy10 veterans":59,"geo_score":0.857,"zip code":"11507","id":"a6m8kq0gtomg","geo_precision":"zip"},"type":"Feature","geometry":{"type":"Point","coordinates":[-73.655685,40.774823]}},{"properties":{"city":"Atlantic Beach","fy10 veterans":10,"geo_score":0.857,"zip code":"11509","id":"a6m8kpy2jxmr","geo_precision":"zip"},"type":"Feature","geometry":{"type":"Point","coordinates":[-73.72709,40.588854]}},{"properties":{"city":"Baldwin","fy10 veterans":221,"geo_score":0.762,"zip code":"11510","id":"a6m8kpyhgqgh","geo_precision":"zip"},"type":"Feature","geometry":{"type":"Point","coordinates":[-73.595406,40.629547]}},{"properties":{"city":"Carle Place","fy10 veterans":43,"geo_score":0.857,"zip code":"11514","id":"a6m8kpw5he85","geo_precision":"zip"},"type":"Feature","geometry":{"type":"Point","coordinates":[-73.608422,40.74435]}},{"properties":{"city":"Cedarhurst","fy10 veterans":29,"geo_score":0.857,"zip code":"11516","id":"a6m8kpznzsuj","geo_precision":"zip"},"type":"Feature","geometry":{"type":"Point","coordinates":[-73.725825,40.626453]}},{"properties":{"city":"East Rockaway","fy10 veterans":77,"geo_score":0.738,"zip code":"11518","id":"a6m8kpveptk9","geo_precision":"zip"},"type":"Feature","geometry":{"type":"Point","coordinates":[-73.670408,40.633159]}},{"properties":{"city":"Freeport","fy10 veterans":306,"geo_score":0.857,"zip code":"11520","id":"a6m8kpmvisbh","geo_precision":"zip"},"type":"Feature","geometry":{"type":"Point","coordinates":[-73.585222,40.651251]}},{"properties":{"city":"Garden City","fy10 veterans":201,"geo_score":0.726,"zip code":"11530","id":"a6m8kprgwvo1","geo_precision":"zip"},"type":"Feature","geometry":{"type":"Point","coordinates":[-73.688464,40.719269]}},{"properties":{"city":"Glen Cove","fy10 veterans":226,"geo_score":0.857,"zip code":"11542","id":"a6m8kpy5om1g","geo_precision":"zip"},"type":"Feature","geometry":{"type":"Point","coordinates":[-73.601772,40.754757]}},{"properties":{"city":"Glen Head","fy10 veterans":92,"geo_score":0.724,"zip code":"11545","id":"a6m8kpwytn2t","geo_precision":"zip"},"type":"Feature","geometry":{"type":"Point","coordinates":[-73.565126,40.83871]}},{"properties":{"city":"Glenwood Landing","fy10 veterans":11,"geo_score":0.857,"zip code":"11547","id":"a6m8kpsofc07","geo_precision":"zip"},"type":"Feature","geometry":{"type":"Point","coordinates":[-73.601772,40.754757]}},{"properties":{"city":"Greenvale","fy10 veterans":12,"geo_score":0.857,"zip code":"11548","id":"a6m8kq1kzbs9","geo_precision":"zip"},"type":"Feature","geometry":{"type":"Point","coordinates":[-73.601772,40.754757]}},{"properties":{"city":"Hempstead","fy10 veterans":237,"geo_score":0.806,"zip code":"11550","id":"a6m8kpwoxor6","geo_precision":"zip"},"type":"Feature","geometry":{"type":"Point","coordinates":[-73.615406,40.680935]}},{"properties":{"city":"Hempstead","fy10 veterans":9,"geo_score":0.857,"zip code":"11551","id":"a6m8kpyllicz","geo_precision":"zip"},"type":"Feature","geometry":{"type":"Point","coordinates":[-73.601772,40.754757]}},{"properties":{"city":"West Hempstead","fy10 veterans":165,"geo_score":0.736,"zip code":"11552","id":"a6m8kpylov6q","geo_precision":"zip"},"type":"Feature","geometry":{"type":"Point","coordinates":[-73.65263,40.68538]}},{"properties":{"city":"Uniondale","fy10 veterans":110,"geo_score":0.857,"zip code":"11553","id":"a6m8kq035hl0","geo_precision":"zip"},"type":"Feature","geometry":{"type":"Point","coordinates":[-73.591421,40.705868]}},{"properties":{"city":"East Meadow","fy10 veterans":440,"geo_score":0.857,"zip code":"11554","id":"a6m8kpzp0tbs","geo_precision":"zip"},"type":"Feature","geometry":{"type":"Point","coordinates":[-73.55877,40.72135]}},{"properties":{"city":"Hewlett","fy10 veterans":51,"geo_score":0.791,"zip code":"11557","id":"a6m8kpqwoo34","geo_precision":"zip"},"type":"Feature","geometry":{"type":"Point","coordinates":[-73.681519,40.636215]}},{"properties":{"city":"Barnum Island","fy10 veterans":87,"geo_score":0.774,"zip code":"11558","id":"a6m8kpplxp5l","geo_precision":"zip"},"type":"Feature","geometry":{"type":"Point","coordinates":[-73.664575,40.603437]}},{"properties":{"city":"Cedarhurst","fy10 veterans":26,"geo_score":0.745,"zip code":"11559","id":"a6m8kpqeqred","geo_precision":"zip"},"type":"Feature","geometry":{"type":"Point","coordinates":[-73.741521,40.636215]}},{"properties":{"city":"Locust Valley","fy10 veterans":46,"geo_score":0.714,"zip code":"11560","id":"a6m8kpql6wk3","geo_precision":"zip"},"type":"Feature","geometry":{"type":"Point","coordinates":[-73.576514,40.87621]}},{"properties":{"city":"Long Beach","fy10 veterans":315,"geo_score":0.81,"zip code":"11561","id":"a6m8kpt25uf2","geo_precision":"zip"},"type":"Feature","geometry":{"type":"Point","coordinates":[-73.625407,40.588993]}},{"properties":{"city":"Lynbrook","fy10 veterans":191,"geo_score":0.802,"zip code":"11563","id":"a6m8kpyponpx","geo_precision":"zip"},"type":"Feature","geometry":{"type":"Point","coordinates":[-73.664575,40.602326]}},{"properties":{"city":"Malverne","fy10 veterans":69,"geo_score":0.857,"zip code":"11565","id":"a6m8kppguu4s","geo_precision":"zip"},"type":"Feature","geometry":{"type":"Point","coordinates":[-73.673324,40.674652]}},{"properties":{"city":"Merrick","fy10 veterans":343,"geo_score":0.798,"zip code":"11566","id":"a6m8kpp1dn74","geo_precision":"zip"},"type":"Feature","geometry":{"type":"Point","coordinates":[-73.563183,40.691213]}},{"properties":{"city":"Old Westbury","fy10 veterans":8,"geo_score":0.753,"zip code":"11568","id":"a6m8kq0zksdy","geo_precision":"zip"},"type":"Feature","geometry":{"type":"Point","coordinates":[-73.591238,40.805656]}},{"properties":{"city":"Point Lookout","fy10 veterans":23,"geo_score":0.857,"zip code":"11569","id":"a6m8kpvqi9th","geo_precision":"zip"},"type":"Feature","geometry":{"type":"Point","coordinates":[-73.580822,40.590503]}},{"properties":{"city":"Rockville Centre","fy10 veterans":208,"geo_score":0.857,"zip code":"11570","id":"a6m8kpzsjsrd","geo_precision":"zip"},"type":"Feature","geometry":{"type":"Point","coordinates":[-73.638523,40.667352]}},{"properties":{"city":"Rockville Centre","fy10 veterans":4,"geo_score":0.857,"zip code":"11571","id":"a6m8kpyaxom2","geo_precision":"zip"},"type":"Feature","geometry":{"type":"Point","coordinates":[-73.601772,40.754757]}},{"properties":{"city":"Oceanside","fy10 veterans":293,"geo_score":0.857,"zip code":"11572","id":"a6m8kpxwvxee","geo_precision":"zip"},"type":"Feature","geometry":{"type":"Point","coordinates":[-73.636923,40.635252]}},{"properties":{"city":"Roosevelt","fy10 veterans":91,"geo_score":0.857,"zip code":"11575","id":"a6m8kpoxqfxw","geo_precision":"zip"},"type":"Feature","geometry":{"type":"Point","coordinates":[-73.590071,40.680451]}},{"properties":{"city":"Roslyn","fy10 veterans":101,"geo_score":0.786,"zip code":"11576","id":"a6m8kpmxm0kf","geo_precision":"zip"},"type":"Feature","geometry":{"type":"Point","coordinates":[-73.637073,40.816489]}},{"properties":{"city":"Roslyn Heights","fy10 veterans":78,"geo_score":0.857,"zip code":"11577","id":"a6m8kplrnfhi","geo_precision":"zip"},"type":"Feature","geometry":{"type":"Point","coordinates":[-73.601772,40.754757]}},{"properties":{"city":"Sea Cliff","fy10 veterans":48,"geo_score":0.857,"zip code":"11579","id":"a6m8kps7zzsm","geo_precision":"zip"},"type":"Feature","geometry":{"type":"Point","coordinates":[-73.601772,40.754757]}},{"properties":{"city":"Valley Stream","fy10 veterans":185,"geo_score":0.815,"zip code":"11580","id":"a6m8kpr8issr","geo_precision":"zip"},"type":"Feature","geometry":{"type":"Point","coordinates":[-73.701798,40.685103]}},{"properties":{"city":"South Valley Stream","fy10 veterans":103,"geo_score":0.857,"zip code":"11581","id":"a6m8kpma1nru","geo_precision":"zip"},"type":"Feature","geometry":{"type":"Point","coordinates":[-73.717632,40.655937]}},{"properties":{"city":"Valley Stream","fy10 veterans":4,"geo_score":0.857,"zip code":"11582","id":"a6m8kpnk48b2","geo_precision":"zip"},"type":"Feature","geometry":{"type":"Point","coordinates":[-73.601772,40.754757]}},{"properties":{"city":"Westbury","fy10 veterans":358,"geo_score":0.778,"zip code":"11590","id":"a6m8kpt8l3fs","geo_precision":"zip"},"type":"Feature","geometry":{"type":"Point","coordinates":[-73.560127,40.745656]}},{"properties":{"city":"Williston Park","fy10 veterans":101,"geo_score":0.769,"zip code":"11596","id":"a6m8kpwi7w3l","geo_precision":"zip"},"type":"Feature","geometry":{"type":"Point","coordinates":[-73.634851,40.758434]}},{"properties":{"city":"Woodmere","fy10 veterans":56,"geo_score":0.786,"zip code":"11598","id":"a6m8kpyx0myf","geo_precision":"zip"},"type":"Feature","geometry":{"type":"Point","coordinates":[-73.708465,40.623993]}},{"properties":{"city":"Inwood","fy10 veterans":20,"geo_score":0.727,"zip code":"11691","id":"a6m8kptcnqgb","geo_precision":"zip"},"type":"Feature","geometry":{"type":"Point","coordinates":[-73.76191,40.601475]}},{"properties":{"city":"Inwood","fy10 veterans":3,"geo_score":0.714,"zip code":"11692","id":"a6m8kpwbek8t","geo_precision":"zip"},"type":"Feature","geometry":{"type":"Point","coordinates":[-73.793273,40.5923]}},{"properties":{"city":"Inwood","fy10 veterans":3,"geo_score":0.726,"zip code":"11693","id":"a6m8kpme2vbz","geo_precision":"zip"},"type":"Feature","geometry":{"type":"Point","coordinates":[-73.820412,40.60316]}},{"properties":{"city":"Inwood","fy10 veterans":8,"geo_score":0.732,"zip code":"11694","id":"a6m8kpwxdlxz","geo_precision":"zip"},"type":"Feature","geometry":{"type":"Point","coordinates":[-73.861524,40.571772]}},{"properties":{"city":"Inwood","fy10 veterans":2,"geo_score":0.736,"zip code":"11697","id":"a6m8kpzvdixs","geo_precision":"zip"},"type":"Feature","geometry":{"type":"Point","coordinates":[-73.915137,40.560661]}},{"properties":{"city":"Amityville","fy10 veterans":331,"geo_score":0.81,"zip code":"11701","id":"a6m8kpod3ov9","geo_precision":"zip"},"type":"Feature","geometry":{"type":"Point","coordinates":[-73.425123,40.6976]}},{"properties":{"city":"Babylon","fy10 veterans":230,"geo_score":0.735,"zip code":"11702","id":"a6m8kpsi5cu8","geo_precision":"zip"},"type":"Feature","geometry":{"type":"Point","coordinates":[-73.419568,40.612879]}},{"properties":{"city":"North Babylon","fy10 veterans":313,"geo_score":0.857,"zip code":"11703","id":"a6m8kpqu0w4m","geo_precision":"zip"},"type":"Feature","geometry":{"type":"Point","coordinates":[-73.325363,40.732348]}},{"properties":{"city":"West Babylon","fy10 veterans":489,"geo_score":0.857,"zip code":"11704","id":"a6m8kq04ld2w","geo_precision":"zip"},"type":"Feature","geometry":{"type":"Point","coordinates":[-73.356164,40.709098]}},{"properties":{"city":"Bayport","fy10 veterans":93,"geo_score":0.857,"zip code":"11705","id":"a6m8kpuv6chk","geo_precision":"zip"},"type":"Feature","geometry":{"type":"Point","coordinates":[-73.057026,40.748364]}},{"properties":{"city":"North Bay Shore","fy10 veterans":790,"geo_score":0.813,"zip code":"11706","id":"a6m8kppqr8ku","geo_precision":"zip"},"type":"Feature","geometry":{"type":"Point","coordinates":[-73.281229,40.70871]}},{"properties":{"city":"Babylon","fy10 veterans":1,"geo_score":0.805,"zip code":"11707","id":"a6m8kptavw8x","geo_precision":"zip"},"type":"Feature","geometry":{"type":"Point","coordinates":[-72.637078,40.922326]}},{"properties":{"city":"Bayville","fy10 veterans":92,"geo_score":0.857,"zip code":"11709","id":"a6m8kpsmaqez","geo_precision":"zip"},"type":"Feature","geometry":{"type":"Point","coordinates":[-73.601772,40.754757]}},{"properties":{"city":"Bellmore","fy10 veterans":338,"geo_score":0.802,"zip code":"11710","id":"a6m8kpon695j","geo_precision":"zip"},"type":"Feature","geometry":{"type":"Point","coordinates":[-73.53346,40.69149]}},{"properties":{"city":"North Bellport","fy10 veterans":125,"geo_score":0.857,"zip code":"11713","id":"a6m8kq1a9li9","geo_precision":"zip"},"type":"Feature","geometry":{"type":"Point","coordinates":[-72.942884,40.774265]}},{"properties":{"city":"Bethpage","fy10 veterans":371,"geo_score":0.857,"zip code":"11714","id":"a6m8kpwf7shj","geo_precision":"zip"},"type":"Feature","geometry":{"type":"Point","coordinates":[-73.495369,40.728449]}},{"properties":{"city":"Blue Point","fy10 veterans":62,"geo_score":0.857,"zip code":"11715","id":"a6m8kpsy13za","geo_precision":"zip"},"type":"Feature","geometry":{"type":"Point","coordinates":[-73.043481,40.75673]}},{"properties":{"city":"Bohemia","fy10 veterans":177,"geo_score":0.857,"zip code":"11716","id":"a6m8kpo8syx9","geo_precision":"zip"},"type":"Feature","geometry":{"type":"Point","coordinates":[-73.113366,40.76902]}},{"properties":{"city":"Brentwood","fy10 veterans":396,"geo_score":0.73,"zip code":"11717","id":"a6m8kpscnfui","geo_precision":"zip"},"type":"Feature","geometry":{"type":"Point","coordinates":[-73.274006,40.770654]}},{"properties":{"city":"Brightwaters","fy10 veterans":37,"geo_score":0.857,"zip code":"11718","id":"a6m8kpvsy4t7","geo_precision":"zip"},"type":"Feature","geometry":{"type":"Point","coordinates":[-73.260912,40.715424]}},{"properties":{"city":"Brookhaven","fy10 veterans":66,"geo_score":0.786,"zip code":"11719","id":"a6m8kps6l281","geo_precision":"zip"},"type":"Feature","geometry":{"type":"Point","coordinates":[-72.895104,40.799265]}},{"properties":{"city":"Centereach","fy10 veterans":341,"geo_score":0.747,"zip code":"11720","id":"a6m8kpvjxgt1","geo_precision":"zip"},"type":"Feature","geometry":{"type":"Point","coordinates":[-73.105664,40.91371]}},{"properties":{"city":"Centerport","fy10 veterans":97,"geo_score":0.743,"zip code":"11721","id":"a6m8kq242j7r","geo_precision":"zip"},"type":"Feature","geometry":{"type":"Point","coordinates":[-73.383452,40.897876]}},{"properties":{"city":"Central Islip","fy10 veterans":353,"geo_score":0.743,"zip code":"11722","id":"a6m8kpttg9kj","geo_precision":"zip"},"type":"Feature","geometry":{"type":"Point","coordinates":[-73.169836,40.747321]}},{"properties":{"city":"Laurel Hollow","fy10 veterans":24,"geo_score":0.75,"zip code":"11724","id":"a6m8kpxinpjc","geo_precision":"zip"},"type":"Feature","geometry":{"type":"Point","coordinates":[-73.442315,40.860098]}},{"properties":{"city":"Commack","fy10 veterans":499,"geo_score":0.857,"zip code":"11725","id":"a6m8kplp9hsw","geo_precision":"zip"},"type":"Feature","geometry":{"type":"Point","coordinates":[-73.280935,40.842247]}},{"properties":{"city":"Copiague","fy10 veterans":184,"geo_score":0.857,"zip code":"11726","id":"a6m8kq0af7ok","geo_precision":"zip"},"type":"Feature","geometry":{"type":"Point","coordinates":[-73.394762,40.68022]}},{"properties":{"city":"Coram","fy10 veterans":393,"geo_score":0.736,"zip code":"11727","id":"a6m8kpu1qm03","geo_precision":"zip"},"type":"Feature","geometry":{"type":"Point","coordinates":[-72.970661,40.85871]}},{"properties":{"city":"Deer Park","fy10 veterans":376,"geo_score":0.714,"zip code":"11729","id":"a6m8kpwcjer7","geo_precision":"zip"},"type":"Feature","geometry":{"type":"Point","coordinates":[-73.343175,40.776488]}},{"properties":{"city":"East Islip","fy10 veterans":181,"geo_score":0.743,"zip code":"11730","id":"a6m8kq1hne4g","geo_precision":"zip"},"type":"Feature","geometry":{"type":"Point","coordinates":[-73.169444,40.740278]}},{"properties":{"city":"East Northport","fy10 veterans":643,"geo_score":0.736,"zip code":"11731","id":"a6m8kpqieyj9","geo_precision":"zip"},"type":"Feature","geometry":{"type":"Point","coordinates":[-73.329006,40.899542]}},{"properties":{"city":"East Norwich","fy10 veterans":62,"geo_score":0.857,"zip code":"11732","id":"a6m8kpnknc73","geo_precision":"zip"},"type":"Feature","geometry":{"type":"Point","coordinates":[-73.601772,40.754757]}},{"properties":{"city":"Setauket","fy10 veterans":182,"geo_score":0.75,"zip code":"11733","id":"a6m8kq1ofcwd","geo_precision":"zip"},"type":"Feature","geometry":{"type":"Point","coordinates":[-73.083996,40.950932]}},{"properties":{"city":"Farmingdale","fy10 veterans":395,"geo_score":0.819,"zip code":"11735","id":"a6m8kpqczmea","geo_precision":"zip"},"type":"Feature","geometry":{"type":"Point","coordinates":[-73.416789,40.729266]}},{"properties":{"city":"South Farmingdale","fy10 veterans":1,"geo_score":0.812,"zip code":"11736","id":"a6m8kpqio4l2","geo_precision":"zip"},"type":"Feature","geometry":{"type":"Point","coordinates":[-73.601772,40.754757]}},{"properties":{"city":"Farmingville","fy10 veterans":182,"geo_score":0.857,"zip code":"11738","id":"a6m8kpnsxyce","geo_precision":"zip"},"type":"Feature","geometry":{"type":"Point","coordinates":[-72.637078,40.922326]}},{"properties":{"city":"Great River","fy10 veterans":18,"geo_score":0.857,"zip code":"11739","id":"a6m8kpmkgeso","geo_precision":"zip"},"type":"Feature","geometry":{"type":"Point","coordinates":[-72.637078,40.922326]}},{"properties":{"city":"Greenlawn","fy10 veterans":157,"geo_score":0.857,"zip code":"11740","id":"a6m8kpu6tr6m","geo_precision":"zip"},"type":"Feature","geometry":{"type":"Point","coordinates":[-73.362512,40.866948]}},{"properties":{"city":"Holbrook","fy10 veterans":386,"geo_score":0.857,"zip code":"11741","id":"a6m8kpmazekn","geo_precision":"zip"},"type":"Feature","geometry":{"type":"Point","coordinates":[-73.066689,40.78791]}},{"properties":{"city":"Holtsville","fy10 veterans":137,"geo_score":0.857,"zip code":"11742","id":"a6m8kpp4nxek","geo_precision":"zip"},"type":"Feature","geometry":{"type":"Point","coordinates":[-73.048985,40.798994]}},{"properties":{"city":"Huntington","fy10 veterans":595,"geo_score":0.743,"zip code":"11743","id":"a6m8kpp4wzvu","geo_precision":"zip"},"type":"Feature","geometry":{"type":"Point","coordinates":[-73.425675,40.903431]}},{"properties":{"city":"South Huntington","fy10 veterans":774,"geo_score":0.857,"zip code":"11746","id":"a6m8kq0ws7gc","geo_precision":"zip"},"type":"Feature","geometry":{"type":"Point","coordinates":[-73.398731,40.82371]}},{"properties":{"city":"Melville","fy10 veterans":363,"geo_score":0.857,"zip code":"11747","id":"a6m8kpv0f9mo","geo_precision":"zip"},"type":"Feature","geometry":{"type":"Point","coordinates":[-73.405573,40.787248]}},{"properties":{"city":"Islandia","fy10 veterans":42,"geo_score":0.857,"zip code":"11749","id":"a6m8kpyrdqzh","geo_precision":"zip"},"type":"Feature","geometry":{"type":"Point","coordinates":[-72.637078,40.922326]}},{"properties":{"city":"Islip","fy10 veterans":251,"geo_score":0.857,"zip code":"11751","id":"a6m8kps47hm1","geo_precision":"zip"},"type":"Feature","geometry":{"type":"Point","coordinates":[-73.217871,40.72813]}},{"properties":{"city":"North Great River","fy10 veterans":110,"geo_score":0.743,"zip code":"11752","id":"a6m8kprxouis","geo_precision":"zip"},"type":"Feature","geometry":{"type":"Point","coordinates":[-73.182854,40.757226]}},{"properties":{"city":"Jericho","fy10 veterans":127,"geo_score":0.857,"zip code":"11753","id":"a6m8kprgi4k3","geo_precision":"zip"},"type":"Feature","geometry":{"type":"Point","coordinates":[-73.601772,40.754757]}},{"properties":{"city":"Kings Park","fy10 veterans":387,"geo_score":0.73,"zip code":"11754","id":"a6m8kpu9zuvq","geo_precision":"zip"},"type":"Feature","geometry":{"type":"Point","coordinates":[-73.220669,40.882042]}},{"properties":{"city":"Lake Grove","fy10 veterans":138,"geo_score":0.857,"zip code":"11755","id":"a6m8kpqzr9j8","geo_precision":"zip"},"type":"Feature","geometry":{"type":"Point","coordinates":[-73.129003,40.85185]}},{"properties":{"city":"Levittown","fy10 veterans":498,"geo_score":0.73,"zip code":"11756","id":"a6m8kpqj2uju","geo_precision":"zip"},"type":"Feature","geometry":{"type":"Point","coordinates":[-73.483736,40.717322]}},{"properties":{"city":"Lindenhurst","fy10 veterans":518,"geo_score":0.812,"zip code":"11757","id":"a6m8kpvlop4s","geo_precision":"zip"},"type":"Feature","geometry":{"type":"Point","coordinates":[-73.38151,40.714266]}},{"properties":{"city":"Massapequa","fy10 veterans":696,"geo_score":0.762,"zip code":"11758","id":"a6m8kpui0q8g","geo_precision":"zip"},"type":"Feature","geometry":{"type":"Point","coordinates":[-73.440124,40.662045]}},{"properties":{"city":"Massapequa Park","fy10 veterans":301,"geo_score":0.857,"zip code":"11762","id":"a6m8kpybh1z7","geo_precision":"zip"},"type":"Feature","geometry":{"type":"Point","coordinates":[-73.601772,40.754757]}},{"properties":{"city":"Medford","fy10 veterans":365,"geo_score":0.857,"zip code":"11763","id":"a6m8kpuwg7rc","geo_precision":"zip"},"type":"Feature","geometry":{"type":"Point","coordinates":[-72.637078,40.922326]}},{"properties":{"city":"Miller Place","fy10 veterans":141,"geo_score":0.857,"zip code":"11764","id":"a6m8kq0ljgux","geo_precision":"zip"},"type":"Feature","geometry":{"type":"Point","coordinates":[-72.637078,40.922326]}},{"properties":{"city":"Mill Neck","fy10 veterans":9,"geo_score":0.857,"zip code":"11765","id":"a6m8kpp1d0h3","geo_precision":"zip"},"type":"Feature","geometry":{"type":"Point","coordinates":[-73.601772,40.754757]}},{"properties":{"city":"Mount Sinai","fy10 veterans":148,"geo_score":0.726,"zip code":"11766","id":"a6m8kq0vvu4e","geo_precision":"zip"},"type":"Feature","geometry":{"type":"Point","coordinates":[-73.04205,40.947877]}},{"properties":{"city":"Nesconset","fy10 veterans":164,"geo_score":0.857,"zip code":"11767","id":"a6m8kq1enave","geo_precision":"zip"},"type":"Feature","geometry":{"type":"Point","coordinates":[-73.146763,40.846678]}},{"properties":{"city":"Northport","fy10 veterans":803,"geo_score":0.714,"zip code":"11768","id":"a6m8kpmyilq3","geo_precision":"zip"},"type":"Feature","geometry":{"type":"Point","coordinates":[-73.296227,40.899265]}},{"properties":{"city":"Oakdale","fy10 veterans":144,"geo_score":0.857,"zip code":"11769","id":"a6m8kps07i4d","geo_precision":"zip"},"type":"Feature","geometry":{"type":"Point","coordinates":[-73.131797,40.738322]}},{"properties":{"city":"Ocean Beach","fy10 veterans":4,"geo_score":0.757,"zip code":"11770","id":"a6m8kpqugq6y","geo_precision":"zip"},"type":"Feature","geometry":{"type":"Point","coordinates":[-73.149003,40.647044]}},{"properties":{"city":"Oyster Bay","fy10 veterans":84,"geo_score":0.813,"zip code":"11771","id":"a6m8kq112lvq","geo_precision":"zip"},"type":"Feature","geometry":{"type":"Point","coordinates":[-73.510957,40.870932]}},{"properties":{"city":"East Patchogue","fy10 veterans":658,"geo_score":0.736,"zip code":"11772","id":"a6m8kpq6f6k1","geo_precision":"zip"},"type":"Feature","geometry":{"type":"Point","coordinates":[-73.029276,40.675655]}},{"properties":{"city":"Port Jefferson Station","fy10 veterans":315,"geo_score":0.736,"zip code":"11776","id":"a6m8kq0tvi67","geo_precision":"zip"},"type":"Feature","geometry":{"type":"Point","coordinates":[-73.065107,40.908987]}},{"properties":{"city":"Port Jefferson","fy10 veterans":80,"geo_score":0.747,"zip code":"11777","id":"a6m8kpqf1f3h","geo_precision":"zip"},"type":"Feature","geometry":{"type":"Point","coordinates":[-73.067884,40.959821]}},{"properties":{"city":"Rocky Point","fy10 veterans":127,"geo_score":0.857,"zip code":"11778","id":"a6m8kpzosgea","geo_precision":"zip"},"type":"Feature","geometry":{"type":"Point","coordinates":[-72.637078,40.922326]}},{"properties":{"city":"Ronkonkoma","fy10 veterans":559,"geo_score":0.729,"zip code":"11779","id":"a6m8kpshb5tn","geo_precision":"zip"},"type":"Feature","geometry":{"type":"Point","coordinates":[-73.120111,40.807876]}},{"properties":{"city":"Saint James","fy10 veterans":181,"geo_score":0.727,"zip code":"11780","id":"a6m8kpsv1xvd","geo_precision":"zip"},"type":"Feature","geometry":{"type":"Point","coordinates":[-73.19789,40.903987]}},{"properties":{"city":"Sayville","fy10 veterans":216,"geo_score":0.743,"zip code":"11782","id":"a6m8kpqkdzpw","geo_precision":"zip"},"type":"Feature","geometry":{"type":"Point","coordinates":[-73.068167,40.665377]}},{"properties":{"city":"Massapequa","fy10 veterans":272,"geo_score":0.743,"zip code":"11783","id":"a6m8kpu0sdyl","geo_precision":"zip"},"type":"Feature","geometry":{"type":"Point","coordinates":[-73.496169,40.683897]}},{"properties":{"city":"Selden","fy10 veterans":311,"geo_score":0.857,"zip code":"11784","id":"a6m8kpyu6foz","geo_precision":"zip"},"type":"Feature","geometry":{"type":"Point","coordinates":[-72.637078,40.922326]}},{"properties":{"city":"East Shoreham","fy10 veterans":60,"geo_score":0.81,"zip code":"11786","id":"a6m8kptil8cn","geo_precision":"zip"},"type":"Feature","geometry":{"type":"Point","coordinates":[-72.637078,40.922326]}},{"properties":{"city":"Smithtown","fy10 veterans":494,"geo_score":0.738,"zip code":"11787","id":"a6m8kpsjj512","geo_precision":"zip"},"type":"Feature","geometry":{"type":"Point","coordinates":[-73.187335,40.856209]}},{"properties":{"city":"Hauppauge","fy10 veterans":224,"geo_score":0.714,"zip code":"11788","id":"a6m8kpylefhs","geo_precision":"zip"},"type":"Feature","geometry":{"type":"Point","coordinates":[-73.200669,40.855931]}},{"properties":{"city":"Sound Beach","fy10 veterans":80,"geo_score":0.857,"zip code":"11789","id":"a6m8kpzznea7","geo_precision":"zip"},"type":"Feature","geometry":{"type":"Point","coordinates":[-72.637078,40.922326]}},{"properties":{"city":"Head of the Harbor","fy10 veterans":178,"geo_score":0.743,"zip code":"11790","id":"a6m8kpof4u83","geo_precision":"zip"},"type":"Feature","geometry":{"type":"Point","coordinates":[-73.182803,40.90129]}},{"properties":{"city":"Syosset","fy10 veterans":237,"geo_score":0.729,"zip code":"11791","id":"a6m8kq0lmdeo","geo_precision":"zip"},"type":"Feature","geometry":{"type":"Point","coordinates":[-73.547625,40.823988]}},{"properties":{"city":"Wading River","fy10 veterans":73,"geo_score":0.74,"zip code":"11792","id":"a6m8kq1mr5nn","geo_precision":"zip"},"type":"Feature","geometry":{"type":"Point","coordinates":[-72.812046,40.964543]}},{"properties":{"city":"Wantagh","fy10 veterans":370,"geo_score":0.798,"zip code":"11793","id":"a6m8kq1fyodm","geo_precision":"zip"},"type":"Feature","geometry":{"type":"Point","coordinates":[-73.507626,40.693434]}},{"properties":{"city":"Stony Brook","fy10 veterans":1,"geo_score":0.857,"zip code":"11794","id":"a6m8kq0uq3fj","geo_precision":"zip"},"type":"Feature","geometry":{"type":"Point","coordinates":[-72.637078,40.922326]}},{"properties":{"city":"West Islip","fy10 veterans":273,"geo_score":0.857,"zip code":"11795","id":"a6m8kpsz0jx6","geo_precision":"zip"},"type":"Feature","geometry":{"type":"Point","coordinates":[-73.290905,40.699825]}},{"properties":{"city":"West Sayville","fy10 veterans":57,"geo_score":0.857,"zip code":"11796","id":"a6m8kpuqustb","geo_precision":"zip"},"type":"Feature","geometry":{"type":"Point","coordinates":[-73.10002,40.732304]}},{"properties":{"city":"Woodbury","fy10 veterans":132,"geo_score":0.857,"zip code":"11797","id":"a6m8kpnb38ob","geo_precision":"zip"},"type":"Feature","geometry":{"type":"Point","coordinates":[-73.601772,40.754757]}},{"properties":{"city":"Wyandanch","fy10 veterans":168,"geo_score":0.743,"zip code":"11798","id":"a6m8kpohb2d2","geo_precision":"zip"},"type":"Feature","geometry":{"type":"Point","coordinates":[-73.369843,40.76371]}},{"properties":{"city":"Hicksville","fy10 veterans":452,"geo_score":0.857,"zip code":"11801","id":"a6m8kq0f54uf","geo_precision":"zip"},"type":"Feature","geometry":{"type":"Point","coordinates":[-73.601772,40.754757]}},{"properties":{"city":"Hicksville","fy10 veterans":6,"geo_score":0.857,"zip code":"11802","id":"a6m8kppbdfmv","geo_precision":"zip"},"type":"Feature","geometry":{"type":"Point","coordinates":[-73.601772,40.754757]}},{"properties":{"city":"Plainview","fy10 veterans":381,"geo_score":0.857,"zip code":"11803","id":"a6m8kpmrx68e","geo_precision":"zip"},"type":"Feature","geometry":{"type":"Point","coordinates":[-73.601772,40.754757]}},{"properties":{"city":"Plainview","fy10 veterans":63,"geo_score":0.727,"zip code":"11804","id":"a6m8kq21q19c","geo_precision":"zip"},"type":"Feature","geometry":{"type":"Point","coordinates":[-73.601772,40.754757]}},{"properties":{"city":"Riverhead","fy10 veterans":413,"geo_score":0.794,"zip code":"11901","id":"a6m8kpng6ecj","geo_precision":"zip"},"type":"Feature","geometry":{"type":"Point","coordinates":[-72.677874,40.88121]}},{"properties":{"city":"Amagansett","fy10 veterans":21,"geo_score":0.743,"zip code":"11930","id":"a6m8kpybb1o7","geo_precision":"zip"},"type":"Feature","geometry":{"type":"Point","coordinates":[-72.06813,41.009546]}},{"properties":{"city":"Aquebogue","fy10 veterans":30,"geo_score":0.857,"zip code":"11931","id":"a6m8kpmxs9i4","geo_precision":"zip"},"type":"Feature","geometry":{"type":"Point","coordinates":[-72.637078,40.922326]}},{"properties":{"city":"Bridgehampton","fy10 veterans":21,"geo_score":0.725,"zip code":"11932","id":"a6m8kpsz6orz","geo_precision":"zip"},"type":"Feature","geometry":{"type":"Point","coordinates":[-72.340083,40.935378]}},{"properties":{"city":"Calverton","fy10 veterans":156,"geo_score":0.725,"zip code":"11933","id":"a6m8kpo59rzh","geo_precision":"zip"},"type":"Feature","geometry":{"type":"Point","coordinates":[-72.753989,40.966765]}},{"properties":{"city":"Center Moriches","fy10 veterans":98,"geo_score":0.857,"zip code":"11934","id":"a6m8kq0cfft6","geo_precision":"zip"},"type":"Feature","geometry":{"type":"Point","coordinates":[-72.637078,40.922326]}},{"properties":{"city":"Cutchogue","fy10 veterans":69,"geo_score":0.714,"zip code":"11935","id":"a6m8kpsl0r5e","geo_precision":"zip"},"type":"Feature","geometry":{"type":"Point","coordinates":[-72.452585,41.017323]}},{"properties":{"city":"Springs","fy10 veterans":140,"geo_score":0.857,"zip code":"11937","id":"a6m8kq1y8g6m","geo_precision":"zip"},"type":"Feature","geometry":{"type":"Point","coordinates":[-72.159244,41.016211]}},{"properties":{"city":"Greenport","fy10 veterans":25,"geo_score":0.714,"zip code":"11939","id":"a6m8kpzpge54","geo_precision":"zip"},"type":"Feature","geometry":{"type":"Point","coordinates":[-72.637078,40.922326]}},{"properties":{"city":"East Moriches","fy10 veterans":75,"geo_score":0.857,"zip code":"11940","id":"a6m8kpqzv24g","geo_precision":"zip"},"type":"Feature","geometry":{"type":"Point","coordinates":[-72.637078,40.922326]}},{"properties":{"city":"Eastport","fy10 veterans":35,"geo_score":0.857,"zip code":"11941","id":"a6m8kptikxzf","geo_precision":"zip"},"type":"Feature","geometry":{"type":"Point","coordinates":[-72.637078,40.922326]}},{"properties":{"city":"East Quogue","fy10 veterans":66,"geo_score":0.857,"zip code":"11942","id":"a6m8kps1nbvg","geo_precision":"zip"},"type":"Feature","geometry":{"type":"Point","coordinates":[-72.637078,40.922326]}},{"properties":{"city":"Greenport","fy10 veterans":51,"geo_score":0.714,"zip code":"11944","id":"a6m8kplu1giy","geo_precision":"zip"},"type":"Feature","geometry":{"type":"Point","coordinates":[-72.367861,41.113988]}},{"properties":{"city":"Hampton Bays","fy10 veterans":192,"geo_score":0.74,"zip code":"11946","id":"a6m8kpvjpwnk","geo_precision":"zip"},"type":"Feature","geometry":{"type":"Point","coordinates":[-72.543702,40.859822]}},{"properties":{"city":"Jamesport","fy10 veterans":21,"geo_score":0.857,"zip code":"11947","id":"a6m8kpm05okv","geo_precision":"zip"},"type":"Feature","geometry":{"type":"Point","coordinates":[-72.637078,40.922326]}},{"properties":{"city":"Laurel","fy10 veterans":23,"geo_score":0.857,"zip code":"11948","id":"a6m8kq0by4gk","geo_precision":"zip"},"type":"Feature","geometry":{"type":"Point","coordinates":[-72.637078,40.922326]}},{"properties":{"city":"Manorville","fy10 veterans":173,"geo_score":0.857,"zip code":"11949","id":"a6m8kq1mx21b","geo_precision":"zip"},"type":"Feature","geometry":{"type":"Point","coordinates":[-72.637078,40.922326]}},{"properties":{"city":"Mastic","fy10 veterans":186,"geo_score":0.735,"zip code":"11950","id":"a6m8kpm04gzc","geo_precision":"zip"},"type":"Feature","geometry":{"type":"Point","coordinates":[-72.83288,40.789821]}},{"properties":{"city":"Mastic Beach","fy10 veterans":172,"geo_score":0.857,"zip code":"11951","id":"a6m8kps96eph","geo_precision":"zip"},"type":"Feature","geometry":{"type":"Point","coordinates":[-72.637078,40.922326]}},{"properties":{"city":"Mattituck","fy10 veterans":79,"geo_score":0.714,"zip code":"11952","id":"a6m8kpx5as9t","geo_precision":"zip"},"type":"Feature","geometry":{"type":"Point","coordinates":[-72.549811,41.0026]}},{"properties":{"city":"Middle Island","fy10 veterans":283,"geo_score":0.857,"zip code":"11953","id":"a6m8kpq54i3v","geo_precision":"zip"},"type":"Feature","geometry":{"type":"Point","coordinates":[-72.637078,40.922326]}},{"properties":{"city":"Montauk","fy10 veterans":65,"geo_score":0.798,"zip code":"11954","id":"a6m8kpyvglup","geo_precision":"zip"},"type":"Feature","geometry":{"type":"Point","coordinates":[-71.967015,41.025935]}},{"properties":{"city":"Mastic","fy10 veterans":74,"geo_score":0.75,"zip code":"11955","id":"a6m8kpyfi6dp","geo_precision":"zip"},"type":"Feature","geometry":{"type":"Point","coordinates":[-72.637078,40.922326]}},{"properties":{"city":"Cutchogue","fy10 veterans":6,"geo_score":0.714,"zip code":"11956","id":"a6m8kq03rvq7","geo_precision":"zip"},"type":"Feature","geometry":{"type":"Point","coordinates":[-72.637078,40.922326]}},{"properties":{"city":"Dering Harbor","fy10 veterans":13,"geo_score":0.738,"zip code":"11957","id":"a6m8kplx1bh9","geo_precision":"zip"},"type":"Feature","geometry":{"type":"Point","coordinates":[-72.251191,41.15232]}},{"properties":{"city":"Peconic","fy10 veterans":9,"geo_score":0.857,"zip code":"11958","id":"a6m8kpt19ehr","geo_precision":"zip"},"type":"Feature","geometry":{"type":"Point","coordinates":[-72.637078,40.922326]}},{"properties":{"city":"Quogue","fy10 veterans":15,"geo_score":0.857,"zip code":"11959","id":"a6m8kq0ftudk","geo_precision":"zip"},"type":"Feature","geometry":{"type":"Point","coordinates":[-72.637078,40.922326]}},{"properties":{"city":"Westhampton Beach","fy10 veterans":21,"geo_score":0.75,"zip code":"11960","id":"a6m8kq0ppoio","geo_precision":"zip"},"type":"Feature","geometry":{"type":"Point","coordinates":[-72.637078,40.922326]}},{"properties":{"city":"Ridge","fy10 veterans":385,"geo_score":0.857,"zip code":"11961","id":"a6m8kpzkx4j5","geo_precision":"zip"},"type":"Feature","geometry":{"type":"Point","coordinates":[-72.637078,40.922326]}},{"properties":{"city":"Bridgehampton","fy10 veterans":3,"geo_score":0.736,"zip code":"11962","id":"a6m8kpqujy2k","geo_precision":"zip"},"type":"Feature","geometry":{"type":"Point","coordinates":[-72.637078,40.922326]}},{"properties":{"city":"Noyack","fy10 veterans":90,"geo_score":0.714,"zip code":"11963","id":"a6m8kpumwx2v","geo_precision":"zip"},"type":"Feature","geometry":{"type":"Point","coordinates":[-72.313416,40.997877]}},{"properties":{"city":"Shelter Island","fy10 veterans":38,"geo_score":0.752,"zip code":"11964","id":"a6m8kpzaauu2","geo_precision":"zip"},"type":"Feature","geometry":{"type":"Point","coordinates":[-72.34925,41.050933]}},{"properties":{"city":"Shelter Island Heights","fy10 veterans":19,"geo_score":0.757,"zip code":"11965","id":"a6m8kpqyadbt","geo_precision":"zip"},"type":"Feature","geometry":{"type":"Point","coordinates":[-72.369806,41.058155]}},{"properties":{"city":"Shirley","fy10 veterans":306,"geo_score":0.857,"zip code":"11967","id":"a6m8kpssntea","geo_precision":"zip"},"type":"Feature","geometry":{"type":"Point","coordinates":[-72.637078,40.922326]}},{"properties":{"city":"North Sea","fy10 veterans":141,"geo_score":0.732,"zip code":"11968","id":"a6m8kpoi249h","geo_precision":"zip"},"type":"Feature","geometry":{"type":"Point","coordinates":[-72.410919,40.898989]}},{"properties":{"city":"Southampton","fy10 veterans":28,"geo_score":0.857,"zip code":"11969","id":"a6m8kpw8s2zq","geo_precision":"zip"},"type":"Feature","geometry":{"type":"Point","coordinates":[-72.637078,40.922326]}},{"properties":{"city":"Jamesport","fy10 veterans":10,"geo_score":0.806,"zip code":"11970","id":"a6m8kq0ws6iu","geo_precision":"zip"},"type":"Feature","geometry":{"type":"Point","coordinates":[-72.637078,40.922326]}},{"properties":{"city":"Southold","fy10 veterans":120,"geo_score":0.75,"zip code":"11971","id":"a6m8kpy7bvs7","geo_precision":"zip"},"type":"Feature","geometry":{"type":"Point","coordinates":[-72.398973,41.046767]}},{"properties":{"city":"Speonk","fy10 veterans":23,"geo_score":0.857,"zip code":"11972","id":"a6m8kpym5y5w","geo_precision":"zip"},"type":"Feature","geometry":{"type":"Point","coordinates":[-72.637078,40.922326]}},{"properties":{"city":"Ridge","fy10 veterans":2,"geo_score":0.714,"zip code":"11973","id":"a6m8kpsikmsr","geo_precision":"zip"},"type":"Feature","geometry":{"type":"Point","coordinates":[-72.637078,40.922326]}},{"properties":{"city":"East Hampton","fy10 veterans":6,"geo_score":0.74,"zip code":"11975","id":"a6m8kpnmwmz4","geo_precision":"zip"},"type":"Feature","geometry":{"type":"Point","coordinates":[-72.637078,40.922326]}},{"properties":{"city":"Watermill","fy10 veterans":16,"geo_score":0.73,"zip code":"11976","id":"a6m8kptn25qy","geo_precision":"zip"},"type":"Feature","geometry":{"type":"Point","coordinates":[-72.304249,40.911211]}},{"properties":{"city":"Westhampton Beach","fy10 veterans":28,"geo_score":0.812,"zip code":"11977","id":"a6m8kptpgn0p","geo_precision":"zip"},"type":"Feature","geometry":{"type":"Point","coordinates":[-72.637078,40.922326]}},{"properties":{"city":"Westhampton Beach","fy10 veterans":46,"geo_score":0.732,"zip code":"11978","id":"a6m8kpqvcwh3","geo_precision":"zip"},"type":"Feature","geometry":{"type":"Point","coordinates":[-72.628984,40.819822]}},{"properties":{"city":"Yaphank","fy10 veterans":84,"geo_score":0.857,"zip code":"11980","id":"a6m8kpns7u8b","geo_precision":"zip"},"type":"Feature","geometry":{"type":"Point","coordinates":[-72.637078,40.922326]}},{"properties":{"city":"Country Knolls","fy10 veterans":1,"geo_score":0.735,"zip code":"12019","id":"a6m8kpsq6yrh","geo_precision":"zip"},"type":"Feature","geometry":{"type":"Point","coordinates":[-73.938458,42.903132]}},{"properties":{"city":"Ballston Spa","fy10 veterans":1,"geo_score":0.727,"zip code":"12020","id":"a6m8kpxcwede","geo_precision":"zip"},"type":"Feature","geometry":{"type":"Point","coordinates":[-73.929291,43.037575]}},{"properties":{"city":"Delmar","fy10 veterans":1,"geo_score":0.714,"zip code":"12054","id":"a6m8kpqkxdog","geo_precision":"zip"},"type":"Feature","geometry":{"type":"Point","coordinates":[-73.887903,42.60119]}},{"properties":{"city":"Clifton Park","fy10 veterans":1,"geo_score":0.714,"zip code":"12065","id":"a6m8kpmyt43a","geo_precision":"zip"},"type":"Feature","geometry":{"type":"Point","coordinates":[-73.823733,42.910076]}},{"properties":{"city":"Delmar","fy10 veterans":1,"geo_score":0.752,"zip code":"12077","id":"a6m8kpmegqum","geo_precision":"zip"},"type":"Feature","geometry":{"type":"Point","coordinates":[-73.791511,42.602024]}},{"properties":{"city":"Gloversville","fy10 veterans":1,"geo_score":0.738,"zip code":"12078","id":"a6m8kpsh8x1j","geo_precision":"zip"},"type":"Feature","geometry":{"type":"Point","coordinates":[-74.378192,43.083128]}},{"properties":{"city":"Worcester","fy10 veterans":1,"geo_score":0.756,"zip code":"12093","id":"a6m8kpuf60qq","geo_precision":"zip"},"type":"Feature","geometry":{"type":"Point","coordinates":[-74.691819,42.472578]}},{"properties":{"city":"Johnstown","fy10 veterans":1,"geo_score":0.746,"zip code":"12095","id":"a6m8kpoi6mk9","geo_precision":"zip"},"type":"Feature","geometry":{"type":"Point","coordinates":[-74.504029,43.058128]}},{"properties":{"city":"Milford","fy10 veterans":1,"geo_score":0.722,"zip code":"12116","id":"a6m8kpyvilhw","geo_precision":"zip"},"type":"Feature","geometry":{"type":"Point","coordinates":[-74.957104,42.491745]}},{"properties":{"city":"Mayfield","fy10 veterans":1,"geo_score":0.725,"zip code":"12117","id":"a6m8kpmsdom7","geo_precision":"zip"},"type":"Feature","geometry":{"type":"Point","coordinates":[-74.284024,43.134239]}},{"properties":{"city":"Mechanicville","fy10 veterans":1,"geo_score":0.725,"zip code":"12118","id":"a6m8kpvmx8f9","geo_precision":"zip"},"type":"Feature","geometry":{"type":"Point","coordinates":[-73.720675,42.919799]}},{"properties":{"city":"Middleburgh","fy10 veterans":1,"geo_score":0.819,"zip code":"12122","id":"a6m8kpvef1t0","geo_precision":"zip"},"type":"Feature","geometry":{"type":"Point","coordinates":[-74.353194,42.595632]}},{"properties":{"city":"Hampton Manor","fy10 veterans":1,"geo_score":0.738,"zip code":"12144","id":"a6m8kpv19xed","geo_precision":"zip"},"type":"Feature","geometry":{"type":"Point","coordinates":[-73.708453,42.655079]}},{"properties":{"city":"Stamford","fy10 veterans":1,"geo_score":0.755,"zip code":"12167","id":"a6m8kpm13e1h","geo_precision":"zip"},"type":"Feature","geometry":{"type":"Point","coordinates":[-74.57765,42.450912]}},{"properties":{"city":"Troy","fy10 veterans":1,"geo_score":0.735,"zip code":"12180","id":"a6m8kpp62m42","geo_precision":"zip"},"type":"Feature","geometry":{"type":"Point","coordinates":[-73.652618,42.742023]}},{"properties":{"city":"Waterford","fy10 veterans":1,"geo_score":0.727,"zip code":"12182","id":"a6m8kpqs3b5s","geo_precision":"zip"},"type":"Feature","geometry":{"type":"Point","coordinates":[-73.634284,42.804522]}},{"properties":{"city":"Albany","fy10 veterans":1,"geo_score":0.857,"zip code":"12202","id":"a6m8kprcg5ad","geo_precision":"zip"},"type":"Feature","geometry":{"type":"Point","coordinates":[-73.763564,42.636371]}},{"properties":{"city":"Roessleville","fy10 veterans":1,"geo_score":0.762,"zip code":"12203","id":"a6m8kps5cqn1","geo_precision":"zip"},"type":"Feature","geometry":{"type":"Point","coordinates":[-73.868734,42.691189]}},{"properties":{"city":"Roessleville","fy10 veterans":2,"geo_score":0.714,"zip code":"12205","id":"a6m8kpmnhpwb","geo_precision":"zip"},"type":"Feature","geometry":{"type":"Point","coordinates":[-73.8629,42.743966]}},{"properties":{"city":"Albany","fy10 veterans":3,"geo_score":0.857,"zip code":"12210","id":"a6m8kpmvjde3","geo_precision":"zip"},"type":"Feature","geometry":{"type":"Point","coordinates":[-73.758115,42.683079]}},{"properties":{"city":"East Glenville","fy10 veterans":1,"geo_score":0.725,"zip code":"12302","id":"a6m8kq01m87u","geo_precision":"zip"},"type":"Feature","geometry":{"type":"Point","coordinates":[-74.009571,42.851187]}},{"properties":{"city":"Schenectady","fy10 veterans":1,"geo_score":0.857,"zip code":"12308","id":"a6m8kpw3tgch","geo_precision":"zip"},"type":"Feature","geometry":{"type":"Point","coordinates":[-73.920467,42.835926]}},{"properties":{"city":"Kingston","fy10 veterans":2,"geo_score":0.732,"zip code":"12401","id":"a6m8kpoitvaz","geo_precision":"zip"},"type":"Feature","geometry":{"type":"Point","coordinates":[-74.004583,41.909815]}},{"properties":{"city":"Fleischmanns","fy10 veterans":1,"geo_score":0.738,"zip code":"12406","id":"a6m8kq159uyw","geo_precision":"zip"},"type":"Feature","geometry":{"type":"Point","coordinates":[-74.544598,42.061757]}},{"properties":{"city":"Acra","fy10 veterans":1,"geo_score":0.736,"zip code":"12418","id":"a6m8kq204snq","geo_precision":"zip"},"type":"Feature","geometry":{"type":"Point","coordinates":[-74.179384,42.368277]}},{"properties":{"city":"Greenville","fy10 veterans":2,"geo_score":0.714,"zip code":"12423","id":"a6m8kq0tx4f0","geo_precision":"zip"},"type":"Feature","geometry":{"type":"Point","coordinates":[-74.123477,42.377483]}},{"properties":{"city":"Fleischmanns","fy10 veterans":1,"geo_score":0.726,"zip code":"12430","id":"a6m8kpsuh9dx","geo_precision":"zip"},"type":"Feature","geometry":{"type":"Point","coordinates":[-74.550153,42.195088]}},{"properties":{"city":"Tannersville","fy10 veterans":1,"geo_score":0.726,"zip code":"12436","id":"a6m8kpzrvr3o","geo_precision":"zip"},"type":"Feature","geometry":{"type":"Point","coordinates":[-74.087082,42.189255]}},{"properties":{"city":"Prattsville","fy10 veterans":1,"geo_score":0.714,"zip code":"12452","id":"a6m8kpoq6tlq","geo_precision":"zip"},"type":"Feature","geometry":{"type":"Point","coordinates":[-74.386635,42.223407]}},{"properties":{"city":"Margaretville","fy10 veterans":2,"geo_score":0.736,"zip code":"12455","id":"a6m8kpsu5m66","geo_precision":"zip"},"type":"Feature","geometry":{"type":"Point","coordinates":[-74.697101,42.134255]}},{"properties":{"city":"Woodstock","fy10 veterans":1,"geo_score":0.714,"zip code":"12498","id":"a6m8kpq8rsis","geo_precision":"zip"},"type":"Feature","geometry":{"type":"Point","coordinates":[-74.076252,42.016759]}},{"properties":{"city":"Beacon","fy10 veterans":2,"geo_score":0.729,"zip code":"12508","id":"a6m8kpxb6gzt","geo_precision":"zip"},"type":"Feature","geometry":{"type":"Point","coordinates":[-73.939582,41.515372]}},{"properties":{"city":"Tivoli","fy10 veterans":1,"geo_score":0.74,"zip code":"12523","id":"a6m8kptsw48a","geo_precision":"zip"},"type":"Feature","geometry":{"type":"Point","coordinates":[-73.765961,42.084535]}},{"properties":{"city":"Wallkill","fy10 veterans":1,"geo_score":0.74,"zip code":"12525","id":"a6m8kpyj56a9","geo_precision":"zip"},"type":"Feature","geometry":{"type":"Point","coordinates":[-74.175424,41.687038]}},{"properties":{"city":"Highland","fy10 veterans":1,"geo_score":0.75,"zip code":"12528","id":"a6m8kpzdmi05","geo_precision":"zip"},"type":"Feature","geometry":{"type":"Point","coordinates":[-74.005418,41.736204]}},{"properties":{"city":"Hopewell Junction","fy10 veterans":1,"geo_score":0.732,"zip code":"12533","id":"a6m8kpwtu71i","geo_precision":"zip"},"type":"Feature","geometry":{"type":"Point","coordinates":[-73.846246,41.538982]}},{"properties":{"city":"Hudson","fy10 veterans":2,"geo_score":0.714,"zip code":"12534","id":"a6m8kpozstfx","geo_precision":"zip"},"type":"Feature","geometry":{"type":"Point","coordinates":[-73.768458,42.263698]}},{"properties":{"city":"Wallkill","fy10 veterans":1,"geo_score":0.725,"zip code":"12548","id":"a6m8kpxkrnmv","geo_precision":"zip"},"type":"Feature","geometry":{"type":"Point","coordinates":[-74.121256,41.647594]}},{"properties":{"city":"Balmville","fy10 veterans":2,"geo_score":0.714,"zip code":"12550","id":"a6m8kptmhc5y","geo_precision":"zip"},"type":"Feature","geometry":{"type":"Point","coordinates":[-73.984028,41.558427]}},{"properties":{"city":"New Windsor","fy10 veterans":1,"geo_score":0.857,"zip code":"12553","id":"a6m8kpzxn6x0","geo_precision":"zip"},"type":"Feature","geometry":{"type":"Point","coordinates":[-74.311974,41.413667]}},{"properties":{"city":"Hopewell Junction","fy10 veterans":1,"geo_score":0.732,"zip code":"12582","id":"a6m8kpvset5n","geo_precision":"zip"},"type":"Feature","geometry":{"type":"Point","coordinates":[-73.72667,41.554509]}},{"properties":{"city":"Walden","fy10 veterans":1,"geo_score":0.753,"zip code":"12586","id":"a6m8kpsilhj2","geo_precision":"zip"},"type":"Feature","geometry":{"type":"Point","coordinates":[-74.145423,41.56926]}},{"properties":{"city":"Wappingers Falls","fy10 veterans":1,"geo_score":0.743,"zip code":"12590","id":"a6m8kpolftme","geo_precision":"zip"},"type":"Feature","geometry":{"type":"Point","coordinates":[-73.870691,41.622871]}},{"properties":{"city":"Poughkeepsie","fy10 veterans":2,"geo_score":0.726,"zip code":"12601","id":"a6m8kpv53t1t","geo_precision":"zip"},"type":"Feature","geometry":{"type":"Point","coordinates":[-74.049584,41.999536]}},{"properties":{"city":"Red Oaks Mill","fy10 veterans":1,"geo_score":0.714,"zip code":"12603","id":"a6m8kpmojsdn","geo_precision":"zip"},"type":"Feature","geometry":{"type":"Point","coordinates":[-73.943749,41.645371]}},{"properties":{"city":"Callicoon","fy10 veterans":1,"geo_score":0.714,"zip code":"12726","id":"a6m8kpp9pceb","geo_precision":"zip"},"type":"Feature","geometry":{"type":"Point","coordinates":[-74.97211,41.707589]}},{"properties":{"city":"Otisville","fy10 veterans":1,"geo_score":0.714,"zip code":"12729","id":"a6m8kpzkpeea","geo_precision":"zip"},"type":"Feature","geometry":{"type":"Point","coordinates":[-74.697662,41.53537]}},{"properties":{"city":"Eldred","fy10 veterans":1,"geo_score":0.857,"zip code":"12732","id":"a6m8kptwtiw4","geo_precision":"zip"},"type":"Feature","geometry":{"type":"Point","coordinates":[-74.845788,41.517426]}},{"properties":{"city":"South Fallsburg","fy10 veterans":2,"geo_score":0.724,"zip code":"12747","id":"a6m8kptecc2h","geo_precision":"zip"},"type":"Feature","geometry":{"type":"Point","coordinates":[-74.726066,41.770283]}},{"properties":{"city":"Monticello","fy10 veterans":1,"geo_score":0.736,"zip code":"12749","id":"a6m8kpwx0pyp","geo_precision":"zip"},"type":"Feature","geometry":{"type":"Point","coordinates":[-74.835807,41.687384]}},{"properties":{"city":"Narrowsburg","fy10 veterans":1,"geo_score":0.735,"zip code":"12752","id":"a6m8kq0x97jw","geo_precision":"zip"},"type":"Feature","geometry":{"type":"Point","coordinates":[-74.946306,41.758563]}},{"properties":{"city":"Narrowsburg","fy10 veterans":1,"geo_score":0.727,"zip code":"12764","id":"a6m8kpw4yjv1","geo_precision":"zip"},"type":"Feature","geometry":{"type":"Point","coordinates":[-75.019057,41.616756]}},{"properties":{"city":"Port Jervis","fy10 veterans":2,"geo_score":0.743,"zip code":"12771","id":"a6m8kprw1jyp","geo_precision":"zip"},"type":"Feature","geometry":{"type":"Point","coordinates":[-74.598495,41.343428]}},{"properties":{"city":"Monticello","fy10 veterans":2,"geo_score":0.757,"zip code":"12775","id":"a6m8kpsnym92","geo_precision":"zip"},"type":"Feature","geometry":{"type":"Point","coordinates":[-74.575902,41.619506]}},{"properties":{"city":"Wurtsboro","fy10 veterans":1,"geo_score":0.74,"zip code":"12781","id":"a6m8kpsrv8pb","geo_precision":"zip"},"type":"Feature","geometry":{"type":"Point","coordinates":[-74.755373,41.719016]}},{"properties":{"city":"Jeffersonville","fy10 veterans":1,"geo_score":0.776,"zip code":"12791","id":"a6m8kpzsjy36","geo_precision":"zip"},"type":"Feature","geometry":{"type":"Point","coordinates":[-74.746874,41.695449]}},{"properties":{"city":"Saratoga Springs","fy10 veterans":1,"geo_score":0.733,"zip code":"12866","id":"a6m8kpon45z4","geo_precision":"zip"},"type":"Feature","geometry":{"type":"Point","coordinates":[-73.758175,43.067575]}},{"properties":{"city":"Plattsburgh","fy10 veterans":1,"geo_score":0.714,"zip code":"12901","id":"a6m8kpzbgubn","geo_precision":"zip"},"type":"Feature","geometry":{"type":"Point","coordinates":[-73.411801,44.722543]}},{"properties":{"city":"Tupper Lake","fy10 veterans":1,"geo_score":0.714,"zip code":"12986","id":"a6m8kpmcszbv","geo_precision":"zip"},"type":"Feature","geometry":{"type":"Point","coordinates":[-74.484892,44.227838]}},{"properties":{"city":"Manlius","fy10 veterans":2,"geo_score":0.73,"zip code":"13104","id":"a6m8kpo27a3m","geo_precision":"zip"},"type":"Feature","geometry":{"type":"Point","coordinates":[-75.982142,42.950067]}},{"properties":{"city":"Rome","fy10 veterans":2,"geo_score":0.741,"zip code":"13440","id":"a6m8kpuvqlz0","geo_precision":"zip"},"type":"Feature","geometry":{"type":"Point","coordinates":[-75.414896,43.250903]}},{"properties":{"city":"Utica","fy10 veterans":1,"geo_score":0.746,"zip code":"13502","id":"a6m8kq1pngrf","geo_precision":"zip"},"type":"Feature","geometry":{"type":"Point","coordinates":[-75.125995,43.225625]}},{"properties":{"city":"Sackets Harbor","fy10 veterans":1,"geo_score":0.79,"zip code":"13651","id":"a6m8kprwk42e","geo_precision":"zip"},"type":"Feature","geometry":{"type":"Point","coordinates":[-76.180886,43.870842]}},{"properties":{"city":"Bainbridge","fy10 veterans":1,"geo_score":0.816,"zip code":"13733","id":"a6m8kpx2tf42","geo_precision":"zip"},"type":"Feature","geometry":{"type":"Point","coordinates":[-75.543517,42.313967]}},{"properties":{"city":"Candor","fy10 veterans":1,"geo_score":0.8,"zip code":"13743","id":"a6m8kpyshh0e","geo_precision":"zip"},"type":"Feature","geometry":{"type":"Point","coordinates":[-76.417716,42.220352]}},{"properties":{"city":"Greene","fy10 veterans":1,"geo_score":0.74,"zip code":"13746","id":"a6m8kpox06by","geo_precision":"zip"},"type":"Feature","geometry":{"type":"Point","coordinates":[-75.773803,42.249243]}},{"properties":{"city":"Franklin","fy10 veterans":1,"geo_score":0.732,"zip code":"13775","id":"a6m8kpmq3zl4","geo_precision":"zip"},"type":"Feature","geometry":{"type":"Point","coordinates":[-75.127389,42.359804]}},{"properties":{"city":"Hancock","fy10 veterans":1,"geo_score":0.729,"zip code":"13783","id":"a6m8kpru1g2g","geo_precision":"zip"},"type":"Feature","geometry":{"type":"Point","coordinates":[-75.349897,41.95703]}},{"properties":{"city":"Mount Upton","fy10 veterans":1,"geo_score":0.729,"zip code":"13809","id":"a6m8kpqa5tyu","geo_precision":"zip"},"type":"Feature","geometry":{"type":"Point","coordinates":[-75.407678,42.378134]}},{"properties":{"city":"Norwich","fy10 veterans":1,"geo_score":0.729,"zip code":"13815","id":"a6m8kpt2kkgd","geo_precision":"zip"},"type":"Feature","geometry":{"type":"Point","coordinates":[-75.473513,42.519518]}},{"properties":{"city":"Oneonta","fy10 veterans":1,"geo_score":0.714,"zip code":"13820","id":"a6m8kq15kczm","geo_precision":"zip"},"type":"Feature","geometry":{"type":"Point","coordinates":[-75.093776,42.46869]}},{"properties":{"city":"Sidney","fy10 veterans":1,"geo_score":0.857,"zip code":"13838","id":"a6m8kpx5pc7l","geo_precision":"zip"},"type":"Feature","geometry":{"type":"Point","coordinates":[-75.391644,42.308884]}},{"properties":{"city":"Windsor","fy10 veterans":1,"geo_score":0.805,"zip code":"13865","id":"a6m8kpw9ofmk","geo_precision":"zip"},"type":"Feature","geometry":{"type":"Point","coordinates":[-75.764078,42.098966]}},{"properties":{"city":"Lancaster","fy10 veterans":1,"geo_score":0.857,"zip code":"14086","id":"a6m8kprmsqsb","geo_precision":"zip"},"type":"Feature","geometry":{"type":"Point","coordinates":[-78.632137,42.907658]}},{"properties":{"city":"Sloan","fy10 veterans":1,"geo_score":0.735,"zip code":"14211","id":"a6m8kpvzg4q4","geo_precision":"zip"},"type":"Feature","geometry":{"type":"Point","coordinates":[-78.819005,42.912257]}},{"properties":{"city":"Sloan","fy10 veterans":1,"geo_score":0.735,"zip code":"14215","id":"a6m8kq22g7zk","geo_precision":"zip"},"type":"Feature","geometry":{"type":"Point","coordinates":[-78.812252,42.932957]}},{"properties":{"city":"Blasdell","fy10 veterans":2,"geo_score":0.857,"zip code":"14219","id":"a6m8kpshncne","geo_precision":"zip"},"type":"Feature","geometry":{"type":"Point","coordinates":[-78.823366,42.797281]}},{"properties":{"city":"Williamsville","fy10 veterans":1,"geo_score":0.769,"zip code":"14221","id":"a6m8kpxvbwh0","geo_precision":"zip"},"type":"Feature","geometry":{"type":"Point","coordinates":[-78.677529,42.964781]}},{"properties":{"city":"Holcomb","fy10 veterans":1,"geo_score":0.752,"zip code":"14469","id":"a6m8kpvbo5ea","geo_precision":"zip"},"type":"Feature","geometry":{"type":"Point","coordinates":[-77.389432,42.861176]}},{"properties":{"city":"Spencerport","fy10 veterans":1,"geo_score":0.74,"zip code":"14559","id":"a6m8kpuiw7rv","geo_precision":"zip"},"type":"Feature","geometry":{"type":"Point","coordinates":[-77.855287,43.151728]}},{"properties":{"city":"Greece","fy10 veterans":1,"geo_score":0.792,"zip code":"14626","id":"a6m8kppw4809","geo_precision":"zip"},"type":"Feature","geometry":{"type":"Point","coordinates":[-77.73195,43.190895]}},{"properties":{"city":"Jamestown","fy10 veterans":2,"geo_score":0.714,"zip code":"14701","id":"a6m8kpoj85y5","geo_precision":"zip"},"type":"Feature","geometry":{"type":"Point","coordinates":[-79.301993,42.118113]}},{"properties":{"city":"Arkport","fy10 veterans":1,"geo_score":0.724,"zip code":"14807","id":"a6m8kpshz3wh","geo_precision":"zip"},"type":"Feature","geometry":{"type":"Point","coordinates":[-77.653881,42.46979]}},{"properties":{"city":"Bath","fy10 veterans":1,"geo_score":0.714,"zip code":"14810","id":"a6m8kq0wzk7k","geo_precision":"zip"},"type":"Feature","geometry":{"type":"Point","coordinates":[-77.332481,42.430349]}},{"properties":{"city":"Hornell","fy10 veterans":1,"geo_score":0.798,"zip code":"14843","id":"a6m8kpufou7g","geo_precision":"zip"},"type":"Feature","geometry":{"type":"Point","coordinates":[-77.655824,42.302015]}},{"properties":{"city":"Elmira","fy10 veterans":1,"geo_score":0.857,"zip code":"14901","id":"a6m8kpxqozwt","geo_precision":"zip"},"type":"Feature","geometry":{"type":"Point","coordinates":[-76.71857,42.082585]}}],"is_temporal":false,"author":{"url":"","metadata":"","contact_name":"","contact_address":"","source":"","contact_phone":""},"source":"","pagination":{"sort":null,"start":0,"total":463,"limit":1000000},"state":"complete","tags":"","published":"2014-08-13T10:27:52-04:00","id":148282}