{"type":"FeatureCollection","data_type":"Dataset","url_type":null,"permissions":[{"permissions":{"download":true,"view":true},"group_id":"everyone"}],"classification":null,"title":"geocommons aap artist members","count":572,"stream_id":148449,"contributor":{"url":"http://geocommons.com/users/29871","name":"aapgh"},"data_attributes":null,"calculation_params":null,"icon_link":null,"link":"http://geocommons.com/overlays/148449.json","extent":[-80.7386,39.597,-79.894,40.1856],"geometry_types":["area"],"unique_name":null,"name":"geocommons aap artist members","feature_count":572,"description":"","next_feature":null,"is_raster":false,"short_classification":"Y","stats":{"zip":{"count":100,"counts_by_value":{"15236":7,"44278":1,"15215":10,"15017":2,"15116":4,"7901":1,"15216":9,"15237":8,"15061":1,"60610":1,"15217":45,"15238":14,"15139":2,"83353":1,"2021":1,"15120":3,"15317":9,"15218":11,"15338":1,"15239":2,"15063":2,"15084":1,"15001":1,"15220":3,"15241":14,"15219":1,"33401":1,"59801":1,"44460":1,"15085":3,"15101":5,"15221":18,"15122":1,"15341":1,"15044":3,"15143":8,"15065":3,"15003":1,"15102":8,"15201":22,"44420":1,"15024":1,"15342":2,"15243":4,"15144":1,"15363":1,"15301":6,"15202":5,"15223":1,"15025":1,"15046":2,"49534":1,"6378":1,"15401":3,"15005":1,"15203":6,"15224":6,"15146":6,"15068":3,"15090":2,"14626":1,"15204":1,"15225":1,"15147":4,"11211":1,"34109":1,"21842":1,"15205":3,"15106":5,"15071":2,"15226":2,"15367":1,"44425":1,"15206":24,"85603":1,"15227":2,"15207":2,"15108":5,"15009":2,"15010":1,"15228":5,"15208":9,"15229":5,"33334":1,"15209":1,"15210":3,"95008":1,"15330":3,"15211":3,"15112":2,"15232":11,"15212":13,"15233":3,"15135":1,"15213":8,"15234":6,"32225":1,"15136":3,"15214":1,"15235":10},"list":["85603","95008","6378","32225","33334","33401","34109","83353","60610","2021","21842","49534","59801","7901","11211","14626","44278","44420","44425","44460","15001","15003","15005","15009","15010","15017","15024","15025","15044","15046","15061","15063","15065","15068","15071","15084","15085","15090","15101","15102","15106","15108","15112","15116","15120","15122","15135","15136","15139","15143","15144","15146","15147","15201","15202","15203","15204","15205","15206","15207","15208","15209","15210","15211","15212","15213","15214","15215","15216","15217","15218","15219","15220","15221","15223","15224","15225","15226","15227","15228","15229","15232","15233","15234","15235","15236","15237","15238","15239","15241","15243","15301","15317","15330","15338","15341","15342","15363","15367","15401"]}},"features":[{"properties":{"zip":"85603","id":"0"},"type":"Feature","geometry":null},{"properties":{"zip":"95008","id":"1"},"type":"Feature","geometry":null},{"properties":{"zip":"6378","id":"2"},"type":"Feature","geometry":null},{"properties":{"zip":"32225","id":"3"},"type":"Feature","geometry":null},{"properties":{"zip":"33334","id":"4"},"type":"Feature","geometry":null},{"properties":{"zip":"33401","id":"5"},"type":"Feature","geometry":null},{"properties":{"zip":"34109","id":"6"},"type":"Feature","geometry":null},{"properties":{"zip":"83353","id":"7"},"type":"Feature","geometry":null},{"properties":{"zip":"60610","id":"8"},"type":"Feature","geometry":null},{"properties":{"zip":"2021","id":"9"},"type":"Feature","geometry":null},{"properties":{"zip":"21842","id":"10"},"type":"Feature","geometry":null},{"properties":{"zip":"49534","id":"11"},"type":"Feature","geometry":null},{"properties":{"zip":"59801","id":"12"},"type":"Feature","geometry":null},{"properties":{"zip":"7901","id":"13"},"type":"Feature","geometry":null},{"properties":{"zip":"11211","id":"14"},"type":"Feature","geometry":null},{"properties":{"zip":"14626","id":"15"},"type":"Feature","geometry":null},{"properties":{"zip":"44278","id":"16"},"type":"Feature","geometry":null},{"properties":{"zip":"44420","id":"17"},"type":"Feature","geometry":null},{"properties":{"zip":"44425","id":"18"},"type":"Feature","geometry":null},{"properties":{"zip":"44460","id":"19"},"type":"Feature","geometry":null},{"properties":{"zip":"15001","id":"20"},"type":"Feature","geometry":null},{"properties":{"zip":"15003","id":"21"},"type":"Feature","geometry":null},{"properties":{"zip":"15005","id":"22"},"type":"Feature","geometry":null},{"properties":{"zip":"15009","id":"23"},"type":"Feature","geometry":null},{"properties":{"zip":"15009","id":"24"},"type":"Feature","geometry":null},{"properties":{"zip":"15010","id":"25"},"type":"Feature","geometry":null},{"properties":{"zip":"15017","id":"26"},"type":"Feature","geometry":null},{"properties":{"zip":"15017","id":"27"},"type":"Feature","geometry":null},{"properties":{"zip":"15024","id":"28"},"type":"Feature","geometry":null},{"properties":{"zip":"15025","id":"29"},"type":"Feature","geometry":null},{"properties":{"zip":"15044","id":"30"},"type":"Feature","geometry":null},{"properties":{"zip":"15044","id":"31"},"type":"Feature","geometry":null},{"properties":{"zip":"15044","id":"32"},"type":"Feature","geometry":null},{"properties":{"zip":"15046","id":"33"},"type":"Feature","geometry":null},{"properties":{"zip":"15046","id":"34"},"type":"Feature","geometry":null},{"properties":{"zip":"15061","id":"35"},"type":"Feature","geometry":null},{"properties":{"zip":"15063","id":"36"},"type":"Feature","geometry":null},{"properties":{"zip":"15063","id":"37"},"type":"Feature","geometry":null},{"properties":{"zip":"15065","id":"38"},"type":"Feature","geometry":null},{"properties":{"zip":"15065","id":"39"},"type":"Feature","geometry":null},{"properties":{"zip":"15065","id":"40"},"type":"Feature","geometry":null},{"properties":{"zip":"15068","id":"41"},"type":"Feature","geometry":null},{"properties":{"zip":"15068","id":"42"},"type":"Feature","geometry":null},{"properties":{"zip":"15068","id":"43"},"type":"Feature","geometry":null},{"properties":{"zip":"15071","id":"44"},"type":"Feature","geometry":null},{"properties":{"zip":"15071","id":"45"},"type":"Feature","geometry":null},{"properties":{"zip":"15084","id":"46"},"type":"Feature","geometry":null},{"properties":{"zip":"15085","id":"47"},"type":"Feature","geometry":null},{"properties":{"zip":"15085","id":"48"},"type":"Feature","geometry":null},{"properties":{"zip":"15085","id":"49"},"type":"Feature","geometry":null},{"properties":{"zip":"15090","id":"50"},"type":"Feature","geometry":null},{"properties":{"zip":"15090","id":"51"},"type":"Feature","geometry":null},{"properties":{"zip":"15101","id":"52"},"type":"Feature","geometry":null},{"properties":{"zip":"15101","id":"53"},"type":"Feature","geometry":null},{"properties":{"zip":"15101","id":"54"},"type":"Feature","geometry":null},{"properties":{"zip":"15101","id":"55"},"type":"Feature","geometry":null},{"properties":{"zip":"15101","id":"56"},"type":"Feature","geometry":null},{"properties":{"zip":"15102","id":"57"},"type":"Feature","geometry":null},{"properties":{"zip":"15102","id":"58"},"type":"Feature","geometry":null},{"properties":{"zip":"15102","id":"59"},"type":"Feature","geometry":null},{"properties":{"zip":"15102","id":"60"},"type":"Feature","geometry":null},{"properties":{"zip":"15102","id":"61"},"type":"Feature","geometry":null},{"properties":{"zip":"15102","id":"62"},"type":"Feature","geometry":null},{"properties":{"zip":"15102","id":"63"},"type":"Feature","geometry":null},{"properties":{"zip":"15102","id":"64"},"type":"Feature","geometry":null},{"properties":{"zip":"15106","id":"65"},"type":"Feature","geometry":null},{"properties":{"zip":"15106","id":"66"},"type":"Feature","geometry":null},{"properties":{"zip":"15106","id":"67"},"type":"Feature","geometry":null},{"properties":{"zip":"15106","id":"68"},"type":"Feature","geometry":null},{"properties":{"zip":"15106","id":"69"},"type":"Feature","geometry":null},{"properties":{"zip":"15108","id":"70"},"type":"Feature","geometry":null},{"properties":{"zip":"15108","id":"71"},"type":"Feature","geometry":null},{"properties":{"zip":"15108","id":"72"},"type":"Feature","geometry":null},{"properties":{"zip":"15108","id":"73"},"type":"Feature","geometry":null},{"properties":{"zip":"15108","id":"74"},"type":"Feature","geometry":null},{"properties":{"zip":"15112","id":"75"},"type":"Feature","geometry":null},{"properties":{"zip":"15112","id":"76"},"type":"Feature","geometry":null},{"properties":{"zip":"15116","id":"77"},"type":"Feature","geometry":null},{"properties":{"zip":"15116","id":"78"},"type":"Feature","geometry":null},{"properties":{"zip":"15116","id":"79"},"type":"Feature","geometry":null},{"properties":{"zip":"15116","id":"80"},"type":"Feature","geometry":null},{"properties":{"zip":"15120","id":"81"},"type":"Feature","geometry":null},{"properties":{"zip":"15120","id":"82"},"type":"Feature","geometry":null},{"properties":{"zip":"15120","id":"83"},"type":"Feature","geometry":null},{"properties":{"zip":"15122","id":"84"},"type":"Feature","geometry":null},{"properties":{"zip":"15135","id":"85"},"type":"Feature","geometry":null},{"properties":{"zip":"15136","id":"86"},"type":"Feature","geometry":null},{"properties":{"zip":"15136","id":"87"},"type":"Feature","geometry":null},{"properties":{"zip":"15136","id":"88"},"type":"Feature","geometry":null},{"properties":{"zip":"15139","id":"89"},"type":"Feature","geometry":null},{"properties":{"zip":"15139","id":"90"},"type":"Feature","geometry":null},{"properties":{"zip":"15143","id":"91"},"type":"Feature","geometry":null},{"properties":{"zip":"15143","id":"92"},"type":"Feature","geometry":null},{"properties":{"zip":"15143","id":"93"},"type":"Feature","geometry":null},{"properties":{"zip":"15143","id":"94"},"type":"Feature","geometry":null},{"properties":{"zip":"15143","id":"95"},"type":"Feature","geometry":null},{"properties":{"zip":"15143","id":"96"},"type":"Feature","geometry":null},{"properties":{"zip":"15143","id":"97"},"type":"Feature","geometry":null},{"properties":{"zip":"15143","id":"98"},"type":"Feature","geometry":null},{"properties":{"zip":"15144","id":"99"},"type":"Feature","geometry":null},{"properties":{"zip":"15146","id":"100"},"type":"Feature","geometry":null},{"properties":{"zip":"15146","id":"101"},"type":"Feature","geometry":null},{"properties":{"zip":"15146","id":"102"},"type":"Feature","geometry":null},{"properties":{"zip":"15146","id":"103"},"type":"Feature","geometry":null},{"properties":{"zip":"15146","id":"104"},"type":"Feature","geometry":null},{"properties":{"zip":"15146","id":"105"},"type":"Feature","geometry":null},{"properties":{"zip":"15147","id":"106"},"type":"Feature","geometry":null},{"properties":{"zip":"15147","id":"107"},"type":"Feature","geometry":null},{"properties":{"zip":"15147","id":"108"},"type":"Feature","geometry":null},{"properties":{"zip":"15147","id":"109"},"type":"Feature","geometry":null},{"properties":{"zip":"15201","id":"110"},"type":"Feature","geometry":null},{"properties":{"zip":"15201","id":"111"},"type":"Feature","geometry":null},{"properties":{"zip":"15201","id":"112"},"type":"Feature","geometry":null},{"properties":{"zip":"15201","id":"113"},"type":"Feature","geometry":null},{"properties":{"zip":"15201","id":"114"},"type":"Feature","geometry":null},{"properties":{"zip":"15201","id":"115"},"type":"Feature","geometry":null},{"properties":{"zip":"15201","id":"116"},"type":"Feature","geometry":null},{"properties":{"zip":"15201","id":"117"},"type":"Feature","geometry":null},{"properties":{"zip":"15201","id":"118"},"type":"Feature","geometry":null},{"properties":{"zip":"15201","id":"119"},"type":"Feature","geometry":null},{"properties":{"zip":"15201","id":"120"},"type":"Feature","geometry":null},{"properties":{"zip":"15201","id":"121"},"type":"Feature","geometry":null},{"properties":{"zip":"15201","id":"122"},"type":"Feature","geometry":null},{"properties":{"zip":"15201","id":"123"},"type":"Feature","geometry":null},{"properties":{"zip":"15201","id":"124"},"type":"Feature","geometry":null},{"properties":{"zip":"15201","id":"125"},"type":"Feature","geometry":null},{"properties":{"zip":"15201","id":"126"},"type":"Feature","geometry":null},{"properties":{"zip":"15201","id":"127"},"type":"Feature","geometry":null},{"properties":{"zip":"15201","id":"128"},"type":"Feature","geometry":null},{"properties":{"zip":"15201","id":"129"},"type":"Feature","geometry":null},{"properties":{"zip":"15201","id":"130"},"type":"Feature","geometry":null},{"properties":{"zip":"15201","id":"131"},"type":"Feature","geometry":null},{"properties":{"zip":"15202","id":"132"},"type":"Feature","geometry":null},{"properties":{"zip":"15202","id":"133"},"type":"Feature","geometry":null},{"properties":{"zip":"15202","id":"134"},"type":"Feature","geometry":null},{"properties":{"zip":"15202","id":"135"},"type":"Feature","geometry":null},{"properties":{"zip":"15202","id":"136"},"type":"Feature","geometry":null},{"properties":{"zip":"15203","id":"137"},"type":"Feature","geometry":null},{"properties":{"zip":"15203","id":"138"},"type":"Feature","geometry":null},{"properties":{"zip":"15203","id":"139"},"type":"Feature","geometry":null},{"properties":{"zip":"15203","id":"140"},"type":"Feature","geometry":null},{"properties":{"zip":"15203","id":"141"},"type":"Feature","geometry":null},{"properties":{"zip":"15203","id":"142"},"type":"Feature","geometry":null},{"properties":{"zip":"15204","id":"143"},"type":"Feature","geometry":null},{"properties":{"zip":"15205","id":"144"},"type":"Feature","geometry":null},{"properties":{"zip":"15205","id":"145"},"type":"Feature","geometry":null},{"properties":{"zip":"15205","id":"146"},"type":"Feature","geometry":null},{"properties":{"zip":"15206","id":"147"},"type":"Feature","geometry":null},{"properties":{"zip":"15206","id":"148"},"type":"Feature","geometry":null},{"properties":{"zip":"15206","id":"149"},"type":"Feature","geometry":null},{"properties":{"zip":"15206","id":"150"},"type":"Feature","geometry":null},{"properties":{"zip":"15206","id":"151"},"type":"Feature","geometry":null},{"properties":{"zip":"15206","id":"152"},"type":"Feature","geometry":null},{"properties":{"zip":"15206","id":"153"},"type":"Feature","geometry":null},{"properties":{"zip":"15206","id":"154"},"type":"Feature","geometry":null},{"properties":{"zip":"15206","id":"155"},"type":"Feature","geometry":null},{"properties":{"zip":"15206","id":"156"},"type":"Feature","geometry":null},{"properties":{"zip":"15206","id":"157"},"type":"Feature","geometry":null},{"properties":{"zip":"15206","id":"158"},"type":"Feature","geometry":null},{"properties":{"zip":"15206","id":"159"},"type":"Feature","geometry":null},{"properties":{"zip":"15206","id":"160"},"type":"Feature","geometry":null},{"properties":{"zip":"15206","id":"161"},"type":"Feature","geometry":null},{"properties":{"zip":"15206","id":"162"},"type":"Feature","geometry":null},{"properties":{"zip":"15206","id":"163"},"type":"Feature","geometry":null},{"properties":{"zip":"15206","id":"164"},"type":"Feature","geometry":null},{"properties":{"zip":"15206","id":"165"},"type":"Feature","geometry":null},{"properties":{"zip":"15206","id":"166"},"type":"Feature","geometry":null},{"properties":{"zip":"15206","id":"167"},"type":"Feature","geometry":null},{"properties":{"zip":"15206","id":"168"},"type":"Feature","geometry":null},{"properties":{"zip":"15206","id":"169"},"type":"Feature","geometry":null},{"properties":{"zip":"15206","id":"170"},"type":"Feature","geometry":null},{"properties":{"zip":"15207","id":"171"},"type":"Feature","geometry":null},{"properties":{"zip":"15207","id":"172"},"type":"Feature","geometry":null},{"properties":{"zip":"15208","id":"173"},"type":"Feature","geometry":null},{"properties":{"zip":"15208","id":"174"},"type":"Feature","geometry":null},{"properties":{"zip":"15208","id":"175"},"type":"Feature","geometry":null},{"properties":{"zip":"15208","id":"176"},"type":"Feature","geometry":null},{"properties":{"zip":"15208","id":"177"},"type":"Feature","geometry":null},{"properties":{"zip":"15208","id":"178"},"type":"Feature","geometry":null},{"properties":{"zip":"15208","id":"179"},"type":"Feature","geometry":null},{"properties":{"zip":"15208","id":"180"},"type":"Feature","geometry":null},{"properties":{"zip":"15208","id":"181"},"type":"Feature","geometry":null},{"properties":{"zip":"15209","id":"182"},"type":"Feature","geometry":null},{"properties":{"zip":"15210","id":"183"},"type":"Feature","geometry":null},{"properties":{"zip":"15210","id":"184"},"type":"Feature","geometry":null},{"properties":{"zip":"15210","id":"185"},"type":"Feature","geometry":null},{"properties":{"zip":"15211","id":"186"},"type":"Feature","geometry":null},{"properties":{"zip":"15211","id":"187"},"type":"Feature","geometry":null},{"properties":{"zip":"15211","id":"188"},"type":"Feature","geometry":null},{"properties":{"zip":"15212","id":"189"},"type":"Feature","geometry":null},{"properties":{"zip":"15212","id":"190"},"type":"Feature","geometry":null},{"properties":{"zip":"15212","id":"191"},"type":"Feature","geometry":null},{"properties":{"zip":"15212","id":"192"},"type":"Feature","geometry":null},{"properties":{"zip":"15212","id":"193"},"type":"Feature","geometry":null},{"properties":{"zip":"15212","id":"194"},"type":"Feature","geometry":null},{"properties":{"zip":"15212","id":"195"},"type":"Feature","geometry":null},{"properties":{"zip":"15212","id":"196"},"type":"Feature","geometry":null},{"properties":{"zip":"15212","id":"197"},"type":"Feature","geometry":null},{"properties":{"zip":"15212","id":"198"},"type":"Feature","geometry":null},{"properties":{"zip":"15212","id":"199"},"type":"Feature","geometry":null},{"properties":{"zip":"15212","id":"200"},"type":"Feature","geometry":null},{"properties":{"zip":"15212","id":"201"},"type":"Feature","geometry":null},{"properties":{"zip":"15213","id":"202"},"type":"Feature","geometry":null},{"properties":{"zip":"15213","id":"203"},"type":"Feature","geometry":null},{"properties":{"zip":"15213","id":"204"},"type":"Feature","geometry":null},{"properties":{"zip":"15213","id":"205"},"type":"Feature","geometry":null},{"properties":{"zip":"15213","id":"206"},"type":"Feature","geometry":null},{"properties":{"zip":"15213","id":"207"},"type":"Feature","geometry":null},{"properties":{"zip":"15213","id":"208"},"type":"Feature","geometry":null},{"properties":{"zip":"15213","id":"209"},"type":"Feature","geometry":null},{"properties":{"zip":"15214","id":"210"},"type":"Feature","geometry":null},{"properties":{"zip":"15215","id":"211"},"type":"Feature","geometry":null},{"properties":{"zip":"15215","id":"212"},"type":"Feature","geometry":null},{"properties":{"zip":"15215","id":"213"},"type":"Feature","geometry":null},{"properties":{"zip":"15215","id":"214"},"type":"Feature","geometry":null},{"properties":{"zip":"15215","id":"215"},"type":"Feature","geometry":null},{"properties":{"zip":"15215","id":"216"},"type":"Feature","geometry":null},{"properties":{"zip":"15215","id":"217"},"type":"Feature","geometry":null},{"properties":{"zip":"15215","id":"218"},"type":"Feature","geometry":null},{"properties":{"zip":"15215","id":"219"},"type":"Feature","geometry":null},{"properties":{"zip":"15215","id":"220"},"type":"Feature","geometry":null},{"properties":{"zip":"15216","id":"221"},"type":"Feature","geometry":null},{"properties":{"zip":"15216","id":"222"},"type":"Feature","geometry":null},{"properties":{"zip":"15216","id":"223"},"type":"Feature","geometry":null},{"properties":{"zip":"15216","id":"224"},"type":"Feature","geometry":null},{"properties":{"zip":"15216","id":"225"},"type":"Feature","geometry":null},{"properties":{"zip":"15216","id":"226"},"type":"Feature","geometry":null},{"properties":{"zip":"15216","id":"227"},"type":"Feature","geometry":null},{"properties":{"zip":"15216","id":"228"},"type":"Feature","geometry":null},{"properties":{"zip":"15216","id":"229"},"type":"Feature","geometry":null},{"properties":{"zip":"15217","id":"230"},"type":"Feature","geometry":null},{"properties":{"zip":"15217","id":"231"},"type":"Feature","geometry":null},{"properties":{"zip":"15217","id":"232"},"type":"Feature","geometry":null},{"properties":{"zip":"15217","id":"233"},"type":"Feature","geometry":null},{"properties":{"zip":"15217","id":"234"},"type":"Feature","geometry":null},{"properties":{"zip":"15217","id":"235"},"type":"Feature","geometry":null},{"properties":{"zip":"15217","id":"236"},"type":"Feature","geometry":null},{"properties":{"zip":"15217","id":"237"},"type":"Feature","geometry":null},{"properties":{"zip":"15217","id":"238"},"type":"Feature","geometry":null},{"properties":{"zip":"15217","id":"239"},"type":"Feature","geometry":null},{"properties":{"zip":"15217","id":"240"},"type":"Feature","geometry":null},{"properties":{"zip":"15217","id":"241"},"type":"Feature","geometry":null},{"properties":{"zip":"15217","id":"242"},"type":"Feature","geometry":null},{"properties":{"zip":"15217","id":"243"},"type":"Feature","geometry":null},{"properties":{"zip":"15217","id":"244"},"type":"Feature","geometry":null},{"properties":{"zip":"15217","id":"245"},"type":"Feature","geometry":null},{"properties":{"zip":"15217","id":"246"},"type":"Feature","geometry":null},{"properties":{"zip":"15217","id":"247"},"type":"Feature","geometry":null},{"properties":{"zip":"15217","id":"248"},"type":"Feature","geometry":null},{"properties":{"zip":"15217","id":"249"},"type":"Feature","geometry":null},{"properties":{"zip":"15217","id":"250"},"type":"Feature","geometry":null},{"properties":{"zip":"15217","id":"251"},"type":"Feature","geometry":null},{"properties":{"zip":"15217","id":"252"},"type":"Feature","geometry":null},{"properties":{"zip":"15217","id":"253"},"type":"Feature","geometry":null},{"properties":{"zip":"15217","id":"254"},"type":"Feature","geometry":null},{"properties":{"zip":"15217","id":"255"},"type":"Feature","geometry":null},{"properties":{"zip":"15217","id":"256"},"type":"Feature","geometry":null},{"properties":{"zip":"15217","id":"257"},"type":"Feature","geometry":null},{"properties":{"zip":"15217","id":"258"},"type":"Feature","geometry":null},{"properties":{"zip":"15217","id":"259"},"type":"Feature","geometry":null},{"properties":{"zip":"15217","id":"260"},"type":"Feature","geometry":null},{"properties":{"zip":"15217","id":"261"},"type":"Feature","geometry":null},{"properties":{"zip":"15217","id":"262"},"type":"Feature","geometry":null},{"properties":{"zip":"15217","id":"263"},"type":"Feature","geometry":null},{"properties":{"zip":"15217","id":"264"},"type":"Feature","geometry":null},{"properties":{"zip":"15217","id":"265"},"type":"Feature","geometry":null},{"properties":{"zip":"15217","id":"266"},"type":"Feature","geometry":null},{"properties":{"zip":"15217","id":"267"},"type":"Feature","geometry":null},{"properties":{"zip":"15217","id":"268"},"type":"Feature","geometry":null},{"properties":{"zip":"15217","id":"269"},"type":"Feature","geometry":null},{"properties":{"zip":"15217","id":"270"},"type":"Feature","geometry":null},{"properties":{"zip":"15217","id":"271"},"type":"Feature","geometry":null},{"properties":{"zip":"15217","id":"272"},"type":"Feature","geometry":null},{"properties":{"zip":"15217","id":"273"},"type":"Feature","geometry":null},{"properties":{"zip":"15217","id":"274"},"type":"Feature","geometry":null},{"properties":{"zip":"15218","id":"275"},"type":"Feature","geometry":null},{"properties":{"zip":"15218","id":"276"},"type":"Feature","geometry":null},{"properties":{"zip":"15218","id":"277"},"type":"Feature","geometry":null},{"properties":{"zip":"15218","id":"278"},"type":"Feature","geometry":null},{"properties":{"zip":"15218","id":"279"},"type":"Feature","geometry":null},{"properties":{"zip":"15218","id":"280"},"type":"Feature","geometry":null},{"properties":{"zip":"15218","id":"281"},"type":"Feature","geometry":null},{"properties":{"zip":"15218","id":"282"},"type":"Feature","geometry":null},{"properties":{"zip":"15218","id":"283"},"type":"Feature","geometry":null},{"properties":{"zip":"15218","id":"284"},"type":"Feature","geometry":null},{"properties":{"zip":"15218","id":"285"},"type":"Feature","geometry":null},{"properties":{"zip":"15219","id":"286"},"type":"Feature","geometry":null},{"properties":{"zip":"15220","id":"287"},"type":"Feature","geometry":null},{"properties":{"zip":"15220","id":"288"},"type":"Feature","geometry":null},{"properties":{"zip":"15220","id":"289"},"type":"Feature","geometry":null},{"properties":{"zip":"15221","id":"290"},"type":"Feature","geometry":null},{"properties":{"zip":"15221","id":"291"},"type":"Feature","geometry":null},{"properties":{"zip":"15221","id":"292"},"type":"Feature","geometry":null},{"properties":{"zip":"15221","id":"293"},"type":"Feature","geometry":null},{"properties":{"zip":"15221","id":"294"},"type":"Feature","geometry":null},{"properties":{"zip":"15221","id":"295"},"type":"Feature","geometry":null},{"properties":{"zip":"15221","id":"296"},"type":"Feature","geometry":null},{"properties":{"zip":"15221","id":"297"},"type":"Feature","geometry":null},{"properties":{"zip":"15221","id":"298"},"type":"Feature","geometry":null},{"properties":{"zip":"15221","id":"299"},"type":"Feature","geometry":null},{"properties":{"zip":"15221","id":"300"},"type":"Feature","geometry":null},{"properties":{"zip":"15221","id":"301"},"type":"Feature","geometry":null},{"properties":{"zip":"15221","id":"302"},"type":"Feature","geometry":null},{"properties":{"zip":"15221","id":"303"},"type":"Feature","geometry":null},{"properties":{"zip":"15221","id":"304"},"type":"Feature","geometry":null},{"properties":{"zip":"15221","id":"305"},"type":"Feature","geometry":null},{"properties":{"zip":"15221","id":"306"},"type":"Feature","geometry":null},{"properties":{"zip":"15221","id":"307"},"type":"Feature","geometry":null},{"properties":{"zip":"15223","id":"308"},"type":"Feature","geometry":null},{"properties":{"zip":"15224","id":"309"},"type":"Feature","geometry":null},{"properties":{"zip":"15224","id":"310"},"type":"Feature","geometry":null},{"properties":{"zip":"15224","id":"311"},"type":"Feature","geometry":null},{"properties":{"zip":"15224","id":"312"},"type":"Feature","geometry":null},{"properties":{"zip":"15224","id":"313"},"type":"Feature","geometry":null},{"properties":{"zip":"15224","id":"314"},"type":"Feature","geometry":null},{"properties":{"zip":"15225","id":"315"},"type":"Feature","geometry":null},{"properties":{"zip":"15226","id":"316"},"type":"Feature","geometry":null},{"properties":{"zip":"15226","id":"317"},"type":"Feature","geometry":null},{"properties":{"zip":"15227","id":"318"},"type":"Feature","geometry":null},{"properties":{"zip":"15227","id":"319"},"type":"Feature","geometry":null},{"properties":{"zip":"15228","id":"320"},"type":"Feature","geometry":null},{"properties":{"zip":"15228","id":"321"},"type":"Feature","geometry":null},{"properties":{"zip":"15228","id":"322"},"type":"Feature","geometry":null},{"properties":{"zip":"15228","id":"323"},"type":"Feature","geometry":null},{"properties":{"zip":"15228","id":"324"},"type":"Feature","geometry":null},{"properties":{"zip":"15229","id":"325"},"type":"Feature","geometry":null},{"properties":{"zip":"15229","id":"326"},"type":"Feature","geometry":null},{"properties":{"zip":"15229","id":"327"},"type":"Feature","geometry":null},{"properties":{"zip":"15229","id":"328"},"type":"Feature","geometry":null},{"properties":{"zip":"15229","id":"329"},"type":"Feature","geometry":null},{"properties":{"zip":"15232","id":"330"},"type":"Feature","geometry":null},{"properties":{"zip":"15232","id":"331"},"type":"Feature","geometry":null},{"properties":{"zip":"15232","id":"332"},"type":"Feature","geometry":null},{"properties":{"zip":"15232","id":"333"},"type":"Feature","geometry":null},{"properties":{"zip":"15232","id":"334"},"type":"Feature","geometry":null},{"properties":{"zip":"15232","id":"335"},"type":"Feature","geometry":null},{"properties":{"zip":"15232","id":"336"},"type":"Feature","geometry":null},{"properties":{"zip":"15232","id":"337"},"type":"Feature","geometry":null},{"properties":{"zip":"15232","id":"338"},"type":"Feature","geometry":null},{"properties":{"zip":"15232","id":"339"},"type":"Feature","geometry":null},{"properties":{"zip":"15232","id":"340"},"type":"Feature","geometry":null},{"properties":{"zip":"15233","id":"341"},"type":"Feature","geometry":null},{"properties":{"zip":"15233","id":"342"},"type":"Feature","geometry":null},{"properties":{"zip":"15233","id":"343"},"type":"Feature","geometry":null},{"properties":{"zip":"15234","id":"344"},"type":"Feature","geometry":null},{"properties":{"zip":"15234","id":"345"},"type":"Feature","geometry":null},{"properties":{"zip":"15234","id":"346"},"type":"Feature","geometry":null},{"properties":{"zip":"15234","id":"347"},"type":"Feature","geometry":null},{"properties":{"zip":"15234","id":"348"},"type":"Feature","geometry":null},{"properties":{"zip":"15234","id":"349"},"type":"Feature","geometry":null},{"properties":{"zip":"15235","id":"350"},"type":"Feature","geometry":null},{"properties":{"zip":"15235","id":"351"},"type":"Feature","geometry":null},{"properties":{"zip":"15235","id":"352"},"type":"Feature","geometry":null},{"properties":{"zip":"15235","id":"353"},"type":"Feature","geometry":null},{"properties":{"zip":"15235","id":"354"},"type":"Feature","geometry":null},{"properties":{"zip":"15235","id":"355"},"type":"Feature","geometry":null},{"properties":{"zip":"15235","id":"356"},"type":"Feature","geometry":null},{"properties":{"zip":"15235","id":"357"},"type":"Feature","geometry":null},{"properties":{"zip":"15235","id":"358"},"type":"Feature","geometry":null},{"properties":{"zip":"15235","id":"359"},"type":"Feature","geometry":null},{"properties":{"zip":"15236","id":"360"},"type":"Feature","geometry":null},{"properties":{"zip":"15236","id":"361"},"type":"Feature","geometry":null},{"properties":{"zip":"15236","id":"362"},"type":"Feature","geometry":null},{"properties":{"zip":"15236","id":"363"},"type":"Feature","geometry":null},{"properties":{"zip":"15236","id":"364"},"type":"Feature","geometry":null},{"properties":{"zip":"15236","id":"365"},"type":"Feature","geometry":null},{"properties":{"zip":"15236","id":"366"},"type":"Feature","geometry":null},{"properties":{"zip":"15237","id":"367"},"type":"Feature","geometry":null},{"properties":{"zip":"15237","id":"368"},"type":"Feature","geometry":null},{"properties":{"zip":"15237","id":"369"},"type":"Feature","geometry":null},{"properties":{"zip":"15237","id":"370"},"type":"Feature","geometry":null},{"properties":{"zip":"15237","id":"371"},"type":"Feature","geometry":null},{"properties":{"zip":"15237","id":"372"},"type":"Feature","geometry":null},{"properties":{"zip":"15237","id":"373"},"type":"Feature","geometry":null},{"properties":{"zip":"15237","id":"374"},"type":"Feature","geometry":null},{"properties":{"zip":"15238","id":"375"},"type":"Feature","geometry":null},{"properties":{"zip":"15238","id":"376"},"type":"Feature","geometry":null},{"properties":{"zip":"15238","id":"377"},"type":"Feature","geometry":null},{"properties":{"zip":"15238","id":"378"},"type":"Feature","geometry":null},{"properties":{"zip":"15238","id":"379"},"type":"Feature","geometry":null},{"properties":{"zip":"15238","id":"380"},"type":"Feature","geometry":null},{"properties":{"zip":"15238","id":"381"},"type":"Feature","geometry":null},{"properties":{"zip":"15238","id":"382"},"type":"Feature","geometry":null},{"properties":{"zip":"15238","id":"383"},"type":"Feature","geometry":null},{"properties":{"zip":"15238","id":"384"},"type":"Feature","geometry":null},{"properties":{"zip":"15238","id":"385"},"type":"Feature","geometry":null},{"properties":{"zip":"15238","id":"386"},"type":"Feature","geometry":null},{"properties":{"zip":"15238","id":"387"},"type":"Feature","geometry":null},{"properties":{"zip":"15238","id":"388"},"type":"Feature","geometry":null},{"properties":{"zip":"15239","id":"389"},"type":"Feature","geometry":null},{"properties":{"zip":"15239","id":"390"},"type":"Feature","geometry":null},{"properties":{"zip":"15241","id":"391"},"type":"Feature","geometry":null},{"properties":{"zip":"15241","id":"392"},"type":"Feature","geometry":null},{"properties":{"zip":"15241","id":"393"},"type":"Feature","geometry":null},{"properties":{"zip":"15241","id":"394"},"type":"Feature","geometry":null},{"properties":{"zip":"15241","id":"395"},"type":"Feature","geometry":null},{"properties":{"zip":"15241","id":"396"},"type":"Feature","geometry":null},{"properties":{"zip":"15241","id":"397"},"type":"Feature","geometry":null},{"properties":{"zip":"15241","id":"398"},"type":"Feature","geometry":null},{"properties":{"zip":"15241","id":"399"},"type":"Feature","geometry":null},{"properties":{"zip":"15241","id":"400"},"type":"Feature","geometry":null},{"properties":{"zip":"15241","id":"401"},"type":"Feature","geometry":null},{"properties":{"zip":"15241","id":"402"},"type":"Feature","geometry":null},{"properties":{"zip":"15241","id":"403"},"type":"Feature","geometry":null},{"properties":{"zip":"15241","id":"404"},"type":"Feature","geometry":null},{"properties":{"zip":"15243","id":"405"},"type":"Feature","geometry":null},{"properties":{"zip":"15243","id":"406"},"type":"Feature","geometry":null},{"properties":{"zip":"15243","id":"407"},"type":"Feature","geometry":null},{"properties":{"zip":"15243","id":"408"},"type":"Feature","geometry":null},{"properties":{"zip":"15301","id":"409"},"type":"Feature","geometry":null},{"properties":{"zip":"15301","id":"410"},"type":"Feature","geometry":null},{"properties":{"zip":"15301","id":"411"},"type":"Feature","geometry":null},{"properties":{"zip":"15301","id":"412"},"type":"Feature","geometry":null},{"properties":{"zip":"15301","id":"413"},"type":"Feature","geometry":null},{"properties":{"zip":"15301","id":"414"},"type":"Feature","geometry":null},{"properties":{"zip":"15317","id":"415"},"type":"Feature","geometry":null},{"properties":{"zip":"15317","id":"416"},"type":"Feature","geometry":null},{"properties":{"zip":"15317","id":"417"},"type":"Feature","geometry":null},{"properties":{"zip":"15317","id":"418"},"type":"Feature","geometry":null},{"properties":{"zip":"15317","id":"419"},"type":"Feature","geometry":null},{"properties":{"zip":"15317","id":"420"},"type":"Feature","geometry":null},{"properties":{"zip":"15317","id":"421"},"type":"Feature","geometry":null},{"properties":{"zip":"15317","id":"422"},"type":"Feature","geometry":null},{"properties":{"zip":"15317","id":"423"},"type":"Feature","geometry":null},{"properties":{"zip":"15330","id":"424"},"type":"Feature","geometry":null},{"properties":{"zip":"15330","id":"425"},"type":"Feature","geometry":null},{"properties":{"zip":"15330","id":"426"},"type":"Feature","geometry":null},{"properties":{"zip":"15338","id":"427"},"type":"Feature","geometry":null},{"properties":{"zip":"15341","id":"428"},"type":"Feature","geometry":null},{"properties":{"zip":"15342","id":"429"},"type":"Feature","geometry":null},{"properties":{"zip":"15342","id":"430"},"type":"Feature","geometry":null},{"properties":{"zip":"15363","id":"431"},"type":"Feature","geometry":null},{"properties":{"zip":"15367","id":"432"},"type":"Feature","geometry":null},{"properties":{"zip":"15401","id":"433"},"type":"Feature","geometry":null},{"properties":{"zip":"15401","id":"434"},"type":"Feature","geometry":null},{"properties":{"zip":"15401","id":"435"},"type":"Feature","geometry":null},{"properties":{"zip":"15417","id":"436"},"type":"Feature","geometry":null},{"properties":{"zip":"15419","id":"437"},"type":"Feature","geometry":null},{"properties":{"zip":"15432","id":"438"},"type":"Feature","geometry":null},{"properties":{"zip":"15432","id":"439"},"type":"Feature","geometry":null},{"properties":{"zip":"15501","id":"440"},"type":"Feature","geometry":null},{"properties":{"zip":"15501","id":"441"},"type":"Feature","geometry":null},{"properties":{"zip":"15501","id":"442"},"type":"Feature","geometry":null},{"properties":{"zip":"15501","id":"443"},"type":"Feature","geometry":null},{"properties":{"zip":"15522","id":"444"},"type":"Feature","geometry":null},{"properties":{"zip":"15530","id":"445"},"type":"Feature","geometry":null},{"properties":{"zip":"15601","id":"446"},"type":"Feature","geometry":null},{"properties":{"zip":"15601","id":"447"},"type":"Feature","geometry":null},{"properties":{"zip":"15601","id":"448"},"type":"Feature","geometry":null},{"properties":{"zip":"15601","id":"449"},"type":"Feature","geometry":null},{"properties":{"zip":"15601","id":"450"},"type":"Feature","geometry":null},{"properties":{"zip":"15601","id":"451"},"type":"Feature","geometry":null},{"properties":{"zip":"15601","id":"452"},"type":"Feature","geometry":null},{"properties":{"zip":"15601","id":"453"},"type":"Feature","geometry":null},{"properties":{"zip":"15610","id":"454"},"type":"Feature","geometry":null},{"properties":{"zip":"15613","id":"455"},"type":"Feature","geometry":null},{"properties":{"zip":"15626","id":"456"},"type":"Feature","geometry":null},{"properties":{"zip":"15626","id":"457"},"type":"Feature","geometry":null},{"properties":{"zip":"15627","id":"458"},"type":"Feature","geometry":null},{"properties":{"zip":"15632","id":"459"},"type":"Feature","geometry":null},{"properties":{"zip":"15632","id":"460"},"type":"Feature","geometry":null},{"properties":{"zip":"15632","id":"461"},"type":"Feature","geometry":null},{"properties":{"zip":"15632","id":"462"},"type":"Feature","geometry":null},{"properties":{"zip":"15632","id":"463"},"type":"Feature","geometry":null},{"properties":{"zip":"15642","id":"464"},"type":"Feature","geometry":null},{"properties":{"zip":"15642","id":"465"},"type":"Feature","geometry":null},{"properties":{"zip":"15642","id":"466"},"type":"Feature","geometry":null},{"properties":{"zip":"15644","id":"467"},"type":"Feature","geometry":null},{"properties":{"zip":"15650","id":"468"},"type":"Feature","geometry":null},{"properties":{"zip":"15650","id":"469"},"type":"Feature","geometry":null},{"properties":{"zip":"15658","id":"470"},"type":"Feature","geometry":null},{"properties":{"zip":"15658","id":"471"},"type":"Feature","geometry":null},{"properties":{"zip":"15658","id":"472"},"type":"Feature","geometry":null},{"properties":{"zip":"15658","id":"473"},"type":"Feature","geometry":null},{"properties":{"zip":"15658","id":"474"},"type":"Feature","geometry":null},{"properties":{"zip":"15666","id":"475"},"type":"Feature","geometry":null},{"properties":{"zip":"15666","id":"476"},"type":"Feature","geometry":null},{"properties":{"zip":"15666","id":"477"},"type":"Feature","geometry":null},{"properties":{"zip":"15668","id":"478"},"type":"Feature","geometry":null},{"properties":{"zip":"15668","id":"479"},"type":"Feature","geometry":null},{"properties":{"zip":"15668","id":"480"},"type":"Feature","geometry":null},{"properties":{"zip":"15668","id":"481"},"type":"Feature","geometry":null},{"properties":{"zip":"15668","id":"482"},"type":"Feature","geometry":null},{"properties":{"zip":"15668","id":"483"},"type":"Feature","geometry":null},{"properties":{"zip":"15668","id":"484"},"type":"Feature","geometry":null},{"properties":{"zip":"15670","id":"485"},"type":"Feature","geometry":null},{"properties":{"zip":"15678","id":"486"},"type":"Feature","geometry":null},{"properties":{"zip":"15681","id":"487"},"type":"Feature","geometry":null},{"properties":{"zip":"15690","id":"488"},"type":"Feature","geometry":null},{"properties":{"zip":"15690","id":"489"},"type":"Feature","geometry":null},{"properties":{"zip":"15690","id":"490"},"type":"Feature","geometry":null},{"properties":{"zip":"15693","id":"491"},"type":"Feature","geometry":null},{"properties":{"zip":"15697","id":"492"},"type":"Feature","geometry":null},{"properties":{"zip":"15701","id":"493"},"type":"Feature","geometry":null},{"properties":{"zip":"15701","id":"494"},"type":"Feature","geometry":null},{"properties":{"zip":"15701","id":"495"},"type":"Feature","geometry":null},{"properties":{"zip":"15701","id":"496"},"type":"Feature","geometry":null},{"properties":{"zip":"15701","id":"497"},"type":"Feature","geometry":null},{"properties":{"zip":"15714","id":"498"},"type":"Feature","geometry":null},{"properties":{"zip":"15720","id":"499"},"type":"Feature","geometry":null},{"properties":{"zip":"15732","id":"500"},"type":"Feature","geometry":null},{"properties":{"zip":"15801","id":"501"},"type":"Feature","geometry":null},{"properties":{"zip":"15901","id":"502"},"type":"Feature","geometry":null},{"properties":{"zip":"15926","id":"503"},"type":"Feature","geometry":null},{"properties":{"zip":"15931","id":"504"},"type":"Feature","geometry":null},{"properties":{"zip":"15946","id":"505"},"type":"Feature","geometry":null},{"properties":{"zip":"16001","id":"506"},"type":"Feature","geometry":null},{"properties":{"zip":"16001","id":"507"},"type":"Feature","geometry":null},{"properties":{"zip":"16001","id":"508"},"type":"Feature","geometry":null},{"properties":{"zip":"16001","id":"509"},"type":"Feature","geometry":null},{"properties":{"zip":"16027","id":"510"},"type":"Feature","geometry":null},{"properties":{"zip":"16037","id":"511"},"type":"Feature","geometry":null},{"properties":{"zip":"16046","id":"512"},"type":"Feature","geometry":null},{"properties":{"zip":"16050","id":"513"},"type":"Feature","geometry":null},{"properties":{"zip":"16055","id":"514"},"type":"Feature","geometry":null},{"properties":{"zip":"16055","id":"515"},"type":"Feature","geometry":null},{"properties":{"zip":"16056","id":"516"},"type":"Feature","geometry":null},{"properties":{"zip":"16057","id":"517"},"type":"Feature","geometry":null},{"properties":{"zip":"16057","id":"518"},"type":"Feature","geometry":null},{"properties":{"zip":"16057","id":"519"},"type":"Feature","geometry":null},{"properties":{"zip":"16059","id":"520"},"type":"Feature","geometry":null},{"properties":{"zip":"16066","id":"521"},"type":"Feature","geometry":null},{"properties":{"zip":"16066","id":"522"},"type":"Feature","geometry":null},{"properties":{"zip":"16066","id":"523"},"type":"Feature","geometry":null},{"properties":{"zip":"16117","id":"524"},"type":"Feature","geometry":null},{"properties":{"zip":"16127","id":"525"},"type":"Feature","geometry":null},{"properties":{"zip":"16127","id":"526"},"type":"Feature","geometry":null},{"properties":{"zip":"16142","id":"527"},"type":"Feature","geometry":null},{"properties":{"zip":"16148","id":"528"},"type":"Feature","geometry":null},{"properties":{"zip":"16222","id":"529"},"type":"Feature","geometry":null},{"properties":{"zip":"16222","id":"530"},"type":"Feature","geometry":null},{"properties":{"zip":"16246","id":"531"},"type":"Feature","geometry":null},{"properties":{"zip":"16248","id":"532"},"type":"Feature","geometry":null},{"properties":{"zip":"16256","id":"533"},"type":"Feature","geometry":null},{"properties":{"zip":"16323","id":"534"},"type":"Feature","geometry":null},{"properties":{"zip":"16335","id":"535"},"type":"Feature","geometry":null},{"properties":{"zip":"16403","id":"536"},"type":"Feature","geometry":null},{"properties":{"zip":"16412","id":"537"},"type":"Feature","geometry":null},{"properties":{"zip":"16412","id":"538"},"type":"Feature","geometry":null},{"properties":{"zip":"16412","id":"539"},"type":"Feature","geometry":null},{"properties":{"zip":"16412","id":"540"},"type":"Feature","geometry":null},{"properties":{"zip":"16412","id":"541"},"type":"Feature","geometry":null},{"properties":{"zip":"16415","id":"542"},"type":"Feature","geometry":null},{"properties":{"zip":"16415","id":"543"},"type":"Feature","geometry":null},{"properties":{"zip":"16417","id":"544"},"type":"Feature","geometry":null},{"properties":{"zip":"16426","id":"545"},"type":"Feature","geometry":null},{"properties":{"zip":"16440","id":"546"},"type":"Feature","geometry":null},{"properties":{"zip":"16501","id":"547"},"type":"Feature","geometry":null},{"properties":{"zip":"16502","id":"548"},"type":"Feature","geometry":null},{"properties":{"zip":"16505","id":"549"},"type":"Feature","geometry":null},{"properties":{"zip":"16505","id":"550"},"type":"Feature","geometry":null},{"properties":{"zip":"16509","id":"551"},"type":"Feature","geometry":null},{"properties":{"zip":"16509","id":"552"},"type":"Feature","geometry":null},{"properties":{"zip":"16512","id":"553"},"type":"Feature","geometry":null},{"properties":{"zip":"16601","id":"554"},"type":"Feature","geometry":null},{"properties":{"zip":"16635","id":"555"},"type":"Feature","geometry":null},{"properties":{"zip":"16655","id":"556"},"type":"Feature","geometry":null},{"properties":{"zip":"16827","id":"557"},"type":"Feature","geometry":null},{"properties":{"zip":"16866","id":"558"},"type":"Feature","geometry":null},{"properties":{"zip":"17257","id":"559"},"type":"Feature","geometry":null},{"properties":{"zip":"17837","id":"560"},"type":"Feature","geometry":null},{"properties":{"zip":"18901","id":"561"},"type":"Feature","geometry":null},{"properties":{"zip":"18966","id":"562"},"type":"Feature","geometry":null},{"properties":{"zip":"19010","id":"563"},"type":"Feature","geometry":null},{"properties":{"zip":"20176","id":"564"},"type":"Feature","geometry":null},{"properties":{"zip":"22201","id":"565"},"type":"Feature","geometry":null},{"properties":{"zip":"98201","id":"566"},"type":"Feature","geometry":null},{"properties":{"zip":"26003","id":"567"},"type":"Feature","geometry":{"type":"Polygon","coordinates":[[[-80.682008,40.185495],[-80.67756,40.182983],[-80.677,40.182759],[-80.673368,40.182599],[-80.66948,40.183287],[-80.666616,40.185527],[-80.663943,40.185607],[-80.662407,40.182012],[-80.66428,40.178599],[-80.661109,40.17843],[-80.647447,40.177959],[-80.624437,40.177207],[-80.60578,40.177063],[-80.59962,40.170359],[-80.599316,40.168759],[-80.602132,40.166183],[-80.600852,40.165143],[-80.596372,40.163175],[-80.594308,40.162967],[-80.590243,40.164855],[-80.585283,40.168215],[-80.584387,40.170967],[-80.581091,40.170343],[-80.573059,40.164808],[-80.566962,40.164696],[-80.560626,40.161912],[-80.559906,40.149992],[-80.55893,40.147],[-80.560658,40.145672],[-80.580787,40.140808],[-80.581763,40.139576],[-80.581603,40.138728],[-80.582931,40.134392],[-80.585043,40.13044],[-80.594324,40.127528],[-80.59786,40.128744],[-80.600788,40.128616],[-80.607621,40.124936],[-80.612197,40.121144],[-80.614133,40.120664],[-80.62591,40.124232],[-80.63071,40.1274],[-80.636662,40.128536],[-80.637526,40.126744],[-80.640214,40.125416],[-80.649239,40.125192],[-80.657495,40.122072],[-80.661464,40.118904],[-80.662632,40.116168],[-80.663416,40.11196],[-80.663064,40.111896],[-80.655479,40.112056],[-80.651099,40.111672],[-80.646823,40.110392],[-80.63855,40.110248],[-80.637382,40.11052],[-80.63111,40.114232],[-80.622357,40.116008],[-80.615637,40.114808],[-80.612629,40.11356],[-80.612869,40.10836],[-80.616661,40.103592],[-80.617077,40.098008],[-80.617797,40.095512],[-80.619029,40.094024],[-80.620149,40.093448],[-80.621158,40.094536],[-80.624182,40.09516],[-80.629654,40.092168],[-80.632886,40.087976],[-80.633318,40.086824],[-80.633366,40.083328],[-80.632374,40.073577],[-80.63535,40.071369],[-80.638135,40.067705],[-80.642935,40.057433],[-80.64484,40.05518],[-80.643607,40.050601],[-80.642599,40.048573],[-80.638499,40.047173],[-80.636907,40.047234],[-80.626534,40.043625],[-80.619766,40.044329],[-80.609237,40.042217],[-80.609157,40.041865],[-80.610581,40.040889],[-80.609221,40.036265],[-80.607779,40.034461],[-80.604085,40.032777],[-80.601301,40.032217],[-80.599413,40.032633],[-80.598965,40.032985],[-80.598997,40.033897],[-80.594372,40.036233],[-80.58434,40.033097],[-80.583556,40.031401],[-80.584564,40.026346],[-80.58402,40.025642],[-80.579059,40.029242],[-80.577267,40.034121],[-80.578643,40.037065],[-80.576579,40.038649],[-80.572819,40.039081],[-80.570627,40.037721],[-80.570883,40.036681],[-80.573267,40.034745],[-80.573475,40.034025],[-80.573267,40.033417],[-80.571731,40.03265],[-80.570227,40.032378],[-80.566819,40.033034],[-80.562642,40.035386],[-80.556354,40.033626],[-80.544481,40.023098],[-80.543313,40.022698],[-80.544033,40.021402],[-80.546994,40.021098],[-80.552098,40.022314],[-80.55445,40.024138],[-80.558002,40.024282],[-80.56181,40.022074],[-80.558354,40.01961],[-80.556914,40.01657],[-80.560514,40.009546],[-80.562771,40.008522],[-80.567123,40.009162],[-80.569075,40.008138],[-80.569651,40.005738],[-80.56887,39.995559],[-80.566965,39.984986],[-80.564704,39.980708],[-80.560718,39.976314],[-80.562116,39.971988],[-80.563336,39.97105],[-80.568631,39.970638],[-80.581361,39.966884],[-80.58252,39.964984],[-80.576262,39.962993],[-80.576438,39.962585],[-80.583144,39.964206],[-80.585643,39.965258],[-80.589955,39.964754],[-80.591055,39.9629],[-80.590935,39.961641],[-80.591678,39.960771],[-80.595098,39.959031],[-80.599558,39.958434],[-80.600808,39.959899],[-80.601137,39.963286],[-80.603102,39.96626],[-80.605066,39.967633],[-80.611402,39.969232],[-80.615297,39.968201],[-80.616964,39.968405],[-80.619016,39.969113],[-80.620416,39.970806],[-80.628855,39.975018],[-80.621304,39.96655],[-80.619519,39.965544],[-80.616991,39.96495],[-80.615144,39.961541],[-80.614637,39.959093],[-80.614602,39.952021],[-80.620749,39.941537],[-80.62676,39.938251],[-80.633656,39.937403],[-80.637705,39.934203],[-80.637433,39.932667],[-80.639449,39.930667],[-80.644473,39.932971],[-80.644873,39.934619],[-80.646633,39.937355],[-80.647257,39.937931],[-80.650841,39.938891],[-80.655033,39.944811],[-80.661306,39.947883],[-80.656249,39.952635],[-80.655737,39.959978],[-80.662073,39.970138],[-80.666073,39.971626],[-80.668153,39.974122],[-80.667673,39.976058],[-80.670217,39.978666],[-80.673722,39.97985],[-80.673529,39.985514],[-80.676121,39.989146],[-80.685658,39.992985],[-80.684218,39.995465],[-80.684234,39.996249],[-80.69377,40.001449],[-80.69649,40.001865],[-80.700619,39.999929],[-80.706699,39.999785],[-80.708523,40.001865],[-80.719132,40.005785],[-80.725852,40.009225],[-80.727388,40.012169],[-80.72694,40.016297],[-80.721692,40.019849],[-80.7203,40.023049],[-80.723084,40.028393],[-80.725916,40.028137],[-80.723068,40.032569],[-80.728405,40.032934],[-80.728476,40.032937],[-80.733304,40.033272],[-80.731504,40.037472],[-80.730904,40.046672],[-80.730904,40.049172],[-80.733104,40.058772],[-80.734304,40.059672],[-80.737104,40.064972],[-80.738504,40.071472],[-80.738604,40.075672],[-80.736804,40.080072],[-80.730704,40.086472],[-80.713003,40.096872],[-80.710203,40.099572],[-80.709102,40.101472],[-80.707702,40.105372],[-80.706702,40.110872],[-80.7067165985402,40.1109887883212],[-80.7067487275222,40.1112458201778],[-80.707002,40.113272],[-80.708106,40.117256],[-80.708484758024,40.1177036231192],[-80.70881,40.118088],[-80.710554,40.125271],[-80.7105495486587,40.1253843700998],[-80.710042,40.138311],[-80.707322,40.144999],[-80.706002349073,40.1515495564087],[-80.705994,40.151591],[-80.7059792588887,40.1516252264883],[-80.7054059429115,40.1529563739296],[-80.704602,40.154823],[-80.7032318709574,40.1568104105755],[-80.686137,40.181607],[-80.683705,40.184215],[-80.682008,40.185495]]]}},{"properties":{"zip":"26003","id":"568"},"type":"Feature","geometry":{"type":"Polygon","coordinates":[[[-80.682008,40.185495],[-80.67756,40.182983],[-80.677,40.182759],[-80.673368,40.182599],[-80.66948,40.183287],[-80.666616,40.185527],[-80.663943,40.185607],[-80.662407,40.182012],[-80.66428,40.178599],[-80.661109,40.17843],[-80.647447,40.177959],[-80.624437,40.177207],[-80.60578,40.177063],[-80.59962,40.170359],[-80.599316,40.168759],[-80.602132,40.166183],[-80.600852,40.165143],[-80.596372,40.163175],[-80.594308,40.162967],[-80.590243,40.164855],[-80.585283,40.168215],[-80.584387,40.170967],[-80.581091,40.170343],[-80.573059,40.164808],[-80.566962,40.164696],[-80.560626,40.161912],[-80.559906,40.149992],[-80.55893,40.147],[-80.560658,40.145672],[-80.580787,40.140808],[-80.581763,40.139576],[-80.581603,40.138728],[-80.582931,40.134392],[-80.585043,40.13044],[-80.594324,40.127528],[-80.59786,40.128744],[-80.600788,40.128616],[-80.607621,40.124936],[-80.612197,40.121144],[-80.614133,40.120664],[-80.62591,40.124232],[-80.63071,40.1274],[-80.636662,40.128536],[-80.637526,40.126744],[-80.640214,40.125416],[-80.649239,40.125192],[-80.657495,40.122072],[-80.661464,40.118904],[-80.662632,40.116168],[-80.663416,40.11196],[-80.663064,40.111896],[-80.655479,40.112056],[-80.651099,40.111672],[-80.646823,40.110392],[-80.63855,40.110248],[-80.637382,40.11052],[-80.63111,40.114232],[-80.622357,40.116008],[-80.615637,40.114808],[-80.612629,40.11356],[-80.612869,40.10836],[-80.616661,40.103592],[-80.617077,40.098008],[-80.617797,40.095512],[-80.619029,40.094024],[-80.620149,40.093448],[-80.621158,40.094536],[-80.624182,40.09516],[-80.629654,40.092168],[-80.632886,40.087976],[-80.633318,40.086824],[-80.633366,40.083328],[-80.632374,40.073577],[-80.63535,40.071369],[-80.638135,40.067705],[-80.642935,40.057433],[-80.64484,40.05518],[-80.643607,40.050601],[-80.642599,40.048573],[-80.638499,40.047173],[-80.636907,40.047234],[-80.626534,40.043625],[-80.619766,40.044329],[-80.609237,40.042217],[-80.609157,40.041865],[-80.610581,40.040889],[-80.609221,40.036265],[-80.607779,40.034461],[-80.604085,40.032777],[-80.601301,40.032217],[-80.599413,40.032633],[-80.598965,40.032985],[-80.598997,40.033897],[-80.594372,40.036233],[-80.58434,40.033097],[-80.583556,40.031401],[-80.584564,40.026346],[-80.58402,40.025642],[-80.579059,40.029242],[-80.577267,40.034121],[-80.578643,40.037065],[-80.576579,40.038649],[-80.572819,40.039081],[-80.570627,40.037721],[-80.570883,40.036681],[-80.573267,40.034745],[-80.573475,40.034025],[-80.573267,40.033417],[-80.571731,40.03265],[-80.570227,40.032378],[-80.566819,40.033034],[-80.562642,40.035386],[-80.556354,40.033626],[-80.544481,40.023098],[-80.543313,40.022698],[-80.544033,40.021402],[-80.546994,40.021098],[-80.552098,40.022314],[-80.55445,40.024138],[-80.558002,40.024282],[-80.56181,40.022074],[-80.558354,40.01961],[-80.556914,40.01657],[-80.560514,40.009546],[-80.562771,40.008522],[-80.567123,40.009162],[-80.569075,40.008138],[-80.569651,40.005738],[-80.56887,39.995559],[-80.566965,39.984986],[-80.564704,39.980708],[-80.560718,39.976314],[-80.562116,39.971988],[-80.563336,39.97105],[-80.568631,39.970638],[-80.581361,39.966884],[-80.58252,39.964984],[-80.576262,39.962993],[-80.576438,39.962585],[-80.583144,39.964206],[-80.585643,39.965258],[-80.589955,39.964754],[-80.591055,39.9629],[-80.590935,39.961641],[-80.591678,39.960771],[-80.595098,39.959031],[-80.599558,39.958434],[-80.600808,39.959899],[-80.601137,39.963286],[-80.603102,39.96626],[-80.605066,39.967633],[-80.611402,39.969232],[-80.615297,39.968201],[-80.616964,39.968405],[-80.619016,39.969113],[-80.620416,39.970806],[-80.628855,39.975018],[-80.621304,39.96655],[-80.619519,39.965544],[-80.616991,39.96495],[-80.615144,39.961541],[-80.614637,39.959093],[-80.614602,39.952021],[-80.620749,39.941537],[-80.62676,39.938251],[-80.633656,39.937403],[-80.637705,39.934203],[-80.637433,39.932667],[-80.639449,39.930667],[-80.644473,39.932971],[-80.644873,39.934619],[-80.646633,39.937355],[-80.647257,39.937931],[-80.650841,39.938891],[-80.655033,39.944811],[-80.661306,39.947883],[-80.656249,39.952635],[-80.655737,39.959978],[-80.662073,39.970138],[-80.666073,39.971626],[-80.668153,39.974122],[-80.667673,39.976058],[-80.670217,39.978666],[-80.673722,39.97985],[-80.673529,39.985514],[-80.676121,39.989146],[-80.685658,39.992985],[-80.684218,39.995465],[-80.684234,39.996249],[-80.69377,40.001449],[-80.69649,40.001865],[-80.700619,39.999929],[-80.706699,39.999785],[-80.708523,40.001865],[-80.719132,40.005785],[-80.725852,40.009225],[-80.727388,40.012169],[-80.72694,40.016297],[-80.721692,40.019849],[-80.7203,40.023049],[-80.723084,40.028393],[-80.725916,40.028137],[-80.723068,40.032569],[-80.728405,40.032934],[-80.728476,40.032937],[-80.733304,40.033272],[-80.731504,40.037472],[-80.730904,40.046672],[-80.730904,40.049172],[-80.733104,40.058772],[-80.734304,40.059672],[-80.737104,40.064972],[-80.738504,40.071472],[-80.738604,40.075672],[-80.736804,40.080072],[-80.730704,40.086472],[-80.713003,40.096872],[-80.710203,40.099572],[-80.709102,40.101472],[-80.707702,40.105372],[-80.706702,40.110872],[-80.7067165985402,40.1109887883212],[-80.7067487275222,40.1112458201778],[-80.707002,40.113272],[-80.708106,40.117256],[-80.708484758024,40.1177036231192],[-80.70881,40.118088],[-80.710554,40.125271],[-80.7105495486587,40.1253843700998],[-80.710042,40.138311],[-80.707322,40.144999],[-80.706002349073,40.1515495564087],[-80.705994,40.151591],[-80.7059792588887,40.1516252264883],[-80.7054059429115,40.1529563739296],[-80.704602,40.154823],[-80.7032318709574,40.1568104105755],[-80.686137,40.181607],[-80.683705,40.184215],[-80.682008,40.185495]]]}},{"properties":{"zip":"26059","id":"569"},"type":"Feature","geometry":{"type":"Polygon","coordinates":[[[-80.594324,40.127528],[-80.593508,40.126392],[-80.593812,40.123736],[-80.595508,40.123048],[-80.586195,40.115256],[-80.585187,40.113656],[-80.584787,40.11044],[-80.586099,40.107224],[-80.586788,40.102344],[-80.586132,40.092745],[-80.583939,40.085033],[-80.584291,40.081289],[-80.597716,40.074473],[-80.59906,40.073401],[-80.594596,40.073577],[-80.586692,40.071481],[-80.58466,40.069673],[-80.579507,40.067737],[-80.573235,40.066857],[-80.569811,40.067257],[-80.568819,40.069433],[-80.559938,40.074569],[-80.55637,40.071241],[-80.555746,40.069897],[-80.561266,40.069721],[-80.565394,40.067321],[-80.566435,40.066073],[-80.56365,40.064569],[-80.555698,40.054265],[-80.556162,40.048969],[-80.55813,40.045993],[-80.557474,40.045177],[-80.55661,40.044649],[-80.548674,40.043353],[-80.544145,40.043818],[-80.539281,40.04297],[-80.536337,40.041578],[-80.531377,40.03745],[-80.525697,40.036629],[-80.5190828220423,40.0365229431977],[-80.51912,40.01641],[-80.558354,40.01961],[-80.56181,40.022074],[-80.558002,40.024282],[-80.55445,40.024138],[-80.552098,40.022314],[-80.546994,40.021098],[-80.544033,40.021402],[-80.543313,40.022698],[-80.544481,40.023098],[-80.556354,40.033626],[-80.562642,40.035386],[-80.566819,40.033034],[-80.570227,40.032378],[-80.571731,40.03265],[-80.573267,40.033417],[-80.573475,40.034025],[-80.573267,40.034745],[-80.570883,40.036681],[-80.570627,40.037721],[-80.572819,40.039081],[-80.576579,40.038649],[-80.578643,40.037065],[-80.577267,40.034121],[-80.579059,40.029242],[-80.58402,40.025642],[-80.584564,40.026346],[-80.583556,40.031401],[-80.58434,40.033097],[-80.594372,40.036233],[-80.598997,40.033897],[-80.598965,40.032985],[-80.599413,40.032633],[-80.601301,40.032217],[-80.604085,40.032777],[-80.607779,40.034461],[-80.609221,40.036265],[-80.610581,40.040889],[-80.609157,40.041865],[-80.609237,40.042217],[-80.619766,40.044329],[-80.626534,40.043625],[-80.636907,40.047234],[-80.638499,40.047173],[-80.642599,40.048573],[-80.643607,40.050601],[-80.64484,40.05518],[-80.642935,40.057433],[-80.638135,40.067705],[-80.63535,40.071369],[-80.632374,40.073577],[-80.633366,40.083328],[-80.633318,40.086824],[-80.632886,40.087976],[-80.629654,40.092168],[-80.624182,40.09516],[-80.621158,40.094536],[-80.620149,40.093448],[-80.619029,40.094024],[-80.617797,40.095512],[-80.617077,40.098008],[-80.616661,40.103592],[-80.612869,40.10836],[-80.612629,40.11356],[-80.615637,40.114808],[-80.622357,40.116008],[-80.63111,40.114232],[-80.637382,40.11052],[-80.63855,40.110248],[-80.646823,40.110392],[-80.651099,40.111672],[-80.655479,40.112056],[-80.663064,40.111896],[-80.663416,40.11196],[-80.662632,40.116168],[-80.661464,40.118904],[-80.657495,40.122072],[-80.649239,40.125192],[-80.640214,40.125416],[-80.637526,40.126744],[-80.636662,40.128536],[-80.63071,40.1274],[-80.62591,40.124232],[-80.614133,40.120664],[-80.612197,40.121144],[-80.607621,40.124936],[-80.600788,40.128616],[-80.59786,40.128744],[-80.594324,40.127528]]]}},{"properties":{"zip":"26059","id":"570"},"type":"Feature","geometry":{"type":"Polygon","coordinates":[[[-80.594324,40.127528],[-80.593508,40.126392],[-80.593812,40.123736],[-80.595508,40.123048],[-80.586195,40.115256],[-80.585187,40.113656],[-80.584787,40.11044],[-80.586099,40.107224],[-80.586788,40.102344],[-80.586132,40.092745],[-80.583939,40.085033],[-80.584291,40.081289],[-80.597716,40.074473],[-80.59906,40.073401],[-80.594596,40.073577],[-80.586692,40.071481],[-80.58466,40.069673],[-80.579507,40.067737],[-80.573235,40.066857],[-80.569811,40.067257],[-80.568819,40.069433],[-80.559938,40.074569],[-80.55637,40.071241],[-80.555746,40.069897],[-80.561266,40.069721],[-80.565394,40.067321],[-80.566435,40.066073],[-80.56365,40.064569],[-80.555698,40.054265],[-80.556162,40.048969],[-80.55813,40.045993],[-80.557474,40.045177],[-80.55661,40.044649],[-80.548674,40.043353],[-80.544145,40.043818],[-80.539281,40.04297],[-80.536337,40.041578],[-80.531377,40.03745],[-80.525697,40.036629],[-80.5190828220423,40.0365229431977],[-80.51912,40.01641],[-80.558354,40.01961],[-80.56181,40.022074],[-80.558002,40.024282],[-80.55445,40.024138],[-80.552098,40.022314],[-80.546994,40.021098],[-80.544033,40.021402],[-80.543313,40.022698],[-80.544481,40.023098],[-80.556354,40.033626],[-80.562642,40.035386],[-80.566819,40.033034],[-80.570227,40.032378],[-80.571731,40.03265],[-80.573267,40.033417],[-80.573475,40.034025],[-80.573267,40.034745],[-80.570883,40.036681],[-80.570627,40.037721],[-80.572819,40.039081],[-80.576579,40.038649],[-80.578643,40.037065],[-80.577267,40.034121],[-80.579059,40.029242],[-80.58402,40.025642],[-80.584564,40.026346],[-80.583556,40.031401],[-80.58434,40.033097],[-80.594372,40.036233],[-80.598997,40.033897],[-80.598965,40.032985],[-80.599413,40.032633],[-80.601301,40.032217],[-80.604085,40.032777],[-80.607779,40.034461],[-80.609221,40.036265],[-80.610581,40.040889],[-80.609157,40.041865],[-80.609237,40.042217],[-80.619766,40.044329],[-80.626534,40.043625],[-80.636907,40.047234],[-80.638499,40.047173],[-80.642599,40.048573],[-80.643607,40.050601],[-80.64484,40.05518],[-80.642935,40.057433],[-80.638135,40.067705],[-80.63535,40.071369],[-80.632374,40.073577],[-80.633366,40.083328],[-80.633318,40.086824],[-80.632886,40.087976],[-80.629654,40.092168],[-80.624182,40.09516],[-80.621158,40.094536],[-80.620149,40.093448],[-80.619029,40.094024],[-80.617797,40.095512],[-80.617077,40.098008],[-80.616661,40.103592],[-80.612869,40.10836],[-80.612629,40.11356],[-80.615637,40.114808],[-80.622357,40.116008],[-80.63111,40.114232],[-80.637382,40.11052],[-80.63855,40.110248],[-80.646823,40.110392],[-80.651099,40.111672],[-80.655479,40.112056],[-80.663064,40.111896],[-80.663416,40.11196],[-80.662632,40.116168],[-80.661464,40.118904],[-80.657495,40.122072],[-80.649239,40.125192],[-80.640214,40.125416],[-80.637526,40.126744],[-80.636662,40.128536],[-80.63071,40.1274],[-80.62591,40.124232],[-80.614133,40.120664],[-80.612197,40.121144],[-80.607621,40.124936],[-80.600788,40.128616],[-80.59786,40.128744],[-80.594324,40.127528]]]}},{"properties":{"zip":"26505","id":"571"},"type":"Feature","geometry":{"type":"Polygon","coordinates":[[[-79.897108,39.682439],[-79.896101,39.681112],[-79.895852,39.679745],[-79.897214,39.676903],[-79.906124,39.672628],[-79.917474,39.668143],[-79.917977,39.667503],[-79.914987,39.665099],[-79.914663,39.660568],[-79.916205,39.656873],[-79.917479,39.655077],[-79.91136,39.647609],[-79.904782,39.642885],[-79.901662,39.642308],[-79.901112,39.640885],[-79.902336,39.637483],[-79.904932,39.637502],[-79.907303,39.63854],[-79.911197,39.637886],[-79.90977,39.634169],[-79.914208,39.630866],[-79.918634,39.630908],[-79.919533,39.629255],[-79.917283,39.62431],[-79.912277,39.623331],[-79.908461,39.625081],[-79.906937,39.625081],[-79.920507,39.613011],[-79.925153,39.610175],[-79.928261,39.608986],[-79.930184,39.607453],[-79.930983,39.605851],[-79.930953,39.604089],[-79.929978,39.599763],[-79.926027,39.59765],[-79.926843,39.59704],[-79.928647,39.597635],[-79.931835,39.600807],[-79.932255,39.605279],[-79.930805,39.608528],[-79.93184,39.612442],[-79.931248,39.613928],[-79.931395,39.617406],[-79.932645,39.623511],[-79.93184,39.626451],[-79.935179,39.62908],[-79.937966,39.628602],[-79.94329,39.624644],[-79.944888,39.624758],[-79.946223,39.626496],[-79.948561,39.628212],[-79.951816,39.629196],[-79.953059,39.62915],[-79.95445,39.627685],[-79.958296,39.62606],[-79.959302,39.626517],[-79.96099,39.628668],[-79.958298,39.632353],[-79.957736,39.634115],[-79.958122,39.636198],[-79.960668,39.638623],[-79.963421,39.64082],[-79.966056,39.642078],[-79.974789,39.642098],[-79.979259,39.643264],[-79.981302,39.644293],[-79.991668,39.652161],[-79.992617,39.65454],[-79.992323,39.65724],[-79.990727,39.661108],[-79.984039,39.666534],[-79.977708,39.676194],[-79.969773,39.682879],[-79.965953,39.684207],[-79.961659,39.684528],[-79.94987,39.6835],[-79.944836,39.683912],[-79.942175,39.678237],[-79.923095,39.68819],[-79.915986,39.688463],[-79.915097,39.68812],[-79.913587,39.686243],[-79.911681,39.686243],[-79.908669,39.690407],[-79.903277,39.693998],[-79.894834,39.693377],[-79.894006,39.691729],[-79.897268,39.687177],[-79.897861,39.6853],[-79.897891,39.684019],[-79.897108,39.682439]]]}}],"is_temporal":false,"author":{"url":"","metadata":"","contact_name":"","contact_address":"","source":"","contact_phone":""},"source":"","pagination":{"sort":null,"start":0,"total":572,"limit":1000000},"state":"complete","tags":"","published":"2014-08-13T10:39:39-04:00","id":148449}