{"type":"FeatureCollection","data_type":"Dataset","url_type":null,"permissions":[{"permissions":{"download":true,"view":true},"group_id":"everyone"}],"classification":null,"title":"BP_2008_00CZ2","count":50,"stream_id":148950,"contributor":{"url":"http://geocommons.com/users/31910","name":"ronlevi"},"data_attributes":null,"calculation_params":null,"icon_link":null,"link":"http://geocommons.com/overlays/148950.json","extent":[-73.0451,40.8154,-73.0451,40.8154],"geometry_types":["point"],"unique_name":null,"name":"BP_2008_00CZ2","feature_count":50,"description":"","next_feature":null,"is_raster":false,"short_classification":"Y","stats":{"estab":{"max":3,"mean":0.36,"variance":0.439183673469388,"stdev":0.662709343128183,"min":0,"median":0},"year.id":{"max":2008,"mean":2008.0,"variance":0.0,"stdev":0.0,"min":2008,"median":2008},"empszes.id":{"max":260,"mean":216.3,"variance":5474.90816326531,"stdev":73.9926223569979,"min":1,"median":242},"naics.id":{"max":813110,"mean":307095.0,"variance":145143135033.469,"stdev":380976.55444065,"min":0,"median":81}},"features":[{"properties":{"estab":3,"naics.annotation.id":null,"city":"Holtsville","zip":"00501","geo_score":0.857,"year.id":2008,"empszes.id":1,"naics.display-label":"Total for all sectors","empszes.display-label":"All establishments","geo.id":"8610000U","naics.id":0,"id":"a77cxa8uk30z","geo_precision":"zip","state":"NY"},"type":"Feature","geometry":{"type":"Point","coordinates":[-73.0451085,40.8153762]}},{"properties":{"estab":1,"naics.annotation.id":null,"city":"Holtsville","zip":"00501","geo_score":0.857,"year.id":2008,"empszes.id":212,"naics.display-label":"Total for all sectors","empszes.display-label":"Establishments with 1 to 4 employees","geo.id":"8610000U","naics.id":0,"id":"a77cx9xl6wh2","geo_precision":"zip","state":"NY"},"type":"Feature","geometry":{"type":"Point","coordinates":[-73.0451085,40.8153762]}},{"properties":{"estab":1,"naics.annotation.id":null,"city":"Holtsville","zip":"00501","geo_score":0.857,"year.id":2008,"empszes.id":220,"naics.display-label":"Total for all sectors","empszes.display-label":"Establishments with 5 to 9 employees","geo.id":"8610000U","naics.id":0,"id":"a77cxaa7e4v8","geo_precision":"zip","state":"NY"},"type":"Feature","geometry":{"type":"Point","coordinates":[-73.0451085,40.8153762]}},{"properties":{"estab":0,"naics.annotation.id":null,"city":"Holtsville","zip":"00501","geo_score":0.857,"year.id":2008,"empszes.id":230,"naics.display-label":"Total for all sectors","empszes.display-label":"Establishments with 10 to 19 employees","geo.id":"8610000U","naics.id":0,"id":"a77cxa0adyc5","geo_precision":"zip","state":"NY"},"type":"Feature","geometry":{"type":"Point","coordinates":[-73.0451085,40.8153762]}},{"properties":{"estab":1,"naics.annotation.id":null,"city":"Holtsville","zip":"00501","geo_score":0.857,"year.id":2008,"empszes.id":241,"naics.display-label":"Total for all sectors","empszes.display-label":"Establishments with 20 to 49 employees","geo.id":"8610000U","naics.id":0,"id":"a77cx9xf6a2y","geo_precision":"zip","state":"NY"},"type":"Feature","geometry":{"type":"Point","coordinates":[-73.0451085,40.8153762]}},{"properties":{"estab":0,"naics.annotation.id":null,"city":"Holtsville","zip":"00501","geo_score":0.857,"year.id":2008,"empszes.id":242,"naics.display-label":"Total for all sectors","empszes.display-label":"Establishments with 50 to 99 employees","geo.id":"8610000U","naics.id":0,"id":"a77cxa8lbxxz","geo_precision":"zip","state":"NY"},"type":"Feature","geometry":{"type":"Point","coordinates":[-73.0451085,40.8153762]}},{"properties":{"estab":0,"naics.annotation.id":null,"city":"Holtsville","zip":"00501","geo_score":0.857,"year.id":2008,"empszes.id":251,"naics.display-label":"Total for all sectors","empszes.display-label":"Establishments with 100 to 249 employees","geo.id":"8610000U","naics.id":0,"id":"a77cxa9cflyk","geo_precision":"zip","state":"NY"},"type":"Feature","geometry":{"type":"Point","coordinates":[-73.0451085,40.8153762]}},{"properties":{"estab":0,"naics.annotation.id":null,"city":"Holtsville","zip":"00501","geo_score":0.857,"year.id":2008,"empszes.id":252,"naics.display-label":"Total for all sectors","empszes.display-label":"Establishments with 250 to 499 employees","geo.id":"8610000U","naics.id":0,"id":"a77cxa473elx","geo_precision":"zip","state":"NY"},"type":"Feature","geometry":{"type":"Point","coordinates":[-73.0451085,40.8153762]}},{"properties":{"estab":0,"naics.annotation.id":null,"city":"Holtsville","zip":"00501","geo_score":0.857,"year.id":2008,"empszes.id":254,"naics.display-label":"Total for all sectors","empszes.display-label":"Establishments with 500 to 999 employees","geo.id":"8610000U","naics.id":0,"id":"a77cxa1nd50x","geo_precision":"zip","state":"NY"},"type":"Feature","geometry":{"type":"Point","coordinates":[-73.0451085,40.8153762]}},{"properties":{"estab":0,"naics.annotation.id":null,"city":"Holtsville","zip":"00501","geo_score":0.857,"year.id":2008,"empszes.id":260,"naics.display-label":"Total for all sectors","empszes.display-label":"Establishments with 1,000 employees or more","geo.id":"8610000U","naics.id":0,"id":"a77cx9xv6pi9","geo_precision":"zip","state":"NY"},"type":"Feature","geometry":{"type":"Point","coordinates":[-73.0451085,40.8153762]}},{"properties":{"estab":1,"naics.annotation.id":null,"city":"Holtsville","zip":"00501","geo_score":0.857,"year.id":2008,"empszes.id":1,"naics.display-label":"Accommodation and food services","empszes.display-label":"All establishments","geo.id":"8610000U","naics.id":72,"id":"a77cxa14oqyj","geo_precision":"zip","state":"NY"},"type":"Feature","geometry":{"type":"Point","coordinates":[-73.0451085,40.8153762]}},{"properties":{"estab":0,"naics.annotation.id":null,"city":"Holtsville","zip":"00501","geo_score":0.857,"year.id":2008,"empszes.id":212,"naics.display-label":"Accommodation and food services","empszes.display-label":"Establishments with 1 to 4 employees","geo.id":"8610000U","naics.id":72,"id":"a77cxaaurgxr","geo_precision":"zip","state":"NY"},"type":"Feature","geometry":{"type":"Point","coordinates":[-73.0451085,40.8153762]}},{"properties":{"estab":1,"naics.annotation.id":null,"city":"Holtsville","zip":"00501","geo_score":0.857,"year.id":2008,"empszes.id":220,"naics.display-label":"Accommodation and food services","empszes.display-label":"Establishments with 5 to 9 employees","geo.id":"8610000U","naics.id":72,"id":"a77cx9znveg8","geo_precision":"zip","state":"NY"},"type":"Feature","geometry":{"type":"Point","coordinates":[-73.0451085,40.8153762]}},{"properties":{"estab":0,"naics.annotation.id":null,"city":"Holtsville","zip":"00501","geo_score":0.857,"year.id":2008,"empszes.id":230,"naics.display-label":"Accommodation and food services","empszes.display-label":"Establishments with 10 to 19 employees","geo.id":"8610000U","naics.id":72,"id":"a77cxa4vb2hk","geo_precision":"zip","state":"NY"},"type":"Feature","geometry":{"type":"Point","coordinates":[-73.0451085,40.8153762]}},{"properties":{"estab":0,"naics.annotation.id":null,"city":"Holtsville","zip":"00501","geo_score":0.857,"year.id":2008,"empszes.id":241,"naics.display-label":"Accommodation and food services","empszes.display-label":"Establishments with 20 to 49 employees","geo.id":"8610000U","naics.id":72,"id":"a77cxa1lbfn1","geo_precision":"zip","state":"NY"},"type":"Feature","geometry":{"type":"Point","coordinates":[-73.0451085,40.8153762]}},{"properties":{"estab":0,"naics.annotation.id":null,"city":"Holtsville","zip":"00501","geo_score":0.857,"year.id":2008,"empszes.id":242,"naics.display-label":"Accommodation and food services","empszes.display-label":"Establishments with 50 to 99 employees","geo.id":"8610000U","naics.id":72,"id":"a77cxa5m9lk3","geo_precision":"zip","state":"NY"},"type":"Feature","geometry":{"type":"Point","coordinates":[-73.0451085,40.8153762]}},{"properties":{"estab":0,"naics.annotation.id":null,"city":"Holtsville","zip":"00501","geo_score":0.857,"year.id":2008,"empszes.id":251,"naics.display-label":"Accommodation and food services","empszes.display-label":"Establishments with 100 to 249 employees","geo.id":"8610000U","naics.id":72,"id":"a77cx9xy5qbv","geo_precision":"zip","state":"NY"},"type":"Feature","geometry":{"type":"Point","coordinates":[-73.0451085,40.8153762]}},{"properties":{"estab":0,"naics.annotation.id":null,"city":"Holtsville","zip":"00501","geo_score":0.857,"year.id":2008,"empszes.id":252,"naics.display-label":"Accommodation and food services","empszes.display-label":"Establishments with 250 to 499 employees","geo.id":"8610000U","naics.id":72,"id":"a77cx9wzcrf0","geo_precision":"zip","state":"NY"},"type":"Feature","geometry":{"type":"Point","coordinates":[-73.0451085,40.8153762]}},{"properties":{"estab":0,"naics.annotation.id":null,"city":"Holtsville","zip":"00501","geo_score":0.857,"year.id":2008,"empszes.id":254,"naics.display-label":"Accommodation and food services","empszes.display-label":"Establishments with 500 to 999 employees","geo.id":"8610000U","naics.id":72,"id":"a77cxa1wwgb4","geo_precision":"zip","state":"NY"},"type":"Feature","geometry":{"type":"Point","coordinates":[-73.0451085,40.8153762]}},{"properties":{"estab":0,"naics.annotation.id":null,"city":"Holtsville","zip":"00501","geo_score":0.857,"year.id":2008,"empszes.id":260,"naics.display-label":"Accommodation and food services","empszes.display-label":"Establishments with 1,000 employees or more","geo.id":"8610000U","naics.id":72,"id":"a77cxa3qmpkr","geo_precision":"zip","state":"NY"},"type":"Feature","geometry":{"type":"Point","coordinates":[-73.0451085,40.8153762]}},{"properties":{"estab":1,"naics.annotation.id":null,"city":"Holtsville","zip":"00501","geo_score":0.857,"year.id":2008,"empszes.id":1,"naics.display-label":"Cafeterias, grill buffets, and buffets","empszes.display-label":"All establishments","geo.id":"8610000U","naics.id":722212,"id":"a77cxa1g1d4z","geo_precision":"zip","state":"NY"},"type":"Feature","geometry":{"type":"Point","coordinates":[-73.0451085,40.8153762]}},{"properties":{"estab":0,"naics.annotation.id":null,"city":"Holtsville","zip":"00501","geo_score":0.857,"year.id":2008,"empszes.id":212,"naics.display-label":"Cafeterias, grill buffets, and buffets","empszes.display-label":"Establishments with 1 to 4 employees","geo.id":"8610000U","naics.id":722212,"id":"a77cx9wes1oy","geo_precision":"zip","state":"NY"},"type":"Feature","geometry":{"type":"Point","coordinates":[-73.0451085,40.8153762]}},{"properties":{"estab":1,"naics.annotation.id":null,"city":"Holtsville","zip":"00501","geo_score":0.857,"year.id":2008,"empszes.id":220,"naics.display-label":"Cafeterias, grill buffets, and buffets","empszes.display-label":"Establishments with 5 to 9 employees","geo.id":"8610000U","naics.id":722212,"id":"a77cx9zfnuzm","geo_precision":"zip","state":"NY"},"type":"Feature","geometry":{"type":"Point","coordinates":[-73.0451085,40.8153762]}},{"properties":{"estab":0,"naics.annotation.id":null,"city":"Holtsville","zip":"00501","geo_score":0.857,"year.id":2008,"empszes.id":230,"naics.display-label":"Cafeterias, grill buffets, and buffets","empszes.display-label":"Establishments with 10 to 19 employees","geo.id":"8610000U","naics.id":722212,"id":"a77cxa202asu","geo_precision":"zip","state":"NY"},"type":"Feature","geometry":{"type":"Point","coordinates":[-73.0451085,40.8153762]}},{"properties":{"estab":0,"naics.annotation.id":null,"city":"Holtsville","zip":"00501","geo_score":0.857,"year.id":2008,"empszes.id":241,"naics.display-label":"Cafeterias, grill buffets, and buffets","empszes.display-label":"Establishments with 20 to 49 employees","geo.id":"8610000U","naics.id":722212,"id":"a77cx9vrcm8c","geo_precision":"zip","state":"NY"},"type":"Feature","geometry":{"type":"Point","coordinates":[-73.0451085,40.8153762]}},{"properties":{"estab":0,"naics.annotation.id":null,"city":"Holtsville","zip":"00501","geo_score":0.857,"year.id":2008,"empszes.id":242,"naics.display-label":"Cafeterias, grill buffets, and buffets","empszes.display-label":"Establishments with 50 to 99 employees","geo.id":"8610000U","naics.id":722212,"id":"a77cx9vjlo9g","geo_precision":"zip","state":"NY"},"type":"Feature","geometry":{"type":"Point","coordinates":[-73.0451085,40.8153762]}},{"properties":{"estab":0,"naics.annotation.id":null,"city":"Holtsville","zip":"00501","geo_score":0.857,"year.id":2008,"empszes.id":251,"naics.display-label":"Cafeterias, grill buffets, and buffets","empszes.display-label":"Establishments with 100 to 249 employees","geo.id":"8610000U","naics.id":722212,"id":"a77cxa29xc6k","geo_precision":"zip","state":"NY"},"type":"Feature","geometry":{"type":"Point","coordinates":[-73.0451085,40.8153762]}},{"properties":{"estab":0,"naics.annotation.id":null,"city":"Holtsville","zip":"00501","geo_score":0.857,"year.id":2008,"empszes.id":252,"naics.display-label":"Cafeterias, grill buffets, and buffets","empszes.display-label":"Establishments with 250 to 499 employees","geo.id":"8610000U","naics.id":722212,"id":"a77cxa00fv9x","geo_precision":"zip","state":"NY"},"type":"Feature","geometry":{"type":"Point","coordinates":[-73.0451085,40.8153762]}},{"properties":{"estab":0,"naics.annotation.id":null,"city":"Holtsville","zip":"00501","geo_score":0.857,"year.id":2008,"empszes.id":254,"naics.display-label":"Cafeterias, grill buffets, and buffets","empszes.display-label":"Establishments with 500 to 999 employees","geo.id":"8610000U","naics.id":722212,"id":"a77cxa9u15rk","geo_precision":"zip","state":"NY"},"type":"Feature","geometry":{"type":"Point","coordinates":[-73.0451085,40.8153762]}},{"properties":{"estab":0,"naics.annotation.id":null,"city":"Holtsville","zip":"00501","geo_score":0.857,"year.id":2008,"empszes.id":260,"naics.display-label":"Cafeterias, grill buffets, and buffets","empszes.display-label":"Establishments with 1,000 employees or more","geo.id":"8610000U","naics.id":722212,"id":"a77cx9vkducg","geo_precision":"zip","state":"NY"},"type":"Feature","geometry":{"type":"Point","coordinates":[-73.0451085,40.8153762]}},{"properties":{"estab":2,"naics.annotation.id":null,"city":"Holtsville","zip":"00501","geo_score":0.857,"year.id":2008,"empszes.id":1,"naics.display-label":"Other services (except public administration)","empszes.display-label":"All establishments","geo.id":"8610000U","naics.id":81,"id":"a77cxa6ar25m","geo_precision":"zip","state":"NY"},"type":"Feature","geometry":{"type":"Point","coordinates":[-73.0451085,40.8153762]}},{"properties":{"estab":1,"naics.annotation.id":null,"city":"Holtsville","zip":"00501","geo_score":0.857,"year.id":2008,"empszes.id":212,"naics.display-label":"Other services (except public administration)","empszes.display-label":"Establishments with 1 to 4 employees","geo.id":"8610000U","naics.id":81,"id":"a77cxa9sc4p8","geo_precision":"zip","state":"NY"},"type":"Feature","geometry":{"type":"Point","coordinates":[-73.0451085,40.8153762]}},{"properties":{"estab":0,"naics.annotation.id":null,"city":"Holtsville","zip":"00501","geo_score":0.857,"year.id":2008,"empszes.id":220,"naics.display-label":"Other services (except public administration)","empszes.display-label":"Establishments with 5 to 9 employees","geo.id":"8610000U","naics.id":81,"id":"a77cxa0el07j","geo_precision":"zip","state":"NY"},"type":"Feature","geometry":{"type":"Point","coordinates":[-73.0451085,40.8153762]}},{"properties":{"estab":0,"naics.annotation.id":null,"city":"Holtsville","zip":"00501","geo_score":0.857,"year.id":2008,"empszes.id":230,"naics.display-label":"Other services (except public administration)","empszes.display-label":"Establishments with 10 to 19 employees","geo.id":"8610000U","naics.id":81,"id":"a77cxa9hl3qw","geo_precision":"zip","state":"NY"},"type":"Feature","geometry":{"type":"Point","coordinates":[-73.0451085,40.8153762]}},{"properties":{"estab":1,"naics.annotation.id":null,"city":"Holtsville","zip":"00501","geo_score":0.857,"year.id":2008,"empszes.id":241,"naics.display-label":"Other services (except public administration)","empszes.display-label":"Establishments with 20 to 49 employees","geo.id":"8610000U","naics.id":81,"id":"a77cxa2ql78x","geo_precision":"zip","state":"NY"},"type":"Feature","geometry":{"type":"Point","coordinates":[-73.0451085,40.8153762]}},{"properties":{"estab":0,"naics.annotation.id":null,"city":"Holtsville","zip":"00501","geo_score":0.857,"year.id":2008,"empszes.id":242,"naics.display-label":"Other services (except public administration)","empszes.display-label":"Establishments with 50 to 99 employees","geo.id":"8610000U","naics.id":81,"id":"a77cxa0cx7ug","geo_precision":"zip","state":"NY"},"type":"Feature","geometry":{"type":"Point","coordinates":[-73.0451085,40.8153762]}},{"properties":{"estab":0,"naics.annotation.id":null,"city":"Holtsville","zip":"00501","geo_score":0.857,"year.id":2008,"empszes.id":251,"naics.display-label":"Other services (except public administration)","empszes.display-label":"Establishments with 100 to 249 employees","geo.id":"8610000U","naics.id":81,"id":"a77cx9z81gv4","geo_precision":"zip","state":"NY"},"type":"Feature","geometry":{"type":"Point","coordinates":[-73.0451085,40.8153762]}},{"properties":{"estab":0,"naics.annotation.id":null,"city":"Holtsville","zip":"00501","geo_score":0.857,"year.id":2008,"empszes.id":252,"naics.display-label":"Other services (except public administration)","empszes.display-label":"Establishments with 250 to 499 employees","geo.id":"8610000U","naics.id":81,"id":"a77cxa6mnudv","geo_precision":"zip","state":"NY"},"type":"Feature","geometry":{"type":"Point","coordinates":[-73.0451085,40.8153762]}},{"properties":{"estab":0,"naics.annotation.id":null,"city":"Holtsville","zip":"00501","geo_score":0.857,"year.id":2008,"empszes.id":254,"naics.display-label":"Other services (except public administration)","empszes.display-label":"Establishments with 500 to 999 employees","geo.id":"8610000U","naics.id":81,"id":"a77cxa9t551q","geo_precision":"zip","state":"NY"},"type":"Feature","geometry":{"type":"Point","coordinates":[-73.0451085,40.8153762]}},{"properties":{"estab":0,"naics.annotation.id":null,"city":"Holtsville","zip":"00501","geo_score":0.857,"year.id":2008,"empszes.id":260,"naics.display-label":"Other services (except public administration)","empszes.display-label":"Establishments with 1,000 employees or more","geo.id":"8610000U","naics.id":81,"id":"a77cxa3d68me","geo_precision":"zip","state":"NY"},"type":"Feature","geometry":{"type":"Point","coordinates":[-73.0451085,40.8153762]}},{"properties":{"estab":2,"naics.annotation.id":null,"city":"Holtsville","zip":"00501","geo_score":0.857,"year.id":2008,"empszes.id":1,"naics.display-label":"Religious organizations","empszes.display-label":"All establishments","geo.id":"8610000U","naics.id":813110,"id":"a77cxa5jf9a7","geo_precision":"zip","state":"NY"},"type":"Feature","geometry":{"type":"Point","coordinates":[-73.0451085,40.8153762]}},{"properties":{"estab":1,"naics.annotation.id":null,"city":"Holtsville","zip":"00501","geo_score":0.857,"year.id":2008,"empszes.id":212,"naics.display-label":"Religious organizations","empszes.display-label":"Establishments with 1 to 4 employees","geo.id":"8610000U","naics.id":813110,"id":"a77cx9wtpt6s","geo_precision":"zip","state":"NY"},"type":"Feature","geometry":{"type":"Point","coordinates":[-73.0451085,40.8153762]}},{"properties":{"estab":0,"naics.annotation.id":null,"city":"Holtsville","zip":"00501","geo_score":0.857,"year.id":2008,"empszes.id":220,"naics.display-label":"Religious organizations","empszes.display-label":"Establishments with 5 to 9 employees","geo.id":"8610000U","naics.id":813110,"id":"a77cxa1ln9ve","geo_precision":"zip","state":"NY"},"type":"Feature","geometry":{"type":"Point","coordinates":[-73.0451085,40.8153762]}},{"properties":{"estab":0,"naics.annotation.id":null,"city":"Holtsville","zip":"00501","geo_score":0.857,"year.id":2008,"empszes.id":230,"naics.display-label":"Religious organizations","empszes.display-label":"Establishments with 10 to 19 employees","geo.id":"8610000U","naics.id":813110,"id":"a77cxa8to88m","geo_precision":"zip","state":"NY"},"type":"Feature","geometry":{"type":"Point","coordinates":[-73.0451085,40.8153762]}},{"properties":{"estab":1,"naics.annotation.id":null,"city":"Holtsville","zip":"00501","geo_score":0.857,"year.id":2008,"empszes.id":241,"naics.display-label":"Religious organizations","empszes.display-label":"Establishments with 20 to 49 employees","geo.id":"8610000U","naics.id":813110,"id":"a77cxa6q2mr4","geo_precision":"zip","state":"NY"},"type":"Feature","geometry":{"type":"Point","coordinates":[-73.0451085,40.8153762]}},{"properties":{"estab":0,"naics.annotation.id":null,"city":"Holtsville","zip":"00501","geo_score":0.857,"year.id":2008,"empszes.id":242,"naics.display-label":"Religious organizations","empszes.display-label":"Establishments with 50 to 99 employees","geo.id":"8610000U","naics.id":813110,"id":"a77cxa19x57q","geo_precision":"zip","state":"NY"},"type":"Feature","geometry":{"type":"Point","coordinates":[-73.0451085,40.8153762]}},{"properties":{"estab":0,"naics.annotation.id":null,"city":"Holtsville","zip":"00501","geo_score":0.857,"year.id":2008,"empszes.id":251,"naics.display-label":"Religious organizations","empszes.display-label":"Establishments with 100 to 249 employees","geo.id":"8610000U","naics.id":813110,"id":"a77cxa7tu75f","geo_precision":"zip","state":"NY"},"type":"Feature","geometry":{"type":"Point","coordinates":[-73.0451085,40.8153762]}},{"properties":{"estab":0,"naics.annotation.id":null,"city":"Holtsville","zip":"00501","geo_score":0.857,"year.id":2008,"empszes.id":252,"naics.display-label":"Religious organizations","empszes.display-label":"Establishments with 250 to 499 employees","geo.id":"8610000U","naics.id":813110,"id":"a77cx9y8hz8i","geo_precision":"zip","state":"NY"},"type":"Feature","geometry":{"type":"Point","coordinates":[-73.0451085,40.8153762]}},{"properties":{"estab":0,"naics.annotation.id":null,"city":"Holtsville","zip":"00501","geo_score":0.857,"year.id":2008,"empszes.id":254,"naics.display-label":"Religious organizations","empszes.display-label":"Establishments with 500 to 999 employees","geo.id":"8610000U","naics.id":813110,"id":"a77cxa27ehhd","geo_precision":"zip","state":"NY"},"type":"Feature","geometry":{"type":"Point","coordinates":[-73.0451085,40.8153762]}},{"properties":{"estab":0,"naics.annotation.id":null,"city":"Holtsville","zip":"00501","geo_score":0.857,"year.id":2008,"empszes.id":260,"naics.display-label":"Religious organizations","empszes.display-label":"Establishments with 1,000 employees or more","geo.id":"8610000U","naics.id":813110,"id":"a77cxa27wwfj","geo_precision":"zip","state":"NY"},"type":"Feature","geometry":{"type":"Point","coordinates":[-73.0451085,40.8153762]}}],"is_temporal":false,"author":{"url":"","metadata":null,"contact_name":null,"contact_address":null,"source":null,"contact_phone":null},"source":"","pagination":{"sort":null,"start":0,"total":50,"limit":1000000},"state":"complete","tags":"","published":"2014-08-13T11:22:45-04:00","id":148950}