{"type":"FeatureCollection","data_type":"Dataset","url_type":null,"permissions":[{"permissions":{"download":true,"view":true},"group_id":"everyone"}],"classification":null,"title":"Chicago Nightlife","count":8,"stream_id":14920,"contributor":{"url":"http://geocommons.com/users/6898","name":"Lauren"},"data_attributes":null,"calculation_params":null,"icon_link":null,"link":"http://geocommons.com/overlays/14920.json","extent":[-87.6532,41.876,-87.619,41.9038],"geometry_types":["point"],"unique_name":null,"name":"Chicago Nightlife","feature_count":8,"description":"justluxe.com Chicago Nightlife","next_feature":null,"is_raster":false,"short_classification":"Y","stats":{"zip":{"max":60611.0,"mean":60609.75,"variance":1.35714285714286,"stdev":1.16496474502144,"min":60607.0,"median":60610.0},"latitude":{"max":41.90378,"mean":41.8990115,"variance":9.976594371425e-05,"stdev":0.0099882903298938,"min":41.87597,"median":41.90378},"longitude":{"max":-87.618999,"mean":-87.6367915,"variance":8.38209071428769e-05,"stdev":0.0091553758602734,"min":-87.653219,"median":-87.637019}},"features":[{"properties":{"name":"Bon V","city":"Chicago","zip":60607.0,"latitude":41.87597,"adress":"1100 W Randolph St","longitude":-87.653219,"id":"a62u5t95yoch","state":"IL"},"type":"Feature","geometry":{"type":"Point","coordinates":[-87.653219,41.87597]}},{"properties":{"name":"Enclave","city":"Chicago","zip":60610.0,"latitude":41.90378,"adress":"220 W. Chicago Ave.","longitude":-87.637019,"id":"a62u5sy0p6pd","state":"IL"},"type":"Feature","geometry":{"type":"Point","coordinates":[-87.637019,41.90378]}},{"properties":{"name":"Le Passage Nightclub","city":"Chicago","zip":60611.0,"latitude":41.893442,"adress":"937 N. Rush Street","longitude":-87.618999,"id":"a62u5tc3g56v","state":"IL"},"type":"Feature","geometry":{"type":"Point","coordinates":[-87.618999,41.893442]}},{"properties":{"name":"Manor","city":"Chicago","zip":60610.0,"latitude":41.90378,"adress":"642 N Clark St.","longitude":-87.637019,"id":"a62u5t8glw6c","state":"IL"},"type":"Feature","geometry":{"type":"Point","coordinates":[-87.637019,41.90378]}},{"properties":{"name":"Rino","city":"Chicago","zip":60610.0,"latitude":41.90378,"adress":"343 W. Erie","longitude":-87.637019,"id":"a62u5swjdmnx","state":"IL"},"type":"Feature","geometry":{"type":"Point","coordinates":[-87.637019,41.90378]}},{"properties":{"name":"Soundbar","city":"Chicago","zip":60610.0,"latitude":41.90378,"adress":"226 W. Ortario Suite 200","longitude":-87.637019,"id":"a62u5tarwas8","state":"IL"},"type":"Feature","geometry":{"type":"Point","coordinates":[-87.637019,41.90378]}},{"properties":{"name":"The Underground","city":"Chicago","zip":60610.0,"latitude":41.90378,"adress":"56 W. Illinois St.","longitude":-87.637019,"id":"a62u5syd5h2e","state":"IL"},"type":"Feature","geometry":{"type":"Point","coordinates":[-87.637019,41.90378]}},{"properties":{"name":"Vision","city":"Chicago","zip":60610.0,"latitude":41.90378,"adress":"632 N. Dearborn St.","longitude":-87.637019,"id":"a62u5t4yqw6m","state":"IL"},"type":"Feature","geometry":{"type":"Point","coordinates":[-87.637019,41.90378]}}],"is_temporal":false,"author":{"url":"http://www.justluxe.com/travel/118__chicago-city-guide.php","metadata":"http://www.justluxe.com/travel/118__chicago-city-guide.php","contact_name":"","contact_address":"","source":"justluxe.com","contact_phone":""},"source":"http://www.justluxe.com/travel/118__chicago-city-guide.php","pagination":{"sort":null,"start":0,"total":8,"limit":1000000},"state":"complete","tags":"bars,chicago,clubs,nightlife","published":"2009-01-01T12:00:00Z","id":14920}