{"type":"FeatureCollection","data_type":"Dataset","url_type":null,"permissions":[{"permissions":{"download":true,"view":true},"group_id":"everyone"}],"classification":null,"title":"potential att sites","count":47,"stream_id":149963,"contributor":{"url":"http://geocommons.com/users/12008","name":"pantheon"},"data_attributes":null,"calculation_params":null,"icon_link":null,"link":"http://geocommons.com/overlays/149963.json","extent":[-84.8742,39.6381,-83.1686,41.6862],"geometry_types":["point"],"unique_name":null,"name":"potential att sites","feature_count":47,"description":"","next_feature":null,"is_raster":false,"short_classification":"Y","stats":{"latitude":{"max":41.6862,"mean":40.7680565957447,"variance":0.309129264879463,"stdev":0.555993943203938,"min":39.63806,"median":40.75639},"longitude":{"max":-83.16862,"mean":-84.0990017021277,"variance":0.156894298531822,"stdev":0.396098849445214,"min":-84.87417,"median":-84.1067}},"features":[{"properties":{"city":"BLUFFTON","latitude":40.89778,"zip":"45817","county":"ALLEN","longitude":-83.88189,"id":"a67xncjk1qxr","address":"210 LAKE STREET","state":"OH"},"type":"Feature","geometry":{"type":"Point","coordinates":[-83.88189,40.89778]}},{"properties":{"city":"HARROD","latitude":40.77139,"zip":"45850","county":"ALLEN","longitude":-83.96389,"id":"a67xnck6uctr","address":"2370 NORTH NAPOLEON ROAD","state":"OH"},"type":"Feature","geometry":{"type":"Point","coordinates":[-83.96389,40.77139]}},{"properties":{"city":"LIMA","latitude":40.73472,"zip":"45806","county":"ALLEN","longitude":-84.00972,"id":"a67xncojfi66","address":"295 SOUTH THAYER ROAD","state":"OH"},"type":"Feature","geometry":{"type":"Point","coordinates":[-84.00972,40.73472]}},{"properties":{"city":"HARROD","latitude":40.72556,"zip":"45850","county":"ALLEN","longitude":-83.93,"id":"a67xncv56la4","address":"1075 NAPOLEON ROAD","state":"OH"},"type":"Feature","geometry":{"type":"Point","coordinates":[-83.93,40.72556]}},{"properties":{"city":"LIMA","latitude":40.76266,"zip":"45801","county":"ALLEN","longitude":-84.08642,"id":"a67xncy8yrwk","address":"1620 NORTH SUGAR CREEK ROAD","state":"OH"},"type":"Feature","geometry":{"type":"Point","coordinates":[-84.08642,40.76266]}},{"properties":{"city":"LIMA","latitude":40.73889,"zip":"45801","county":"ALLEN","longitude":-84.10739,"id":"a67xncmf7p97","address":"122 SOUTH ELIZABETH STREET","state":"OH"},"type":"Feature","geometry":{"type":"Point","coordinates":[-84.10739,40.73889]}},{"properties":{"city":"LIMA","latitude":40.77111,"zip":"45807","county":"ALLEN","longitude":-84.20778,"id":"a67xncqu5dqu","address":"5591 NESBITT ROAD","state":"OH"},"type":"Feature","geometry":{"type":"Point","coordinates":[-84.20778,40.77111]}},{"properties":{"city":"LIMA","latitude":40.70145,"zip":"45804","county":"ALLEN","longitude":-84.1067,"id":"a67xncmydn3m","address":"205 W. HANTON RD.","state":"OH"},"type":"Feature","geometry":{"type":"Point","coordinates":[-84.1067,40.70145]}},{"properties":{"city":"LIMA","latitude":40.78857,"zip":"45801","county":"ALLEN","longitude":-84.04062,"id":"a67xncso62g6","address":"3550 EAST BLUELICK ROAD","state":"OH"},"type":"Feature","geometry":{"type":"Point","coordinates":[-84.04062,40.78857]}},{"properties":{"city":"LIMA","latitude":40.78361,"zip":"45801","county":"ALLEN","longitude":-84.12361,"id":"a67xncmdt8aj","address":"3226 COLE STREET","state":"OH"},"type":"Feature","geometry":{"type":"Point","coordinates":[-84.12361,40.78361]}},{"properties":{"city":"LIMA","latitude":40.75639,"zip":"45805","county":"ALLEN","longitude":-84.12972,"id":"a67xnctnlcrq","address":"1460 ROSEDALE AVENUE","state":"OH"},"type":"Feature","geometry":{"type":"Point","coordinates":[-84.12972,40.75639]}},{"properties":{"city":"LIMA","latitude":40.84944,"zip":"45807","county":"ALLEN","longitude":-84.08194,"id":"a67xnck8mwpl","address":"7580 OTTAWA ROAD","state":"OH"},"type":"Feature","geometry":{"type":"Point","coordinates":[-84.08194,40.84944]}},{"properties":{"city":"WAPAKONETA","latitude":40.62822,"zip":"45895","county":"AUGLAIZE","longitude":-84.13059,"id":"a67xncyk1ttf","address":"16784 BUCKLAND HOLDEN ROAD","state":"OH"},"type":"Feature","geometry":{"type":"Point","coordinates":[-84.13059,40.62822]}},{"properties":{"city":"WAPAKONETA","latitude":40.5166,"zip":"45895","county":"AUGLAIZE","longitude":-84.16652,"id":"a67xnctjvj7z","address":"11293 CEMETARY ROAD","state":"OH"},"type":"Feature","geometry":{"type":"Point","coordinates":[-84.16652,40.5166]}},{"properties":{"city":"URBANA","latitude":40.08861,"zip":"43078","county":"CHAMPAIGN","longitude":-83.75639,"id":"a67xncjz733s","address":"1509 SOUTH RT 68","state":"OH"},"type":"Feature","geometry":{"type":"Point","coordinates":[-83.75639,40.08861]}},{"properties":{"city":"GREENVILLE","latitude":40.13908,"zip":"45331","county":"DARKE","longitude":-84.61775,"id":"a67xncv75jeu","address":"7670 CELINA RD","state":"OH"},"type":"Feature","geometry":{"type":"Point","coordinates":[-84.61775,40.13908]}},{"properties":{"city":"VERSAILLES","latitude":40.23142,"zip":"45380","county":"DARKE","longitude":-84.48217,"id":"a67xncvgt5wh","address":"10707 REED ROAD","state":"OH"},"type":"Feature","geometry":{"type":"Point","coordinates":[-84.48217,40.23142]}},{"properties":{"city":"ARCHBOLD","latitude":41.588,"zip":"43502","county":"FULTON","longitude":-84.34319,"id":"a67xncxchgje","address":"8179 COUNTY ROAD 25","state":"OH"},"type":"Feature","geometry":{"type":"Point","coordinates":[-84.34319,41.588]}},{"properties":{"city":"SWANTON","latitude":41.60389,"zip":"43558","county":"FULTON","longitude":-83.90562,"id":"a67xncwtcrut","address":"9201 STATE ROUTE 64","state":"OH"},"type":"Feature","geometry":{"type":"Point","coordinates":[-83.90562,41.60389]}},{"properties":{"city":"DELTA","latitude":41.59219,"zip":"43515","county":"FULTON","longitude":-84.02478,"id":"a67xncqzjs7b","address":"8292 COUNTY ROAD 81","state":"OH"},"type":"Feature","geometry":{"type":"Point","coordinates":[-84.02478,41.59219]}},{"properties":{"city":"WAUSEON","latitude":41.56219,"zip":"43567","county":"FULTON","longitude":-84.1505,"id":"a67xncu75jbz","address":"550 WEST LINFOOT STREET","state":"OH"},"type":"Feature","geometry":{"type":"Point","coordinates":[-84.1505,41.56219]}},{"properties":{"city":"METAMORA","latitude":41.6862,"zip":"43540","county":"FULTON","longitude":-83.9377,"id":"a67xncqnp5r4","address":"4125 COUNTY ROAD SOUTH","state":"OH"},"type":"Feature","geometry":{"type":"Point","coordinates":[-83.9377,41.6862]}},{"properties":{"city":"RAWSON","latitude":40.94412,"zip":"45881","county":"HANCOCK","longitude":-83.76645,"id":"a67xncv8939l","address":"15480-B TOWNSHIP ROAD 59","state":"OH"},"type":"Feature","geometry":{"type":"Point","coordinates":[-83.76645,40.94412]}},{"properties":{"city":"VAN BUREN","latitude":41.15167,"zip":"45889","county":"HANCOCK","longitude":-83.56833,"id":"a67xncwem0k8","address":"1107 TOWNSHIP ROAD 18","state":"OH"},"type":"Feature","geometry":{"type":"Point","coordinates":[-83.56833,41.15167]}},{"properties":{"city":"MCCOMB","latitude":41.11194,"zip":"45858","county":"HANCOCK","longitude":-83.7525,"id":"a67xncprlth7","address":"6700 STATE RT 613","state":"OH"},"type":"Feature","geometry":{"type":"Point","coordinates":[-83.7525,41.11194]}},{"properties":{"city":"LEWISTOWN","latitude":40.43972,"zip":"43333","county":"LOGAN","longitude":-83.89139,"id":"a67xncumklrg","address":"5863 ROAD 61","state":"OH"},"type":"Feature","geometry":{"type":"Point","coordinates":[-83.89139,40.43972]}},{"properties":{"city":"BELLEFONTAINE","latitude":40.35222,"zip":"43311","county":"LOGAN","longitude":-83.76917,"id":"a67xncv19zth","address":"621 PLUM VALLEY ROAD","state":"OH"},"type":"Feature","geometry":{"type":"Point","coordinates":[-83.76917,40.35222]}},{"properties":{"city":"BELLEFONTAINE","latitude":40.35444,"zip":"43311","county":"LOGAN","longitude":-83.70556,"id":"a67xncjztknc","address":"2955 TRAIL 180","state":"OH"},"type":"Feature","geometry":{"type":"Point","coordinates":[-83.70556,40.35444]}},{"properties":{"city":"SWANTON","latitude":41.59333,"zip":"43558","county":"LUCAS","longitude":-83.81611,"id":"a67xncthi3lo","address":"11410 AIRPORT HIGHWAY","state":"OH"},"type":"Feature","geometry":{"type":"Point","coordinates":[-83.81611,41.59333]}},{"properties":{"city":"FORT RECOVERY","latitude":40.4215,"zip":"45846","county":"MERCER","longitude":-84.79117,"id":"a67xncl7n2zl","address":"367 ASHCRAFT ROAD","state":"OH"},"type":"Feature","geometry":{"type":"Point","coordinates":[-84.79117,40.4215]}},{"properties":{"city":"SAINT HENRY","latitude":40.42889,"zip":"45883","county":"MERCER","longitude":-84.61611,"id":"a67xncs9c064","address":"4900-C COOPER ROAD","state":"OH"},"type":"Feature","geometry":{"type":"Point","coordinates":[-84.61611,40.42889]}},{"properties":{"city":"CELINA","latitude":40.55933,"zip":"45822","county":"MERCER","longitude":-84.61889,"id":"a67xncto37nm","address":"4748 FAIRGROUND ROAD","state":"OH"},"type":"Feature","geometry":{"type":"Point","coordinates":[-84.61889,40.55933]}},{"properties":{"city":"WEST MILTON","latitude":39.94836,"zip":"45383","county":"MIAMI","longitude":-84.35456,"id":"a67xncmv8rce","address":"8190 WEST EMRICK ROAD","state":"OH"},"type":"Feature","geometry":{"type":"Point","coordinates":[-84.35456,39.94836]}},{"properties":{"city":"CLAYTON","latitude":39.85344,"zip":"45315","county":"MONTGOMERY","longitude":-84.35928,"id":"a67xncvzh3qk","address":"7790 KIMMEL ROAD","state":"OH"},"type":"Feature","geometry":{"type":"Point","coordinates":[-84.35928,39.85344]}},{"properties":{"city":"GERMANTOWN","latitude":39.63806,"zip":"45327","county":"MONTGOMERY","longitude":-84.37139,"id":"a67xncp4n532","address":"909 NORTH CHERRY STREET","state":"OH"},"type":"Feature","geometry":{"type":"Point","coordinates":[-84.37139,39.63806]}},{"properties":{"city":"ANNA","latitude":40.40339,"zip":"45302","county":"SHELBY","longitude":-84.16847,"id":"a67xncr5u9fe","address":"14010 COUNTY ROAD 25A","state":"OH"},"type":"Feature","geometry":{"type":"Point","coordinates":[-84.16847,40.40339]}},{"properties":{"city":"SIDNEY","latitude":40.26119,"zip":"45365","county":"SHELBY","longitude":-84.18686,"id":"a67xncpb9paf","address":"1940 VANDEMARK RD","state":"OH"},"type":"Feature","geometry":{"type":"Point","coordinates":[-84.18686,40.26119]}},{"properties":{"city":"MONTPELIER","latitude":41.61579,"zip":"43543","county":"WILLIAMS","longitude":-84.6059,"id":"a67xncymj1q3","address":"13590 COUNTY ROAD 11","state":"OH"},"type":"Feature","geometry":{"type":"Point","coordinates":[-84.6059,41.61579]}},{"properties":{"city":"EDON","latitude":41.62468,"zip":"43518","county":"WILLIAMS","longitude":-84.74653,"id":"a67xncj1rioe","address":"14372 COUNTY ROAD 4","state":"OH"},"type":"Feature","geometry":{"type":"Point","coordinates":[-84.74653,41.62468]}},{"properties":{"city":"WEST UNITY","latitude":41.60911,"zip":"43570","county":"WILLIAMS","longitude":-84.46014,"id":"a67xncqat7m1","address":"13533 COUNTY ROAD 19","state":"OH"},"type":"Feature","geometry":{"type":"Point","coordinates":[-84.46014,41.60911]}},{"properties":{"city":"NORTH BALTIMORE","latitude":41.16779,"zip":"45872","county":"WOOD","longitude":-83.64875,"id":"a67xnconjchc","address":"1188 SOUTH DIXIE ROAD","state":"OH"},"type":"Feature","geometry":{"type":"Point","coordinates":[-83.64875,41.16779]}},{"properties":{"city":"PEMBERVILLE","latitude":41.40917,"zip":"43450","county":"WOOD","longitude":-83.53472,"id":"a67xnctaifn0","address":"17540 DUNIPACE ROAD","state":"OH"},"type":"Feature","geometry":{"type":"Point","coordinates":[-83.53472,41.40917]}},{"properties":{"city":"MORRAL","latitude":40.72451,"zip":"43337","county":"WYANDOT","longitude":-83.16862,"id":"a67xnclc1grv","address":"2994 TOWNSHIP HIGHWAY 72","state":"OH"},"type":"Feature","geometry":{"type":"Point","coordinates":[-83.16862,40.72451]}},{"properties":{"city":"CAREY","latitude":40.93466,"zip":"43316","county":"WYANDOT","longitude":-83.38306,"id":"a67xncr6k2dq","address":"3842 PATTERSON STREET","state":"OH"},"type":"Feature","geometry":{"type":"Point","coordinates":[-83.38306,40.93466]}},{"properties":{"city":"CAREY","latitude":40.96902,"zip":"43316","county":"WYANDOT","longitude":-83.45536,"id":"a67xncyfq4iq","address":"17981 TOWNSHIP HIGHWAY 22","state":"OH"},"type":"Feature","geometry":{"type":"Point","coordinates":[-83.45536,40.96902]}},{"properties":{"city":"RICHMOND","latitude":39.82742,"zip":"47374","county":"WAYNE","longitude":-84.8547,"id":"a67xnct9a9tj","address":"3577 E MAIN STREET","state":"IN"},"type":"Feature","geometry":{"type":"Point","coordinates":[-84.8547,39.82742]}},{"properties":{"city":"RICHMOND","latitude":39.83694,"zip":"47374","county":"WAYNE","longitude":-84.87417,"id":"a67xncnvzvsx","address":"2499 HAWKINS ROAD","state":"IN"},"type":"Feature","geometry":{"type":"Point","coordinates":[-84.87417,39.83694]}}],"is_temporal":false,"author":{"url":"","metadata":"","contact_name":"","contact_address":"","source":"","contact_phone":""},"source":"","pagination":{"sort":null,"start":0,"total":47,"limit":1000000},"state":"complete","tags":"","published":"2014-08-13T12:15:34-04:00","id":149963}