{"type":"FeatureCollection","data_type":"Dataset","url_type":null,"permissions":[{"permissions":{"download":true,"view":true},"group_id":"everyone"}],"classification":null,"title":"FY10NPTUniques","count":463,"stream_id":150376,"contributor":{"url":"http://geocommons.com/users/31839","name":"santillo"},"data_attributes":null,"calculation_params":null,"icon_link":null,"link":"http://geocommons.com/overlays/150376.json","extent":[-79.2415,40.5096,-71.9452,44.7293],"geometry_types":["point"],"unique_name":null,"name":"FY10NPTUniques","feature_count":463,"description":"","next_feature":null,"is_raster":false,"short_classification":"Y","stats":{"fy10 veterans":{"max":803,"mean":71.2829373650108,"variance":18663.7401194918,"stdev":136.615299726977,"min":1,"median":5},"lat":{"max":44.729277,"mean":41.0948431814255,"variance":0.476931629995825,"stdev":0.690602367499435,"min":40.509646,"median":40.806604},"long":{"max":-71.945208,"mean":-73.8281385788337,"variance":0.906650392627863,"stdev":0.952181911521041,"min":-79.241457,"median":-73.787403}},"features":[{"properties":{"city":"Weehawken","fy10 veterans":3,"zip code":"10001","id":"a6ozv4zfpuwq","lat":40.751149,"long":-73.997822},"type":"Feature","geometry":{"type":"Point","coordinates":[-73.997822,40.751149]}},{"properties":{"city":"New York","fy10 veterans":6,"zip code":"10002","id":"a6ozv54p3e2c","lat":40.713704,"long":-73.985518},"type":"Feature","geometry":{"type":"Point","coordinates":[-73.985518,40.713704]}},{"properties":{"city":"New York","fy10 veterans":1,"zip code":"10003","id":"a6ozv5522w4l","lat":40.73183,"long":-73.988914},"type":"Feature","geometry":{"type":"Point","coordinates":[-73.988914,40.73183]}},{"properties":{"city":"New York","fy10 veterans":1,"zip code":"10007","id":"a6ozv52t1ydr","lat":40.713741,"long":-74.007692},"type":"Feature","geometry":{"type":"Point","coordinates":[-74.007692,40.713741]}},{"properties":{"city":"New York","fy10 veterans":1,"zip code":"10008","id":"a6ozv53brbmw","lat":40.71,"long":-74.01},"type":"Feature","geometry":{"type":"Point","coordinates":[-74.01,40.71]}},{"properties":{"city":"New York","fy10 veterans":5,"zip code":"10009","id":"a6ozv5b3te5s","lat":40.842674,"long":-73.942535},"type":"Feature","geometry":{"type":"Point","coordinates":[-73.942535,40.842674]}},{"properties":{"city":"New York","fy10 veterans":6,"zip code":"10010","id":"a6ozv553oy8o","lat":40.739108,"long":-73.982886},"type":"Feature","geometry":{"type":"Point","coordinates":[-73.982886,40.739108]}},{"properties":{"city":"Hoboken","fy10 veterans":4,"zip code":"10011","id":"a6ozv57w1fgb","lat":40.745841,"long":-74.005597},"type":"Feature","geometry":{"type":"Point","coordinates":[-74.005597,40.745841]}},{"properties":{"city":"New York","fy10 veterans":1,"zip code":"10013","id":"a6ozv4znbw1q","lat":40.721045,"long":-74.007329},"type":"Feature","geometry":{"type":"Point","coordinates":[-74.007329,40.721045]}},{"properties":{"city":"New York","fy10 veterans":2,"zip code":"10014","id":"a6ozv5ad6tc5","lat":40.73308,"long":-74.009995},"type":"Feature","geometry":{"type":"Point","coordinates":[-74.009995,40.73308]}},{"properties":{"city":"New York","fy10 veterans":3,"zip code":"10016","id":"a6ozv5fl2smz","lat":40.745046,"long":-73.977768},"type":"Feature","geometry":{"type":"Point","coordinates":[-73.977768,40.745046]}},{"properties":{"city":"Weehawken","fy10 veterans":2,"zip code":"10019","id":"a6ozv532kxfx","lat":40.767302,"long":-73.987357},"type":"Feature","geometry":{"type":"Point","coordinates":[-73.987357,40.767302]}},{"properties":{"city":"Guttenberg","fy10 veterans":1,"zip code":"10021","id":"a6ozv52agz0l","lat":40.770073,"long":-73.960149},"type":"Feature","geometry":{"type":"Point","coordinates":[-73.960149,40.770073]}},{"properties":{"city":"Weehawken","fy10 veterans":3,"zip code":"10022","id":"a6ozv5cqjbq3","lat":40.758647,"long":-73.968399},"type":"Feature","geometry":{"type":"Point","coordinates":[-73.968399,40.758647]}},{"properties":{"city":"Guttenberg","fy10 veterans":1,"zip code":"10023","id":"a6ozv5er7k76","lat":40.7774,"long":-73.982593},"type":"Feature","geometry":{"type":"Point","coordinates":[-73.982593,40.7774]}},{"properties":{"city":"Guttenberg","fy10 veterans":3,"zip code":"10024","id":"a6ozv5drwx4o","lat":40.79064,"long":-73.978657},"type":"Feature","geometry":{"type":"Point","coordinates":[-73.978657,40.79064]}},{"properties":{"city":"Edgewater","fy10 veterans":4,"zip code":"10025","id":"a6ozv57eoysm","lat":40.799092,"long":-73.966971},"type":"Feature","geometry":{"type":"Point","coordinates":[-73.966971,40.799092]}},{"properties":{"city":"Edgewater","fy10 veterans":1,"zip code":"10026","id":"a6ozv560kkyy","lat":40.801435,"long":-73.953414},"type":"Feature","geometry":{"type":"Point","coordinates":[-73.953414,40.801435]}},{"properties":{"city":"Edgewater","fy10 veterans":3,"zip code":"10027","id":"a6ozv57kaq3a","lat":40.813202,"long":-73.955366},"type":"Feature","geometry":{"type":"Point","coordinates":[-73.955366,40.813202]}},{"properties":{"city":"Guttenberg","fy10 veterans":5,"zip code":"10028","id":"a6ozv5604hty","lat":40.77348,"long":-73.947413},"type":"Feature","geometry":{"type":"Point","coordinates":[-73.947413,40.77348]}},{"properties":{"city":"Edgewater","fy10 veterans":1,"zip code":"10029","id":"a6ozv5flbqhk","lat":40.791954,"long":-73.943863},"type":"Feature","geometry":{"type":"Point","coordinates":[-73.943863,40.791954]}},{"properties":{"city":"Edgewater","fy10 veterans":1,"zip code":"10030","id":"a6ozv58cjikz","lat":40.818326,"long":-73.943268},"type":"Feature","geometry":{"type":"Point","coordinates":[-73.943268,40.818326]}},{"properties":{"city":"Edgewater","fy10 veterans":1,"zip code":"10031","id":"a6ozv5aklpsf","lat":40.825403,"long":-73.94981},"type":"Feature","geometry":{"type":"Point","coordinates":[-73.94981,40.825403]}},{"properties":{"city":"Fort Lee","fy10 veterans":1,"zip code":"10032","id":"a6ozv58odrxz","lat":40.838915,"long":-73.944369},"type":"Feature","geometry":{"type":"Point","coordinates":[-73.944369,40.838915]}},{"properties":{"city":"Englewood Cliffs","fy10 veterans":1,"zip code":"10034","id":"a6ozv5fsxzdd","lat":40.870164,"long":-73.920992},"type":"Feature","geometry":{"type":"Point","coordinates":[-73.920992,40.870164]}},{"properties":{"city":"Edgewater","fy10 veterans":1,"zip code":"10035","id":"a6ozv53hrtic","lat":40.796725,"long":-73.933274},"type":"Feature","geometry":{"type":"Point","coordinates":[-73.933274,40.796725]}},{"properties":{"city":"Weehawken","fy10 veterans":5,"zip code":"10036","id":"a6ozv505t0hw","lat":40.763599,"long":-73.995775},"type":"Feature","geometry":{"type":"Point","coordinates":[-73.995775,40.763599]}},{"properties":{"city":"Edgewater","fy10 veterans":1,"zip code":"10037","id":"a6ozv51vyg12","lat":40.813006,"long":-73.937395},"type":"Feature","geometry":{"type":"Point","coordinates":[-73.937395,40.813006]}},{"properties":{"city":"New York","fy10 veterans":1,"zip code":"10038","id":"a6ozv54p6wcz","lat":40.709753,"long":-74.002854},"type":"Feature","geometry":{"type":"Point","coordinates":[-74.002854,40.709753]}},{"properties":{"city":"Englewood Cliffs","fy10 veterans":1,"zip code":"10040","id":"a6ozv5f3lrd9","lat":40.858308,"long":-73.929657},"type":"Feature","geometry":{"type":"Point","coordinates":[-73.929657,40.858308]}},{"properties":{"city":"Guttenberg","fy10 veterans":1,"zip code":"10044","id":"a6ozv5bhktc1","lat":40.755368,"long":-73.955522},"type":"Feature","geometry":{"type":"Point","coordinates":[-73.955522,40.755368]}},{"properties":{"city":"Edgewater","fy10 veterans":1,"zip code":"10116","id":"a6ozv5ao2h2g","lat":40.750341,"long":-73.994892},"type":"Feature","geometry":{"type":"Point","coordinates":[-73.994892,40.750341]}},{"properties":{"city":"Guttenberg","fy10 veterans":1,"zip code":"10128","id":"a6ozv4zx3mbs","lat":40.783273,"long":-73.954487},"type":"Feature","geometry":{"type":"Point","coordinates":[-73.954487,40.783273]}},{"properties":{"city":"Guttenberg","fy10 veterans":1,"zip code":"10162","id":"a6ozv54qaoc1","lat":40.769301,"long":-73.949947},"type":"Feature","geometry":{"type":"Point","coordinates":[-73.949947,40.769301]}},{"properties":{"city":"Weehawken","fy10 veterans":1,"zip code":"10185","id":"a6ozv5d3b70z","lat":40.754531,"long":-73.981138},"type":"Feature","geometry":{"type":"Point","coordinates":[-73.981138,40.754531]}},{"properties":{"city":"New York","fy10 veterans":1,"zip code":"10280","id":"a6ozv5bxgrcd","lat":40.707971,"long":-74.017641},"type":"Feature","geometry":{"type":"Point","coordinates":[-74.017641,40.707971]}},{"properties":{"city":"Bayonne","fy10 veterans":2,"zip code":"10301","id":"a6ozv5dyw801","lat":40.626997,"long":-74.095188},"type":"Feature","geometry":{"type":"Point","coordinates":[-74.095188,40.626997]}},{"properties":{"city":"Bayonne","fy10 veterans":1,"zip code":"10303","id":"a6ozv55lng63","lat":40.627512,"long":-74.170463},"type":"Feature","geometry":{"type":"Point","coordinates":[-74.170463,40.627512]}},{"properties":{"city":"Bayonne","fy10 veterans":1,"zip code":"10305","id":"a6ozv4zx9tk3","lat":40.597329,"long":-74.074353},"type":"Feature","geometry":{"type":"Point","coordinates":[-74.074353,40.597329]}},{"properties":{"city":"Carteret","fy10 veterans":1,"zip code":"10306","id":"a6ozv54bfybn","lat":40.568594,"long":-74.122528},"type":"Feature","geometry":{"type":"Point","coordinates":[-74.122528,40.568594]}},{"properties":{"city":"Perth Amboy","fy10 veterans":1,"zip code":"10307","id":"a6ozv5bkl3gx","lat":40.509646,"long":-74.240048},"type":"Feature","geometry":{"type":"Point","coordinates":[-74.240048,40.509646]}},{"properties":{"city":"Carteret","fy10 veterans":1,"zip code":"10308","id":"a6ozv5arftu4","lat":40.551103,"long":-74.150779},"type":"Feature","geometry":{"type":"Point","coordinates":[-74.150779,40.551103]}},{"properties":{"city":"Carteret","fy10 veterans":2,"zip code":"10312","id":"a6ozv5e8yu4i","lat":40.547748,"long":-74.182664},"type":"Feature","geometry":{"type":"Point","coordinates":[-74.182664,40.547748]}},{"properties":{"city":"Fort Lee","fy10 veterans":1,"zip code":"10452","id":"a6ozv5d472sj","lat":40.837592,"long":-73.92332},"type":"Feature","geometry":{"type":"Point","coordinates":[-73.92332,40.837592]}},{"properties":{"city":"Fort Lee","fy10 veterans":1,"zip code":"10453","id":"a6ozv54n48g3","lat":40.852355,"long":-73.913415},"type":"Feature","geometry":{"type":"Point","coordinates":[-73.913415,40.852355]}},{"properties":{"city":"Edgewater","fy10 veterans":2,"zip code":"10455","id":"a6ozv567b9os","lat":40.814525,"long":-73.908245},"type":"Feature","geometry":{"type":"Point","coordinates":[-73.908245,40.814525]}},{"properties":{"city":"Fort Lee","fy10 veterans":4,"zip code":"10456","id":"a6ozv53pjfjn","lat":40.830639,"long":-73.908272},"type":"Feature","geometry":{"type":"Point","coordinates":[-73.908272,40.830639]}},{"properties":{"city":"Englewood Cliffs","fy10 veterans":2,"zip code":"10460","id":"a6ozv4zpurbs","lat":40.842869,"long":-73.878956},"type":"Feature","geometry":{"type":"Point","coordinates":[-73.878956,40.842869]}},{"properties":{"city":"Pelham Manor","fy10 veterans":3,"zip code":"10461","id":"a6ozv51dpn3w","lat":40.844544,"long":-73.838693},"type":"Feature","geometry":{"type":"Point","coordinates":[-73.838693,40.844544]}},{"properties":{"city":"Pelham Manor","fy10 veterans":2,"zip code":"10462","id":"a6ozv50rjl6w","lat":40.842168,"long":-73.857736},"type":"Feature","geometry":{"type":"Point","coordinates":[-73.857736,40.842168]}},{"properties":{"city":"Englewood Cliffs","fy10 veterans":4,"zip code":"10463","id":"a6ozv5a2dwla","lat":40.881127,"long":-73.906389},"type":"Feature","geometry":{"type":"Point","coordinates":[-73.906389,40.881127]}},{"properties":{"city":"Kings Point","fy10 veterans":2,"zip code":"10464","id":"a6ozv545ig7o","lat":40.864643,"long":-73.7939},"type":"Feature","geometry":{"type":"Point","coordinates":[-73.7939,40.864643]}},{"properties":{"city":"Kings Point","fy10 veterans":8,"zip code":"10465","id":"a6ozv50amwp0","lat":40.827546,"long":-73.815941},"type":"Feature","geometry":{"type":"Point","coordinates":[-73.815941,40.827546]}},{"properties":{"city":"Mount Vernon","fy10 veterans":2,"zip code":"10467","id":"a6ozv5ag8c39","lat":40.875438,"long":-73.871701},"type":"Feature","geometry":{"type":"Point","coordinates":[-73.871701,40.875438]}},{"properties":{"city":"Englewood Cliffs","fy10 veterans":3,"zip code":"10468","id":"a6ozv4zqtin3","lat":40.868184,"long":-73.900076},"type":"Feature","geometry":{"type":"Point","coordinates":[-73.900076,40.868184]}},{"properties":{"city":"Pelham Manor","fy10 veterans":4,"zip code":"10469","id":"a6ozv58gurv6","lat":40.868483,"long":-73.846925},"type":"Feature","geometry":{"type":"Point","coordinates":[-73.846925,40.868483]}},{"properties":{"city":"Yonkers","fy10 veterans":2,"zip code":"10471","id":"a6ozv50pfw4e","lat":40.899629,"long":-73.906195},"type":"Feature","geometry":{"type":"Point","coordinates":[-73.906195,40.899629]}},{"properties":{"city":"Fort Lee","fy10 veterans":4,"zip code":"10472","id":"a6ozv5457okh","lat":40.829717,"long":-73.869639},"type":"Feature","geometry":{"type":"Point","coordinates":[-73.869639,40.829717]}},{"properties":{"city":"Fort Lee","fy10 veterans":5,"zip code":"10473","id":"a6ozv562wuli","lat":40.814802,"long":-73.857939},"type":"Feature","geometry":{"type":"Point","coordinates":[-73.857939,40.814802]}},{"properties":{"city":"Pelham Manor","fy10 veterans":3,"zip code":"10475","id":"a6ozv5cyyb5x","lat":40.875804,"long":-73.825706},"type":"Feature","geometry":{"type":"Point","coordinates":[-73.825706,40.875804]}},{"properties":{"city":"Amawalk","fy10 veterans":1,"zip code":"10501","id":"a6ozv54y6uby","lat":41.280109,"long":-73.744396},"type":"Feature","geometry":{"type":"Point","coordinates":[-73.744396,41.280109]}},{"properties":{"city":"Ardsley","fy10 veterans":1,"zip code":"10502","id":"a6ozv5dxvm5s","lat":41.009476,"long":-73.842603},"type":"Feature","geometry":{"type":"Point","coordinates":[-73.842603,41.009476]}},{"properties":{"city":"Armonk","fy10 veterans":1,"zip code":"10504","id":"a6ozv5a7hcqw","lat":41.129956,"long":-73.706893},"type":"Feature","geometry":{"type":"Point","coordinates":[-73.706893,41.129956]}},{"properties":{"city":"Bedford Hills","fy10 veterans":1,"zip code":"10507","id":"a6ozv50948av","lat":41.229819,"long":-73.68586},"type":"Feature","geometry":{"type":"Point","coordinates":[-73.68586,41.229819]}},{"properties":{"city":"Carmel","fy10 veterans":2,"zip code":"10512","id":"a6ozv53h361l","lat":41.449072,"long":-73.709892},"type":"Feature","geometry":{"type":"Point","coordinates":[-73.709892,41.449072]}},{"properties":{"city":"Chappaqua","fy10 veterans":1,"zip code":"10514","id":"a6ozv5bnupcy","lat":41.170821,"long":-73.766953},"type":"Feature","geometry":{"type":"Point","coordinates":[-73.766953,41.170821]}},{"properties":{"city":"Croton-on-Hudson","fy10 veterans":2,"zip code":"10520","id":"a6ozv53uu3fw","lat":41.215845,"long":-73.885994},"type":"Feature","geometry":{"type":"Point","coordinates":[-73.885994,41.215845]}},{"properties":{"city":"Dobbs Ferry","fy10 veterans":1,"zip code":"10522","id":"a6ozv56v58kf","lat":41.012667,"long":-73.870026},"type":"Feature","geometry":{"type":"Point","coordinates":[-73.870026,41.012667]}},{"properties":{"city":"Goldens Bridge","fy10 veterans":1,"zip code":"10526","id":"a6ozv5cyjeze","lat":41.292736,"long":-73.661808},"type":"Feature","geometry":{"type":"Point","coordinates":[-73.661808,41.292736]}},{"properties":{"city":"Harrison","fy10 veterans":1,"zip code":"10528","id":"a6ozv5fohr5y","lat":40.978445,"long":-73.723162},"type":"Feature","geometry":{"type":"Point","coordinates":[-73.723162,40.978445]}},{"properties":{"city":"Mahopac","fy10 veterans":1,"zip code":"10541","id":"a6ozv51lrrrm","lat":41.383829,"long":-73.735498},"type":"Feature","geometry":{"type":"Point","coordinates":[-73.735498,41.383829]}},{"properties":{"city":"Mamaroneck","fy10 veterans":1,"zip code":"10543","id":"a6ozv4zhn6pq","lat":40.952369,"long":-73.736826},"type":"Feature","geometry":{"type":"Point","coordinates":[-73.736826,40.952369]}},{"properties":{"city":"Montrose","fy10 veterans":9,"zip code":"10548","id":"a6ozv57051o4","lat":41.243887,"long":-73.944846},"type":"Feature","geometry":{"type":"Point","coordinates":[-73.944846,41.243887]}},{"properties":{"city":"Mount Vernon","fy10 veterans":3,"zip code":"10552","id":"a6ozv5bi1w3x","lat":40.924433,"long":-73.825856},"type":"Feature","geometry":{"type":"Point","coordinates":[-73.825856,40.924433]}},{"properties":{"city":"Ossining","fy10 veterans":2,"zip code":"10562","id":"a6ozv5b5k00y","lat":41.187288,"long":-73.840963},"type":"Feature","geometry":{"type":"Point","coordinates":[-73.840963,41.187288]}},{"properties":{"city":"Peekskill","fy10 veterans":3,"zip code":"10566","id":"a6ozv52eadpu","lat":41.288972,"long":-73.922552},"type":"Feature","geometry":{"type":"Point","coordinates":[-73.922552,41.288972]}},{"properties":{"city":"Pleasantville","fy10 veterans":1,"zip code":"10570","id":"a6ozv50ukh66","lat":41.130175,"long":-73.787344},"type":"Feature","geometry":{"type":"Point","coordinates":[-73.787344,41.130175]}},{"properties":{"city":"Port Chester","fy10 veterans":1,"zip code":"10573","id":"a6ozv57c93s0","lat":41.017104,"long":-73.67764},"type":"Feature","geometry":{"type":"Point","coordinates":[-73.67764,41.017104]}},{"properties":{"city":"Pound Ridge","fy10 veterans":1,"zip code":"10576","id":"a6ozv5dkzqlp","lat":41.212316,"long":-73.573459},"type":"Feature","geometry":{"type":"Point","coordinates":[-73.573459,41.212316]}},{"properties":{"city":"Greenville","fy10 veterans":1,"zip code":"10583","id":"a6ozv50icajh","lat":40.989119,"long":-73.794799},"type":"Feature","geometry":{"type":"Point","coordinates":[-73.794799,40.989119]}},{"properties":{"city":"Hartsdale","fy10 veterans":1,"zip code":"10606","id":"a6ozv5doksly","lat":41.020969,"long":-73.776627},"type":"Feature","geometry":{"type":"Point","coordinates":[-73.776627,41.020969]}},{"properties":{"city":"Yonkers","fy10 veterans":4,"zip code":"10701","id":"a6ozv5cvjpwf","lat":40.950298,"long":-73.867283},"type":"Feature","geometry":{"type":"Point","coordinates":[-73.867283,40.950298]}},{"properties":{"city":"Yonkers","fy10 veterans":3,"zip code":"10705","id":"a6ozv5ac7bg6","lat":40.920484,"long":-73.894684},"type":"Feature","geometry":{"type":"Point","coordinates":[-73.894684,40.920484]}},{"properties":{"city":"Bronxville","fy10 veterans":1,"zip code":"10708","id":"a6ozv55vq1nx","lat":40.938104,"long":-73.828896},"type":"Feature","geometry":{"type":"Point","coordinates":[-73.828896,40.938104]}},{"properties":{"city":"Eastchester","fy10 veterans":1,"zip code":"10709","id":"a6ozv4zl7but","lat":40.954947,"long":-73.809251},"type":"Feature","geometry":{"type":"Point","coordinates":[-73.809251,40.954947]}},{"properties":{"city":"Tuckahoe","fy10 veterans":1,"zip code":"10710","id":"a6ozv5cxtwii","lat":40.969185,"long":-73.845089},"type":"Feature","geometry":{"type":"Point","coordinates":[-73.845089,40.969185]}},{"properties":{"city":"New Rochelle","fy10 veterans":1,"zip code":"10801","id":"a6ozv5a3s185","lat":40.916273,"long":-73.779708},"type":"Feature","geometry":{"type":"Point","coordinates":[-73.779708,40.916273]}},{"properties":{"city":"New Rochelle","fy10 veterans":1,"zip code":"10805","id":"a6ozv5812b08","lat":40.893352,"long":-73.777668},"type":"Feature","geometry":{"type":"Point","coordinates":[-73.777668,40.893352]}},{"properties":{"city":"Montebello","fy10 veterans":2,"zip code":"10901","id":"a6ozv5bxsr95","lat":41.165669,"long":-74.120881},"type":"Feature","geometry":{"type":"Point","coordinates":[-74.120881,41.165669]}},{"properties":{"city":"Greenwood Lake","fy10 veterans":1,"zip code":"10925","id":"a6ozv5ftfw9e","lat":41.197876,"long":-74.295015},"type":"Feature","geometry":{"type":"Point","coordinates":[-74.295015,41.197876]}},{"properties":{"city":"Unionville","fy10 veterans":1,"zip code":"10933","id":"a6ozv5075om7","lat":41.361995,"long":-74.52054},"type":"Feature","geometry":{"type":"Point","coordinates":[-74.52054,41.361995]}},{"properties":{"city":"Scotchtown","fy10 veterans":1,"zip code":"10941","id":"a6ozv51yn5uv","lat":41.492368,"long":-74.348106},"type":"Feature","geometry":{"type":"Point","coordinates":[-74.348106,41.492368]}},{"properties":{"city":"Monroe","fy10 veterans":1,"zip code":"10950","id":"a6ozv51qq0ra","lat":41.318631,"long":-74.198037},"type":"Feature","geometry":{"type":"Point","coordinates":[-74.198037,41.318631]}},{"properties":{"city":"Pearl River","fy10 veterans":1,"zip code":"10965","id":"a6ozv59w9qp1","lat":41.061697,"long":-74.012636},"type":"Feature","geometry":{"type":"Point","coordinates":[-74.012636,41.061697]}},{"properties":{"city":"Washingtonville","fy10 veterans":1,"zip code":"10992","id":"a6ozv5f2zlx2","lat":41.425126,"long":-74.163429},"type":"Feature","geometry":{"type":"Point","coordinates":[-74.163429,41.425126]}},{"properties":{"city":"Floral Park","fy10 veterans":151,"zip code":"11001","id":"a6ozv5eg3a2z","lat":40.721926,"long":-73.706245},"type":"Feature","geometry":{"type":"Point","coordinates":[-73.706245,40.721926]}},{"properties":{"city":"Floral Park","fy10 veterans":2,"zip code":"11002","id":"a6ozv5e1aytw","lat":40.726541,"long":-73.708599},"type":"Feature","geometry":{"type":"Point","coordinates":[-73.708599,40.726541]}},{"properties":{"city":"Elmont","fy10 veterans":138,"zip code":"11003","id":"a6ozv54ghuc3","lat":40.699963,"long":-73.706359},"type":"Feature","geometry":{"type":"Point","coordinates":[-73.706359,40.699963]}},{"properties":{"city":"North New Hyde Park","fy10 veterans":47,"zip code":"11004","id":"a6ozv53jvz60","lat":40.74632,"long":-73.711779},"type":"Feature","geometry":{"type":"Point","coordinates":[-73.711779,40.74632]}},{"properties":{"city":"Lake Success","fy10 veterans":78,"zip code":"11005","id":"a6ozv52in8s1","lat":40.757441,"long":-73.712857},"type":"Feature","geometry":{"type":"Point","coordinates":[-73.712857,40.757441]}},{"properties":{"city":"Franklin Square","fy10 veterans":185,"zip code":"11010","id":"a6ozv534at0q","lat":40.700088,"long":-73.675483},"type":"Feature","geometry":{"type":"Point","coordinates":[-73.675483,40.700088]}},{"properties":{"city":"Lake Success","fy10 veterans":36,"zip code":"11020","id":"a6ozv509848f","lat":40.770519,"long":-73.712544},"type":"Feature","geometry":{"type":"Point","coordinates":[-73.712544,40.770519]}},{"properties":{"city":"Great Neck Plaza","fy10 veterans":109,"zip code":"11021","id":"a6ozv5cel937","lat":40.786515,"long":-73.728335},"type":"Feature","geometry":{"type":"Point","coordinates":[-73.728335,40.786515]}},{"properties":{"city":"Great Neck Plaza","fy10 veterans":2,"zip code":"11022","id":"a6ozv56ncr8s","lat":40.787368,"long":-73.724625},"type":"Feature","geometry":{"type":"Point","coordinates":[-73.724625,40.787368]}},{"properties":{"city":"Great Neck","fy10 veterans":42,"zip code":"11023","id":"a6ozv5cosnm6","lat":40.799052,"long":-73.732041},"type":"Feature","geometry":{"type":"Point","coordinates":[-73.732041,40.799052]}},{"properties":{"city":"Kings Point","fy10 veterans":21,"zip code":"11024","id":"a6ozv5bn2eho","lat":40.816523,"long":-73.742328},"type":"Feature","geometry":{"type":"Point","coordinates":[-73.742328,40.816523]}},{"properties":{"city":"Manhasset","fy10 veterans":134,"zip code":"11030","id":"a6ozv5azxaqs","lat":40.793468,"long":-73.690973},"type":"Feature","geometry":{"type":"Point","coordinates":[-73.690973,40.793468]}},{"properties":{"city":"North New Hyde Park","fy10 veterans":320,"zip code":"11040","id":"a6ozv5caes42","lat":40.742648,"long":-73.682855},"type":"Feature","geometry":{"type":"Point","coordinates":[-73.682855,40.742648]}},{"properties":{"city":"Baxter Estates","fy10 veterans":181,"zip code":"11050","id":"a6ozv5eht9rc","lat":40.838971,"long":-73.691796},"type":"Feature","geometry":{"type":"Point","coordinates":[-73.691796,40.838971]}},{"properties":{"city":"Inwood","fy10 veterans":16,"zip code":"11096","id":"a6ozv56hqlaf","lat":40.619153,"long":-73.752027},"type":"Feature","geometry":{"type":"Point","coordinates":[-73.752027,40.619153]}},{"properties":{"city":"New York","fy10 veterans":5,"zip code":"11101","id":"a6ozv58kfjt6","lat":40.746102,"long":-73.93591},"type":"Feature","geometry":{"type":"Point","coordinates":[-73.93591,40.746102]}},{"properties":{"city":"Guttenberg","fy10 veterans":8,"zip code":"11102","id":"a6ozv52wx5cs","lat":40.774912,"long":-73.929694},"type":"Feature","geometry":{"type":"Point","coordinates":[-73.929694,40.774912]}},{"properties":{"city":"Guttenberg","fy10 veterans":7,"zip code":"11103","id":"a6ozv59bibsq","lat":40.762648,"long":-73.913074},"type":"Feature","geometry":{"type":"Point","coordinates":[-73.913074,40.762648]}},{"properties":{"city":"New York","fy10 veterans":3,"zip code":"11104","id":"a6ozv5e7743o","lat":40.74458,"long":-73.920355},"type":"Feature","geometry":{"type":"Point","coordinates":[-73.920355,40.74458]}},{"properties":{"city":"Edgewater","fy10 veterans":10,"zip code":"11105","id":"a6ozv51kd0yu","lat":40.783245,"long":-73.906783},"type":"Feature","geometry":{"type":"Point","coordinates":[-73.906783,40.783245]}},{"properties":{"city":"Guttenberg","fy10 veterans":4,"zip code":"11106","id":"a6ozv50dvuuq","lat":40.761736,"long":-73.931492},"type":"Feature","geometry":{"type":"Point","coordinates":[-73.931492,40.761736]}},{"properties":{"city":"New York","fy10 veterans":1,"zip code":"11109","id":"a6ozv5cupiif","lat":40.744735,"long":-73.957306},"type":"Feature","geometry":{"type":"Point","coordinates":[-73.957306,40.744735]}},{"properties":{"city":"New York","fy10 veterans":1,"zip code":"11201","id":"a6ozv559damp","lat":40.695502,"long":-73.993498},"type":"Feature","geometry":{"type":"Point","coordinates":[-73.993498,40.695502]}},{"properties":{"city":"New York","fy10 veterans":1,"zip code":"11202","id":"a6ozv4zot2lc","lat":40.692477,"long":-73.990876},"type":"Feature","geometry":{"type":"Point","coordinates":[-73.990876,40.692477]}},{"properties":{"city":"New York","fy10 veterans":7,"zip code":"11203","id":"a6ozv55jypmw","lat":40.649632,"long":-73.934536},"type":"Feature","geometry":{"type":"Point","coordinates":[-73.934536,40.649632]}},{"properties":{"city":"New York","fy10 veterans":1,"zip code":"11204","id":"a6ozv51vohqk","lat":40.61853,"long":-73.984798},"type":"Feature","geometry":{"type":"Point","coordinates":[-73.984798,40.61853]}},{"properties":{"city":"New York","fy10 veterans":1,"zip code":"11205","id":"a6ozv51lq4gi","lat":40.694132,"long":-73.965764},"type":"Feature","geometry":{"type":"Point","coordinates":[-73.965764,40.694132]}},{"properties":{"city":"New York","fy10 veterans":1,"zip code":"11206","id":"a6ozv5cbda71","lat":40.701888,"long":-73.942449},"type":"Feature","geometry":{"type":"Point","coordinates":[-73.942449,40.701888]}},{"properties":{"city":"New York","fy10 veterans":5,"zip code":"11207","id":"a6ozv51m9xpa","lat":40.669048,"long":-73.893174},"type":"Feature","geometry":{"type":"Point","coordinates":[-73.893174,40.669048]}},{"properties":{"city":"New York","fy10 veterans":5,"zip code":"11208","id":"a6ozv4znvl0u","lat":40.672251,"long":-73.871857},"type":"Feature","geometry":{"type":"Point","coordinates":[-73.871857,40.672251]}},{"properties":{"city":"Bayonne","fy10 veterans":7,"zip code":"11209","id":"a6ozv5cof8iz","lat":40.621286,"long":-74.029813},"type":"Feature","geometry":{"type":"Point","coordinates":[-74.029813,40.621286]}},{"properties":{"city":"New York","fy10 veterans":3,"zip code":"11210","id":"a6ozv5ejoypo","lat":40.62841,"long":-73.946284},"type":"Feature","geometry":{"type":"Point","coordinates":[-73.946284,40.62841]}},{"properties":{"city":"New York","fy10 veterans":5,"zip code":"11211","id":"a6ozv5dyd5i8","lat":40.713492,"long":-73.955021},"type":"Feature","geometry":{"type":"Point","coordinates":[-73.955021,40.713492]}},{"properties":{"city":"New York","fy10 veterans":2,"zip code":"11212","id":"a6ozv5dqcu9a","lat":40.666643,"long":-73.915172},"type":"Feature","geometry":{"type":"Point","coordinates":[-73.915172,40.666643]}},{"properties":{"city":"New York","fy10 veterans":3,"zip code":"11213","id":"a6ozv5bpgx11","lat":40.670961,"long":-73.936354},"type":"Feature","geometry":{"type":"Point","coordinates":[-73.936354,40.670961]}},{"properties":{"city":"Bayonne","fy10 veterans":4,"zip code":"11214","id":"a6ozv59bu6kb","lat":40.604329,"long":-73.994668},"type":"Feature","geometry":{"type":"Point","coordinates":[-73.994668,40.604329]}},{"properties":{"city":"New York","fy10 veterans":6,"zip code":"11215","id":"a6ozv5d1zzjb","lat":40.66267,"long":-73.98648},"type":"Feature","geometry":{"type":"Point","coordinates":[-73.98648,40.66267]}},{"properties":{"city":"New York","fy10 veterans":4,"zip code":"11216","id":"a6ozv4zufpie","lat":40.680834,"long":-73.948953},"type":"Feature","geometry":{"type":"Point","coordinates":[-73.948953,40.680834]}},{"properties":{"city":"New York","fy10 veterans":2,"zip code":"11217","id":"a6ozv564g2zo","lat":40.681816,"long":-73.978345},"type":"Feature","geometry":{"type":"Point","coordinates":[-73.978345,40.681816]}},{"properties":{"city":"New York","fy10 veterans":2,"zip code":"11218","id":"a6ozv5ax48ck","lat":40.648154,"long":-73.974301},"type":"Feature","geometry":{"type":"Point","coordinates":[-73.974301,40.648154]}},{"properties":{"city":"New York","fy10 veterans":1,"zip code":"11219","id":"a6ozv5atvd4s","lat":40.632706,"long":-73.996758},"type":"Feature","geometry":{"type":"Point","coordinates":[-73.996758,40.632706]}},{"properties":{"city":"New York","fy10 veterans":6,"zip code":"11221","id":"a6ozv5f1hb79","lat":40.691172,"long":-73.927788},"type":"Feature","geometry":{"type":"Point","coordinates":[-73.927788,40.691172]}},{"properties":{"city":"New York","fy10 veterans":2,"zip code":"11222","id":"a6ozv57nnwu9","lat":40.730217,"long":-73.953958},"type":"Feature","geometry":{"type":"Point","coordinates":[-73.953958,40.730217]}},{"properties":{"city":"New York","fy10 veterans":2,"zip code":"11223","id":"a6ozv50jyzo5","lat":40.596849,"long":-73.973293},"type":"Feature","geometry":{"type":"Point","coordinates":[-73.973293,40.596849]}},{"properties":{"city":"Bayonne","fy10 veterans":3,"zip code":"11224","id":"a6ozv52eqbdi","lat":40.576559,"long":-73.988464},"type":"Feature","geometry":{"type":"Point","coordinates":[-73.988464,40.576559]}},{"properties":{"city":"New York","fy10 veterans":1,"zip code":"11225","id":"a6ozv55n2vq0","lat":40.663957,"long":-73.95619},"type":"Feature","geometry":{"type":"Point","coordinates":[-73.95619,40.663957]}},{"properties":{"city":"New York","fy10 veterans":5,"zip code":"11226","id":"a6ozv5704bw2","lat":40.64637,"long":-73.956856},"type":"Feature","geometry":{"type":"Point","coordinates":[-73.956856,40.64637]}},{"properties":{"city":"Bayonne","fy10 veterans":3,"zip code":"11228","id":"a6ozv53md57o","lat":40.615788,"long":-74.014993},"type":"Feature","geometry":{"type":"Point","coordinates":[-74.014993,40.615788]}},{"properties":{"city":"New York","fy10 veterans":7,"zip code":"11229","id":"a6ozv5eep7f1","lat":40.599469,"long":-73.941767},"type":"Feature","geometry":{"type":"Point","coordinates":[-73.941767,40.599469]}},{"properties":{"city":"New York","fy10 veterans":1,"zip code":"11230","id":"a6ozv5d5vjm7","lat":40.622079,"long":-73.965102},"type":"Feature","geometry":{"type":"Point","coordinates":[-73.965102,40.622079]}},{"properties":{"city":"New York","fy10 veterans":1,"zip code":"11232","id":"a6ozv59h0i3z","lat":40.655613,"long":-74.007192},"type":"Feature","geometry":{"type":"Point","coordinates":[-74.007192,40.655613]}},{"properties":{"city":"New York","fy10 veterans":5,"zip code":"11233","id":"a6ozv580n4uo","lat":40.678207,"long":-73.919969},"type":"Feature","geometry":{"type":"Point","coordinates":[-73.919969,40.678207]}},{"properties":{"city":"New York","fy10 veterans":8,"zip code":"11234","id":"a6ozv5eg68se","lat":40.609799,"long":-73.891542},"type":"Feature","geometry":{"type":"Point","coordinates":[-73.891542,40.609799]}},{"properties":{"city":"New York","fy10 veterans":3,"zip code":"11235","id":"a6ozv56q51lf","lat":40.584151,"long":-73.949339},"type":"Feature","geometry":{"type":"Point","coordinates":[-73.949339,40.584151]}},{"properties":{"city":"New York","fy10 veterans":5,"zip code":"11236","id":"a6ozv58vhq1w","lat":40.639132,"long":-73.900028},"type":"Feature","geometry":{"type":"Point","coordinates":[-73.900028,40.639132]}},{"properties":{"city":"New York","fy10 veterans":3,"zip code":"11237","id":"a6ozv56dujye","lat":40.703901,"long":-73.920993},"type":"Feature","geometry":{"type":"Point","coordinates":[-73.920993,40.703901]}},{"properties":{"city":"New York","fy10 veterans":1,"zip code":"11238","id":"a6ozv5fpzrj5","lat":40.680387,"long":-73.96335},"type":"Feature","geometry":{"type":"Point","coordinates":[-73.96335,40.680387]}},{"properties":{"city":"New York","fy10 veterans":1,"zip code":"11243","id":"a6ozv5216qzq","lat":40.685999,"long":-73.977622},"type":"Feature","geometry":{"type":"Point","coordinates":[-73.977622,40.685999]}},{"properties":{"city":"Saddle Rock","fy10 veterans":20,"zip code":"11354","id":"a6ozv5cqi1no","lat":40.768809,"long":-73.830025},"type":"Feature","geometry":{"type":"Point","coordinates":[-73.830025,40.768809]}},{"properties":{"city":"Saddle Rock","fy10 veterans":15,"zip code":"11355","id":"a6ozv5ajusz3","lat":40.750195,"long":-73.821695},"type":"Feature","geometry":{"type":"Point","coordinates":[-73.821695,40.750195]}},{"properties":{"city":"Saddle Rock","fy10 veterans":22,"zip code":"11356","id":"a6ozv5bqp4yp","lat":40.787493,"long":-73.847495},"type":"Feature","geometry":{"type":"Point","coordinates":[-73.847495,40.787493]}},{"properties":{"city":"Saddle Rock","fy10 veterans":71,"zip code":"11357","id":"a6ozv59jg8sg","lat":40.789627,"long":-73.81263},"type":"Feature","geometry":{"type":"Point","coordinates":[-73.81263,40.789627]}},{"properties":{"city":"Saddle Rock","fy10 veterans":45,"zip code":"11358","id":"a6ozv5d4a2zj","lat":40.760464,"long":-73.796447},"type":"Feature","geometry":{"type":"Point","coordinates":[-73.796447,40.760464]}},{"properties":{"city":"Saddle Rock","fy10 veterans":1,"zip code":"11359","id":"a6ozv51vk507","lat":40.791774,"long":-73.776534},"type":"Feature","geometry":{"type":"Point","coordinates":[-73.776534,40.791774]}},{"properties":{"city":"Saddle Rock","fy10 veterans":47,"zip code":"11360","id":"a6ozv5a98ror","lat":40.783074,"long":-73.779871},"type":"Feature","geometry":{"type":"Point","coordinates":[-73.779871,40.783074]}},{"properties":{"city":"Great Neck Estates","fy10 veterans":34,"zip code":"11361","id":"a6ozv596bryx","lat":40.764095,"long":-73.772909},"type":"Feature","geometry":{"type":"Point","coordinates":[-73.772909,40.764095]}},{"properties":{"city":"Lake Success","fy10 veterans":72,"zip code":"11362","id":"a6ozv53r68yr","lat":40.759144,"long":-73.733263},"type":"Feature","geometry":{"type":"Point","coordinates":[-73.733263,40.759144]}},{"properties":{"city":"University Gardens","fy10 veterans":11,"zip code":"11363","id":"a6ozv546akp5","lat":40.7726,"long":-73.74648},"type":"Feature","geometry":{"type":"Point","coordinates":[-73.74648,40.7726]}},{"properties":{"city":"Bellerose","fy10 veterans":60,"zip code":"11364","id":"a6ozv54q4qqk","lat":40.746051,"long":-73.757189},"type":"Feature","geometry":{"type":"Point","coordinates":[-73.757189,40.746051]}},{"properties":{"city":"Bellerose","fy10 veterans":34,"zip code":"11365","id":"a6ozv51utipm","lat":40.73925,"long":-73.792362},"type":"Feature","geometry":{"type":"Point","coordinates":[-73.792362,40.73925]}},{"properties":{"city":"Bellerose","fy10 veterans":16,"zip code":"11366","id":"a6ozv5etgu1b","lat":40.728117,"long":-73.788276},"type":"Feature","geometry":{"type":"Point","coordinates":[-73.788276,40.728117]}},{"properties":{"city":"Bellerose","fy10 veterans":8,"zip code":"11367","id":"a6ozv5bij0v4","lat":40.730705,"long":-73.82609},"type":"Feature","geometry":{"type":"Point","coordinates":[-73.82609,40.730705]}},{"properties":{"city":"Saddle Rock","fy10 veterans":7,"zip code":"11368","id":"a6ozv5azayoa","lat":40.750528,"long":-73.853067},"type":"Feature","geometry":{"type":"Point","coordinates":[-73.853067,40.750528]}},{"properties":{"city":"Saddle Rock","fy10 veterans":5,"zip code":"11369","id":"a6ozv514z5o5","lat":40.763323,"long":-73.86564},"type":"Feature","geometry":{"type":"Point","coordinates":[-73.86564,40.763323]}},{"properties":{"city":"Edgewater","fy10 veterans":3,"zip code":"11370","id":"a6ozv564oez6","lat":40.762663,"long":-73.890997},"type":"Feature","geometry":{"type":"Point","coordinates":[-73.890997,40.762663]}},{"properties":{"city":"Edgewater","fy10 veterans":1,"zip code":"11371","id":"a6ozv54zc2g7","lat":40.768389,"long":-73.887771},"type":"Feature","geometry":{"type":"Point","coordinates":[-73.887771,40.768389]}},{"properties":{"city":"Edgewater","fy10 veterans":5,"zip code":"11372","id":"a6ozv510unvm","lat":40.751756,"long":-73.883517},"type":"Feature","geometry":{"type":"Point","coordinates":[-73.883517,40.751756]}},{"properties":{"city":"New York","fy10 veterans":6,"zip code":"11373","id":"a6ozv57xhavo","lat":40.736264,"long":-73.879392},"type":"Feature","geometry":{"type":"Point","coordinates":[-73.879392,40.736264]}},{"properties":{"city":"Saddle Rock","fy10 veterans":13,"zip code":"11374","id":"a6ozv59dhjv4","lat":40.726568,"long":-73.861993},"type":"Feature","geometry":{"type":"Point","coordinates":[-73.861993,40.726568]}},{"properties":{"city":"Bellerose","fy10 veterans":20,"zip code":"11375","id":"a6ozv52z8ofj","lat":40.725069,"long":-73.843824},"type":"Feature","geometry":{"type":"Point","coordinates":[-73.843824,40.725069]}},{"properties":{"city":"New York","fy10 veterans":13,"zip code":"11377","id":"a6ozv4zeasqx","lat":40.744447,"long":-73.905066},"type":"Feature","geometry":{"type":"Point","coordinates":[-73.905066,40.744447]}},{"properties":{"city":"New York","fy10 veterans":12,"zip code":"11378","id":"a6ozv54owfw3","lat":40.724728,"long":-73.909808},"type":"Feature","geometry":{"type":"Point","coordinates":[-73.909808,40.724728]}},{"properties":{"city":"New York","fy10 veterans":27,"zip code":"11379","id":"a6ozv557c4v6","lat":40.720343,"long":-73.879299},"type":"Feature","geometry":{"type":"Point","coordinates":[-73.879299,40.720343]}},{"properties":{"city":"New York","fy10 veterans":29,"zip code":"11385","id":"a6ozv521nf57","lat":40.701113,"long":-73.890973},"type":"Feature","geometry":{"type":"Point","coordinates":[-73.890973,40.701113]}},{"properties":{"city":"Elmont","fy10 veterans":1,"zip code":"11411","id":"a6ozv5dvoy3e","lat":40.694168,"long":-73.736002},"type":"Feature","geometry":{"type":"Point","coordinates":[-73.736002,40.694168]}},{"properties":{"city":"Elmont","fy10 veterans":14,"zip code":"11412","id":"a6ozv5d34xo1","lat":40.698192,"long":-73.759319},"type":"Feature","geometry":{"type":"Point","coordinates":[-73.759319,40.698192]}},{"properties":{"city":"South Valley Stream","fy10 veterans":10,"zip code":"11413","id":"a6ozv51ptxd3","lat":40.672849,"long":-73.750474},"type":"Feature","geometry":{"type":"Point","coordinates":[-73.750474,40.672849]}},{"properties":{"city":"Inwood","fy10 veterans":19,"zip code":"11414","id":"a6ozv58tt1gs","lat":40.655889,"long":-73.846363},"type":"Feature","geometry":{"type":"Point","coordinates":[-73.846363,40.655889]}},{"properties":{"city":"Bellerose","fy10 veterans":8,"zip code":"11415","id":"a6ozv52xisno","lat":40.708498,"long":-73.828748},"type":"Feature","geometry":{"type":"Point","coordinates":[-73.828748,40.708498]}},{"properties":{"city":"Inwood","fy10 veterans":5,"zip code":"11416","id":"a6ozv5bwetmi","lat":40.68458,"long":-73.849557},"type":"Feature","geometry":{"type":"Point","coordinates":[-73.849557,40.68458]}},{"properties":{"city":"Inwood","fy10 veterans":8,"zip code":"11417","id":"a6ozv55cj4rr","lat":40.675201,"long":-73.841265},"type":"Feature","geometry":{"type":"Point","coordinates":[-73.841265,40.675201]}},{"properties":{"city":"Elmont","fy10 veterans":12,"zip code":"11418","id":"a6ozv53kqo5a","lat":40.69898,"long":-73.834072},"type":"Feature","geometry":{"type":"Point","coordinates":[-73.834072,40.69898]}},{"properties":{"city":"Elmont","fy10 veterans":9,"zip code":"11419","id":"a6ozv559ezdu","lat":40.688704,"long":-73.8229},"type":"Feature","geometry":{"type":"Point","coordinates":[-73.8229,40.688704]}},{"properties":{"city":"Inwood","fy10 veterans":9,"zip code":"11420","id":"a6ozv5byu3gl","lat":40.673956,"long":-73.81503},"type":"Feature","geometry":{"type":"Point","coordinates":[-73.81503,40.673956]}},{"properties":{"city":"Inwood","fy10 veterans":12,"zip code":"11421","id":"a6ozv5festrs","lat":40.693591,"long":-73.858422},"type":"Feature","geometry":{"type":"Point","coordinates":[-73.858422,40.693591]}},{"properties":{"city":"South Valley Stream","fy10 veterans":15,"zip code":"11422","id":"a6ozv5byddaq","lat":40.649802,"long":-73.772767},"type":"Feature","geometry":{"type":"Point","coordinates":[-73.772767,40.649802]}},{"properties":{"city":"Bellerose","fy10 veterans":6,"zip code":"11423","id":"a6ozv52fy5au","lat":40.717224,"long":-73.769362},"type":"Feature","geometry":{"type":"Point","coordinates":[-73.769362,40.717224]}},{"properties":{"city":"Elmont","fy10 veterans":4,"zip code":"11425","id":"a6ozv57ypl62","lat":40.692286,"long":-73.770718},"type":"Feature","geometry":{"type":"Point","coordinates":[-73.770718,40.692286]}},{"properties":{"city":"Bellerose","fy10 veterans":28,"zip code":"11426","id":"a6ozv53uixfi","lat":40.736471,"long":-73.723532},"type":"Feature","geometry":{"type":"Point","coordinates":[-73.723532,40.736471]}},{"properties":{"city":"Bellerose","fy10 veterans":22,"zip code":"11427","id":"a6ozv5f9bkns","lat":40.72972,"long":-73.749091},"type":"Feature","geometry":{"type":"Point","coordinates":[-73.749091,40.72972]}},{"properties":{"city":"Bellerose","fy10 veterans":11,"zip code":"11428","id":"a6ozv5a2jgx9","lat":40.72131,"long":-73.741786},"type":"Feature","geometry":{"type":"Point","coordinates":[-73.741786,40.72131]}},{"properties":{"city":"Elmont","fy10 veterans":10,"zip code":"11429","id":"a6ozv55hdz4c","lat":40.709777,"long":-73.73865},"type":"Feature","geometry":{"type":"Point","coordinates":[-73.73865,40.709777]}},{"properties":{"city":"Inwood","fy10 veterans":2,"zip code":"11430","id":"a6ozv58qkfin","lat":40.662735,"long":-73.805127},"type":"Feature","geometry":{"type":"Point","coordinates":[-73.805127,40.662735]}},{"properties":{"city":"Bellerose","fy10 veterans":1,"zip code":"11431","id":"a6ozv5490g9w","lat":40.705489,"long":-73.780075},"type":"Feature","geometry":{"type":"Point","coordinates":[-73.780075,40.705489]}},{"properties":{"city":"Bellerose","fy10 veterans":9,"zip code":"11432","id":"a6ozv51rslwr","lat":40.715219,"long":-73.793071},"type":"Feature","geometry":{"type":"Point","coordinates":[-73.793071,40.715219]}},{"properties":{"city":"Elmont","fy10 veterans":5,"zip code":"11433","id":"a6ozv58x5gyr","lat":40.698368,"long":-73.787403},"type":"Feature","geometry":{"type":"Point","coordinates":[-73.787403,40.698368]}},{"properties":{"city":"South Valley Stream","fy10 veterans":16,"zip code":"11434","id":"a6ozv55ue1zi","lat":40.675117,"long":-73.77639},"type":"Feature","geometry":{"type":"Point","coordinates":[-73.77639,40.675117]}},{"properties":{"city":"Elmont","fy10 veterans":12,"zip code":"11435","id":"a6ozv4zcsc79","lat":40.704679,"long":-73.809714},"type":"Feature","geometry":{"type":"Point","coordinates":[-73.809714,40.704679]}},{"properties":{"city":"Mineola","fy10 veterans":143,"zip code":"11501","id":"a6ozv5a0jsjt","lat":40.746156,"long":-73.639047},"type":"Feature","geometry":{"type":"Point","coordinates":[-73.639047,40.746156]}},{"properties":{"city":"Searingtown","fy10 veterans":59,"zip code":"11507","id":"a6ozv52d8qb6","lat":40.771292,"long":-73.653204},"type":"Feature","geometry":{"type":"Point","coordinates":[-73.653204,40.771292]}},{"properties":{"city":"Atlantic Beach","fy10 veterans":10,"zip code":"11509","id":"a6ozv52r1ru0","lat":40.587918,"long":-73.732294},"type":"Feature","geometry":{"type":"Point","coordinates":[-73.732294,40.587918]}},{"properties":{"city":"Baldwin","fy10 veterans":221,"zip code":"11510","id":"a6ozv5ar4zyz","lat":40.652116,"long":-73.606797},"type":"Feature","geometry":{"type":"Point","coordinates":[-73.606797,40.652116]}},{"properties":{"city":"Carle Place","fy10 veterans":43,"zip code":"11514","id":"a6ozv58jtf1c","lat":40.749216,"long":-73.612043},"type":"Feature","geometry":{"type":"Point","coordinates":[-73.612043,40.749216]}},{"properties":{"city":"Cedarhurst","fy10 veterans":29,"zip code":"11516","id":"a6ozv51heyh8","lat":40.627956,"long":-73.729175},"type":"Feature","geometry":{"type":"Point","coordinates":[-73.729175,40.627956]}},{"properties":{"city":"East Rockaway","fy10 veterans":77,"zip code":"11518","id":"a6ozv515hl2o","lat":40.638105,"long":-73.666664},"type":"Feature","geometry":{"type":"Point","coordinates":[-73.666664,40.638105]}},{"properties":{"city":"Freeport","fy10 veterans":306,"zip code":"11520","id":"a6ozv57vki4i","lat":40.636214,"long":-73.580138},"type":"Feature","geometry":{"type":"Point","coordinates":[-73.580138,40.636214]}},{"properties":{"city":"Garden City","fy10 veterans":201,"zip code":"11530","id":"a6ozv52vkv8a","lat":40.72506,"long":-73.638801},"type":"Feature","geometry":{"type":"Point","coordinates":[-73.638801,40.72506]}},{"properties":{"city":"Glen Cove","fy10 veterans":226,"zip code":"11542","id":"a6ozv59pvb8e","lat":40.866614,"long":-73.630635},"type":"Feature","geometry":{"type":"Point","coordinates":[-73.630635,40.866614]}},{"properties":{"city":"Glen Head","fy10 veterans":92,"zip code":"11545","id":"a6ozv5anfu77","lat":40.82523,"long":-73.587507},"type":"Feature","geometry":{"type":"Point","coordinates":[-73.587507,40.82523]}},{"properties":{"city":"Glenwood Landing","fy10 veterans":11,"zip code":"11547","id":"a6ozv5bzhocs","lat":40.831059,"long":-73.644038},"type":"Feature","geometry":{"type":"Point","coordinates":[-73.644038,40.831059]}},{"properties":{"city":"Greenvale","fy10 veterans":12,"zip code":"11548","id":"a6ozv5embu5j","lat":40.815346,"long":-73.62304},"type":"Feature","geometry":{"type":"Point","coordinates":[-73.62304,40.815346]}},{"properties":{"city":"Hempstead","fy10 veterans":237,"zip code":"11550","id":"a6ozv50171c2","lat":40.702622,"long":-73.619676},"type":"Feature","geometry":{"type":"Point","coordinates":[-73.619676,40.702622]}},{"properties":{"city":"Hempstead","fy10 veterans":9,"zip code":"11551","id":"a6ozv5fo132f","lat":40.705695,"long":-73.629382},"type":"Feature","geometry":{"type":"Point","coordinates":[-73.629382,40.705695]}},{"properties":{"city":"West Hempstead","fy10 veterans":165,"zip code":"11552","id":"a6ozv5927w0g","lat":40.691879,"long":-73.651569},"type":"Feature","geometry":{"type":"Point","coordinates":[-73.651569,40.691879]}},{"properties":{"city":"Uniondale","fy10 veterans":110,"zip code":"11553","id":"a6ozv5dt91si","lat":40.707539,"long":-73.593896},"type":"Feature","geometry":{"type":"Point","coordinates":[-73.593896,40.707539]}},{"properties":{"city":"East Meadow","fy10 veterans":440,"zip code":"11554","id":"a6ozv54td07v","lat":40.715651,"long":-73.557869},"type":"Feature","geometry":{"type":"Point","coordinates":[-73.557869,40.715651]}},{"properties":{"city":"Hewlett","fy10 veterans":51,"zip code":"11557","id":"a6ozv51kzw2n","lat":40.638229,"long":-73.692344},"type":"Feature","geometry":{"type":"Point","coordinates":[-73.692344,40.638229]}},{"properties":{"city":"Barnum Island","fy10 veterans":87,"zip code":"11558","id":"a6ozv5cddie5","lat":40.610424,"long":-73.663942},"type":"Feature","geometry":{"type":"Point","coordinates":[-73.663942,40.610424]}},{"properties":{"city":"Cedarhurst","fy10 veterans":26,"zip code":"11559","id":"a6ozv55b1tgm","lat":40.606939,"long":-73.716945},"type":"Feature","geometry":{"type":"Point","coordinates":[-73.716945,40.606939]}},{"properties":{"city":"Locust Valley","fy10 veterans":46,"zip code":"11560","id":"a6ozv5cyckoq","lat":40.880778,"long":-73.589984},"type":"Feature","geometry":{"type":"Point","coordinates":[-73.589984,40.880778]}},{"properties":{"city":"Long Beach","fy10 veterans":315,"zip code":"11561","id":"a6ozv53i7z02","lat":40.603842,"long":-73.612524},"type":"Feature","geometry":{"type":"Point","coordinates":[-73.612524,40.603842]}},{"properties":{"city":"Lynbrook","fy10 veterans":191,"zip code":"11563","id":"a6ozv58fh5va","lat":40.657567,"long":-73.673425},"type":"Feature","geometry":{"type":"Point","coordinates":[-73.673425,40.657567]}},{"properties":{"city":"Malverne","fy10 veterans":69,"zip code":"11565","id":"a6ozv56shisz","lat":40.67495,"long":-73.671919},"type":"Feature","geometry":{"type":"Point","coordinates":[-73.671919,40.67495]}},{"properties":{"city":"Merrick","fy10 veterans":343,"zip code":"11566","id":"a6ozv590wguf","lat":40.650064,"long":-73.549528},"type":"Feature","geometry":{"type":"Point","coordinates":[-73.549528,40.650064]}},{"properties":{"city":"Old Westbury","fy10 veterans":8,"zip code":"11568","id":"a6ozv4zh9qb3","lat":40.7861,"long":-73.598542},"type":"Feature","geometry":{"type":"Point","coordinates":[-73.598542,40.7861]}},{"properties":{"city":"Point Lookout","fy10 veterans":23,"zip code":"11569","id":"a6ozv5bfn4gi","lat":40.60159,"long":-73.571668},"type":"Feature","geometry":{"type":"Point","coordinates":[-73.571668,40.60159]}},{"properties":{"city":"Rockville Centre","fy10 veterans":208,"zip code":"11570","id":"a6ozv4zgd9gg","lat":40.666058,"long":-73.637775},"type":"Feature","geometry":{"type":"Point","coordinates":[-73.637775,40.666058]}},{"properties":{"city":"Rockville Centre","fy10 veterans":4,"zip code":"11571","id":"a6ozv5casn31","lat":40.66,"long":-73.65},"type":"Feature","geometry":{"type":"Point","coordinates":[-73.65,40.66]}},{"properties":{"city":"Oceanside","fy10 veterans":293,"zip code":"11572","id":"a6ozv58pgvn2","lat":40.632156,"long":-73.636817},"type":"Feature","geometry":{"type":"Point","coordinates":[-73.636817,40.632156]}},{"properties":{"city":"Roosevelt","fy10 veterans":91,"zip code":"11575","id":"a6ozv50sfj8z","lat":40.680488,"long":-73.585172},"type":"Feature","geometry":{"type":"Point","coordinates":[-73.585172,40.680488]}},{"properties":{"city":"Roslyn","fy10 veterans":101,"zip code":"11576","id":"a6ozv4zqua74","lat":40.799496,"long":-73.655029},"type":"Feature","geometry":{"type":"Point","coordinates":[-73.655029,40.799496]}},{"properties":{"city":"Roslyn Heights","fy10 veterans":78,"zip code":"11577","id":"a6ozv54ynuz5","lat":40.788797,"long":-73.646544},"type":"Feature","geometry":{"type":"Point","coordinates":[-73.646544,40.788797]}},{"properties":{"city":"Sea Cliff","fy10 veterans":48,"zip code":"11579","id":"a6ozv5738l5l","lat":40.843951,"long":-73.643854},"type":"Feature","geometry":{"type":"Point","coordinates":[-73.643854,40.843951]}},{"properties":{"city":"Valley Stream","fy10 veterans":185,"zip code":"11580","id":"a6ozv5epx77s","lat":40.674601,"long":-73.704087},"type":"Feature","geometry":{"type":"Point","coordinates":[-73.704087,40.674601]}},{"properties":{"city":"South Valley Stream","fy10 veterans":103,"zip code":"11581","id":"a6ozv5cik1iw","lat":40.65247,"long":-73.714594},"type":"Feature","geometry":{"type":"Point","coordinates":[-73.714594,40.65247]}},{"properties":{"city":"Valley Stream","fy10 veterans":4,"zip code":"11582","id":"a6ozv50kvibm","lat":40.66,"long":-73.71},"type":"Feature","geometry":{"type":"Point","coordinates":[-73.71,40.66]}},{"properties":{"city":"Westbury","fy10 veterans":358,"zip code":"11590","id":"a6ozv528r2i8","lat":40.756713,"long":-73.576658},"type":"Feature","geometry":{"type":"Point","coordinates":[-73.576658,40.756713]}},{"properties":{"city":"Williston Park","fy10 veterans":101,"zip code":"11596","id":"a6ozv5869mhq","lat":40.759697,"long":-73.642298},"type":"Feature","geometry":{"type":"Point","coordinates":[-73.642298,40.759697]}},{"properties":{"city":"Woodmere","fy10 veterans":56,"zip code":"11598","id":"a6ozv52ezqnv","lat":40.626007,"long":-73.705071},"type":"Feature","geometry":{"type":"Point","coordinates":[-73.705071,40.626007]}},{"properties":{"city":"Inwood","fy10 veterans":20,"zip code":"11691","id":"a6ozv54kgvew","lat":40.599601,"long":-73.759514},"type":"Feature","geometry":{"type":"Point","coordinates":[-73.759514,40.599601]}},{"properties":{"city":"Inwood","fy10 veterans":3,"zip code":"11692","id":"a6ozv5705hyx","lat":40.593127,"long":-73.794212},"type":"Feature","geometry":{"type":"Point","coordinates":[-73.794212,40.593127]}},{"properties":{"city":"Inwood","fy10 veterans":3,"zip code":"11693","id":"a6ozv54wlbwu","lat":40.613434,"long":-73.815058},"type":"Feature","geometry":{"type":"Point","coordinates":[-73.815058,40.613434]}},{"properties":{"city":"Inwood","fy10 veterans":8,"zip code":"11694","id":"a6ozv51llwt1","lat":40.58164,"long":-73.846823},"type":"Feature","geometry":{"type":"Point","coordinates":[-73.846823,40.58164]}},{"properties":{"city":"Inwood","fy10 veterans":2,"zip code":"11697","id":"a6ozv50s8qdo","lat":40.559626,"long":-73.909242},"type":"Feature","geometry":{"type":"Point","coordinates":[-73.909242,40.559626]}},{"properties":{"city":"Amityville","fy10 veterans":331,"zip code":"11701","id":"a6ozv5b7u95p","lat":40.677956,"long":-73.410405},"type":"Feature","geometry":{"type":"Point","coordinates":[-73.410405,40.677956]}},{"properties":{"city":"Babylon","fy10 veterans":230,"zip code":"11702","id":"a6ozv5f6cwmp","lat":40.639289,"long":-73.350924},"type":"Feature","geometry":{"type":"Point","coordinates":[-73.350924,40.639289]}},{"properties":{"city":"North Babylon","fy10 veterans":313,"zip code":"11703","id":"a6ozv50uosn0","lat":40.732882,"long":-73.325628},"type":"Feature","geometry":{"type":"Point","coordinates":[-73.325628,40.732882]}},{"properties":{"city":"West Babylon","fy10 veterans":489,"zip code":"11704","id":"a6ozv5e5ctf5","lat":40.716349,"long":-73.356431},"type":"Feature","geometry":{"type":"Point","coordinates":[-73.356431,40.716349]}},{"properties":{"city":"Bayport","fy10 veterans":93,"zip code":"11705","id":"a6ozv5epvzu9","lat":40.745546,"long":-73.054231},"type":"Feature","geometry":{"type":"Point","coordinates":[-73.054231,40.745546]}},{"properties":{"city":"North Bay Shore","fy10 veterans":790,"zip code":"11706","id":"a6ozv53mccqv","lat":40.723804,"long":-73.260544},"type":"Feature","geometry":{"type":"Point","coordinates":[-73.260544,40.723804]}},{"properties":{"city":"Babylon","fy10 veterans":1,"zip code":"11707","id":"a6ozv5aa1mge","lat":40.7,"long":-73.33},"type":"Feature","geometry":{"type":"Point","coordinates":[-73.33,40.7]}},{"properties":{"city":"Bayville","fy10 veterans":92,"zip code":"11709","id":"a6ozv56vc9dr","lat":40.907764,"long":-73.560494},"type":"Feature","geometry":{"type":"Point","coordinates":[-73.560494,40.907764]}},{"properties":{"city":"Bellmore","fy10 veterans":338,"zip code":"11710","id":"a6ozv52zv7j5","lat":40.652622,"long":-73.526724},"type":"Feature","geometry":{"type":"Point","coordinates":[-73.526724,40.652622]}},{"properties":{"city":"North Bellport","fy10 veterans":125,"zip code":"11713","id":"a6ozv56i9mei","lat":40.748688,"long":-72.941618},"type":"Feature","geometry":{"type":"Point","coordinates":[-72.941618,40.748688]}},{"properties":{"city":"Bethpage","fy10 veterans":371,"zip code":"11714","id":"a6ozv5frmj05","lat":40.742464,"long":-73.485868},"type":"Feature","geometry":{"type":"Point","coordinates":[-73.485868,40.742464]}},{"properties":{"city":"Blue Point","fy10 veterans":62,"zip code":"11715","id":"a6ozv54ucpz7","lat":40.74975,"long":-73.035183},"type":"Feature","geometry":{"type":"Point","coordinates":[-73.035183,40.74975]}},{"properties":{"city":"Bohemia","fy10 veterans":177,"zip code":"11716","id":"a6ozv5byomky","lat":40.771097,"long":-73.127526},"type":"Feature","geometry":{"type":"Point","coordinates":[-73.127526,40.771097]}},{"properties":{"city":"Brentwood","fy10 veterans":396,"zip code":"11717","id":"a6ozv54chnfa","lat":40.78393,"long":-73.252411},"type":"Feature","geometry":{"type":"Point","coordinates":[-73.252411,40.78393]}},{"properties":{"city":"Brightwaters","fy10 veterans":37,"zip code":"11718","id":"a6ozv54o77bx","lat":40.716736,"long":-73.265545},"type":"Feature","geometry":{"type":"Point","coordinates":[-73.265545,40.716736]}},{"properties":{"city":"Brookhaven","fy10 veterans":66,"zip code":"11719","id":"a6ozv4zpkvef","lat":40.764539,"long":-72.911488},"type":"Feature","geometry":{"type":"Point","coordinates":[-72.911488,40.764539]}},{"properties":{"city":"Centereach","fy10 veterans":341,"zip code":"11720","id":"a6ozv55cl4lc","lat":40.869243,"long":-73.081001},"type":"Feature","geometry":{"type":"Point","coordinates":[-73.081001,40.869243]}},{"properties":{"city":"Centerport","fy10 veterans":97,"zip code":"11721","id":"a6ozv5627cr5","lat":40.893332,"long":-73.37205},"type":"Feature","geometry":{"type":"Point","coordinates":[-73.37205,40.893332]}},{"properties":{"city":"Central Islip","fy10 veterans":353,"zip code":"11722","id":"a6ozv56dld98","lat":40.784331,"long":-73.193694},"type":"Feature","geometry":{"type":"Point","coordinates":[-73.193694,40.784331]}},{"properties":{"city":"Laurel Hollow","fy10 veterans":24,"zip code":"11724","id":"a6ozv4zygi1h","lat":40.862771,"long":-73.453027},"type":"Feature","geometry":{"type":"Point","coordinates":[-73.453027,40.862771]}},{"properties":{"city":"Commack","fy10 veterans":499,"zip code":"11725","id":"a6ozv546omdb","lat":40.840519,"long":-73.280844},"type":"Feature","geometry":{"type":"Point","coordinates":[-73.280844,40.840519]}},{"properties":{"city":"Copiague","fy10 veterans":184,"zip code":"11726","id":"a6ozv5fczlpw","lat":40.678359,"long":-73.39608},"type":"Feature","geometry":{"type":"Point","coordinates":[-73.39608,40.678359]}},{"properties":{"city":"Coram","fy10 veterans":393,"zip code":"11727","id":"a6ozv5bhytxb","lat":40.878727,"long":-73.005555},"type":"Feature","geometry":{"type":"Point","coordinates":[-73.005555,40.878727]}},{"properties":{"city":"Deer Park","fy10 veterans":376,"zip code":"11729","id":"a6ozv5axjgbg","lat":40.76254,"long":-73.321716},"type":"Feature","geometry":{"type":"Point","coordinates":[-73.321716,40.76254]}},{"properties":{"city":"East Islip","fy10 veterans":181,"zip code":"11730","id":"a6ozv58a9vss","lat":40.721181,"long":-73.177454},"type":"Feature","geometry":{"type":"Point","coordinates":[-73.177454,40.721181]}},{"properties":{"city":"East Northport","fy10 veterans":643,"zip code":"11731","id":"a6ozv5035xk9","lat":40.861808,"long":-73.315812},"type":"Feature","geometry":{"type":"Point","coordinates":[-73.315812,40.861808]}},{"properties":{"city":"East Norwich","fy10 veterans":62,"zip code":"11732","id":"a6ozv5ab4yej","lat":40.844383,"long":-73.533073},"type":"Feature","geometry":{"type":"Point","coordinates":[-73.533073,40.844383]}},{"properties":{"city":"Setauket","fy10 veterans":182,"zip code":"11733","id":"a6ozv50mb8r0","lat":40.928079,"long":-73.116638},"type":"Feature","geometry":{"type":"Point","coordinates":[-73.116638,40.928079]}},{"properties":{"city":"Farmingdale","fy10 veterans":395,"zip code":"11735","id":"a6ozv5a21xrk","lat":40.732135,"long":-73.429488},"type":"Feature","geometry":{"type":"Point","coordinates":[-73.429488,40.732135]}},{"properties":{"city":"South Farmingdale","fy10 veterans":1,"zip code":"11736","id":"a6ozv5dfy0sd","lat":40.73,"long":-73.45},"type":"Feature","geometry":{"type":"Point","coordinates":[-73.45,40.73]}},{"properties":{"city":"Farmingville","fy10 veterans":182,"zip code":"11738","id":"a6ozv57z1lng","lat":40.842596,"long":-73.047511},"type":"Feature","geometry":{"type":"Point","coordinates":[-73.047511,40.842596]}},{"properties":{"city":"Great River","fy10 veterans":18,"zip code":"11739","id":"a6ozv57l0782","lat":40.719563,"long":-73.152937},"type":"Feature","geometry":{"type":"Point","coordinates":[-73.152937,40.719563]}},{"properties":{"city":"Greenlawn","fy10 veterans":157,"zip code":"11740","id":"a6ozv591yt8p","lat":40.865355,"long":-73.363167},"type":"Feature","geometry":{"type":"Point","coordinates":[-73.363167,40.865355]}},{"properties":{"city":"Holbrook","fy10 veterans":386,"zip code":"11741","id":"a6ozv5ct56g8","lat":40.795019,"long":-73.070458},"type":"Feature","geometry":{"type":"Point","coordinates":[-73.070458,40.795019]}},{"properties":{"city":"Holtsville","fy10 veterans":137,"zip code":"11742","id":"a6ozv54ds5f0","lat":40.807598,"long":-73.041061},"type":"Feature","geometry":{"type":"Point","coordinates":[-73.041061,40.807598]}},{"properties":{"city":"Huntington","fy10 veterans":595,"zip code":"11743","id":"a6ozv5ds9ozy","lat":40.87486,"long":-73.422897},"type":"Feature","geometry":{"type":"Point","coordinates":[-73.422897,40.87486]}},{"properties":{"city":"South Huntington","fy10 veterans":774,"zip code":"11746","id":"a6ozv58x4rja","lat":40.814079,"long":-73.36007},"type":"Feature","geometry":{"type":"Point","coordinates":[-73.36007,40.814079]}},{"properties":{"city":"Melville","fy10 veterans":363,"zip code":"11747","id":"a6ozv58o3l5d","lat":40.78366,"long":-73.408464},"type":"Feature","geometry":{"type":"Point","coordinates":[-73.408464,40.78366]}},{"properties":{"city":"Islandia","fy10 veterans":42,"zip code":"11749","id":"a6ozv512orbn","lat":40.805707,"long":-73.173117},"type":"Feature","geometry":{"type":"Point","coordinates":[-73.173117,40.805707]}},{"properties":{"city":"Islip","fy10 veterans":251,"zip code":"11751","id":"a6ozv5f88s4w","lat":40.733245,"long":-73.21427},"type":"Feature","geometry":{"type":"Point","coordinates":[-73.21427,40.733245]}},{"properties":{"city":"North Great River","fy10 veterans":110,"zip code":"11752","id":"a6ozv5dflci2","lat":40.759284,"long":-73.175781},"type":"Feature","geometry":{"type":"Point","coordinates":[-73.175781,40.759284]}},{"properties":{"city":"Jericho","fy10 veterans":127,"zip code":"11753","id":"a6ozv53c9a4j","lat":40.788801,"long":-73.540644},"type":"Feature","geometry":{"type":"Point","coordinates":[-73.540644,40.788801]}},{"properties":{"city":"Kings Park","fy10 veterans":387,"zip code":"11754","id":"a6ozv53p8ehq","lat":40.887816,"long":-73.249794},"type":"Feature","geometry":{"type":"Point","coordinates":[-73.249794,40.887816]}},{"properties":{"city":"Lake Grove","fy10 veterans":138,"zip code":"11755","id":"a6ozv58epd0l","lat":40.858093,"long":-73.117184},"type":"Feature","geometry":{"type":"Point","coordinates":[-73.117184,40.858093]}},{"properties":{"city":"Levittown","fy10 veterans":498,"zip code":"11756","id":"a6ozv5bfe4zb","lat":40.725786,"long":-73.516824},"type":"Feature","geometry":{"type":"Point","coordinates":[-73.516824,40.725786]}},{"properties":{"city":"Lindenhurst","fy10 veterans":518,"zip code":"11757","id":"a6ozv573c47n","lat":40.691362,"long":-73.372129},"type":"Feature","geometry":{"type":"Point","coordinates":[-73.372129,40.691362]}},{"properties":{"city":"Massapequa","fy10 veterans":696,"zip code":"11758","id":"a6ozv52dl1zf","lat":40.605274,"long":-73.484543},"type":"Feature","geometry":{"type":"Point","coordinates":[-73.484543,40.605274]}},{"properties":{"city":"Massapequa Park","fy10 veterans":301,"zip code":"11762","id":"a6ozv55d95dl","lat":40.678502,"long":-73.445106},"type":"Feature","geometry":{"type":"Point","coordinates":[-73.445106,40.678502]}},{"properties":{"city":"Medford","fy10 veterans":365,"zip code":"11763","id":"a6ozv5d291rk","lat":40.824363,"long":-72.98138},"type":"Feature","geometry":{"type":"Point","coordinates":[-72.98138,40.824363]}},{"properties":{"city":"Miller Place","fy10 veterans":141,"zip code":"11764","id":"a6ozv50ulunm","lat":40.939819,"long":-72.986478},"type":"Feature","geometry":{"type":"Point","coordinates":[-72.986478,40.939819]}},{"properties":{"city":"Mill Neck","fy10 veterans":9,"zip code":"11765","id":"a6ozv54flddo","lat":40.880985,"long":-73.558743},"type":"Feature","geometry":{"type":"Point","coordinates":[-73.558743,40.880985]}},{"properties":{"city":"Mount Sinai","fy10 veterans":148,"zip code":"11766","id":"a6ozv59qptj9","lat":40.946318,"long":-73.025708},"type":"Feature","geometry":{"type":"Point","coordinates":[-73.025708,40.946318]}},{"properties":{"city":"Nesconset","fy10 veterans":164,"zip code":"11767","id":"a6ozv5cx8qjg","lat":40.843792,"long":-73.14631},"type":"Feature","geometry":{"type":"Point","coordinates":[-73.14631,40.843792]}},{"properties":{"city":"Northport","fy10 veterans":803,"zip code":"11768","id":"a6ozv550l5zd","lat":40.909267,"long":-73.333907},"type":"Feature","geometry":{"type":"Point","coordinates":[-73.333907,40.909267]}},{"properties":{"city":"Oakdale","fy10 veterans":144,"zip code":"11769","id":"a6ozv501vcww","lat":40.731797,"long":-73.135301},"type":"Feature","geometry":{"type":"Point","coordinates":[-73.135301,40.731797]}},{"properties":{"city":"Ocean Beach","fy10 veterans":4,"zip code":"11770","id":"a6ozv504yb3r","lat":40.644875,"long":-73.160416},"type":"Feature","geometry":{"type":"Point","coordinates":[-73.160416,40.644875]}},{"properties":{"city":"Oyster Bay","fy10 veterans":84,"zip code":"11771","id":"a6ozv5f7k2sl","lat":40.875499,"long":-73.528134},"type":"Feature","geometry":{"type":"Point","coordinates":[-73.528134,40.875499]}},{"properties":{"city":"East Patchogue","fy10 veterans":658,"zip code":"11772","id":"a6ozv5asw2tc","lat":40.754816,"long":-72.999481},"type":"Feature","geometry":{"type":"Point","coordinates":[-72.999481,40.754816]}},{"properties":{"city":"Port Jefferson Station","fy10 veterans":315,"zip code":"11776","id":"a6ozv56ss8yy","lat":40.913637,"long":-73.045918},"type":"Feature","geometry":{"type":"Point","coordinates":[-73.045918,40.913637]}},{"properties":{"city":"Port Jefferson","fy10 veterans":80,"zip code":"11777","id":"a6ozv5dtdfy7","lat":40.949796,"long":-73.059545},"type":"Feature","geometry":{"type":"Point","coordinates":[-73.059545,40.949796]}},{"properties":{"city":"Rocky Point","fy10 veterans":127,"zip code":"11778","id":"a6ozv50u2m0i","lat":40.93646,"long":-72.934676},"type":"Feature","geometry":{"type":"Point","coordinates":[-72.934676,40.93646]}},{"properties":{"city":"Ronkonkoma","fy10 veterans":559,"zip code":"11779","id":"a6ozv57wdqv5","lat":40.815362,"long":-73.11056},"type":"Feature","geometry":{"type":"Point","coordinates":[-73.11056,40.815362]}},{"properties":{"city":"Saint James","fy10 veterans":181,"zip code":"11780","id":"a6ozv52emwdw","lat":40.893231,"long":-73.181228},"type":"Feature","geometry":{"type":"Point","coordinates":[-73.181228,40.893231]}},{"properties":{"city":"Sayville","fy10 veterans":216,"zip code":"11782","id":"a6ozv5b5omhj","lat":40.697816,"long":-72.974106},"type":"Feature","geometry":{"type":"Point","coordinates":[-72.974106,40.697816]}},{"properties":{"city":"Massapequa","fy10 veterans":272,"zip code":"11783","id":"a6ozv56yrwd7","lat":40.652976,"long":-73.48774},"type":"Feature","geometry":{"type":"Point","coordinates":[-73.48774,40.652976]}},{"properties":{"city":"Selden","fy10 veterans":311,"zip code":"11784","id":"a6ozv55w589q","lat":40.86573,"long":-73.035545},"type":"Feature","geometry":{"type":"Point","coordinates":[-73.035545,40.86573]}},{"properties":{"city":"East Shoreham","fy10 veterans":60,"zip code":"11786","id":"a6ozv4zf9itb","lat":40.946675,"long":-72.887132},"type":"Feature","geometry":{"type":"Point","coordinates":[-72.887132,40.946675]}},{"properties":{"city":"Smithtown","fy10 veterans":494,"zip code":"11787","id":"a6ozv53mp6md","lat":40.853492,"long":-73.207257},"type":"Feature","geometry":{"type":"Point","coordinates":[-73.207257,40.853492]}},{"properties":{"city":"Hauppauge","fy10 veterans":224,"zip code":"11788","id":"a6ozv52y81wp","lat":40.817801,"long":-73.210038},"type":"Feature","geometry":{"type":"Point","coordinates":[-73.210038,40.817801]}},{"properties":{"city":"Sound Beach","fy10 veterans":80,"zip code":"11789","id":"a6ozv54k15vp","lat":40.95713,"long":-72.97125},"type":"Feature","geometry":{"type":"Point","coordinates":[-72.97125,40.95713]}},{"properties":{"city":"Head of the Harbor","fy10 veterans":178,"zip code":"11790","id":"a6ozv59nclg2","lat":40.904537,"long":-73.126626},"type":"Feature","geometry":{"type":"Point","coordinates":[-73.126626,40.904537]}},{"properties":{"city":"Syosset","fy10 veterans":237,"zip code":"11791","id":"a6ozv51x1nxb","lat":40.828342,"long":-73.503483},"type":"Feature","geometry":{"type":"Point","coordinates":[-73.503483,40.828342]}},{"properties":{"city":"Wading River","fy10 veterans":73,"zip code":"11792","id":"a6ozv54mqcfs","lat":40.947151,"long":-72.835717},"type":"Feature","geometry":{"type":"Point","coordinates":[-72.835717,40.947151]}},{"properties":{"city":"Wantagh","fy10 veterans":370,"zip code":"11793","id":"a6ozv54ykgqn","lat":40.643404,"long":-73.50862},"type":"Feature","geometry":{"type":"Point","coordinates":[-73.50862,40.643404]}},{"properties":{"city":"Stony Brook","fy10 veterans":1,"zip code":"11794","id":"a6ozv55lw2s5","lat":40.899513,"long":-73.141037},"type":"Feature","geometry":{"type":"Point","coordinates":[-73.141037,40.899513]}},{"properties":{"city":"West Islip","fy10 veterans":273,"zip code":"11795","id":"a6ozv57ph2pf","lat":40.709265,"long":-73.29848},"type":"Feature","geometry":{"type":"Point","coordinates":[-73.29848,40.709265]}},{"properties":{"city":"West Sayville","fy10 veterans":57,"zip code":"11796","id":"a6ozv518lmon","lat":40.731247,"long":-73.100156},"type":"Feature","geometry":{"type":"Point","coordinates":[-73.100156,40.731247]}},{"properties":{"city":"Woodbury","fy10 veterans":132,"zip code":"11797","id":"a6ozv55mqh1s","lat":40.817392,"long":-73.470038},"type":"Feature","geometry":{"type":"Point","coordinates":[-73.470038,40.817392]}},{"properties":{"city":"Wyandanch","fy10 veterans":168,"zip code":"11798","id":"a6ozv5ec3y1x","lat":40.751875,"long":-73.371127},"type":"Feature","geometry":{"type":"Point","coordinates":[-73.371127,40.751875]}},{"properties":{"city":"Hicksville","fy10 veterans":452,"zip code":"11801","id":"a6ozv52zpo0d","lat":40.767608,"long":-73.524698},"type":"Feature","geometry":{"type":"Point","coordinates":[-73.524698,40.767608]}},{"properties":{"city":"Hicksville","fy10 veterans":6,"zip code":"11802","id":"a6ozv58fp4eh","lat":40.77,"long":-73.53},"type":"Feature","geometry":{"type":"Point","coordinates":[-73.53,40.77]}},{"properties":{"city":"Plainview","fy10 veterans":381,"zip code":"11803","id":"a6ozv5869lts","lat":40.781792,"long":-73.47333},"type":"Feature","geometry":{"type":"Point","coordinates":[-73.47333,40.781792]}},{"properties":{"city":"Plainview","fy10 veterans":63,"zip code":"11804","id":"a6ozv5ena786","lat":40.756785,"long":-73.454311},"type":"Feature","geometry":{"type":"Point","coordinates":[-73.454311,40.756785]}},{"properties":{"city":"Riverhead","fy10 veterans":413,"zip code":"11901","id":"a6ozv5f4xzf2","lat":40.92404,"long":-72.650989},"type":"Feature","geometry":{"type":"Point","coordinates":[-72.650989,40.92404]}},{"properties":{"city":"Amagansett","fy10 veterans":21,"zip code":"11930","id":"a6ozv58rvmx3","lat":40.990862,"long":-72.095919},"type":"Feature","geometry":{"type":"Point","coordinates":[-72.095919,40.990862]}},{"properties":{"city":"Aquebogue","fy10 veterans":30,"zip code":"11931","id":"a6ozv52yn8t5","lat":40.939435,"long":-72.637606},"type":"Feature","geometry":{"type":"Point","coordinates":[-72.637606,40.939435]}},{"properties":{"city":"Bridgehampton","fy10 veterans":21,"zip code":"11932","id":"a6ozv51x1pv3","lat":40.936194,"long":-72.30097},"type":"Feature","geometry":{"type":"Point","coordinates":[-72.30097,40.936194]}},{"properties":{"city":"Calverton","fy10 veterans":156,"zip code":"11933","id":"a6ozv5bcrtdu","lat":40.92538,"long":-72.754445},"type":"Feature","geometry":{"type":"Point","coordinates":[-72.754445,40.92538]}},{"properties":{"city":"Center Moriches","fy10 veterans":98,"zip code":"11934","id":"a6ozv59ct4lb","lat":40.797526,"long":-72.792351},"type":"Feature","geometry":{"type":"Point","coordinates":[-72.792351,40.797526]}},{"properties":{"city":"Cutchogue","fy10 veterans":69,"zip code":"11935","id":"a6ozv51qugn1","lat":41.015934,"long":-72.48691},"type":"Feature","geometry":{"type":"Point","coordinates":[-72.48691,41.015934]}},{"properties":{"city":"Springs","fy10 veterans":140,"zip code":"11937","id":"a6ozv50x25yx","lat":41.027438,"long":-72.183606},"type":"Feature","geometry":{"type":"Point","coordinates":[-72.183606,41.027438]}},{"properties":{"city":"Greenport","fy10 veterans":25,"zip code":"11939","id":"a6ozv5cyoau2","lat":41.12933,"long":-72.34227},"type":"Feature","geometry":{"type":"Point","coordinates":[-72.34227,41.12933]}},{"properties":{"city":"East Moriches","fy10 veterans":75,"zip code":"11940","id":"a6ozv53in9lo","lat":40.800525,"long":-72.759351},"type":"Feature","geometry":{"type":"Point","coordinates":[-72.759351,40.800525]}},{"properties":{"city":"Eastport","fy10 veterans":35,"zip code":"11941","id":"a6ozv584x4lq","lat":40.824099,"long":-72.718941},"type":"Feature","geometry":{"type":"Point","coordinates":[-72.718941,40.824099]}},{"properties":{"city":"East Quogue","fy10 veterans":66,"zip code":"11942","id":"a6ozv55kst6c","lat":40.838061,"long":-72.577283},"type":"Feature","geometry":{"type":"Point","coordinates":[-72.577283,40.838061]}},{"properties":{"city":"Greenport","fy10 veterans":51,"zip code":"11944","id":"a6ozv500fft3","lat":41.095404,"long":-72.373464},"type":"Feature","geometry":{"type":"Point","coordinates":[-72.373464,41.095404]}},{"properties":{"city":"Hampton Bays","fy10 veterans":192,"zip code":"11946","id":"a6ozv53rusi1","lat":40.870826,"long":-72.524562},"type":"Feature","geometry":{"type":"Point","coordinates":[-72.524562,40.870826]}},{"properties":{"city":"Jamesport","fy10 veterans":21,"zip code":"11947","id":"a6ozv56fhjkr","lat":40.947229,"long":-72.586562},"type":"Feature","geometry":{"type":"Point","coordinates":[-72.586562,40.947229]}},{"properties":{"city":"Laurel","fy10 veterans":23,"zip code":"11948","id":"a6ozv5bj7ogm","lat":40.96903,"long":-72.557619},"type":"Feature","geometry":{"type":"Point","coordinates":[-72.557619,40.96903]}},{"properties":{"city":"Manorville","fy10 veterans":173,"zip code":"11949","id":"a6ozv5233b0o","lat":40.868696,"long":-72.773005},"type":"Feature","geometry":{"type":"Point","coordinates":[-72.773005,40.868696]}},{"properties":{"city":"Mastic","fy10 veterans":186,"zip code":"11950","id":"a6ozv555o1vw","lat":40.808001,"long":-72.84841},"type":"Feature","geometry":{"type":"Point","coordinates":[-72.84841,40.808001]}},{"properties":{"city":"Mastic Beach","fy10 veterans":172,"zip code":"11951","id":"a6ozv58onnlb","lat":40.759939,"long":-72.834973},"type":"Feature","geometry":{"type":"Point","coordinates":[-72.834973,40.759939]}},{"properties":{"city":"Mattituck","fy10 veterans":79,"zip code":"11952","id":"a6ozv50z7cj5","lat":40.999338,"long":-72.541702},"type":"Feature","geometry":{"type":"Point","coordinates":[-72.541702,40.999338]}},{"properties":{"city":"Middle Island","fy10 veterans":283,"zip code":"11953","id":"a6ozv5fnrngd","lat":40.885911,"long":-72.949762},"type":"Feature","geometry":{"type":"Point","coordinates":[-72.949762,40.885911]}},{"properties":{"city":"Montauk","fy10 veterans":65,"zip code":"11954","id":"a6ozv52frrvm","lat":41.046972,"long":-71.945208},"type":"Feature","geometry":{"type":"Point","coordinates":[-71.945208,41.046972]}},{"properties":{"city":"Mastic","fy10 veterans":74,"zip code":"11955","id":"a6ozv51qkg7o","lat":40.809952,"long":-72.819629},"type":"Feature","geometry":{"type":"Point","coordinates":[-72.819629,40.809952]}},{"properties":{"city":"Cutchogue","fy10 veterans":6,"zip code":"11956","id":"a6ozv56ly4z8","lat":40.993237,"long":-72.475952},"type":"Feature","geometry":{"type":"Point","coordinates":[-72.475952,40.993237]}},{"properties":{"city":"Dering Harbor","fy10 veterans":13,"zip code":"11957","id":"a6ozv5b8fzoz","lat":41.155245,"long":-72.249939},"type":"Feature","geometry":{"type":"Point","coordinates":[-72.249939,41.155245]}},{"properties":{"city":"Peconic","fy10 veterans":9,"zip code":"11958","id":"a6ozv543l6c1","lat":41.037822,"long":-72.464992},"type":"Feature","geometry":{"type":"Point","coordinates":[-72.464992,41.037822]}},{"properties":{"city":"Quogue","fy10 veterans":15,"zip code":"11959","id":"a6ozv5a0lly2","lat":40.815181,"long":-72.606211},"type":"Feature","geometry":{"type":"Point","coordinates":[-72.606211,40.815181]}},{"properties":{"city":"Westhampton Beach","fy10 veterans":21,"zip code":"11960","id":"a6ozv5a9dqn9","lat":40.806604,"long":-72.705151},"type":"Feature","geometry":{"type":"Point","coordinates":[-72.705151,40.806604]}},{"properties":{"city":"Ridge","fy10 veterans":385,"zip code":"11961","id":"a6ozv52qf520","lat":40.902588,"long":-72.883779},"type":"Feature","geometry":{"type":"Point","coordinates":[-72.883779,40.902588]}},{"properties":{"city":"Bridgehampton","fy10 veterans":3,"zip code":"11962","id":"a6ozv5510asc","lat":40.931611,"long":-72.277951},"type":"Feature","geometry":{"type":"Point","coordinates":[-72.277951,40.931611]}},{"properties":{"city":"Noyack","fy10 veterans":90,"zip code":"11963","id":"a6ozv5204q8e","lat":40.995604,"long":-72.318885},"type":"Feature","geometry":{"type":"Point","coordinates":[-72.318885,40.995604]}},{"properties":{"city":"Shelter Island","fy10 veterans":38,"zip code":"11964","id":"a6ozv5fidpo9","lat":41.066132,"long":-72.317991},"type":"Feature","geometry":{"type":"Point","coordinates":[-72.317991,41.066132]}},{"properties":{"city":"Shelter Island Heights","fy10 veterans":19,"zip code":"11965","id":"a6ozv5c3ycb9","lat":41.083057,"long":-72.305805},"type":"Feature","geometry":{"type":"Point","coordinates":[-72.305805,41.083057]}},{"properties":{"city":"Shirley","fy10 veterans":306,"zip code":"11967","id":"a6ozv5ek3l7y","lat":40.790182,"long":-72.879809},"type":"Feature","geometry":{"type":"Point","coordinates":[-72.879809,40.790182]}},{"properties":{"city":"North Sea","fy10 veterans":141,"zip code":"11968","id":"a6ozv586gs45","lat":40.894196,"long":-72.41262},"type":"Feature","geometry":{"type":"Point","coordinates":[-72.41262,40.894196]}},{"properties":{"city":"Southampton","fy10 veterans":28,"zip code":"11969","id":"a6ozv5fhhd1x","lat":40.88,"long":-72.39},"type":"Feature","geometry":{"type":"Point","coordinates":[-72.39,40.88]}},{"properties":{"city":"Jamesport","fy10 veterans":10,"zip code":"11970","id":"a6ozv5ckf7ju","lat":40.937007,"long":-72.575193},"type":"Feature","geometry":{"type":"Point","coordinates":[-72.575193,40.937007]}},{"properties":{"city":"Southold","fy10 veterans":120,"zip code":"11971","id":"a6ozv53r6svw","lat":41.059748,"long":-72.426146},"type":"Feature","geometry":{"type":"Point","coordinates":[-72.426146,41.059748]}},{"properties":{"city":"Speonk","fy10 veterans":23,"zip code":"11972","id":"a6ozv57tk7jx","lat":40.819312,"long":-72.706552},"type":"Feature","geometry":{"type":"Point","coordinates":[-72.706552,40.819312]}},{"properties":{"city":"Ridge","fy10 veterans":2,"zip code":"11973","id":"a6ozv52x5hv4","lat":40.86661,"long":-72.88176},"type":"Feature","geometry":{"type":"Point","coordinates":[-72.88176,40.86661]}},{"properties":{"city":"East Hampton","fy10 veterans":6,"zip code":"11975","id":"a6ozv542fsnq","lat":40.940437,"long":-72.245987},"type":"Feature","geometry":{"type":"Point","coordinates":[-72.245987,40.940437]}},{"properties":{"city":"Watermill","fy10 veterans":16,"zip code":"11976","id":"a6ozv55xhjbm","lat":40.93015,"long":-72.342202},"type":"Feature","geometry":{"type":"Point","coordinates":[-72.342202,40.93015]}},{"properties":{"city":"Westhampton Beach","fy10 veterans":28,"zip code":"11977","id":"a6ozv5b329lt","lat":40.825084,"long":-72.680079},"type":"Feature","geometry":{"type":"Point","coordinates":[-72.680079,40.825084]}},{"properties":{"city":"Westhampton Beach","fy10 veterans":46,"zip code":"11978","id":"a6ozv55f4n4x","lat":40.80539,"long":-72.658983},"type":"Feature","geometry":{"type":"Point","coordinates":[-72.658983,40.80539]}},{"properties":{"city":"Yaphank","fy10 veterans":84,"zip code":"11980","id":"a6ozv5354bts","lat":40.830109,"long":-72.920395},"type":"Feature","geometry":{"type":"Point","coordinates":[-72.920395,40.830109]}},{"properties":{"city":"Country Knolls","fy10 veterans":1,"zip code":"12019","id":"a6ozv56dfg9m","lat":42.943436,"long":-73.978691},"type":"Feature","geometry":{"type":"Point","coordinates":[-73.978691,42.943436]}},{"properties":{"city":"Ballston Spa","fy10 veterans":1,"zip code":"12020","id":"a6ozv5egxf1o","lat":43.003694,"long":-73.84534},"type":"Feature","geometry":{"type":"Point","coordinates":[-73.84534,43.003694]}},{"properties":{"city":"Delmar","fy10 veterans":1,"zip code":"12054","id":"a6ozv50ld3mp","lat":42.603725,"long":-73.882583},"type":"Feature","geometry":{"type":"Point","coordinates":[-73.882583,42.603725]}},{"properties":{"city":"Clifton Park","fy10 veterans":1,"zip code":"12065","id":"a6ozv4zmajuk","lat":42.866348,"long":-73.785921},"type":"Feature","geometry":{"type":"Point","coordinates":[-73.785921,42.866348]}},{"properties":{"city":"Delmar","fy10 veterans":1,"zip code":"12077","id":"a6ozv570tgxw","lat":42.591963,"long":-73.783226},"type":"Feature","geometry":{"type":"Point","coordinates":[-73.783226,42.591963]}},{"properties":{"city":"Gloversville","fy10 veterans":1,"zip code":"12078","id":"a6ozv4zuvmjr","lat":43.099155,"long":-74.361912},"type":"Feature","geometry":{"type":"Point","coordinates":[-74.361912,43.099155]}},{"properties":{"city":"Worcester","fy10 veterans":1,"zip code":"12093","id":"a6ozv5avge8c","lat":42.493039,"long":-74.648867},"type":"Feature","geometry":{"type":"Point","coordinates":[-74.648867,42.493039]}},{"properties":{"city":"Johnstown","fy10 veterans":1,"zip code":"12095","id":"a6ozv5fb98vb","lat":43.118679,"long":-74.507439},"type":"Feature","geometry":{"type":"Point","coordinates":[-74.507439,43.118679]}},{"properties":{"city":"Milford","fy10 veterans":1,"zip code":"12116","id":"a6ozv5ctb8sf","lat":42.541341,"long":-74.913242},"type":"Feature","geometry":{"type":"Point","coordinates":[-74.913242,42.541341]}},{"properties":{"city":"Mayfield","fy10 veterans":1,"zip code":"12117","id":"a6ozv50cn02s","lat":43.177809,"long":-74.215824},"type":"Feature","geometry":{"type":"Point","coordinates":[-74.215824,43.177809]}},{"properties":{"city":"Mechanicville","fy10 veterans":1,"zip code":"12118","id":"a6ozv5chnw83","lat":42.909683,"long":-73.714801},"type":"Feature","geometry":{"type":"Point","coordinates":[-73.714801,42.909683]}},{"properties":{"city":"Middleburgh","fy10 veterans":1,"zip code":"12122","id":"a6ozv58exo5o","lat":42.545133,"long":-74.298353},"type":"Feature","geometry":{"type":"Point","coordinates":[-74.298353,42.545133]}},{"properties":{"city":"Hampton Manor","fy10 veterans":1,"zip code":"12144","id":"a6ozv5a5ifvi","lat":42.632035,"long":-73.719513},"type":"Feature","geometry":{"type":"Point","coordinates":[-73.719513,42.632035]}},{"properties":{"city":"Stamford","fy10 veterans":1,"zip code":"12167","id":"a6ozv51szc0a","lat":42.428925,"long":-74.607846},"type":"Feature","geometry":{"type":"Point","coordinates":[-74.607846,42.428925]}},{"properties":{"city":"Troy","fy10 veterans":1,"zip code":"12180","id":"a6ozv5cbizhn","lat":42.753531,"long":-73.602445},"type":"Feature","geometry":{"type":"Point","coordinates":[-73.602445,42.753531]}},{"properties":{"city":"Waterford","fy10 veterans":1,"zip code":"12182","id":"a6ozv5ccvjh0","lat":42.799633,"long":-73.636504},"type":"Feature","geometry":{"type":"Point","coordinates":[-73.636504,42.799633]}},{"properties":{"city":"Albany","fy10 veterans":1,"zip code":"12202","id":"a6ozv5b90j7y","lat":42.631618,"long":-73.767071},"type":"Feature","geometry":{"type":"Point","coordinates":[-73.767071,42.631618]}},{"properties":{"city":"Roessleville","fy10 veterans":1,"zip code":"12203","id":"a6ozv5ep17dc","lat":42.684835,"long":-73.841896},"type":"Feature","geometry":{"type":"Point","coordinates":[-73.841896,42.684835]}},{"properties":{"city":"Roessleville","fy10 veterans":2,"zip code":"12205","id":"a6ozv51faq2x","lat":42.720048,"long":-73.820471},"type":"Feature","geometry":{"type":"Point","coordinates":[-73.820471,42.720048]}},{"properties":{"city":"Albany","fy10 veterans":3,"zip code":"12210","id":"a6ozv585ucoq","lat":42.659303,"long":-73.757645},"type":"Feature","geometry":{"type":"Point","coordinates":[-73.757645,42.659303]}},{"properties":{"city":"East Glenville","fy10 veterans":1,"zip code":"12302","id":"a6ozv5e8q26l","lat":42.88331,"long":-73.991261},"type":"Feature","geometry":{"type":"Point","coordinates":[-73.991261,42.88331]}},{"properties":{"city":"Schenectady","fy10 veterans":1,"zip code":"12308","id":"a6ozv5f3ltgv","lat":42.821356,"long":-73.920179},"type":"Feature","geometry":{"type":"Point","coordinates":[-73.920179,42.821356]}},{"properties":{"city":"Kingston","fy10 veterans":2,"zip code":"12401","id":"a6ozv54umz60","lat":41.906151,"long":-73.992664},"type":"Feature","geometry":{"type":"Point","coordinates":[-73.992664,41.906151]}},{"properties":{"city":"Fleischmanns","fy10 veterans":1,"zip code":"12406","id":"a6ozv5blrilx","lat":42.102979,"long":-74.553715},"type":"Feature","geometry":{"type":"Point","coordinates":[-74.553715,42.102979]}},{"properties":{"city":"Acra","fy10 veterans":1,"zip code":"12418","id":"a6ozv59ya28z","lat":42.358478,"long":-74.160712},"type":"Feature","geometry":{"type":"Point","coordinates":[-74.160712,42.358478]}},{"properties":{"city":"Greenville","fy10 veterans":2,"zip code":"12423","id":"a6ozv53o6bdb","lat":42.382685,"long":-74.117307},"type":"Feature","geometry":{"type":"Point","coordinates":[-74.117307,42.382685]}},{"properties":{"city":"Fleischmanns","fy10 veterans":1,"zip code":"12430","id":"a6ozv59gag2w","lat":42.202701,"long":-74.500848},"type":"Feature","geometry":{"type":"Point","coordinates":[-74.500848,42.202701]}},{"properties":{"city":"Tannersville","fy10 veterans":1,"zip code":"12436","id":"a6ozv5c4ccyr","lat":42.195667,"long":-74.098179},"type":"Feature","geometry":{"type":"Point","coordinates":[-74.098179,42.195667]}},{"properties":{"city":"Prattsville","fy10 veterans":1,"zip code":"12452","id":"a6ozv536jt7t","lat":42.239881,"long":-74.365647},"type":"Feature","geometry":{"type":"Point","coordinates":[-74.365647,42.239881]}},{"properties":{"city":"Margaretville","fy10 veterans":2,"zip code":"12455","id":"a6ozv568ukyf","lat":42.143669,"long":-74.656271},"type":"Feature","geometry":{"type":"Point","coordinates":[-74.656271,42.143669]}},{"properties":{"city":"Woodstock","fy10 veterans":1,"zip code":"12498","id":"a6ozv5bfrp7n","lat":42.041839,"long":-74.126587},"type":"Feature","geometry":{"type":"Point","coordinates":[-74.126587,42.041839]}},{"properties":{"city":"Beacon","fy10 veterans":2,"zip code":"12508","id":"a6ozv57q488e","lat":41.520035,"long":-73.944831},"type":"Feature","geometry":{"type":"Point","coordinates":[-73.944831,41.520035]}},{"properties":{"city":"Tivoli","fy10 veterans":1,"zip code":"12523","id":"a6ozv5d1sgk1","lat":42.078591,"long":-73.761612},"type":"Feature","geometry":{"type":"Point","coordinates":[-73.761612,42.078591]}},{"properties":{"city":"Wallkill","fy10 veterans":1,"zip code":"12525","id":"a6ozv5a3rhpr","lat":41.688974,"long":-74.202106},"type":"Feature","geometry":{"type":"Point","coordinates":[-74.202106,41.688974]}},{"properties":{"city":"Highland","fy10 veterans":1,"zip code":"12528","id":"a6ozv5525tdq","lat":41.726619,"long":-74.003858},"type":"Feature","geometry":{"type":"Point","coordinates":[-74.003858,41.726619]}},{"properties":{"city":"Hopewell Junction","fy10 veterans":1,"zip code":"12533","id":"a6ozv57xvgmd","lat":41.577158,"long":-73.775571},"type":"Feature","geometry":{"type":"Point","coordinates":[-73.775571,41.577158]}},{"properties":{"city":"Hudson","fy10 veterans":2,"zip code":"12534","id":"a6ozv57vzv7s","lat":42.228121,"long":-73.743677},"type":"Feature","geometry":{"type":"Point","coordinates":[-73.743677,42.228121]}},{"properties":{"city":"Wallkill","fy10 veterans":1,"zip code":"12548","id":"a6ozv4zu8ybk","lat":41.668332,"long":-74.104654},"type":"Feature","geometry":{"type":"Point","coordinates":[-74.104654,41.668332]}},{"properties":{"city":"Balmville","fy10 veterans":2,"zip code":"12550","id":"a6ozv50gl5qc","lat":41.536274,"long":-74.052814},"type":"Feature","geometry":{"type":"Point","coordinates":[-74.052814,41.536274]}},{"properties":{"city":"New Windsor","fy10 veterans":1,"zip code":"12553","id":"a6ozv57v7fxe","lat":41.454163,"long":-74.08277},"type":"Feature","geometry":{"type":"Point","coordinates":[-74.08277,41.454163]}},{"properties":{"city":"Hopewell Junction","fy10 veterans":1,"zip code":"12582","id":"a6ozv51wlttz","lat":41.544704,"long":-73.728679},"type":"Feature","geometry":{"type":"Point","coordinates":[-73.728679,41.544704]}},{"properties":{"city":"Walden","fy10 veterans":1,"zip code":"12586","id":"a6ozv56xw39t","lat":41.565729,"long":-74.178989},"type":"Feature","geometry":{"type":"Point","coordinates":[-74.178989,41.565729]}},{"properties":{"city":"Wappingers Falls","fy10 veterans":1,"zip code":"12590","id":"a6ozv52hip67","lat":41.596111,"long":-73.889438},"type":"Feature","geometry":{"type":"Point","coordinates":[-73.889438,41.596111]}},{"properties":{"city":"Poughkeepsie","fy10 veterans":2,"zip code":"12601","id":"a6ozv54xkxnj","lat":41.708944,"long":-73.904083},"type":"Feature","geometry":{"type":"Point","coordinates":[-73.904083,41.708944]}},{"properties":{"city":"Red Oaks Mill","fy10 veterans":1,"zip code":"12603","id":"a6ozv5asvjjl","lat":41.664059,"long":-73.878817},"type":"Feature","geometry":{"type":"Point","coordinates":[-73.878817,41.664059]}},{"properties":{"city":"Callicoon","fy10 veterans":1,"zip code":"12726","id":"a6ozv56p86l2","lat":41.690379,"long":-74.967406},"type":"Feature","geometry":{"type":"Point","coordinates":[-74.967406,41.690379]}},{"properties":{"city":"Otisville","fy10 veterans":1,"zip code":"12729","id":"a6ozv51ccso8","lat":41.472729,"long":-74.628491},"type":"Feature","geometry":{"type":"Point","coordinates":[-74.628491,41.472729]}},{"properties":{"city":"Eldred","fy10 veterans":1,"zip code":"12732","id":"a6ozv54ct446","lat":41.55716,"long":-74.884265},"type":"Feature","geometry":{"type":"Point","coordinates":[-74.884265,41.55716]}},{"properties":{"city":"South Fallsburg","fy10 veterans":2,"zip code":"12747","id":"a6ozv5fhfyjf","lat":41.773575,"long":-74.605881},"type":"Feature","geometry":{"type":"Point","coordinates":[-74.605881,41.773575]}},{"properties":{"city":"Monticello","fy10 veterans":1,"zip code":"12749","id":"a6ozv5f4xtgr","lat":41.68167,"long":-74.825446},"type":"Feature","geometry":{"type":"Point","coordinates":[-74.825446,41.68167]}},{"properties":{"city":"Narrowsburg","fy10 veterans":1,"zip code":"12752","id":"a6ozv5coiwnc","lat":41.680458,"long":-74.989439},"type":"Feature","geometry":{"type":"Point","coordinates":[-74.989439,41.680458]}},{"properties":{"city":"Narrowsburg","fy10 veterans":1,"zip code":"12764","id":"a6ozv55l3o7v","lat":41.598044,"long":-74.976089},"type":"Feature","geometry":{"type":"Point","coordinates":[-74.976089,41.598044]}},{"properties":{"city":"Port Jervis","fy10 veterans":2,"zip code":"12771","id":"a6ozv5eertst","lat":41.375687,"long":-74.629434},"type":"Feature","geometry":{"type":"Point","coordinates":[-74.629434,41.375687]}},{"properties":{"city":"Monticello","fy10 veterans":2,"zip code":"12775","id":"a6ozv5duplc2","lat":41.62497,"long":-74.583226},"type":"Feature","geometry":{"type":"Point","coordinates":[-74.583226,41.62497]}},{"properties":{"city":"Wurtsboro","fy10 veterans":1,"zip code":"12781","id":"a6ozv53sdncp","lat":41.620472,"long":-74.450853},"type":"Feature","geometry":{"type":"Point","coordinates":[-74.450853,41.620472]}},{"properties":{"city":"Jeffersonville","fy10 veterans":1,"zip code":"12791","id":"a6ozv5b8ahhk","lat":41.553933,"long":-74.441332},"type":"Feature","geometry":{"type":"Point","coordinates":[-74.441332,41.553933]}},{"properties":{"city":"Saratoga Springs","fy10 veterans":1,"zip code":"12866","id":"a6ozv5fceopz","lat":43.078321,"long":-73.746733},"type":"Feature","geometry":{"type":"Point","coordinates":[-73.746733,43.078321]}},{"properties":{"city":"Plattsburgh","fy10 veterans":1,"zip code":"12901","id":"a6ozv57cgwa0","lat":44.729277,"long":-73.920006},"type":"Feature","geometry":{"type":"Point","coordinates":[-73.920006,44.729277]}},{"properties":{"city":"Tupper Lake","fy10 veterans":1,"zip code":"12986","id":"a6ozv59y322d","lat":44.233694,"long":-74.318969},"type":"Feature","geometry":{"type":"Point","coordinates":[-74.318969,44.233694]}},{"properties":{"city":"Manlius","fy10 veterans":2,"zip code":"13104","id":"a6ozv57j9mxr","lat":42.967332,"long":-75.953048},"type":"Feature","geometry":{"type":"Point","coordinates":[-75.953048,42.967332]}},{"properties":{"city":"Rome","fy10 veterans":2,"zip code":"13440","id":"a6ozv5142766","lat":43.228004,"long":-75.488334},"type":"Feature","geometry":{"type":"Point","coordinates":[-75.488334,43.228004]}},{"properties":{"city":"Utica","fy10 veterans":1,"zip code":"13502","id":"a6ozv5beevab","lat":43.14187,"long":-75.16371},"type":"Feature","geometry":{"type":"Point","coordinates":[-75.16371,43.14187]}},{"properties":{"city":"Sackets Harbor","fy10 veterans":1,"zip code":"13651","id":"a6ozv51h7bst","lat":43.861455,"long":-76.201189},"type":"Feature","geometry":{"type":"Point","coordinates":[-76.201189,43.861455]}},{"properties":{"city":"Bainbridge","fy10 veterans":1,"zip code":"13733","id":"a6ozv5a25o54","lat":42.291742,"long":-75.479339},"type":"Feature","geometry":{"type":"Point","coordinates":[-75.479339,42.291742]}},{"properties":{"city":"Candor","fy10 veterans":1,"zip code":"13743","id":"a6ozv55gciqt","lat":42.22258,"long":-76.341268},"type":"Feature","geometry":{"type":"Point","coordinates":[-76.341268,42.22258]}},{"properties":{"city":"Greene","fy10 veterans":1,"zip code":"13746","id":"a6ozv51w303h","lat":42.259573,"long":-75.845782},"type":"Feature","geometry":{"type":"Point","coordinates":[-75.845782,42.259573]}},{"properties":{"city":"Franklin","fy10 veterans":1,"zip code":"13775","id":"a6ozv5co7kuy","lat":42.32493,"long":-75.169947},"type":"Feature","geometry":{"type":"Point","coordinates":[-75.169947,42.32493]}},{"properties":{"city":"Hancock","fy10 veterans":1,"zip code":"13783","id":"a6ozv566k8ka","lat":42.007532,"long":-75.262787},"type":"Feature","geometry":{"type":"Point","coordinates":[-75.262787,42.007532]}},{"properties":{"city":"Mount Upton","fy10 veterans":1,"zip code":"13809","id":"a6ozv556k16d","lat":42.392922,"long":-75.398644},"type":"Feature","geometry":{"type":"Point","coordinates":[-75.398644,42.392922]}},{"properties":{"city":"Norwich","fy10 veterans":1,"zip code":"13815","id":"a6ozv51908s4","lat":42.545587,"long":-75.533089},"type":"Feature","geometry":{"type":"Point","coordinates":[-75.533089,42.545587]}},{"properties":{"city":"Oneonta","fy10 veterans":1,"zip code":"13820","id":"a6ozv57wllye","lat":42.487559,"long":-75.054755},"type":"Feature","geometry":{"type":"Point","coordinates":[-75.054755,42.487559]}},{"properties":{"city":"Sidney","fy10 veterans":1,"zip code":"13838","id":"a6ozv55plhje","lat":42.291475,"long":-75.383766},"type":"Feature","geometry":{"type":"Point","coordinates":[-75.383766,42.291475]}},{"properties":{"city":"Windsor","fy10 veterans":1,"zip code":"13865","id":"a6ozv51px0fk","lat":42.095291,"long":-75.620077},"type":"Feature","geometry":{"type":"Point","coordinates":[-75.620077,42.095291]}},{"properties":{"city":"Lancaster","fy10 veterans":1,"zip code":"14086","id":"a6ozv542pt1p","lat":42.906056,"long":-78.627997},"type":"Feature","geometry":{"type":"Point","coordinates":[-78.627997,42.906056]}},{"properties":{"city":"Sloan","fy10 veterans":1,"zip code":"14211","id":"a6ozv57lfbut","lat":42.908343,"long":-78.818883},"type":"Feature","geometry":{"type":"Point","coordinates":[-78.818883,42.908343]}},{"properties":{"city":"Sloan","fy10 veterans":1,"zip code":"14215","id":"a6ozv5c0moa6","lat":42.934474,"long":-78.809536},"type":"Feature","geometry":{"type":"Point","coordinates":[-78.809536,42.934474]}},{"properties":{"city":"Blasdell","fy10 veterans":2,"zip code":"14219","id":"a6ozv4zrpedl","lat":42.789824,"long":-78.828394},"type":"Feature","geometry":{"type":"Point","coordinates":[-78.828394,42.789824]}},{"properties":{"city":"Williamsville","fy10 veterans":1,"zip code":"14221","id":"a6ozv5b6fhns","lat":42.986019,"long":-78.745559},"type":"Feature","geometry":{"type":"Point","coordinates":[-78.745559,42.986019]}},{"properties":{"city":"Holcomb","fy10 veterans":1,"zip code":"14469","id":"a6ozv57wsojf","lat":42.878213,"long":-77.461367},"type":"Feature","geometry":{"type":"Point","coordinates":[-77.461367,42.878213]}},{"properties":{"city":"Spencerport","fy10 veterans":1,"zip code":"14559","id":"a6ozv57d0s79","lat":43.186914,"long":-77.812136},"type":"Feature","geometry":{"type":"Point","coordinates":[-77.812136,43.186914]}},{"properties":{"city":"Greece","fy10 veterans":1,"zip code":"14626","id":"a6ozv51o39jk","lat":43.224767,"long":-77.709429},"type":"Feature","geometry":{"type":"Point","coordinates":[-77.709429,43.224767]}},{"properties":{"city":"Jamestown","fy10 veterans":2,"zip code":"14701","id":"a6ozv4zvubfz","lat":42.091451,"long":-79.241457},"type":"Feature","geometry":{"type":"Point","coordinates":[-79.241457,42.091451]}},{"properties":{"city":"Arkport","fy10 veterans":1,"zip code":"14807","id":"a6ozv56kx1cn","lat":42.421356,"long":-77.713833},"type":"Feature","geometry":{"type":"Point","coordinates":[-77.713833,42.421356]}},{"properties":{"city":"Bath","fy10 veterans":1,"zip code":"14810","id":"a6ozv51i0sxq","lat":42.360208,"long":-77.327423},"type":"Feature","geometry":{"type":"Point","coordinates":[-77.327423,42.360208]}},{"properties":{"city":"Hornell","fy10 veterans":1,"zip code":"14843","id":"a6ozv5ab7cfe","lat":42.327338,"long":-77.649299},"type":"Feature","geometry":{"type":"Point","coordinates":[-77.649299,42.327338]}},{"properties":{"city":"Elmira","fy10 veterans":1,"zip code":"14901","id":"a6ozv52fzpq7","lat":42.073242,"long":-76.748529},"type":"Feature","geometry":{"type":"Point","coordinates":[-76.748529,42.073242]}}],"is_temporal":false,"author":{"url":"","metadata":null,"contact_name":null,"contact_address":null,"source":null,"contact_phone":null},"source":"","pagination":{"sort":null,"start":0,"total":463,"limit":1000000},"state":"complete","tags":"","published":"2014-08-12T21:28:03-04:00","id":150376}