{"type":"FeatureCollection","data_type":"Dataset","url_type":null,"permissions":[{"permissions":{"download":true,"view":true},"group_id":"everyone"}],"classification":null,"title":"Enrolled nonusers fy10 npt","count":180,"stream_id":150304,"contributor":{"url":"http://geocommons.com/users/31839","name":"santillo"},"data_attributes":null,"calculation_params":null,"icon_link":null,"link":"http://geocommons.com/overlays/150304.json","extent":[-73.7637,40.5889,-72.0681,43.7734],"geometry_types":["point"],"unique_name":null,"name":"Enrolled nonusers fy10 npt","feature_count":180,"description":"","next_feature":null,"is_raster":false,"short_classification":"Y","stats":{"enrolled non-users":{"max":777,"mean":161.783333333333,"variance":25477.0533519553,"stdev":159.615329313808,"min":0,"median":117}},"features":[{"properties":{"city":"Franklin Square","geo_score":0.857,"zip code":"11010","enrolled non-users":276,"id":"a6lhw90t6k68","geo_precision":"zip"},"type":"Feature","geometry":{"type":"Point","coordinates":[-73.674074,40.700101]}},{"properties":{"city":"Inwood","geo_score":0.857,"zip code":"11096","enrolled non-users":58,"id":"a6lhw8xd4y2o","geo_precision":"zip"},"type":"Feature","geometry":{"type":"Point","coordinates":[-73.747376,40.620492]}},{"properties":{"city":"Mineola","geo_score":0.857,"zip code":"11501","enrolled non-users":174,"id":"a6lhw91gwtin","geo_precision":"zip"},"type":"Feature","geometry":{"type":"Point","coordinates":[-73.638061,40.735901]}},{"properties":{"city":"Atlantic Beach","geo_score":0.857,"zip code":"11509","enrolled non-users":29,"id":"a6lhw9an3ijt","geo_precision":"zip"},"type":"Feature","geometry":{"type":"Point","coordinates":[-73.72709,40.588854]}},{"properties":{"city":"Baldwin","geo_score":0.762,"zip code":"11510","enrolled non-users":272,"id":"a6lhw933abf6","geo_precision":"zip"},"type":"Feature","geometry":{"type":"Point","coordinates":[-73.595406,40.629547]}},{"properties":{"city":"Carle Place","geo_score":0.857,"zip code":"11514","enrolled non-users":47,"id":"a6lhw911u984","geo_precision":"zip"},"type":"Feature","geometry":{"type":"Point","coordinates":[-73.608422,40.74435]}},{"properties":{"city":"Cedarhurst","geo_score":0.857,"zip code":"11516","enrolled non-users":38,"id":"a6lhw9bte3ig","geo_precision":"zip"},"type":"Feature","geometry":{"type":"Point","coordinates":[-73.725825,40.626453]}},{"properties":{"city":"East Rockaway","geo_score":0.738,"zip code":"11518","enrolled non-users":122,"id":"a6lhw957kwlf","geo_precision":"zip"},"type":"Feature","geometry":{"type":"Point","coordinates":[-73.670408,40.633159]}},{"properties":{"city":"Freeport","geo_score":0.857,"zip code":"11520","enrolled non-users":314,"id":"a6lhw97d7arj","geo_precision":"zip"},"type":"Feature","geometry":{"type":"Point","coordinates":[-73.585222,40.651251]}},{"properties":{"city":"Garden City","geo_score":0.726,"zip code":"11530","enrolled non-users":274,"id":"a6lhw92zerex","geo_precision":"zip"},"type":"Feature","geometry":{"type":"Point","coordinates":[-73.688464,40.719269]}},{"properties":{"city":"Garden City","geo_score":0.857,"zip code":"11531","enrolled non-users":0,"id":"a6lhw99j05c0","geo_precision":"zip"},"type":"Feature","geometry":{"type":"Point","coordinates":[-73.601772,40.754757]}},{"properties":{"city":"Garden City","geo_score":0.857,"zip code":"11535","enrolled non-users":1,"id":"a6lhw8zaycnx","geo_precision":"zip"},"type":"Feature","geometry":{"type":"Point","coordinates":[-73.601772,40.754757]}},{"properties":{"city":"Glen Cove","geo_score":0.857,"zip code":"11542","enrolled non-users":270,"id":"a6lhw8vq86pc","geo_precision":"zip"},"type":"Feature","geometry":{"type":"Point","coordinates":[-73.601772,40.754757]}},{"properties":{"city":"Glen Head","geo_score":0.724,"zip code":"11545","enrolled non-users":98,"id":"a6lhw9712swg","geo_precision":"zip"},"type":"Feature","geometry":{"type":"Point","coordinates":[-73.565126,40.83871]}},{"properties":{"city":"Glenwood Landing","geo_score":0.857,"zip code":"11547","enrolled non-users":14,"id":"a6lhw98iiho1","geo_precision":"zip"},"type":"Feature","geometry":{"type":"Point","coordinates":[-73.601772,40.754757]}},{"properties":{"city":"Greenvale","geo_score":0.857,"zip code":"11548","enrolled non-users":8,"id":"a6lhw8weqpwl","geo_precision":"zip"},"type":"Feature","geometry":{"type":"Point","coordinates":[-73.601772,40.754757]}},{"properties":{"city":"Hempstead","geo_score":0.857,"zip code":"11549","enrolled non-users":1,"id":"a6lhw97vnxzo","geo_precision":"zip"},"type":"Feature","geometry":{"type":"Point","coordinates":[-73.601772,40.754757]}},{"properties":{"city":"Hempstead","geo_score":0.806,"zip code":"11550","enrolled non-users":356,"id":"a6lhw97ge91o","geo_precision":"zip"},"type":"Feature","geometry":{"type":"Point","coordinates":[-73.615406,40.680935]}},{"properties":{"city":"Hempstead","geo_score":0.857,"zip code":"11551","enrolled non-users":15,"id":"a6lhw958q2nm","geo_precision":"zip"},"type":"Feature","geometry":{"type":"Point","coordinates":[-73.601772,40.754757]}},{"properties":{"city":"West Hempstead","geo_score":0.736,"zip code":"11552","enrolled non-users":225,"id":"a6lhw97mgswn","geo_precision":"zip"},"type":"Feature","geometry":{"type":"Point","coordinates":[-73.65263,40.68538]}},{"properties":{"city":"Uniondale","geo_score":0.857,"zip code":"11553","enrolled non-users":165,"id":"a6lhw8wqorjf","geo_precision":"zip"},"type":"Feature","geometry":{"type":"Point","coordinates":[-73.591421,40.705868]}},{"properties":{"city":"East Meadow","geo_score":0.857,"zip code":"11554","enrolled non-users":452,"id":"a6lhw9b3bp7l","geo_precision":"zip"},"type":"Feature","geometry":{"type":"Point","coordinates":[-73.55877,40.72135]}},{"properties":{"city":"Uniondale","geo_score":0.857,"zip code":"11556","enrolled non-users":2,"id":"a6lhw8wy2vzh","geo_precision":"zip"},"type":"Feature","geometry":{"type":"Point","coordinates":[-73.601772,40.754757]}},{"properties":{"city":"Hewlett","geo_score":0.791,"zip code":"11557","enrolled non-users":59,"id":"a6lhw8zkg13y","geo_precision":"zip"},"type":"Feature","geometry":{"type":"Point","coordinates":[-73.681519,40.636215]}},{"properties":{"city":"Barnum Island","geo_score":0.774,"zip code":"11558","enrolled non-users":90,"id":"a6lhw99hdlol","geo_precision":"zip"},"type":"Feature","geometry":{"type":"Point","coordinates":[-73.664575,40.603437]}},{"properties":{"city":"Cedarhurst","geo_score":0.745,"zip code":"11559","enrolled non-users":35,"id":"a6lhw90ddyle","geo_precision":"zip"},"type":"Feature","geometry":{"type":"Point","coordinates":[-73.741521,40.636215]}},{"properties":{"city":"Locust Valley","geo_score":0.714,"zip code":"11560","enrolled non-users":65,"id":"a6lhw90sztde","geo_precision":"zip"},"type":"Feature","geometry":{"type":"Point","coordinates":[-73.576514,40.87621]}},{"properties":{"city":"Long Beach","geo_score":0.81,"zip code":"11561","enrolled non-users":356,"id":"a6lhw903r82m","geo_precision":"zip"},"type":"Feature","geometry":{"type":"Point","coordinates":[-73.625407,40.588993]}},{"properties":{"city":"Lynbrook","geo_score":0.802,"zip code":"11563","enrolled non-users":277,"id":"a6lhw96oqokl","geo_precision":"zip"},"type":"Feature","geometry":{"type":"Point","coordinates":[-73.664575,40.602326]}},{"properties":{"city":"Malverne","geo_score":0.857,"zip code":"11565","enrolled non-users":117,"id":"a6lhw97n877j","geo_precision":"zip"},"type":"Feature","geometry":{"type":"Point","coordinates":[-73.673324,40.674652]}},{"properties":{"city":"Merrick","geo_score":0.798,"zip code":"11566","enrolled non-users":337,"id":"a6lhw99bad4x","geo_precision":"zip"},"type":"Feature","geometry":{"type":"Point","coordinates":[-73.563183,40.691213]}},{"properties":{"city":"Old Westbury","geo_score":0.753,"zip code":"11568","enrolled non-users":7,"id":"a6lhw8x5htkn","geo_precision":"zip"},"type":"Feature","geometry":{"type":"Point","coordinates":[-73.591238,40.805656]}},{"properties":{"city":"Point Lookout","geo_score":0.857,"zip code":"11569","enrolled non-users":14,"id":"a6lhw9ac63wy","geo_precision":"zip"},"type":"Feature","geometry":{"type":"Point","coordinates":[-73.580822,40.590503]}},{"properties":{"city":"Rockville Centre","geo_score":0.857,"zip code":"11570","enrolled non-users":249,"id":"a6lhw8wyd2hc","geo_precision":"zip"},"type":"Feature","geometry":{"type":"Point","coordinates":[-73.638523,40.667352]}},{"properties":{"city":"Rockville Centre","geo_score":0.857,"zip code":"11571","enrolled non-users":5,"id":"a6lhw91qj656","geo_precision":"zip"},"type":"Feature","geometry":{"type":"Point","coordinates":[-73.601772,40.754757]}},{"properties":{"city":"Oceanside","geo_score":0.857,"zip code":"11572","enrolled non-users":316,"id":"a6lhw95owd4a","geo_precision":"zip"},"type":"Feature","geometry":{"type":"Point","coordinates":[-73.636923,40.635252]}},{"properties":{"city":"Roosevelt","geo_score":0.857,"zip code":"11575","enrolled non-users":161,"id":"a6lhw9aurje1","geo_precision":"zip"},"type":"Feature","geometry":{"type":"Point","coordinates":[-73.590071,40.680451]}},{"properties":{"city":"Sea Cliff","geo_score":0.857,"zip code":"11579","enrolled non-users":51,"id":"a6lhw8zy1okw","geo_precision":"zip"},"type":"Feature","geometry":{"type":"Point","coordinates":[-73.601772,40.754757]}},{"properties":{"city":"Valley Stream","geo_score":0.815,"zip code":"11580","enrolled non-users":361,"id":"a6lhw8ymk0vw","geo_precision":"zip"},"type":"Feature","geometry":{"type":"Point","coordinates":[-73.701798,40.685103]}},{"properties":{"city":"South Valley Stream","geo_score":0.857,"zip code":"11581","enrolled non-users":189,"id":"a6lhw9addtqs","geo_precision":"zip"},"type":"Feature","geometry":{"type":"Point","coordinates":[-73.717632,40.655937]}},{"properties":{"city":"Valley Stream","geo_score":0.857,"zip code":"11582","enrolled non-users":10,"id":"a6lhw8xnuh6v","geo_precision":"zip"},"type":"Feature","geometry":{"type":"Point","coordinates":[-73.601772,40.754757]}},{"properties":{"city":"Westbury","geo_score":0.778,"zip code":"11590","enrolled non-users":369,"id":"a6lhw8xtj4qe","geo_precision":"zip"},"type":"Feature","geometry":{"type":"Point","coordinates":[-73.560127,40.745656]}},{"properties":{"city":"Rockville Centre","geo_score":0.857,"zip code":"11592","enrolled non-users":1,"id":"a6lhw98sf0ow","geo_precision":"zip"},"type":"Feature","geometry":{"type":"Point","coordinates":[-73.632673,40.621753]}},{"properties":{"city":"Westbury","geo_score":0.857,"zip code":"11593","enrolled non-users":1,"id":"a6lhw90vztjq","geo_precision":"zip"},"type":"Feature","geometry":{"type":"Point","coordinates":[-73.601772,40.754757]}},{"properties":{"city":"Williston Park","geo_score":0.769,"zip code":"11596","enrolled non-users":125,"id":"a6lhw8zhgqlk","geo_precision":"zip"},"type":"Feature","geometry":{"type":"Point","coordinates":[-73.634851,40.758434]}},{"properties":{"city":"Woodmere","geo_score":0.786,"zip code":"11598","enrolled non-users":63,"id":"a6lhw8zk9lnj","geo_precision":"zip"},"type":"Feature","geometry":{"type":"Point","coordinates":[-73.708465,40.623993]}},{"properties":{"city":"Inwood","geo_score":0.714,"zip code":"11690","enrolled non-users":13,"id":"a6lhw8xj7vva","geo_precision":"zip"},"type":"Feature","geometry":{"type":"Point","coordinates":[-73.763744,40.599549]}},{"properties":{"city":"Inwood","geo_score":0.727,"zip code":"11691","enrolled non-users":245,"id":"a6lhw99cgyob","geo_precision":"zip"},"type":"Feature","geometry":{"type":"Point","coordinates":[-73.76191,40.601475]}},{"properties":{"city":"Amityville","geo_score":0.81,"zip code":"11701","enrolled non-users":305,"id":"a6lhw92p346b","geo_precision":"zip"},"type":"Feature","geometry":{"type":"Point","coordinates":[-73.425123,40.6976]}},{"properties":{"city":"Babylon","geo_score":0.735,"zip code":"11702","enrolled non-users":205,"id":"a6lhw8w05vy4","geo_precision":"zip"},"type":"Feature","geometry":{"type":"Point","coordinates":[-73.419568,40.612879]}},{"properties":{"city":"North Babylon","geo_score":0.857,"zip code":"11703","enrolled non-users":307,"id":"a6lhw9az1doe","geo_precision":"zip"},"type":"Feature","geometry":{"type":"Point","coordinates":[-73.325363,40.732348]}},{"properties":{"city":"West Babylon","geo_score":0.857,"zip code":"11704","enrolled non-users":498,"id":"a6lhw9a3j2dp","geo_precision":"zip"},"type":"Feature","geometry":{"type":"Point","coordinates":[-73.356164,40.709098]}},{"properties":{"city":"Bayport","geo_score":0.857,"zip code":"11705","enrolled non-users":104,"id":"a6lhw94e517w","geo_precision":"zip"},"type":"Feature","geometry":{"type":"Point","coordinates":[-73.057026,40.748364]}},{"properties":{"city":"North Bay Shore","geo_score":0.813,"zip code":"11706","enrolled non-users":593,"id":"a6lhw950v3ab","geo_precision":"zip"},"type":"Feature","geometry":{"type":"Point","coordinates":[-73.281229,40.70871]}},{"properties":{"city":"Babylon","geo_score":0.805,"zip code":"11707","enrolled non-users":3,"id":"a6lhw99s1l3r","geo_precision":"zip"},"type":"Feature","geometry":{"type":"Point","coordinates":[-72.637078,40.922326]}},{"properties":{"city":"Bayville","geo_score":0.857,"zip code":"11709","enrolled non-users":102,"id":"a6lhw90lqath","geo_precision":"zip"},"type":"Feature","geometry":{"type":"Point","coordinates":[-73.601772,40.754757]}},{"properties":{"city":"Bellmore","geo_score":0.802,"zip code":"11710","enrolled non-users":329,"id":"a6lhw99bgji8","geo_precision":"zip"},"type":"Feature","geometry":{"type":"Point","coordinates":[-73.53346,40.69149]}},{"properties":{"city":"North Bellport","geo_score":0.857,"zip code":"11713","enrolled non-users":95,"id":"a6lhw98hul9k","geo_precision":"zip"},"type":"Feature","geometry":{"type":"Point","coordinates":[-72.942884,40.774265]}},{"properties":{"city":"Bethpage","geo_score":0.857,"zip code":"11714","enrolled non-users":348,"id":"a6lhw93a8jlq","geo_precision":"zip"},"type":"Feature","geometry":{"type":"Point","coordinates":[-73.495369,40.728449]}},{"properties":{"city":"Blue Point","geo_score":0.857,"zip code":"11715","enrolled non-users":68,"id":"a6lhw92c0v0e","geo_precision":"zip"},"type":"Feature","geometry":{"type":"Point","coordinates":[-73.043481,40.75673]}},{"properties":{"city":"Bohemia","geo_score":0.857,"zip code":"11716","enrolled non-users":146,"id":"a6lhw92de3mo","geo_precision":"zip"},"type":"Feature","geometry":{"type":"Point","coordinates":[-73.113366,40.76902]}},{"properties":{"city":"Brentwood","geo_score":0.73,"zip code":"11717","enrolled non-users":397,"id":"a6lhw996vc1a","geo_precision":"zip"},"type":"Feature","geometry":{"type":"Point","coordinates":[-73.274006,40.770654]}},{"properties":{"city":"Brightwaters","geo_score":0.857,"zip code":"11718","enrolled non-users":28,"id":"a6lhw90mir7h","geo_precision":"zip"},"type":"Feature","geometry":{"type":"Point","coordinates":[-73.260912,40.715424]}},{"properties":{"city":"Brookhaven","geo_score":0.786,"zip code":"11719","enrolled non-users":39,"id":"a6lhw8yqt832","geo_precision":"zip"},"type":"Feature","geometry":{"type":"Point","coordinates":[-72.895104,40.799265]}},{"properties":{"city":"Centereach","geo_score":0.747,"zip code":"11720","enrolled non-users":309,"id":"a6lhw93jsph0","geo_precision":"zip"},"type":"Feature","geometry":{"type":"Point","coordinates":[-73.105664,40.91371]}},{"properties":{"city":"Centerport","geo_score":0.743,"zip code":"11721","enrolled non-users":106,"id":"a6lhw9882j89","geo_precision":"zip"},"type":"Feature","geometry":{"type":"Point","coordinates":[-73.383452,40.897876]}},{"properties":{"city":"Central Islip","geo_score":0.743,"zip code":"11722","enrolled non-users":259,"id":"a6lhw92du8n3","geo_precision":"zip"},"type":"Feature","geometry":{"type":"Point","coordinates":[-73.169836,40.747321]}},{"properties":{"city":"Laurel Hollow","geo_score":0.75,"zip code":"11724","enrolled non-users":32,"id":"a6lhw947mqaf","geo_precision":"zip"},"type":"Feature","geometry":{"type":"Point","coordinates":[-73.442315,40.860098]}},{"properties":{"city":"Commack","geo_score":0.857,"zip code":"11725","enrolled non-users":426,"id":"a6lhw94uditc","geo_precision":"zip"},"type":"Feature","geometry":{"type":"Point","coordinates":[-73.280935,40.842247]}},{"properties":{"city":"Copiague","geo_score":0.857,"zip code":"11726","enrolled non-users":181,"id":"a6lhw9brr0ev","geo_precision":"zip"},"type":"Feature","geometry":{"type":"Point","coordinates":[-73.394762,40.68022]}},{"properties":{"city":"Coram","geo_score":0.736,"zip code":"11727","enrolled non-users":323,"id":"a6lhw92swyvy","geo_precision":"zip"},"type":"Feature","geometry":{"type":"Point","coordinates":[-72.970661,40.85871]}},{"properties":{"city":"Deer Park","geo_score":0.714,"zip code":"11729","enrolled non-users":467,"id":"a6lhw8zi77ip","geo_precision":"zip"},"type":"Feature","geometry":{"type":"Point","coordinates":[-73.343175,40.776488]}},{"properties":{"city":"East Islip","geo_score":0.743,"zip code":"11730","enrolled non-users":151,"id":"a6lhw96l53jg","geo_precision":"zip"},"type":"Feature","geometry":{"type":"Point","coordinates":[-73.169444,40.740278]}},{"properties":{"city":"East Northport","geo_score":0.736,"zip code":"11731","enrolled non-users":498,"id":"a6lhw945ra90","geo_precision":"zip"},"type":"Feature","geometry":{"type":"Point","coordinates":[-73.329006,40.899542]}},{"properties":{"city":"East Norwich","geo_score":0.857,"zip code":"11732","enrolled non-users":56,"id":"a6lhw96xkv7q","geo_precision":"zip"},"type":"Feature","geometry":{"type":"Point","coordinates":[-73.601772,40.754757]}},{"properties":{"city":"Setauket","geo_score":0.75,"zip code":"11733","enrolled non-users":156,"id":"a6lhw91krs2x","geo_precision":"zip"},"type":"Feature","geometry":{"type":"Point","coordinates":[-73.083996,40.950932]}},{"properties":{"city":"Farmingdale","geo_score":0.819,"zip code":"11735","enrolled non-users":388,"id":"a6lhw94z8ktw","geo_precision":"zip"},"type":"Feature","geometry":{"type":"Point","coordinates":[-73.416789,40.729266]}},{"properties":{"city":"South Farmingdale","geo_score":0.812,"zip code":"11736","enrolled non-users":0,"id":"a6lhw92458vo","geo_precision":"zip"},"type":"Feature","geometry":{"type":"Point","coordinates":[-73.601772,40.754757]}},{"properties":{"city":"East Farmingdale","geo_score":0.819,"zip code":"11737","enrolled non-users":1,"id":"a6lhw992m0np","geo_precision":"zip"},"type":"Feature","geometry":{"type":"Point","coordinates":[-73.601772,40.754757]}},{"properties":{"city":"Farmingville","geo_score":0.857,"zip code":"11738","enrolled non-users":155,"id":"a6lhw95xpfzp","geo_precision":"zip"},"type":"Feature","geometry":{"type":"Point","coordinates":[-72.637078,40.922326]}},{"properties":{"city":"Great River","geo_score":0.857,"zip code":"11739","enrolled non-users":19,"id":"a6lhw91y8e68","geo_precision":"zip"},"type":"Feature","geometry":{"type":"Point","coordinates":[-72.637078,40.922326]}},{"properties":{"city":"Greenlawn","geo_score":0.857,"zip code":"11740","enrolled non-users":119,"id":"a6lhw8x5obad","geo_precision":"zip"},"type":"Feature","geometry":{"type":"Point","coordinates":[-73.362512,40.866948]}},{"properties":{"city":"Holbrook","geo_score":0.857,"zip code":"11741","enrolled non-users":292,"id":"a6lhw8xnqgib","geo_precision":"zip"},"type":"Feature","geometry":{"type":"Point","coordinates":[-73.066689,40.78791]}},{"properties":{"city":"Holtsville","geo_score":0.857,"zip code":"11742","enrolled non-users":132,"id":"a6lhw97tsb1m","geo_precision":"zip"},"type":"Feature","geometry":{"type":"Point","coordinates":[-73.048985,40.798994]}},{"properties":{"city":"Huntington","geo_score":0.743,"zip code":"11743","enrolled non-users":489,"id":"a6lhw8wrj7ue","geo_precision":"zip"},"type":"Feature","geometry":{"type":"Point","coordinates":[-73.425675,40.903431]}},{"properties":{"city":"South Huntington","geo_score":0.857,"zip code":"11746","enrolled non-users":677,"id":"a6lhw8vo0ddx","geo_precision":"zip"},"type":"Feature","geometry":{"type":"Point","coordinates":[-73.398731,40.82371]}},{"properties":{"city":"Melville","geo_score":0.857,"zip code":"11747","enrolled non-users":235,"id":"a6lhw9b45nq1","geo_precision":"zip"},"type":"Feature","geometry":{"type":"Point","coordinates":[-73.405573,40.787248]}},{"properties":{"city":"Islandia","geo_score":0.857,"zip code":"11749","enrolled non-users":34,"id":"a6lhw9c2w41z","geo_precision":"zip"},"type":"Feature","geometry":{"type":"Point","coordinates":[-72.637078,40.922326]}},{"properties":{"city":"Melville","geo_score":0.723,"zip code":"11750","enrolled non-users":1,"id":"a6lhw9b9rozr","geo_precision":"zip"},"type":"Feature","geometry":{"type":"Point","coordinates":[-72.637078,40.922326]}},{"properties":{"city":"Islip","geo_score":0.857,"zip code":"11751","enrolled non-users":173,"id":"a6lhw8w1rxpo","geo_precision":"zip"},"type":"Feature","geometry":{"type":"Point","coordinates":[-73.217871,40.72813]}},{"properties":{"city":"North Great River","geo_score":0.743,"zip code":"11752","enrolled non-users":127,"id":"a6lhw8zu8nnh","geo_precision":"zip"},"type":"Feature","geometry":{"type":"Point","coordinates":[-73.182854,40.757226]}},{"properties":{"city":"Jericho","geo_score":0.857,"zip code":"11753","enrolled non-users":92,"id":"a6lhw92l6o1f","geo_precision":"zip"},"type":"Feature","geometry":{"type":"Point","coordinates":[-73.601772,40.754757]}},{"properties":{"city":"Kings Park","geo_score":0.73,"zip code":"11754","enrolled non-users":333,"id":"a6lhw976ce9s","geo_precision":"zip"},"type":"Feature","geometry":{"type":"Point","coordinates":[-73.220669,40.882042]}},{"properties":{"city":"Lake Grove","geo_score":0.857,"zip code":"11755","enrolled non-users":151,"id":"a6lhw9c2zi3d","geo_precision":"zip"},"type":"Feature","geometry":{"type":"Point","coordinates":[-73.129003,40.85185]}},{"properties":{"city":"Levittown","geo_score":0.73,"zip code":"11756","enrolled non-users":578,"id":"a6lhw9bkxli5","geo_precision":"zip"},"type":"Feature","geometry":{"type":"Point","coordinates":[-73.483736,40.717322]}},{"properties":{"city":"Lindenhurst","geo_score":0.812,"zip code":"11757","enrolled non-users":631,"id":"a6lhw8zh01o4","geo_precision":"zip"},"type":"Feature","geometry":{"type":"Point","coordinates":[-73.38151,40.714266]}},{"properties":{"city":"Massapequa","geo_score":0.762,"zip code":"11758","enrolled non-users":777,"id":"a6lhw94tk55u","geo_precision":"zip"},"type":"Feature","geometry":{"type":"Point","coordinates":[-73.440124,40.662045]}},{"properties":{"city":"Islandia","geo_score":0.714,"zip code":"11760","enrolled non-users":2,"id":"a6lhw9a816ot","geo_precision":"zip"},"type":"Feature","geometry":{"type":"Point","coordinates":[-73.191789,40.810246]}},{"properties":{"city":"Massapequa Park","geo_score":0.857,"zip code":"11762","enrolled non-users":344,"id":"a6lhw98gnws9","geo_precision":"zip"},"type":"Feature","geometry":{"type":"Point","coordinates":[-73.601772,40.754757]}},{"properties":{"city":"Medford","geo_score":0.857,"zip code":"11763","enrolled non-users":308,"id":"a6lhw94bfyst","geo_precision":"zip"},"type":"Feature","geometry":{"type":"Point","coordinates":[-72.637078,40.922326]}},{"properties":{"city":"Miller Place","geo_score":0.857,"zip code":"11764","enrolled non-users":116,"id":"a6lhw93bz08b","geo_precision":"zip"},"type":"Feature","geometry":{"type":"Point","coordinates":[-72.637078,40.922326]}},{"properties":{"city":"Mill Neck","geo_score":0.857,"zip code":"11765","enrolled non-users":5,"id":"a6lhw8zc3t0n","geo_precision":"zip"},"type":"Feature","geometry":{"type":"Point","coordinates":[-73.601772,40.754757]}},{"properties":{"city":"Mount Sinai","geo_score":0.726,"zip code":"11766","enrolled non-users":139,"id":"a6lhw986k3us","geo_precision":"zip"},"type":"Feature","geometry":{"type":"Point","coordinates":[-73.04205,40.947877]}},{"properties":{"city":"Nesconset","geo_score":0.857,"zip code":"11767","enrolled non-users":161,"id":"a6lhw9814irn","geo_precision":"zip"},"type":"Feature","geometry":{"type":"Point","coordinates":[-73.146763,40.846678]}},{"properties":{"city":"Northport","geo_score":0.714,"zip code":"11768","enrolled non-users":202,"id":"a6lhw9blxzqq","geo_precision":"zip"},"type":"Feature","geometry":{"type":"Point","coordinates":[-73.296227,40.899265]}},{"properties":{"city":"Oakdale","geo_score":0.857,"zip code":"11769","enrolled non-users":160,"id":"a6lhw991pvrt","geo_precision":"zip"},"type":"Feature","geometry":{"type":"Point","coordinates":[-73.131797,40.738322]}},{"properties":{"city":"Ocean Beach","geo_score":0.757,"zip code":"11770","enrolled non-users":6,"id":"a6lhw8w1thun","geo_precision":"zip"},"type":"Feature","geometry":{"type":"Point","coordinates":[-73.149003,40.647044]}},{"properties":{"city":"Oyster Bay","geo_score":0.813,"zip code":"11771","enrolled non-users":113,"id":"a6lhw96luy1l","geo_precision":"zip"},"type":"Feature","geometry":{"type":"Point","coordinates":[-73.510957,40.870932]}},{"properties":{"city":"East Patchogue","geo_score":0.736,"zip code":"11772","enrolled non-users":462,"id":"a6lhw97op7r6","geo_precision":"zip"},"type":"Feature","geometry":{"type":"Point","coordinates":[-73.029276,40.675655]}},{"properties":{"city":"Wheatley Heights","geo_score":0.743,"zip code":"11775","enrolled non-users":1,"id":"a6lhw93dbg57","geo_precision":"zip"},"type":"Feature","geometry":{"type":"Point","coordinates":[-72.637078,40.922326]}},{"properties":{"city":"Port Jefferson Station","geo_score":0.736,"zip code":"11776","enrolled non-users":271,"id":"a6lhw9adpdqc","geo_precision":"zip"},"type":"Feature","geometry":{"type":"Point","coordinates":[-73.065107,40.908987]}},{"properties":{"city":"Port Jefferson","geo_score":0.747,"zip code":"11777","enrolled non-users":114,"id":"a6lhw95d105x","geo_precision":"zip"},"type":"Feature","geometry":{"type":"Point","coordinates":[-73.067884,40.959821]}},{"properties":{"city":"Rocky Point","geo_score":0.857,"zip code":"11778","enrolled non-users":134,"id":"a6lhw920zk7p","geo_precision":"zip"},"type":"Feature","geometry":{"type":"Point","coordinates":[-72.637078,40.922326]}},{"properties":{"city":"Ronkonkoma","geo_score":0.729,"zip code":"11779","enrolled non-users":467,"id":"a6lhw9ashmo5","geo_precision":"zip"},"type":"Feature","geometry":{"type":"Point","coordinates":[-73.120111,40.807876]}},{"properties":{"city":"Saint James","geo_score":0.727,"zip code":"11780","enrolled non-users":213,"id":"a6lhw99ain29","geo_precision":"zip"},"type":"Feature","geometry":{"type":"Point","coordinates":[-73.19789,40.903987]}},{"properties":{"city":"Sayville","geo_score":0.743,"zip code":"11782","enrolled non-users":182,"id":"a6lhw9b6uy1z","geo_precision":"zip"},"type":"Feature","geometry":{"type":"Point","coordinates":[-73.068167,40.665377]}},{"properties":{"city":"Massapequa","geo_score":0.743,"zip code":"11783","enrolled non-users":263,"id":"a6lhw8y0lel5","geo_precision":"zip"},"type":"Feature","geometry":{"type":"Point","coordinates":[-73.496169,40.683897]}},{"properties":{"city":"Selden","geo_score":0.857,"zip code":"11784","enrolled non-users":257,"id":"a6lhw9aef7jd","geo_precision":"zip"},"type":"Feature","geometry":{"type":"Point","coordinates":[-72.637078,40.922326]}},{"properties":{"city":"East Shoreham","geo_score":0.81,"zip code":"11786","enrolled non-users":57,"id":"a6lhw9bqipl9","geo_precision":"zip"},"type":"Feature","geometry":{"type":"Point","coordinates":[-72.637078,40.922326]}},{"properties":{"city":"Smithtown","geo_score":0.738,"zip code":"11787","enrolled non-users":494,"id":"a6lhw91ltotb","geo_precision":"zip"},"type":"Feature","geometry":{"type":"Point","coordinates":[-73.187335,40.856209]}},{"properties":{"city":"Hauppauge","geo_score":0.714,"zip code":"11788","enrolled non-users":263,"id":"a6lhw96zh382","geo_precision":"zip"},"type":"Feature","geometry":{"type":"Point","coordinates":[-73.200669,40.855931]}},{"properties":{"city":"Sound Beach","geo_score":0.857,"zip code":"11789","enrolled non-users":80,"id":"a6lhw8xpnwzi","geo_precision":"zip"},"type":"Feature","geometry":{"type":"Point","coordinates":[-72.637078,40.922326]}},{"properties":{"city":"Head of the Harbor","geo_score":0.743,"zip code":"11790","enrolled non-users":203,"id":"a6lhw8xklme7","geo_precision":"zip"},"type":"Feature","geometry":{"type":"Point","coordinates":[-73.182803,40.90129]}},{"properties":{"city":"Syosset","geo_score":0.729,"zip code":"11791","enrolled non-users":180,"id":"a6lhw8xbsybk","geo_precision":"zip"},"type":"Feature","geometry":{"type":"Point","coordinates":[-73.547625,40.823988]}},{"properties":{"city":"Wading River","geo_score":0.74,"zip code":"11792","enrolled non-users":95,"id":"a6lhw932fn06","geo_precision":"zip"},"type":"Feature","geometry":{"type":"Point","coordinates":[-72.812046,40.964543]}},{"properties":{"city":"Wantagh","geo_score":0.798,"zip code":"11793","enrolled non-users":391,"id":"a6lhw91mhwns","geo_precision":"zip"},"type":"Feature","geometry":{"type":"Point","coordinates":[-73.507626,40.693434]}},{"properties":{"city":"Stony Brook","geo_score":0.857,"zip code":"11794","enrolled non-users":0,"id":"a6lhw8z025t4","geo_precision":"zip"},"type":"Feature","geometry":{"type":"Point","coordinates":[-72.637078,40.922326]}},{"properties":{"city":"West Islip","geo_score":0.857,"zip code":"11795","enrolled non-users":324,"id":"a6lhw8w8bzyt","geo_precision":"zip"},"type":"Feature","geometry":{"type":"Point","coordinates":[-73.290905,40.699825]}},{"properties":{"city":"West Sayville","geo_score":0.857,"zip code":"11796","enrolled non-users":39,"id":"a6lhw926d6ef","geo_precision":"zip"},"type":"Feature","geometry":{"type":"Point","coordinates":[-73.10002,40.732304]}},{"properties":{"city":"Woodbury","geo_score":0.857,"zip code":"11797","enrolled non-users":79,"id":"a6lhw9aic6ey","geo_precision":"zip"},"type":"Feature","geometry":{"type":"Point","coordinates":[-73.601772,40.754757]}},{"properties":{"city":"Wyandanch","geo_score":0.743,"zip code":"11798","enrolled non-users":140,"id":"a6lhw9aw6uw7","geo_precision":"zip"},"type":"Feature","geometry":{"type":"Point","coordinates":[-73.369843,40.76371]}},{"properties":{"city":"Hicksville","geo_score":0.857,"zip code":"11801","enrolled non-users":454,"id":"a6lhw935afwn","geo_precision":"zip"},"type":"Feature","geometry":{"type":"Point","coordinates":[-73.601772,40.754757]}},{"properties":{"city":"Hicksville","geo_score":0.857,"zip code":"11802","enrolled non-users":8,"id":"a6lhw8wntxjp","geo_precision":"zip"},"type":"Feature","geometry":{"type":"Point","coordinates":[-73.601772,40.754757]}},{"properties":{"city":"Plainview","geo_score":0.857,"zip code":"11803","enrolled non-users":292,"id":"a6lhw99erx77","geo_precision":"zip"},"type":"Feature","geometry":{"type":"Point","coordinates":[-73.601772,40.754757]}},{"properties":{"city":"Plainview","geo_score":0.727,"zip code":"11804","enrolled non-users":51,"id":"a6lhw8znyma6","geo_precision":"zip"},"type":"Feature","geometry":{"type":"Point","coordinates":[-73.601772,40.754757]}},{"properties":{"city":"Jericho","geo_score":0.857,"zip code":"11853","enrolled non-users":1,"id":"a6lhw95n1o39","geo_precision":"zip"},"type":"Feature","geometry":{"type":"Point","coordinates":[-73.601772,40.754757]}},{"properties":{"city":"Riverhead","geo_score":0.794,"zip code":"11901","enrolled non-users":338,"id":"a6lhw8znr80w","geo_precision":"zip"},"type":"Feature","geometry":{"type":"Point","coordinates":[-72.677874,40.88121]}},{"properties":{"city":"Amagansett","geo_score":0.743,"zip code":"11930","enrolled non-users":22,"id":"a6lhw99znnzm","geo_precision":"zip"},"type":"Feature","geometry":{"type":"Point","coordinates":[-72.06813,41.009546]}},{"properties":{"city":"Aquebogue","geo_score":0.857,"zip code":"11931","enrolled non-users":59,"id":"a6lhw91zx6sa","geo_precision":"zip"},"type":"Feature","geometry":{"type":"Point","coordinates":[-72.637078,40.922326]}},{"properties":{"city":"Bridgehampton","geo_score":0.725,"zip code":"11932","enrolled non-users":18,"id":"a6lhw97m576r","geo_precision":"zip"},"type":"Feature","geometry":{"type":"Point","coordinates":[-72.340083,40.935378]}},{"properties":{"city":"Calverton","geo_score":0.725,"zip code":"11933","enrolled non-users":123,"id":"a6lhw9b4w70n","geo_precision":"zip"},"type":"Feature","geometry":{"type":"Point","coordinates":[-72.753989,40.966765]}},{"properties":{"city":"Center Moriches","geo_score":0.857,"zip code":"11934","enrolled non-users":84,"id":"a6lhw96c4paq","geo_precision":"zip"},"type":"Feature","geometry":{"type":"Point","coordinates":[-72.637078,40.922326]}},{"properties":{"city":"Cutchogue","geo_score":0.714,"zip code":"11935","enrolled non-users":69,"id":"a6lhw9bhorwm","geo_precision":"zip"},"type":"Feature","geometry":{"type":"Point","coordinates":[-72.452585,41.017323]}},{"properties":{"city":"Springs","geo_score":0.857,"zip code":"11937","enrolled non-users":147,"id":"a6lhw97zumee","geo_precision":"zip"},"type":"Feature","geometry":{"type":"Point","coordinates":[-72.159244,41.016211]}},{"properties":{"city":"Greenport","geo_score":0.714,"zip code":"11939","enrolled non-users":17,"id":"a6lhw92tsxui","geo_precision":"zip"},"type":"Feature","geometry":{"type":"Point","coordinates":[-72.637078,40.922326]}},{"properties":{"city":"East Moriches","geo_score":0.857,"zip code":"11940","enrolled non-users":67,"id":"a6lhw97ofny9","geo_precision":"zip"},"type":"Feature","geometry":{"type":"Point","coordinates":[-72.637078,40.922326]}},{"properties":{"city":"Eastport","geo_score":0.857,"zip code":"11941","enrolled non-users":36,"id":"a6lhw94zioaf","geo_precision":"zip"},"type":"Feature","geometry":{"type":"Point","coordinates":[-72.637078,40.922326]}},{"properties":{"city":"East Quogue","geo_score":0.857,"zip code":"11942","enrolled non-users":60,"id":"a6lhw90am06w","geo_precision":"zip"},"type":"Feature","geometry":{"type":"Point","coordinates":[-72.637078,40.922326]}},{"properties":{"city":"Greenport","geo_score":0.714,"zip code":"11944","enrolled non-users":87,"id":"a6lhw95gs14l","geo_precision":"zip"},"type":"Feature","geometry":{"type":"Point","coordinates":[-72.367861,41.113988]}},{"properties":{"city":"Hampton Bays","geo_score":0.74,"zip code":"11946","enrolled non-users":200,"id":"a6lhw95b5emb","geo_precision":"zip"},"type":"Feature","geometry":{"type":"Point","coordinates":[-72.543702,40.859822]}},{"properties":{"city":"Jamesport","geo_score":0.857,"zip code":"11947","enrolled non-users":22,"id":"a6lhw91wp8by","geo_precision":"zip"},"type":"Feature","geometry":{"type":"Point","coordinates":[-72.637078,40.922326]}},{"properties":{"city":"Laurel","geo_score":0.857,"zip code":"11948","enrolled non-users":14,"id":"a6lhw95rasyf","geo_precision":"zip"},"type":"Feature","geometry":{"type":"Point","coordinates":[-72.637078,40.922326]}},{"properties":{"city":"Manorville","geo_score":0.857,"zip code":"11949","enrolled non-users":177,"id":"a6lhw96vus3d","geo_precision":"zip"},"type":"Feature","geometry":{"type":"Point","coordinates":[-72.637078,40.922326]}},{"properties":{"city":"Mastic","geo_score":0.735,"zip code":"11950","enrolled non-users":151,"id":"a6lhw94q67gd","geo_precision":"zip"},"type":"Feature","geometry":{"type":"Point","coordinates":[-72.83288,40.789821]}},{"properties":{"city":"Mastic Beach","geo_score":0.857,"zip code":"11951","enrolled non-users":145,"id":"a6lhw91y6tbf","geo_precision":"zip"},"type":"Feature","geometry":{"type":"Point","coordinates":[-72.637078,40.922326]}},{"properties":{"city":"Mattituck","geo_score":0.714,"zip code":"11952","enrolled non-users":82,"id":"a6lhw91zyebs","geo_precision":"zip"},"type":"Feature","geometry":{"type":"Point","coordinates":[-72.549811,41.0026]}},{"properties":{"city":"Middle Island","geo_score":0.857,"zip code":"11953","enrolled non-users":193,"id":"a6lhw96womji","geo_precision":"zip"},"type":"Feature","geometry":{"type":"Point","coordinates":[-72.637078,40.922326]}},{"properties":{"city":"Mastic","geo_score":0.75,"zip code":"11955","enrolled non-users":60,"id":"a6lhw986hjcy","geo_precision":"zip"},"type":"Feature","geometry":{"type":"Point","coordinates":[-72.637078,40.922326]}},{"properties":{"city":"Cutchogue","geo_score":0.714,"zip code":"11956","enrolled non-users":5,"id":"a6lhw94nsbdc","geo_precision":"zip"},"type":"Feature","geometry":{"type":"Point","coordinates":[-72.637078,40.922326]}},{"properties":{"city":"Peconic","geo_score":0.857,"zip code":"11958","enrolled non-users":15,"id":"a6lhw8xoyqdc","geo_precision":"zip"},"type":"Feature","geometry":{"type":"Point","coordinates":[-72.637078,40.922326]}},{"properties":{"city":"Quogue","geo_score":0.857,"zip code":"11959","enrolled non-users":11,"id":"a6lhw93uau1b","geo_precision":"zip"},"type":"Feature","geometry":{"type":"Point","coordinates":[-72.637078,40.922326]}},{"properties":{"city":"Westhampton Beach","geo_score":0.75,"zip code":"11960","enrolled non-users":20,"id":"a6lhw9806cvo","geo_precision":"zip"},"type":"Feature","geometry":{"type":"Point","coordinates":[-72.637078,40.922326]}},{"properties":{"city":"Ridge","geo_score":0.857,"zip code":"11961","enrolled non-users":299,"id":"a6lhw967ia2o","geo_precision":"zip"},"type":"Feature","geometry":{"type":"Point","coordinates":[-72.637078,40.922326]}},{"properties":{"city":"Bridgehampton","geo_score":0.736,"zip code":"11962","enrolled non-users":3,"id":"a6lhw9b6wcnd","geo_precision":"zip"},"type":"Feature","geometry":{"type":"Point","coordinates":[-72.637078,40.922326]}},{"properties":{"city":"Noyack","geo_score":0.714,"zip code":"11963","enrolled non-users":98,"id":"a6lhw90j7z5i","geo_precision":"zip"},"type":"Feature","geometry":{"type":"Point","coordinates":[-72.313416,40.997877]}},{"properties":{"city":"Shelter Island","geo_score":0.752,"zip code":"11964","enrolled non-users":27,"id":"a6lhw970ikyx","geo_precision":"zip"},"type":"Feature","geometry":{"type":"Point","coordinates":[-72.34925,41.050933]}},{"properties":{"city":"Shelter Island Heights","geo_score":0.757,"zip code":"11965","enrolled non-users":13,"id":"a6lhw93at37f","geo_precision":"zip"},"type":"Feature","geometry":{"type":"Point","coordinates":[-72.369806,41.058155]}},{"properties":{"city":"Shirley","geo_score":0.857,"zip code":"11967","enrolled non-users":238,"id":"a6lhw9agwmbj","geo_precision":"zip"},"type":"Feature","geometry":{"type":"Point","coordinates":[-72.637078,40.922326]}},{"properties":{"city":"North Sea","geo_score":0.732,"zip code":"11968","enrolled non-users":126,"id":"a6lhw9bo32cd","geo_precision":"zip"},"type":"Feature","geometry":{"type":"Point","coordinates":[-72.410919,40.898989]}},{"properties":{"city":"Southampton","geo_score":0.857,"zip code":"11969","enrolled non-users":29,"id":"a6lhw913v0kj","geo_precision":"zip"},"type":"Feature","geometry":{"type":"Point","coordinates":[-72.637078,40.922326]}},{"properties":{"city":"Jamesport","geo_score":0.806,"zip code":"11970","enrolled non-users":7,"id":"a6lhw8vtiu32","geo_precision":"zip"},"type":"Feature","geometry":{"type":"Point","coordinates":[-72.637078,40.922326]}},{"properties":{"city":"Southold","geo_score":0.75,"zip code":"11971","enrolled non-users":109,"id":"a6lhw90n6fx0","geo_precision":"zip"},"type":"Feature","geometry":{"type":"Point","coordinates":[-72.398973,41.046767]}},{"properties":{"city":"Speonk","geo_score":0.857,"zip code":"11972","enrolled non-users":9,"id":"a6lhw92a5b6h","geo_precision":"zip"},"type":"Feature","geometry":{"type":"Point","coordinates":[-72.637078,40.922326]}},{"properties":{"city":"Ridge","geo_score":0.714,"zip code":"11973","enrolled non-users":5,"id":"a6lhw98of7r0","geo_precision":"zip"},"type":"Feature","geometry":{"type":"Point","coordinates":[-72.637078,40.922326]}},{"properties":{"city":"East Hampton","geo_score":0.74,"zip code":"11975","enrolled non-users":7,"id":"a6lhw92zz0u7","geo_precision":"zip"},"type":"Feature","geometry":{"type":"Point","coordinates":[-72.637078,40.922326]}},{"properties":{"city":"Watermill","geo_score":0.73,"zip code":"11976","enrolled non-users":26,"id":"a6lhw93rzsn3","geo_precision":"zip"},"type":"Feature","geometry":{"type":"Point","coordinates":[-72.304249,40.911211]}},{"properties":{"city":"Westhampton Beach","geo_score":0.812,"zip code":"11977","enrolled non-users":40,"id":"a6lhw8wgdr9b","geo_precision":"zip"},"type":"Feature","geometry":{"type":"Point","coordinates":[-72.637078,40.922326]}},{"properties":{"city":"Westhampton Beach","geo_score":0.732,"zip code":"11978","enrolled non-users":51,"id":"a6lhw938z4kn","geo_precision":"zip"},"type":"Feature","geometry":{"type":"Point","coordinates":[-72.628984,40.819822]}},{"properties":{"city":"Yaphank","geo_score":0.857,"zip code":"11980","enrolled non-users":63,"id":"a6lhw8zogfk2","geo_precision":"zip"},"type":"Feature","geometry":{"type":"Point","coordinates":[-72.637078,40.922326]}},{"properties":{"city":"Hague","geo_score":0.736,"zip code":"12836","enrolled non-users":16,"id":"a6lhw937xrx4","geo_precision":"zip"},"type":"Feature","geometry":{"type":"Point","coordinates":[-73.488453,43.773394]}}],"is_temporal":false,"author":{"url":"","metadata":"","contact_name":"","contact_address":"","source":"","contact_phone":""},"source":"","pagination":{"sort":null,"start":0,"total":180,"limit":1000000},"state":"complete","tags":"","published":"2014-08-12T21:19:36-04:00","id":150304}