{"type":"FeatureCollection","data_type":"Dataset","url_type":null,"permissions":[{"permissions":{"download":true,"view":true},"group_id":"everyone"}],"classification":null,"title":"DMII PtFY11","count":413,"stream_id":152006,"contributor":{"url":"http://geocommons.com/users/31839","name":"santillo"},"data_attributes":null,"calculation_params":null,"icon_link":null,"link":"http://geocommons.com/overlays/152006.json","extent":[-120.773,18.4231,-66.3307,44.9028],"geometry_types":["point"],"unique_name":null,"name":"DMII PtFY11","feature_count":413,"description":"","next_feature":null,"is_raster":false,"short_classification":"Y","stats":{"diabetes":{"max":203,"mean":18.1743341404358,"variance":1118.81419403371,"stdev":33.4486800043546,"min":1,"median":2},"lat":{"max":44.902763,"mean":38.1152498305085,"variance":26.8127009853476,"stdev":5.17809820159367,"min":18.42313,"median":40.726541},"long":{"max":-66.330684,"mean":-76.4750260048426,"variance":50.6551811837284,"stdev":7.11724533676678,"min":-120.773327,"median":-73.772767}},"features":[{"properties":{"city":"Prattville","zip code":"36066","diabetes":1,"id":"a69yr5i4ewdw","lat":32.485069,"long":-86.424339},"type":"Feature","geometry":{"type":"Point","coordinates":[-86.424339,32.485069]}},{"properties":{"city":"Mesa","zip code":"85205","diabetes":1,"id":"a69yr5jd52re","lat":33.432094,"long":-111.718291},"type":"Feature","geometry":{"type":"Point","coordinates":[-111.718291,33.432094]}},{"properties":{"city":"Scottsdale","zip code":"85257","diabetes":1,"id":"a69yr5olg6sd","lat":33.464304,"long":-111.914459},"type":"Feature","geometry":{"type":"Point","coordinates":[-111.914459,33.464304]}},{"properties":{"city":"Paradise Valley","zip code":"85260","diabetes":1,"id":"a69yr5hwko2n","lat":33.609553,"long":-111.892316},"type":"Feature","geometry":{"type":"Point","coordinates":[-111.892316,33.609553]}},{"properties":{"city":"Peoria","zip code":"85381","diabetes":1,"id":"a69yr5rfu0w2","lat":33.609464,"long":-112.231286},"type":"Feature","geometry":{"type":"Point","coordinates":[-112.231286,33.609464]}},{"properties":{"city":"Oakdale","zip code":"95361","diabetes":1,"id":"a69yr5jp3xgl","lat":37.794907,"long":-120.773327},"type":"Feature","geometry":{"type":"Point","coordinates":[-120.773327,37.794907]}},{"properties":{"city":"Kensington","zip code":"6037","diabetes":1,"id":"a69yr5jfrtzv","lat":41.611892,"long":-72.7831},"type":"Feature","geometry":{"type":"Point","coordinates":[-72.7831,41.611892]}},{"properties":{"city":"Hazardville","zip code":"6071","diabetes":1,"id":"a69yr5iooccj","lat":41.994761,"long":-72.450871},"type":"Feature","geometry":{"type":"Point","coordinates":[-72.450871,41.994761]}},{"properties":{"city":"Hartford","zip code":"6105","diabetes":1,"id":"a69yr5tzpgx6","lat":41.777384,"long":-72.696861},"type":"Feature","geometry":{"type":"Point","coordinates":[-72.696861,41.777384]}},{"properties":{"city":"West Mystic","zip code":"6355","diabetes":1,"id":"a69yr5kkkpgm","lat":41.367254,"long":-71.97181},"type":"Feature","geometry":{"type":"Point","coordinates":[-71.97181,41.367254]}},{"properties":{"city":"Shelton","zip code":"6484","diabetes":1,"id":"a69yr5move4z","lat":41.291558,"long":-73.111287},"type":"Feature","geometry":{"type":"Point","coordinates":[-73.111287,41.291558]}},{"properties":{"city":"Stratford","zip code":"6614","diabetes":1,"id":"a69yr5p1368q","lat":41.226656,"long":-73.127511},"type":"Feature","geometry":{"type":"Point","coordinates":[-73.127511,41.226656]}},{"properties":{"city":"Greenwich","zip code":"6831","diabetes":1,"id":"a69yr5l1m6b4","lat":41.087912,"long":-73.660279},"type":"Feature","geometry":{"type":"Point","coordinates":[-73.660279,41.087912]}},{"properties":{"city":"New Canaan","zip code":"6903","diabetes":1,"id":"a69yr5oiltb3","lat":41.134673,"long":-73.571845},"type":"Feature","geometry":{"type":"Point","coordinates":[-73.571845,41.134673]}},{"properties":{"city":"Washington D.C.","zip code":"20006","diabetes":1,"id":"a69yr5o8yjbh","lat":38.895802,"long":-77.041731},"type":"Feature","geometry":{"type":"Point","coordinates":[-77.041731,38.895802]}},{"properties":{"city":"Middleburg","zip code":"32068","diabetes":1,"id":"a69yr5tyasjk","lat":30.10692,"long":-81.884664},"type":"Feature","geometry":{"type":"Point","coordinates":[-81.884664,30.10692]}},{"properties":{"city":"Daytona Beach","zip code":"32118","diabetes":1,"id":"a69yr5n3ya0b","lat":29.210648,"long":-81.004959},"type":"Feature","geometry":{"type":"Point","coordinates":[-81.004959,29.210648]}},{"properties":{"city":"Dallas","zip code":"32162","diabetes":2,"id":"a69yr5mnezj0","lat":28.945205,"long":-81.986021},"type":"Feature","geometry":{"type":"Point","coordinates":[-81.986021,28.945205]}},{"properties":{"city":"Glencoe","zip code":"32168","diabetes":1,"id":"a69yr5l4em0j","lat":29.030375,"long":-81.027372},"type":"Feature","geometry":{"type":"Point","coordinates":[-81.027372,29.030375]}},{"properties":{"city":"Ormond Beach","zip code":"32174","diabetes":1,"id":"a69yr5luqdqr","lat":29.301834,"long":-81.152135},"type":"Feature","geometry":{"type":"Point","coordinates":[-81.152135,29.301834]}},{"properties":{"city":"Jacksonville","zip code":"32205","diabetes":1,"id":"a69yr5n9ocsq","lat":30.304024,"long":-81.725101},"type":"Feature","geometry":{"type":"Point","coordinates":[-81.725101,30.304024]}},{"properties":{"city":"Jacksonville","zip code":"32219","diabetes":1,"id":"a69yr5kc3anb","lat":30.421488,"long":-81.812269},"type":"Feature","geometry":{"type":"Point","coordinates":[-81.812269,30.421488]}},{"properties":{"city":"Casselberry","zip code":"32707","diabetes":1,"id":"a69yr5fzkuxl","lat":28.659052,"long":-81.320469},"type":"Feature","geometry":{"type":"Point","coordinates":[-81.320469,28.659052]}},{"properties":{"city":"Eustis","zip code":"32726","diabetes":1,"id":"a69yr5p04d6r","lat":28.857479,"long":-81.676947},"type":"Feature","geometry":{"type":"Point","coordinates":[-81.676947,28.857479]}},{"properties":{"city":"Turnbull","zip code":"32754","diabetes":1,"id":"a69yr5u7z5it","lat":28.683087,"long":-80.953178},"type":"Feature","geometry":{"type":"Point","coordinates":[-80.953178,28.683087]}},{"properties":{"city":"Union Park","zip code":"32825","diabetes":1,"id":"a69yr5utznzh","lat":28.512818,"long":-81.210302},"type":"Feature","geometry":{"type":"Point","coordinates":[-81.210302,28.512818]}},{"properties":{"city":"Bithlo","zip code":"32826","diabetes":1,"id":"a69yr5jv9bnz","lat":28.586324,"long":-81.186509},"type":"Feature","geometry":{"type":"Point","coordinates":[-81.186509,28.586324]}},{"properties":{"city":"Melbourne","zip code":"32901","diabetes":1,"id":"a69yr5emnaqy","lat":28.076704,"long":-80.625465},"type":"Feature","geometry":{"type":"Point","coordinates":[-80.625465,28.076704]}},{"properties":{"city":"June Park","zip code":"32907","diabetes":1,"id":"a69yr5et60ls","lat":28.016302,"long":-80.68358},"type":"Feature","geometry":{"type":"Point","coordinates":[-80.68358,28.016302]}},{"properties":{"city":"Micco","zip code":"32976","diabetes":1,"id":"a69yr5ran50w","lat":27.859549,"long":-80.553371},"type":"Feature","geometry":{"type":"Point","coordinates":[-80.553371,27.859549]}},{"properties":{"city":"Stock Island","zip code":"33040","diabetes":1,"id":"a69yr5kvt5i2","lat":24.625018,"long":-81.601055},"type":"Feature","geometry":{"type":"Point","coordinates":[-81.601055,24.625018]}},{"properties":{"city":"El Portal","zip code":"33138","diabetes":1,"id":"a69yr5g7u8yj","lat":25.853793,"long":-80.181721},"type":"Feature","geometry":{"type":"Point","coordinates":[-80.181721,25.853793]}},{"properties":{"city":"Riverland","zip code":"33312","diabetes":1,"id":"a69yr5u9zih5","lat":26.097974,"long":-80.17672},"type":"Feature","geometry":{"type":"Point","coordinates":[-80.17672,26.097974]}},{"properties":{"city":"Sunrise","zip code":"33322","diabetes":1,"id":"a69yr5owvbbt","lat":26.156661,"long":-80.272113},"type":"Feature","geometry":{"type":"Point","coordinates":[-80.272113,26.156661]}},{"properties":{"city":"Mangonia Park","zip code":"33407","diabetes":1,"id":"a69yr5g1mw11","lat":26.758546,"long":-80.093098},"type":"Feature","geometry":{"type":"Point","coordinates":[-80.093098,26.758546]}},{"properties":{"city":"Royal Palm Beach","zip code":"33411","diabetes":1,"id":"a69yr5mclgtz","lat":26.703823,"long":-80.201955},"type":"Feature","geometry":{"type":"Point","coordinates":[-80.201955,26.703823]}},{"properties":{"city":"Century Village","zip code":"33417","diabetes":1,"id":"a69yr5kb86hl","lat":26.714895,"long":-80.123811},"type":"Feature","geometry":{"type":"Point","coordinates":[-80.123811,26.714895]}},{"properties":{"city":"Sandalfoot Cove","zip code":"33428","diabetes":1,"id":"a69yr5g2u7xy","lat":26.352234,"long":-80.232768},"type":"Feature","geometry":{"type":"Point","coordinates":[-80.232768,26.352234]}},{"properties":{"city":"Boca Del Mar","zip code":"33433","diabetes":2,"id":"a69yr5l9hhvm","lat":26.34845,"long":-80.1578},"type":"Feature","geometry":{"type":"Point","coordinates":[-80.1578,26.34845]}},{"properties":{"city":"Hamptons at Boca Raton","zip code":"33434","diabetes":1,"id":"a69yr5oetmgr","lat":26.381015,"long":-80.170856},"type":"Feature","geometry":{"type":"Point","coordinates":[-80.170856,26.381015]}},{"properties":{"city":"Boynton Beach","zip code":"33435","diabetes":3,"id":"a69yr5ppbhz5","lat":26.522506,"long":-80.059605},"type":"Feature","geometry":{"type":"Point","coordinates":[-80.059605,26.522506]}},{"properties":{"city":"Country Club Trail","zip code":"33436","diabetes":1,"id":"a69yr5pilpq9","lat":26.521624,"long":-80.107767},"type":"Feature","geometry":{"type":"Point","coordinates":[-80.107767,26.521624]}},{"properties":{"city":"Sun Valley","zip code":"33437","diabetes":4,"id":"a69yr5hzd4cs","lat":26.51928,"long":-80.133825},"type":"Feature","geometry":{"type":"Point","coordinates":[-80.133825,26.51928]}},{"properties":{"city":"Lakeview","zip code":"33442","diabetes":1,"id":"a69yr5r13suf","lat":26.310097,"long":-80.144987},"type":"Feature","geometry":{"type":"Point","coordinates":[-80.144987,26.310097]}},{"properties":{"city":"High Point","zip code":"33445","diabetes":1,"id":"a69yr5udkc87","lat":26.463127,"long":-80.112441},"type":"Feature","geometry":{"type":"Point","coordinates":[-80.112441,26.463127]}},{"properties":{"city":"Villages of Oriole","zip code":"33446","diabetes":1,"id":"a69yr5hbm1jq","lat":26.453972,"long":-80.18468},"type":"Feature","geometry":{"type":"Point","coordinates":[-80.18468,26.453972]}},{"properties":{"city":"Jupiter","zip code":"33458","diabetes":1,"id":"a69yr5gt6qlq","lat":26.93576,"long":-80.1288},"type":"Feature","geometry":{"type":"Point","coordinates":[-80.1288,26.93576]}},{"properties":{"city":"Aberdeen","zip code":"33467","diabetes":1,"id":"a69yr5h95ftl","lat":26.607067,"long":-80.175709},"type":"Feature","geometry":{"type":"Point","coordinates":[-80.175709,26.607067]}},{"properties":{"city":"Jupiter","zip code":"33477","diabetes":1,"id":"a69yr5sfzaa4","lat":26.917968,"long":-80.078703},"type":"Feature","geometry":{"type":"Point","coordinates":[-80.078703,26.917968]}},{"properties":{"city":"Kings Point","zip code":"33484","diabetes":2,"id":"a69yr5p3vwwh","lat":26.456281,"long":-80.131153},"type":"Feature","geometry":{"type":"Point","coordinates":[-80.131153,26.456281]}},{"properties":{"city":"Highland Beach","zip code":"33487","diabetes":1,"id":"a69yr5k1ezn9","lat":26.405173,"long":-80.096032},"type":"Feature","geometry":{"type":"Point","coordinates":[-80.096032,26.405173]}},{"properties":{"city":"Whisper Walk","zip code":"33496","diabetes":1,"id":"a69yr5pj648k","lat":26.408545,"long":-80.160999},"type":"Feature","geometry":{"type":"Point","coordinates":[-80.160999,26.408545]}},{"properties":{"city":"Mission Bay","zip code":"33498","diabetes":1,"id":"a69yr5su5u8k","lat":26.397224,"long":-80.219795},"type":"Feature","geometry":{"type":"Point","coordinates":[-80.219795,26.397224]}},{"properties":{"city":"Egypt Lake","zip code":"33604","diabetes":1,"id":"a69yr5lmvctr","lat":28.017646,"long":-82.43712},"type":"Feature","geometry":{"type":"Point","coordinates":[-82.43712,28.017646]}},{"properties":{"city":"Largo","zip code":"33773","diabetes":1,"id":"a69yr5kkhh2n","lat":27.882296,"long":-82.757369},"type":"Feature","geometry":{"type":"Point","coordinates":[-82.757369,27.882296]}},{"properties":{"city":"Estero","zip code":"33928","diabetes":1,"id":"a69yr5ijs2jg","lat":26.41397,"long":-81.825765},"type":"Feature","geometry":{"type":"Point","coordinates":[-81.825765,26.41397]}},{"properties":{"city":"Charlotte Park","zip code":"33949","diabetes":1,"id":"a69yr5keice3","lat":26.98,"long":-82.09},"type":"Feature","geometry":{"type":"Point","coordinates":[-82.09,26.98]}},{"properties":{"city":"East Naples","zip code":"34112","diabetes":1,"id":"a69yr5j9c9ac","lat":26.105244,"long":-81.746368},"type":"Feature","geometry":{"type":"Point","coordinates":[-81.746368,26.105244]}},{"properties":{"city":"Gulf Gate Estates","zip code":"34231","diabetes":1,"id":"a69yr5nxx7i7","lat":27.269241,"long":-82.515548},"type":"Feature","geometry":{"type":"Point","coordinates":[-82.515548,27.269241]}},{"properties":{"city":"The Meadows","zip code":"34235","diabetes":1,"id":"a69yr5qnjmmh","lat":27.369422,"long":-82.472571},"type":"Feature","geometry":{"type":"Point","coordinates":[-82.472571,27.369422]}},{"properties":{"city":"North Port","zip code":"34287","diabetes":2,"id":"a69yr5pltwzu","lat":27.049765,"long":-82.256445},"type":"Feature","geometry":{"type":"Point","coordinates":[-82.256445,27.049765]}},{"properties":{"city":"Venice Gardens","zip code":"34293","diabetes":1,"id":"a69yr5qx44q0","lat":27.038303,"long":-82.304673},"type":"Feature","geometry":{"type":"Point","coordinates":[-82.304673,27.038303]}},{"properties":{"city":"Crystal River","zip code":"34428","diabetes":1,"id":"a69yr5kd3llz","lat":28.953443,"long":-82.658347},"type":"Feature","geometry":{"type":"Point","coordinates":[-82.658347,28.953443]}},{"properties":{"city":"Beverly Hills","zip code":"34465","diabetes":1,"id":"a69yr5s0k1av","lat":28.933945,"long":-82.478},"type":"Feature","geometry":{"type":"Point","coordinates":[-82.478,28.933945]}},{"properties":{"city":"Spring Hill","zip code":"34608","diabetes":1,"id":"a69yr5rsqva2","lat":28.482871,"long":-82.553163},"type":"Feature","geometry":{"type":"Point","coordinates":[-82.553163,28.482871]}},{"properties":{"city":"Spring Hill","zip code":"34609","diabetes":1,"id":"a69yr5lh7dmh","lat":28.479148,"long":-82.508612},"type":"Feature","geometry":{"type":"Point","coordinates":[-82.508612,28.479148]}},{"properties":{"city":"New Port Richey","zip code":"34655","diabetes":2,"id":"a69yr5kns3jj","lat":28.208098,"long":-82.654386},"type":"Feature","geometry":{"type":"Point","coordinates":[-82.654386,28.208098]}},{"properties":{"city":"Jasmine Estates","zip code":"34668","diabetes":3,"id":"a69yr5u50s6d","lat":28.301742,"long":-82.7039},"type":"Feature","geometry":{"type":"Point","coordinates":[-82.7039,28.301742]}},{"properties":{"city":"Palm Harbor","zip code":"34683","diabetes":1,"id":"a69yr5sye2o5","lat":28.085792,"long":-82.770598},"type":"Feature","geometry":{"type":"Point","coordinates":[-82.770598,28.085792]}},{"properties":{"city":"Tarpon Springs","zip code":"34689","diabetes":1,"id":"a69yr5lc24bl","lat":28.15667,"long":-82.774006},"type":"Feature","geometry":{"type":"Point","coordinates":[-82.774006,28.15667]}},{"properties":{"city":"Buena Ventura Lakes","zip code":"34743","diabetes":2,"id":"a69yr5o2ni5a","lat":28.330612,"long":-81.354377},"type":"Feature","geometry":{"type":"Point","coordinates":[-81.354377,28.330612]}},{"properties":{"city":"Saint Cloud","zip code":"34769","diabetes":1,"id":"a69yr5mt9a3i","lat":28.24452,"long":-81.283298},"type":"Feature","geometry":{"type":"Point","coordinates":[-81.283298,28.24452]}},{"properties":{"city":"Saint Lucie","zip code":"34949","diabetes":1,"id":"a69yr5kxf7m7","lat":27.468654,"long":-80.305681},"type":"Feature","geometry":{"type":"Point","coordinates":[-80.305681,27.468654]}},{"properties":{"city":"Jensen Beach","zip code":"34957","diabetes":1,"id":"a69yr5ht7g75","lat":27.283022,"long":-80.242269},"type":"Feature","geometry":{"type":"Point","coordinates":[-80.242269,27.283022]}},{"properties":{"city":"Palm City","zip code":"34990","diabetes":2,"id":"a69yr5k9fhbb","lat":27.153071,"long":-80.289822},"type":"Feature","geometry":{"type":"Point","coordinates":[-80.289822,27.153071]}},{"properties":{"city":"Stuart","zip code":"34994","diabetes":1,"id":"a69yr5g3oqj5","lat":27.200922,"long":-80.25663},"type":"Feature","geometry":{"type":"Point","coordinates":[-80.25663,27.200922]}},{"properties":{"city":"Port Salerno","zip code":"34997","diabetes":2,"id":"a69yr5mgxwz9","lat":27.10977,"long":-80.216788},"type":"Feature","geometry":{"type":"Point","coordinates":[-80.216788,27.10977]}},{"properties":{"city":"Mableton","zip code":"30126","diabetes":1,"id":"a69yr5p1af0n","lat":33.816435,"long":-84.552779},"type":"Feature","geometry":{"type":"Point","coordinates":[-84.552779,33.816435]}},{"properties":{"city":"Locust Grove","zip code":"30248","diabetes":1,"id":"a69yr5i8feji","lat":33.350392,"long":-84.108912},"type":"Feature","geometry":{"type":"Point","coordinates":[-84.108912,33.350392]}},{"properties":{"city":"Red Oak","zip code":"30349","diabetes":1,"id":"a69yr5ppgyvp","lat":33.616047,"long":-84.503651},"type":"Feature","geometry":{"type":"Point","coordinates":[-84.503651,33.616047]}},{"properties":{"city":"Hinesville","zip code":"31313","diabetes":1,"id":"a69yr5jca5yz","lat":31.892218,"long":-81.634137},"type":"Feature","geometry":{"type":"Point","coordinates":[-81.634137,31.892218]}},{"properties":{"city":"Twin Falls","zip code":"83301","diabetes":1,"id":"a69yr5mb68bw","lat":42.463287,"long":-114.499859},"type":"Feature","geometry":{"type":"Point","coordinates":[-114.499859,42.463287]}},{"properties":{"city":"Lee","zip code":"1238","diabetes":1,"id":"a69yr5j1f3yl","lat":42.2848,"long":-73.213977},"type":"Feature","geometry":{"type":"Point","coordinates":[-73.213977,42.2848]}},{"properties":{"city":"Lexington Park","zip code":"20653","diabetes":1,"id":"a69yr5hszzde","lat":38.234842,"long":-76.43066},"type":"Feature","geometry":{"type":"Point","coordinates":[-76.43066,38.234842]}},{"properties":{"city":"Saint Charles","zip code":"63303","diabetes":1,"id":"a69yr5sblnxh","lat":38.752324,"long":-90.554022},"type":"Feature","geometry":{"type":"Point","coordinates":[-90.554022,38.752324]}},{"properties":{"city":"Linn Creek","zip code":"65052","diabetes":1,"id":"a69yr5jcu7oj","lat":38.068604,"long":-92.746868},"type":"Feature","geometry":{"type":"Point","coordinates":[-92.746868,38.068604]}},{"properties":{"city":"Springfield","zip code":"65803","diabetes":1,"id":"a69yr5mwpoqs","lat":37.294758,"long":-93.283683},"type":"Feature","geometry":{"type":"Point","coordinates":[-93.283683,37.294758]}},{"properties":{"city":"Wake Forest","zip code":"27587","diabetes":1,"id":"a69yr5jzyjn0","lat":35.96497,"long":-78.542705},"type":"Feature","geometry":{"type":"Point","coordinates":[-78.542705,35.96497]}},{"properties":{"city":"Greenville","zip code":"27858","diabetes":1,"id":"a69yr5pns5vx","lat":35.551041,"long":-77.302001},"type":"Feature","geometry":{"type":"Point","coordinates":[-77.302001,35.551041]}},{"properties":{"city":"Parmele","zip code":"27871","diabetes":1,"id":"a69yr5r7uxd7","lat":35.817733,"long":-77.268056},"type":"Feature","geometry":{"type":"Point","coordinates":[-77.268056,35.817733]}},{"properties":{"city":"Hickory Grove","zip code":"28215","diabetes":1,"id":"a69yr5j6a6dj","lat":35.251133,"long":-80.691664},"type":"Feature","geometry":{"type":"Point","coordinates":[-80.691664,35.251133]}},{"properties":{"city":"Marvin","zip code":"28277","diabetes":1,"id":"a69yr5nw7jqx","lat":35.052244,"long":-80.817128},"type":"Feature","geometry":{"type":"Point","coordinates":[-80.817128,35.052244]}},{"properties":{"city":"Bonnie Doone","zip code":"28314","diabetes":1,"id":"a69yr5kv8ugm","lat":35.075814,"long":-79.046171},"type":"Feature","geometry":{"type":"Point","coordinates":[-79.046171,35.075814]}},{"properties":{"city":"Clinton","zip code":"28328","diabetes":1,"id":"a69yr5p9pesg","lat":35.005744,"long":-78.34291},"type":"Feature","geometry":{"type":"Point","coordinates":[-78.34291,35.005744]}},{"properties":{"city":"Spring Lake","zip code":"28390","diabetes":1,"id":"a69yr5fpudjv","lat":35.219229,"long":-78.966032},"type":"Feature","geometry":{"type":"Point","coordinates":[-78.966032,35.219229]}},{"properties":{"city":"Saint James","zip code":"28465","diabetes":1,"id":"a69yr5rsihvq","lat":33.919166,"long":-78.162793},"type":"Feature","geometry":{"type":"Point","coordinates":[-78.162793,33.919166]}},{"properties":{"city":"Kinston","zip code":"28504","diabetes":1,"id":"a69yr5u8b77k","lat":35.236564,"long":-77.653537},"type":"Feature","geometry":{"type":"Point","coordinates":[-77.653537,35.236564]}},{"properties":{"city":"Enka","zip code":"28806","diabetes":1,"id":"a69yr5gx9tdm","lat":35.556032,"long":-82.62136},"type":"Feature","geometry":{"type":"Point","coordinates":[-82.62136,35.556032]}},{"properties":{"city":"East Merrimack","zip code":"3054","diabetes":1,"id":"a69yr5l2hu7g","lat":42.854982,"long":-71.518681},"type":"Feature","geometry":{"type":"Point","coordinates":[-71.518681,42.854982]}},{"properties":{"city":"Nashua","zip code":"3060","diabetes":1,"id":"a69yr5uywrlp","lat":42.741542,"long":-71.459558},"type":"Feature","geometry":{"type":"Point","coordinates":[-71.459558,42.741542]}},{"properties":{"city":"Laconia","zip code":"3289","diabetes":1,"id":"a69yr5t84mqv","lat":43.500143,"long":-71.516496},"type":"Feature","geometry":{"type":"Point","coordinates":[-71.516496,43.500143]}},{"properties":{"city":"Carteret","zip code":"7008","diabetes":1,"id":"a69yr5mmvblg","lat":40.588639,"long":-74.22681},"type":"Feature","geometry":{"type":"Point","coordinates":[-74.22681,40.588639]}},{"properties":{"city":"Plainfield","zip code":"7062","diabetes":1,"id":"a69yr5ti7nu3","lat":40.631669,"long":-74.403537},"type":"Feature","geometry":{"type":"Point","coordinates":[-74.403537,40.631669]}},{"properties":{"city":"Jersey City","zip code":"7302","diabetes":2,"id":"a69yr5h0wb55","lat":40.718503,"long":-74.048834},"type":"Feature","geometry":{"type":"Point","coordinates":[-74.048834,40.718503]}},{"properties":{"city":"Pompton Plains","zip code":"7444","diabetes":1,"id":"a69yr5lx22oe","lat":40.967826,"long":-74.307437},"type":"Feature","geometry":{"type":"Point","coordinates":[-74.307437,40.967826]}},{"properties":{"city":"Ramsey","zip code":"7446","diabetes":1,"id":"a69yr5mcp9xw","lat":41.058985,"long":-74.144569},"type":"Feature","geometry":{"type":"Point","coordinates":[-74.144569,41.058985]}},{"properties":{"city":"Ringwood","zip code":"7456","diabetes":1,"id":"a69yr5iyanbl","lat":41.111197,"long":-74.279486},"type":"Feature","geometry":{"type":"Point","coordinates":[-74.279486,41.111197]}},{"properties":{"city":"Macopin","zip code":"7480","diabetes":1,"id":"a69yr5urfw8z","lat":41.094379,"long":-74.389591},"type":"Feature","geometry":{"type":"Point","coordinates":[-74.389591,41.094379]}},{"properties":{"city":"River Edge","zip code":"7661","diabetes":1,"id":"a69yr5twusfn","lat":40.926879,"long":-74.038721},"type":"Feature","geometry":{"type":"Point","coordinates":[-74.038721,40.926879]}},{"properties":{"city":"Hazlet","zip code":"7733","diabetes":1,"id":"a69yr5kb2m73","lat":40.360833,"long":-74.171852},"type":"Feature","geometry":{"type":"Point","coordinates":[-74.171852,40.360833]}},{"properties":{"city":"Keyport","zip code":"7735","diabetes":1,"id":"a69yr5oar4du","lat":40.440655,"long":-74.172626},"type":"Feature","geometry":{"type":"Point","coordinates":[-74.172626,40.440655]}},{"properties":{"city":"Beattyestown","zip code":"7865","diabetes":1,"id":"a69yr5fjghdv","lat":40.792725,"long":-74.910125},"type":"Feature","geometry":{"type":"Point","coordinates":[-74.910125,40.792725]}},{"properties":{"city":"Crestwood Village","zip code":"8759","diabetes":1,"id":"a69yr5n4gc0l","lat":39.976691,"long":-74.33785},"type":"Feature","geometry":{"type":"Point","coordinates":[-74.33785,39.976691]}},{"properties":{"city":"Concordia","zip code":"8831","diabetes":1,"id":"a69yr5sargfg","lat":40.328259,"long":-74.426456},"type":"Feature","geometry":{"type":"Point","coordinates":[-74.426456,40.328259]}},{"properties":{"city":"Somerset","zip code":"8873","diabetes":1,"id":"a69yr5gmwooz","lat":40.499469,"long":-74.533432},"type":"Feature","geometry":{"type":"Point","coordinates":[-74.533432,40.499469]}},{"properties":{"city":"Albuquerque","zip code":"87108","diabetes":1,"id":"a69yr5s1q3ly","lat":35.064505,"long":-106.579971},"type":"Feature","geometry":{"type":"Point","coordinates":[-106.579971,35.064505]}},{"properties":{"city":"Paradise Hills","zip code":"87114","diabetes":1,"id":"a69yr5px1hsk","lat":35.196878,"long":-106.681078},"type":"Feature","geometry":{"type":"Point","coordinates":[-106.681078,35.196878]}},{"properties":{"city":"Spring Valley","zip code":"89129","diabetes":1,"id":"a69yr5pkw4br","lat":36.233708,"long":-115.298698},"type":"Feature","geometry":{"type":"Point","coordinates":[-115.298698,36.233708]}},{"properties":{"city":"New York","zip code":"10002","diabetes":1,"id":"a69yr5r5pt7i","lat":40.713704,"long":-73.985518},"type":"Feature","geometry":{"type":"Point","coordinates":[-73.985518,40.713704]}},{"properties":{"city":"New York","zip code":"10009","diabetes":1,"id":"a69yr5p7nztq","lat":40.842674,"long":-73.942535},"type":"Feature","geometry":{"type":"Point","coordinates":[-73.942535,40.842674]}},{"properties":{"city":"New York","zip code":"10010","diabetes":1,"id":"a69yr5syj8jj","lat":40.739108,"long":-73.982886},"type":"Feature","geometry":{"type":"Point","coordinates":[-73.982886,40.739108]}},{"properties":{"city":"Hoboken","zip code":"10011","diabetes":1,"id":"a69yr5p4z7d3","lat":40.745841,"long":-74.005597},"type":"Feature","geometry":{"type":"Point","coordinates":[-74.005597,40.745841]}},{"properties":{"city":"Weehawken","zip code":"10022","diabetes":1,"id":"a69yr5eg9f6l","lat":40.758647,"long":-73.968399},"type":"Feature","geometry":{"type":"Point","coordinates":[-73.968399,40.758647]}},{"properties":{"city":"Edgewater","zip code":"10025","diabetes":1,"id":"a69yr5m48bhe","lat":40.799092,"long":-73.966971},"type":"Feature","geometry":{"type":"Point","coordinates":[-73.966971,40.799092]}},{"properties":{"city":"Edgewater","zip code":"10035","diabetes":1,"id":"a69yr5p0vqdc","lat":40.796725,"long":-73.933274},"type":"Feature","geometry":{"type":"Point","coordinates":[-73.933274,40.796725]}},{"properties":{"city":"Guttenberg","zip code":"10044","diabetes":1,"id":"a69yr5oiqcew","lat":40.755368,"long":-73.955522},"type":"Feature","geometry":{"type":"Point","coordinates":[-73.955522,40.755368]}},{"properties":{"city":"Guttenberg","zip code":"10128","diabetes":1,"id":"a69yr5gtm1bh","lat":40.783273,"long":-73.954487},"type":"Feature","geometry":{"type":"Point","coordinates":[-73.954487,40.783273]}},{"properties":{"city":"Carteret","zip code":"10306","diabetes":1,"id":"a69yr5ok511k","lat":40.568594,"long":-74.122528},"type":"Feature","geometry":{"type":"Point","coordinates":[-74.122528,40.568594]}},{"properties":{"city":"Fort Lee","zip code":"10456","diabetes":1,"id":"a69yr5r6or9a","lat":40.830639,"long":-73.908272},"type":"Feature","geometry":{"type":"Point","coordinates":[-73.908272,40.830639]}},{"properties":{"city":"Pelham Manor","zip code":"10469","diabetes":1,"id":"a69yr5gwisqu","lat":40.868483,"long":-73.846925},"type":"Feature","geometry":{"type":"Point","coordinates":[-73.846925,40.868483]}},{"properties":{"city":"Pelham Manor","zip code":"10475","diabetes":1,"id":"a69yr5p4lv4w","lat":40.875804,"long":-73.825706},"type":"Feature","geometry":{"type":"Point","coordinates":[-73.825706,40.875804]}},{"properties":{"city":"Armonk","zip code":"10504","diabetes":1,"id":"a69yr5mn5qyf","lat":41.129956,"long":-73.706893},"type":"Feature","geometry":{"type":"Point","coordinates":[-73.706893,41.129956]}},{"properties":{"city":"Croton-on-Hudson","zip code":"10520","diabetes":1,"id":"a69yr5rpgfgn","lat":41.215845,"long":-73.885994},"type":"Feature","geometry":{"type":"Point","coordinates":[-73.885994,41.215845]}},{"properties":{"city":"Montrose","zip code":"10548","diabetes":3,"id":"a69yr5taz64u","lat":41.243887,"long":-73.944846},"type":"Feature","geometry":{"type":"Point","coordinates":[-73.944846,41.243887]}},{"properties":{"city":"Peekskill","zip code":"10566","diabetes":1,"id":"a69yr5ijsxar","lat":41.288972,"long":-73.922552},"type":"Feature","geometry":{"type":"Point","coordinates":[-73.922552,41.288972]}},{"properties":{"city":"Goldens Bridge","zip code":"10589","diabetes":1,"id":"a69yr5ub6jkd","lat":41.309391,"long":-73.686477},"type":"Feature","geometry":{"type":"Point","coordinates":[-73.686477,41.309391]}},{"properties":{"city":"Yonkers","zip code":"10701","diabetes":1,"id":"a69yr5udjvjb","lat":40.950298,"long":-73.867283},"type":"Feature","geometry":{"type":"Point","coordinates":[-73.867283,40.950298]}},{"properties":{"city":"New Rochelle","zip code":"10801","diabetes":1,"id":"a69yr5o4nmod","lat":40.916273,"long":-73.779708},"type":"Feature","geometry":{"type":"Point","coordinates":[-73.779708,40.916273]}},{"properties":{"city":"Scotchtown","zip code":"10941","diabetes":1,"id":"a69yr5mxhsc5","lat":41.492368,"long":-74.348106},"type":"Feature","geometry":{"type":"Point","coordinates":[-74.348106,41.492368]}},{"properties":{"city":"Washingtonville","zip code":"10992","diabetes":1,"id":"a69yr5qp3206","lat":41.425126,"long":-74.163429},"type":"Feature","geometry":{"type":"Point","coordinates":[-74.163429,41.425126]}},{"properties":{"city":"Floral Park","zip code":"11001","diabetes":35,"id":"a69yr5ozt9g1","lat":40.721926,"long":-73.706245},"type":"Feature","geometry":{"type":"Point","coordinates":[-73.706245,40.721926]}},{"properties":{"city":"Floral Park","zip code":"11002","diabetes":1,"id":"a69yr5gz673h","lat":40.726541,"long":-73.708599},"type":"Feature","geometry":{"type":"Point","coordinates":[-73.708599,40.726541]}},{"properties":{"city":"Elmont","zip code":"11003","diabetes":28,"id":"a69yr5esrf2h","lat":40.699963,"long":-73.706359},"type":"Feature","geometry":{"type":"Point","coordinates":[-73.706359,40.699963]}},{"properties":{"city":"North New Hyde Park","zip code":"11004","diabetes":13,"id":"a69yr5oka2o4","lat":40.74632,"long":-73.711779},"type":"Feature","geometry":{"type":"Point","coordinates":[-73.711779,40.74632]}},{"properties":{"city":"Lake Success","zip code":"11005","diabetes":10,"id":"a69yr5fmo6tn","lat":40.757441,"long":-73.712857},"type":"Feature","geometry":{"type":"Point","coordinates":[-73.712857,40.757441]}},{"properties":{"city":"Franklin Square","zip code":"11010","diabetes":47,"id":"a69yr5lhg8fs","lat":40.700088,"long":-73.675483},"type":"Feature","geometry":{"type":"Point","coordinates":[-73.675483,40.700088]}},{"properties":{"city":"Lake Success","zip code":"11020","diabetes":9,"id":"a69yr5l0f1dr","lat":40.770519,"long":-73.712544},"type":"Feature","geometry":{"type":"Point","coordinates":[-73.712544,40.770519]}},{"properties":{"city":"Great Neck Plaza","zip code":"11021","diabetes":15,"id":"a69yr5szaqam","lat":40.786515,"long":-73.728335},"type":"Feature","geometry":{"type":"Point","coordinates":[-73.728335,40.786515]}},{"properties":{"city":"Great Neck Plaza","zip code":"11022","diabetes":1,"id":"a69yr5opl9c8","lat":40.787368,"long":-73.724625},"type":"Feature","geometry":{"type":"Point","coordinates":[-73.724625,40.787368]}},{"properties":{"city":"Great Neck","zip code":"11023","diabetes":7,"id":"a69yr5j0x9v2","lat":40.799052,"long":-73.732041},"type":"Feature","geometry":{"type":"Point","coordinates":[-73.732041,40.799052]}},{"properties":{"city":"Kings Point","zip code":"11024","diabetes":3,"id":"a69yr5nw27el","lat":40.816523,"long":-73.742328},"type":"Feature","geometry":{"type":"Point","coordinates":[-73.742328,40.816523]}},{"properties":{"city":"Manhasset","zip code":"11030","diabetes":23,"id":"a69yr5ejeodb","lat":40.793468,"long":-73.690973},"type":"Feature","geometry":{"type":"Point","coordinates":[-73.690973,40.793468]}},{"properties":{"city":"North New Hyde Park","zip code":"11040","diabetes":67,"id":"a69yr5s3furd","lat":40.742648,"long":-73.682855},"type":"Feature","geometry":{"type":"Point","coordinates":[-73.682855,40.742648]}},{"properties":{"city":"Baxter Estates","zip code":"11050","diabetes":25,"id":"a69yr5nb9lee","lat":40.838971,"long":-73.691796},"type":"Feature","geometry":{"type":"Point","coordinates":[-73.691796,40.838971]}},{"properties":{"city":"Inwood","zip code":"11096","diabetes":4,"id":"a69yr5jl3r15","lat":40.619153,"long":-73.752027},"type":"Feature","geometry":{"type":"Point","coordinates":[-73.752027,40.619153]}},{"properties":{"city":"New York","zip code":"11104","diabetes":1,"id":"a69yr5j3l1zf","lat":40.74458,"long":-73.920355},"type":"Feature","geometry":{"type":"Point","coordinates":[-73.920355,40.74458]}},{"properties":{"city":"Edgewater","zip code":"11105","diabetes":2,"id":"a69yr5r54dfd","lat":40.783245,"long":-73.906783},"type":"Feature","geometry":{"type":"Point","coordinates":[-73.906783,40.783245]}},{"properties":{"city":"New York","zip code":"11208","diabetes":1,"id":"a69yr5nuqf3b","lat":40.672251,"long":-73.871857},"type":"Feature","geometry":{"type":"Point","coordinates":[-73.871857,40.672251]}},{"properties":{"city":"Bayonne","zip code":"11209","diabetes":1,"id":"a69yr5oqx1qs","lat":40.621286,"long":-74.029813},"type":"Feature","geometry":{"type":"Point","coordinates":[-74.029813,40.621286]}},{"properties":{"city":"New York","zip code":"11211","diabetes":1,"id":"a69yr5l1ex91","lat":40.713492,"long":-73.955021},"type":"Feature","geometry":{"type":"Point","coordinates":[-73.955021,40.713492]}},{"properties":{"city":"New York","zip code":"11212","diabetes":1,"id":"a69yr5j0hag4","lat":40.666643,"long":-73.915172},"type":"Feature","geometry":{"type":"Point","coordinates":[-73.915172,40.666643]}},{"properties":{"city":"New York","zip code":"11215","diabetes":2,"id":"a69yr5i7ys07","lat":40.66267,"long":-73.98648},"type":"Feature","geometry":{"type":"Point","coordinates":[-73.98648,40.66267]}},{"properties":{"city":"New York","zip code":"11221","diabetes":1,"id":"a69yr5hvmcks","lat":40.691172,"long":-73.927788},"type":"Feature","geometry":{"type":"Point","coordinates":[-73.927788,40.691172]}},{"properties":{"city":"New York","zip code":"11222","diabetes":1,"id":"a69yr5jaoyuy","lat":40.730217,"long":-73.953958},"type":"Feature","geometry":{"type":"Point","coordinates":[-73.953958,40.730217]}},{"properties":{"city":"New York","zip code":"11225","diabetes":2,"id":"a69yr5fgx0r9","lat":40.663957,"long":-73.95619},"type":"Feature","geometry":{"type":"Point","coordinates":[-73.95619,40.663957]}},{"properties":{"city":"New York","zip code":"11229","diabetes":1,"id":"a69yr5ntsuqf","lat":40.599469,"long":-73.941767},"type":"Feature","geometry":{"type":"Point","coordinates":[-73.941767,40.599469]}},{"properties":{"city":"New York","zip code":"11233","diabetes":1,"id":"a69yr5lk1thm","lat":40.678207,"long":-73.919969},"type":"Feature","geometry":{"type":"Point","coordinates":[-73.919969,40.678207]}},{"properties":{"city":"New York","zip code":"11237","diabetes":1,"id":"a69yr5hwzz03","lat":40.703901,"long":-73.920993},"type":"Feature","geometry":{"type":"Point","coordinates":[-73.920993,40.703901]}},{"properties":{"city":"Saddle Rock","zip code":"11354","diabetes":3,"id":"a69yr5q13q5h","lat":40.768809,"long":-73.830025},"type":"Feature","geometry":{"type":"Point","coordinates":[-73.830025,40.768809]}},{"properties":{"city":"Saddle Rock","zip code":"11355","diabetes":1,"id":"a69yr5rz5lqf","lat":40.750195,"long":-73.821695},"type":"Feature","geometry":{"type":"Point","coordinates":[-73.821695,40.750195]}},{"properties":{"city":"Saddle Rock","zip code":"11356","diabetes":5,"id":"a69yr5h3rx63","lat":40.787493,"long":-73.847495},"type":"Feature","geometry":{"type":"Point","coordinates":[-73.847495,40.787493]}},{"properties":{"city":"Saddle Rock","zip code":"11357","diabetes":22,"id":"a69yr5iwlr5q","lat":40.789627,"long":-73.81263},"type":"Feature","geometry":{"type":"Point","coordinates":[-73.81263,40.789627]}},{"properties":{"city":"Saddle Rock","zip code":"11358","diabetes":6,"id":"a69yr5kdr1ci","lat":40.760464,"long":-73.796447},"type":"Feature","geometry":{"type":"Point","coordinates":[-73.796447,40.760464]}},{"properties":{"city":"Saddle Rock","zip code":"11360","diabetes":9,"id":"a69yr5jizp2c","lat":40.783074,"long":-73.779871},"type":"Feature","geometry":{"type":"Point","coordinates":[-73.779871,40.783074]}},{"properties":{"city":"Great Neck Estates","zip code":"11361","diabetes":5,"id":"a69yr5m7rh54","lat":40.764095,"long":-73.772909},"type":"Feature","geometry":{"type":"Point","coordinates":[-73.772909,40.764095]}},{"properties":{"city":"Lake Success","zip code":"11362","diabetes":14,"id":"a69yr5spugoz","lat":40.759144,"long":-73.733263},"type":"Feature","geometry":{"type":"Point","coordinates":[-73.733263,40.759144]}},{"properties":{"city":"University Gardens","zip code":"11363","diabetes":1,"id":"a69yr5qjw4np","lat":40.7726,"long":-73.74648},"type":"Feature","geometry":{"type":"Point","coordinates":[-73.74648,40.7726]}},{"properties":{"city":"Bellerose","zip code":"11364","diabetes":9,"id":"a69yr5u0ld8n","lat":40.746051,"long":-73.757189},"type":"Feature","geometry":{"type":"Point","coordinates":[-73.757189,40.746051]}},{"properties":{"city":"Bellerose","zip code":"11365","diabetes":7,"id":"a69yr5q4b88o","lat":40.73925,"long":-73.792362},"type":"Feature","geometry":{"type":"Point","coordinates":[-73.792362,40.73925]}},{"properties":{"city":"Bellerose","zip code":"11366","diabetes":2,"id":"a69yr5rpvn1x","lat":40.728117,"long":-73.788276},"type":"Feature","geometry":{"type":"Point","coordinates":[-73.788276,40.728117]}},{"properties":{"city":"Saddle Rock","zip code":"11368","diabetes":1,"id":"a69yr5f4za8o","lat":40.750528,"long":-73.853067},"type":"Feature","geometry":{"type":"Point","coordinates":[-73.853067,40.750528]}},{"properties":{"city":"Saddle Rock","zip code":"11369","diabetes":1,"id":"a69yr5h17ks4","lat":40.763323,"long":-73.86564},"type":"Feature","geometry":{"type":"Point","coordinates":[-73.86564,40.763323]}},{"properties":{"city":"Edgewater","zip code":"11372","diabetes":1,"id":"a69yr5t6w4ti","lat":40.751756,"long":-73.883517},"type":"Feature","geometry":{"type":"Point","coordinates":[-73.883517,40.751756]}},{"properties":{"city":"New York","zip code":"11373","diabetes":1,"id":"a69yr5uurlog","lat":40.736264,"long":-73.879392},"type":"Feature","geometry":{"type":"Point","coordinates":[-73.879392,40.736264]}},{"properties":{"city":"Saddle Rock","zip code":"11374","diabetes":1,"id":"a69yr5rccpc9","lat":40.726568,"long":-73.861993},"type":"Feature","geometry":{"type":"Point","coordinates":[-73.861993,40.726568]}},{"properties":{"city":"Bellerose","zip code":"11375","diabetes":5,"id":"a69yr5joidqe","lat":40.725069,"long":-73.843824},"type":"Feature","geometry":{"type":"Point","coordinates":[-73.843824,40.725069]}},{"properties":{"city":"New York","zip code":"11377","diabetes":2,"id":"a69yr5kft2he","lat":40.744447,"long":-73.905066},"type":"Feature","geometry":{"type":"Point","coordinates":[-73.905066,40.744447]}},{"properties":{"city":"New York","zip code":"11378","diabetes":5,"id":"a69yr5uw5h5m","lat":40.724728,"long":-73.909808},"type":"Feature","geometry":{"type":"Point","coordinates":[-73.909808,40.724728]}},{"properties":{"city":"New York","zip code":"11379","diabetes":2,"id":"a69yr5ogssq3","lat":40.720343,"long":-73.879299},"type":"Feature","geometry":{"type":"Point","coordinates":[-73.879299,40.720343]}},{"properties":{"city":"New York","zip code":"11385","diabetes":9,"id":"a69yr5tb5fp3","lat":40.701113,"long":-73.890973},"type":"Feature","geometry":{"type":"Point","coordinates":[-73.890973,40.701113]}},{"properties":{"city":"Elmont","zip code":"11411","diabetes":2,"id":"a69yr5j6nwjl","lat":40.694168,"long":-73.736002},"type":"Feature","geometry":{"type":"Point","coordinates":[-73.736002,40.694168]}},{"properties":{"city":"Elmont","zip code":"11412","diabetes":2,"id":"a69yr5lmlpxv","lat":40.698192,"long":-73.759319},"type":"Feature","geometry":{"type":"Point","coordinates":[-73.759319,40.698192]}},{"properties":{"city":"South Valley Stream","zip code":"11413","diabetes":3,"id":"a69yr5p9sz6z","lat":40.672849,"long":-73.750474},"type":"Feature","geometry":{"type":"Point","coordinates":[-73.750474,40.672849]}},{"properties":{"city":"Inwood","zip code":"11414","diabetes":2,"id":"a69yr5t9jo0l","lat":40.655889,"long":-73.846363},"type":"Feature","geometry":{"type":"Point","coordinates":[-73.846363,40.655889]}},{"properties":{"city":"Bellerose","zip code":"11415","diabetes":2,"id":"a69yr5hua7qt","lat":40.708498,"long":-73.828748},"type":"Feature","geometry":{"type":"Point","coordinates":[-73.828748,40.708498]}},{"properties":{"city":"Inwood","zip code":"11416","diabetes":2,"id":"a69yr5elboe1","lat":40.68458,"long":-73.849557},"type":"Feature","geometry":{"type":"Point","coordinates":[-73.849557,40.68458]}},{"properties":{"city":"Elmont","zip code":"11418","diabetes":1,"id":"a69yr5emtmsk","lat":40.69898,"long":-73.834072},"type":"Feature","geometry":{"type":"Point","coordinates":[-73.834072,40.69898]}},{"properties":{"city":"Elmont","zip code":"11419","diabetes":1,"id":"a69yr5mnkdrm","lat":40.688704,"long":-73.8229},"type":"Feature","geometry":{"type":"Point","coordinates":[-73.8229,40.688704]}},{"properties":{"city":"Inwood","zip code":"11420","diabetes":1,"id":"a69yr5qdpb2i","lat":40.673956,"long":-73.81503},"type":"Feature","geometry":{"type":"Point","coordinates":[-73.81503,40.673956]}},{"properties":{"city":"Inwood","zip code":"11421","diabetes":2,"id":"a69yr5ugtin0","lat":40.693591,"long":-73.858422},"type":"Feature","geometry":{"type":"Point","coordinates":[-73.858422,40.693591]}},{"properties":{"city":"South Valley Stream","zip code":"11422","diabetes":2,"id":"a69yr5p00meh","lat":40.649802,"long":-73.772767},"type":"Feature","geometry":{"type":"Point","coordinates":[-73.772767,40.649802]}},{"properties":{"city":"Elmont","zip code":"11425","diabetes":1,"id":"a69yr5pfawv7","lat":40.692286,"long":-73.770718},"type":"Feature","geometry":{"type":"Point","coordinates":[-73.770718,40.692286]}},{"properties":{"city":"Bellerose","zip code":"11426","diabetes":7,"id":"a69yr5nq8hon","lat":40.736471,"long":-73.723532},"type":"Feature","geometry":{"type":"Point","coordinates":[-73.723532,40.736471]}},{"properties":{"city":"Bellerose","zip code":"11427","diabetes":4,"id":"a69yr5hol76t","lat":40.72972,"long":-73.749091},"type":"Feature","geometry":{"type":"Point","coordinates":[-73.749091,40.72972]}},{"properties":{"city":"Bellerose","zip code":"11428","diabetes":3,"id":"a69yr5qfini5","lat":40.72131,"long":-73.741786},"type":"Feature","geometry":{"type":"Point","coordinates":[-73.741786,40.72131]}},{"properties":{"city":"Elmont","zip code":"11429","diabetes":2,"id":"a69yr5fw661d","lat":40.709777,"long":-73.73865},"type":"Feature","geometry":{"type":"Point","coordinates":[-73.73865,40.709777]}},{"properties":{"city":"Bellerose","zip code":"11432","diabetes":2,"id":"a69yr5k2ifh1","lat":40.715219,"long":-73.793071},"type":"Feature","geometry":{"type":"Point","coordinates":[-73.793071,40.715219]}},{"properties":{"city":"South Valley Stream","zip code":"11434","diabetes":3,"id":"a69yr5heaqpn","lat":40.675117,"long":-73.77639},"type":"Feature","geometry":{"type":"Point","coordinates":[-73.77639,40.675117]}},{"properties":{"city":"Elmont","zip code":"11435","diabetes":2,"id":"a69yr5hijqod","lat":40.704679,"long":-73.809714},"type":"Feature","geometry":{"type":"Point","coordinates":[-73.809714,40.704679]}},{"properties":{"city":"Mineola","zip code":"11501","diabetes":30,"id":"a69yr5r6t2i1","lat":40.746156,"long":-73.639047},"type":"Feature","geometry":{"type":"Point","coordinates":[-73.639047,40.746156]}},{"properties":{"city":"Searingtown","zip code":"11507","diabetes":10,"id":"a69yr5lz3ouv","lat":40.771292,"long":-73.653204},"type":"Feature","geometry":{"type":"Point","coordinates":[-73.653204,40.771292]}},{"properties":{"city":"Atlantic Beach","zip code":"11509","diabetes":1,"id":"a69yr5hmooh2","lat":40.587918,"long":-73.732294},"type":"Feature","geometry":{"type":"Point","coordinates":[-73.732294,40.587918]}},{"properties":{"city":"Baldwin","zip code":"11510","diabetes":49,"id":"a69yr5tcmb9d","lat":40.652116,"long":-73.606797},"type":"Feature","geometry":{"type":"Point","coordinates":[-73.606797,40.652116]}},{"properties":{"city":"Carle Place","zip code":"11514","diabetes":8,"id":"a69yr5q7zgan","lat":40.749216,"long":-73.612043},"type":"Feature","geometry":{"type":"Point","coordinates":[-73.612043,40.749216]}},{"properties":{"city":"Cedarhurst","zip code":"11516","diabetes":6,"id":"a69yr5gfkilk","lat":40.627956,"long":-73.729175},"type":"Feature","geometry":{"type":"Point","coordinates":[-73.729175,40.627956]}},{"properties":{"city":"East Rockaway","zip code":"11518","diabetes":18,"id":"a69yr5pejw3p","lat":40.638105,"long":-73.666664},"type":"Feature","geometry":{"type":"Point","coordinates":[-73.666664,40.638105]}},{"properties":{"city":"Freeport","zip code":"11520","diabetes":63,"id":"a69yr5fe198z","lat":40.636214,"long":-73.580138},"type":"Feature","geometry":{"type":"Point","coordinates":[-73.580138,40.636214]}},{"properties":{"city":"Garden City","zip code":"11530","diabetes":32,"id":"a69yr5k50wn3","lat":40.72506,"long":-73.638801},"type":"Feature","geometry":{"type":"Point","coordinates":[-73.638801,40.72506]}},{"properties":{"city":"Glen Cove","zip code":"11542","diabetes":53,"id":"a69yr5kw8ie8","lat":40.866614,"long":-73.630635},"type":"Feature","geometry":{"type":"Point","coordinates":[-73.630635,40.866614]}},{"properties":{"city":"Glen Head","zip code":"11545","diabetes":15,"id":"a69yr5ogui52","lat":40.82523,"long":-73.587507},"type":"Feature","geometry":{"type":"Point","coordinates":[-73.587507,40.82523]}},{"properties":{"city":"Glenwood Landing","zip code":"11547","diabetes":4,"id":"a69yr5lbazzv","lat":40.831059,"long":-73.644038},"type":"Feature","geometry":{"type":"Point","coordinates":[-73.644038,40.831059]}},{"properties":{"city":"Greenvale","zip code":"11548","diabetes":3,"id":"a69yr5ux0x8q","lat":40.815346,"long":-73.62304},"type":"Feature","geometry":{"type":"Point","coordinates":[-73.62304,40.815346]}},{"properties":{"city":"Hempstead","zip code":"11550","diabetes":70,"id":"a69yr5uabwqh","lat":40.702622,"long":-73.619676},"type":"Feature","geometry":{"type":"Point","coordinates":[-73.619676,40.702622]}},{"properties":{"city":"Hempstead","zip code":"11551","diabetes":1,"id":"a69yr5kvupq8","lat":40.705695,"long":-73.629382},"type":"Feature","geometry":{"type":"Point","coordinates":[-73.629382,40.705695]}},{"properties":{"city":"West Hempstead","zip code":"11552","diabetes":38,"id":"a69yr5plfuz0","lat":40.691879,"long":-73.651569},"type":"Feature","geometry":{"type":"Point","coordinates":[-73.651569,40.691879]}},{"properties":{"city":"Uniondale","zip code":"11553","diabetes":28,"id":"a69yr5thkwog","lat":40.707539,"long":-73.593896},"type":"Feature","geometry":{"type":"Point","coordinates":[-73.593896,40.707539]}},{"properties":{"city":"East Meadow","zip code":"11554","diabetes":85,"id":"a69yr5fls80f","lat":40.715651,"long":-73.557869},"type":"Feature","geometry":{"type":"Point","coordinates":[-73.557869,40.715651]}},{"properties":{"city":"Hewlett","zip code":"11557","diabetes":8,"id":"a69yr5ues923","lat":40.638229,"long":-73.692344},"type":"Feature","geometry":{"type":"Point","coordinates":[-73.692344,40.638229]}},{"properties":{"city":"Barnum Island","zip code":"11558","diabetes":23,"id":"a69yr5rx72au","lat":40.610424,"long":-73.663942},"type":"Feature","geometry":{"type":"Point","coordinates":[-73.663942,40.610424]}},{"properties":{"city":"Cedarhurst","zip code":"11559","diabetes":6,"id":"a69yr5n1udad","lat":40.606939,"long":-73.716945},"type":"Feature","geometry":{"type":"Point","coordinates":[-73.716945,40.606939]}},{"properties":{"city":"Locust Valley","zip code":"11560","diabetes":12,"id":"a69yr5jjkx9k","lat":40.880778,"long":-73.589984},"type":"Feature","geometry":{"type":"Point","coordinates":[-73.589984,40.880778]}},{"properties":{"city":"Long Beach","zip code":"11561","diabetes":63,"id":"a69yr5s7tz0t","lat":40.603842,"long":-73.612524},"type":"Feature","geometry":{"type":"Point","coordinates":[-73.612524,40.603842]}},{"properties":{"city":"Lynbrook","zip code":"11563","diabetes":41,"id":"a69yr5lf2wi6","lat":40.657567,"long":-73.673425},"type":"Feature","geometry":{"type":"Point","coordinates":[-73.673425,40.657567]}},{"properties":{"city":"Malverne","zip code":"11565","diabetes":12,"id":"a69yr5n7i1bo","lat":40.67495,"long":-73.671919},"type":"Feature","geometry":{"type":"Point","coordinates":[-73.671919,40.67495]}},{"properties":{"city":"Merrick","zip code":"11566","diabetes":82,"id":"a69yr5qft0u8","lat":40.650064,"long":-73.549528},"type":"Feature","geometry":{"type":"Point","coordinates":[-73.549528,40.650064]}},{"properties":{"city":"Old Westbury","zip code":"11568","diabetes":2,"id":"a69yr5o5lf1m","lat":40.7861,"long":-73.598542},"type":"Feature","geometry":{"type":"Point","coordinates":[-73.598542,40.7861]}},{"properties":{"city":"Point Lookout","zip code":"11569","diabetes":3,"id":"a69yr5u6k21i","lat":40.60159,"long":-73.571668},"type":"Feature","geometry":{"type":"Point","coordinates":[-73.571668,40.60159]}},{"properties":{"city":"Rockville Centre","zip code":"11570","diabetes":33,"id":"a69yr5t7yz61","lat":40.666058,"long":-73.637775},"type":"Feature","geometry":{"type":"Point","coordinates":[-73.637775,40.666058]}},{"properties":{"city":"Rockville Centre","zip code":"11571","diabetes":1,"id":"a69yr5r1odw5","lat":40.66,"long":-73.65},"type":"Feature","geometry":{"type":"Point","coordinates":[-73.65,40.66]}},{"properties":{"city":"Oceanside","zip code":"11572","diabetes":61,"id":"a69yr5qadzr7","lat":40.632156,"long":-73.636817},"type":"Feature","geometry":{"type":"Point","coordinates":[-73.636817,40.632156]}},{"properties":{"city":"Roosevelt","zip code":"11575","diabetes":24,"id":"a69yr5qguzcr","lat":40.680488,"long":-73.585172},"type":"Feature","geometry":{"type":"Point","coordinates":[-73.585172,40.680488]}},{"properties":{"city":"Roslyn","zip code":"11576","diabetes":13,"id":"a69yr5p11j2r","lat":40.799496,"long":-73.655029},"type":"Feature","geometry":{"type":"Point","coordinates":[-73.655029,40.799496]}},{"properties":{"city":"Roslyn Heights","zip code":"11577","diabetes":15,"id":"a69yr5jnhg9t","lat":40.788797,"long":-73.646544},"type":"Feature","geometry":{"type":"Point","coordinates":[-73.646544,40.788797]}},{"properties":{"city":"Sea Cliff","zip code":"11579","diabetes":8,"id":"a69yr5u2l2tn","lat":40.843951,"long":-73.643854},"type":"Feature","geometry":{"type":"Point","coordinates":[-73.643854,40.843951]}},{"properties":{"city":"Valley Stream","zip code":"11580","diabetes":45,"id":"a69yr5p7y4to","lat":40.674601,"long":-73.704087},"type":"Feature","geometry":{"type":"Point","coordinates":[-73.704087,40.674601]}},{"properties":{"city":"South Valley Stream","zip code":"11581","diabetes":28,"id":"a69yr5twg8os","lat":40.65247,"long":-73.714594},"type":"Feature","geometry":{"type":"Point","coordinates":[-73.714594,40.65247]}},{"properties":{"city":"Westbury","zip code":"11590","diabetes":81,"id":"a69yr5upgmqi","lat":40.756713,"long":-73.576658},"type":"Feature","geometry":{"type":"Point","coordinates":[-73.576658,40.756713]}},{"properties":{"city":"Williston Park","zip code":"11596","diabetes":15,"id":"a69yr5j72wbc","lat":40.759697,"long":-73.642298},"type":"Feature","geometry":{"type":"Point","coordinates":[-73.642298,40.759697]}},{"properties":{"city":"Woodmere","zip code":"11598","diabetes":12,"id":"a69yr5gnjarp","lat":40.626007,"long":-73.705071},"type":"Feature","geometry":{"type":"Point","coordinates":[-73.705071,40.626007]}},{"properties":{"city":"Inwood","zip code":"11691","diabetes":4,"id":"a69yr5ngobb8","lat":40.599601,"long":-73.759514},"type":"Feature","geometry":{"type":"Point","coordinates":[-73.759514,40.599601]}},{"properties":{"city":"Inwood","zip code":"11692","diabetes":1,"id":"a69yr5gxp0id","lat":40.593127,"long":-73.794212},"type":"Feature","geometry":{"type":"Point","coordinates":[-73.794212,40.593127]}},{"properties":{"city":"Inwood","zip code":"11693","diabetes":1,"id":"a69yr5r71tti","lat":40.613434,"long":-73.815058},"type":"Feature","geometry":{"type":"Point","coordinates":[-73.815058,40.613434]}},{"properties":{"city":"Amityville","zip code":"11701","diabetes":87,"id":"a69yr5jkzeu5","lat":40.677956,"long":-73.410405},"type":"Feature","geometry":{"type":"Point","coordinates":[-73.410405,40.677956]}},{"properties":{"city":"Babylon","zip code":"11702","diabetes":43,"id":"a69yr5i4eb35","lat":40.639289,"long":-73.350924},"type":"Feature","geometry":{"type":"Point","coordinates":[-73.350924,40.639289]}},{"properties":{"city":"North Babylon","zip code":"11703","diabetes":72,"id":"a69yr5u21o8a","lat":40.732882,"long":-73.325628},"type":"Feature","geometry":{"type":"Point","coordinates":[-73.325628,40.732882]}},{"properties":{"city":"West Babylon","zip code":"11704","diabetes":125,"id":"a69yr5odbkds","lat":40.716349,"long":-73.356431},"type":"Feature","geometry":{"type":"Point","coordinates":[-73.356431,40.716349]}},{"properties":{"city":"Bayport","zip code":"11705","diabetes":22,"id":"a69yr5t2fdmm","lat":40.745546,"long":-73.054231},"type":"Feature","geometry":{"type":"Point","coordinates":[-73.054231,40.745546]}},{"properties":{"city":"North Bay Shore","zip code":"11706","diabetes":203,"id":"a69yr5uw8bcv","lat":40.723804,"long":-73.260544},"type":"Feature","geometry":{"type":"Point","coordinates":[-73.260544,40.723804]}},{"properties":{"city":"Bayville","zip code":"11709","diabetes":15,"id":"a69yr5fhej06","lat":40.907764,"long":-73.560494},"type":"Feature","geometry":{"type":"Point","coordinates":[-73.560494,40.907764]}},{"properties":{"city":"Bellmore","zip code":"11710","diabetes":68,"id":"a69yr5t3cc7m","lat":40.652622,"long":-73.526724},"type":"Feature","geometry":{"type":"Point","coordinates":[-73.526724,40.652622]}},{"properties":{"city":"North Bellport","zip code":"11713","diabetes":29,"id":"a69yr5lmwk40","lat":40.748688,"long":-72.941618},"type":"Feature","geometry":{"type":"Point","coordinates":[-72.941618,40.748688]}},{"properties":{"city":"Bethpage","zip code":"11714","diabetes":84,"id":"a69yr5fbw3jw","lat":40.742464,"long":-73.485868},"type":"Feature","geometry":{"type":"Point","coordinates":[-73.485868,40.742464]}},{"properties":{"city":"Blue Point","zip code":"11715","diabetes":10,"id":"a69yr5uj0w0v","lat":40.74975,"long":-73.035183},"type":"Feature","geometry":{"type":"Point","coordinates":[-73.035183,40.74975]}},{"properties":{"city":"Bohemia","zip code":"11716","diabetes":51,"id":"a69yr5hlc51i","lat":40.771097,"long":-73.127526},"type":"Feature","geometry":{"type":"Point","coordinates":[-73.127526,40.771097]}},{"properties":{"city":"Brentwood","zip code":"11717","diabetes":114,"id":"a69yr5h7l7av","lat":40.78393,"long":-73.252411},"type":"Feature","geometry":{"type":"Point","coordinates":[-73.252411,40.78393]}},{"properties":{"city":"Brightwaters","zip code":"11718","diabetes":12,"id":"a69yr5ta77vw","lat":40.716736,"long":-73.265545},"type":"Feature","geometry":{"type":"Point","coordinates":[-73.265545,40.716736]}},{"properties":{"city":"Brookhaven","zip code":"11719","diabetes":9,"id":"a69yr5gsgxl4","lat":40.764539,"long":-72.911488},"type":"Feature","geometry":{"type":"Point","coordinates":[-72.911488,40.764539]}},{"properties":{"city":"Centereach","zip code":"11720","diabetes":96,"id":"a69yr5slv6il","lat":40.869243,"long":-73.081001},"type":"Feature","geometry":{"type":"Point","coordinates":[-73.081001,40.869243]}},{"properties":{"city":"Centerport","zip code":"11721","diabetes":14,"id":"a69yr5fwjb9p","lat":40.893332,"long":-73.37205},"type":"Feature","geometry":{"type":"Point","coordinates":[-73.37205,40.893332]}},{"properties":{"city":"Central Islip","zip code":"11722","diabetes":98,"id":"a69yr5lwtzve","lat":40.784331,"long":-73.193694},"type":"Feature","geometry":{"type":"Point","coordinates":[-73.193694,40.784331]}},{"properties":{"city":"Laurel Hollow","zip code":"11724","diabetes":3,"id":"a69yr5gpstvy","lat":40.862771,"long":-73.453027},"type":"Feature","geometry":{"type":"Point","coordinates":[-73.453027,40.862771]}},{"properties":{"city":"Commack","zip code":"11725","diabetes":123,"id":"a69yr5fdcr6b","lat":40.840519,"long":-73.280844},"type":"Feature","geometry":{"type":"Point","coordinates":[-73.280844,40.840519]}},{"properties":{"city":"Copiague","zip code":"11726","diabetes":47,"id":"a69yr5tj8cof","lat":40.678359,"long":-73.39608},"type":"Feature","geometry":{"type":"Point","coordinates":[-73.39608,40.678359]}},{"properties":{"city":"Coram","zip code":"11727","diabetes":96,"id":"a69yr5oz1a9f","lat":40.878727,"long":-73.005555},"type":"Feature","geometry":{"type":"Point","coordinates":[-73.005555,40.878727]}},{"properties":{"city":"Deer Park","zip code":"11729","diabetes":111,"id":"a69yr5my9cig","lat":40.76254,"long":-73.321716},"type":"Feature","geometry":{"type":"Point","coordinates":[-73.321716,40.76254]}},{"properties":{"city":"East Islip","zip code":"11730","diabetes":34,"id":"a69yr5qglfcu","lat":40.721181,"long":-73.177454},"type":"Feature","geometry":{"type":"Point","coordinates":[-73.177454,40.721181]}},{"properties":{"city":"East Northport","zip code":"11731","diabetes":146,"id":"a69yr5kf7tl2","lat":40.861808,"long":-73.315812},"type":"Feature","geometry":{"type":"Point","coordinates":[-73.315812,40.861808]}},{"properties":{"city":"East Norwich","zip code":"11732","diabetes":8,"id":"a69yr5fcrt3d","lat":40.844383,"long":-73.533073},"type":"Feature","geometry":{"type":"Point","coordinates":[-73.533073,40.844383]}},{"properties":{"city":"Setauket","zip code":"11733","diabetes":33,"id":"a69yr5qk9lqp","lat":40.928079,"long":-73.116638},"type":"Feature","geometry":{"type":"Point","coordinates":[-73.116638,40.928079]}},{"properties":{"city":"Farmingdale","zip code":"11735","diabetes":82,"id":"a69yr5l2w5tu","lat":40.732135,"long":-73.429488},"type":"Feature","geometry":{"type":"Point","coordinates":[-73.429488,40.732135]}},{"properties":{"city":"Farmingville","zip code":"11738","diabetes":52,"id":"a69yr5iq7iq1","lat":40.842596,"long":-73.047511},"type":"Feature","geometry":{"type":"Point","coordinates":[-73.047511,40.842596]}},{"properties":{"city":"Great River","zip code":"11739","diabetes":4,"id":"a69yr5nr2h56","lat":40.719563,"long":-73.152937},"type":"Feature","geometry":{"type":"Point","coordinates":[-73.152937,40.719563]}},{"properties":{"city":"Greenlawn","zip code":"11740","diabetes":41,"id":"a69yr5jfp26i","lat":40.865355,"long":-73.363167},"type":"Feature","geometry":{"type":"Point","coordinates":[-73.363167,40.865355]}},{"properties":{"city":"Holbrook","zip code":"11741","diabetes":102,"id":"a69yr5sz7z9i","lat":40.795019,"long":-73.070458},"type":"Feature","geometry":{"type":"Point","coordinates":[-73.070458,40.795019]}},{"properties":{"city":"Holtsville","zip code":"11742","diabetes":45,"id":"a69yr5h1sbdl","lat":40.807598,"long":-73.041061},"type":"Feature","geometry":{"type":"Point","coordinates":[-73.041061,40.807598]}},{"properties":{"city":"Huntington","zip code":"11743","diabetes":111,"id":"a69yr5j0no44","lat":40.87486,"long":-73.422897},"type":"Feature","geometry":{"type":"Point","coordinates":[-73.422897,40.87486]}},{"properties":{"city":"South Huntington","zip code":"11746","diabetes":186,"id":"a69yr5ha09c4","lat":40.814079,"long":-73.36007},"type":"Feature","geometry":{"type":"Point","coordinates":[-73.36007,40.814079]}},{"properties":{"city":"Melville","zip code":"11747","diabetes":60,"id":"a69yr5ueqkfy","lat":40.78366,"long":-73.408464},"type":"Feature","geometry":{"type":"Point","coordinates":[-73.408464,40.78366]}},{"properties":{"city":"Islandia","zip code":"11749","diabetes":10,"id":"a69yr5u5vplo","lat":40.805707,"long":-73.173117},"type":"Feature","geometry":{"type":"Point","coordinates":[-73.173117,40.805707]}},{"properties":{"city":"Islip","zip code":"11751","diabetes":46,"id":"a69yr5o38n5p","lat":40.733245,"long":-73.21427},"type":"Feature","geometry":{"type":"Point","coordinates":[-73.21427,40.733245]}},{"properties":{"city":"North Great River","zip code":"11752","diabetes":37,"id":"a69yr5tqof2z","lat":40.759284,"long":-73.175781},"type":"Feature","geometry":{"type":"Point","coordinates":[-73.175781,40.759284]}},{"properties":{"city":"Jericho","zip code":"11753","diabetes":18,"id":"a69yr5umanlq","lat":40.788801,"long":-73.540644},"type":"Feature","geometry":{"type":"Point","coordinates":[-73.540644,40.788801]}},{"properties":{"city":"Kings Park","zip code":"11754","diabetes":80,"id":"a69yr5irob3v","lat":40.887816,"long":-73.249794},"type":"Feature","geometry":{"type":"Point","coordinates":[-73.249794,40.887816]}},{"properties":{"city":"Lake Grove","zip code":"11755","diabetes":38,"id":"a69yr5hslbku","lat":40.858093,"long":-73.117184},"type":"Feature","geometry":{"type":"Point","coordinates":[-73.117184,40.858093]}},{"properties":{"city":"Levittown","zip code":"11756","diabetes":117,"id":"a69yr5r70myn","lat":40.725786,"long":-73.516824},"type":"Feature","geometry":{"type":"Point","coordinates":[-73.516824,40.725786]}},{"properties":{"city":"Lindenhurst","zip code":"11757","diabetes":141,"id":"a69yr5hhk3ky","lat":40.691362,"long":-73.372129},"type":"Feature","geometry":{"type":"Point","coordinates":[-73.372129,40.691362]}},{"properties":{"city":"Massapequa","zip code":"11758","diabetes":152,"id":"a69yr5oxfqn2","lat":40.605274,"long":-73.484543},"type":"Feature","geometry":{"type":"Point","coordinates":[-73.484543,40.605274]}},{"properties":{"city":"Massapequa Park","zip code":"11762","diabetes":54,"id":"a69yr5qvlmno","lat":40.678502,"long":-73.445106},"type":"Feature","geometry":{"type":"Point","coordinates":[-73.445106,40.678502]}},{"properties":{"city":"Medford","zip code":"11763","diabetes":85,"id":"a69yr5jtxili","lat":40.824363,"long":-72.98138},"type":"Feature","geometry":{"type":"Point","coordinates":[-72.98138,40.824363]}},{"properties":{"city":"Miller Place","zip code":"11764","diabetes":26,"id":"a69yr5nep4pv","lat":40.939819,"long":-72.986478},"type":"Feature","geometry":{"type":"Point","coordinates":[-72.986478,40.939819]}},{"properties":{"city":"Mill Neck","zip code":"11765","diabetes":2,"id":"a69yr5ti70ek","lat":40.880985,"long":-73.558743},"type":"Feature","geometry":{"type":"Point","coordinates":[-73.558743,40.880985]}},{"properties":{"city":"Mount Sinai","zip code":"11766","diabetes":26,"id":"a69yr5h12kfp","lat":40.946318,"long":-73.025708},"type":"Feature","geometry":{"type":"Point","coordinates":[-73.025708,40.946318]}},{"properties":{"city":"Nesconset","zip code":"11767","diabetes":35,"id":"a69yr5rrdnhr","lat":40.843792,"long":-73.14631},"type":"Feature","geometry":{"type":"Point","coordinates":[-73.14631,40.843792]}},{"properties":{"city":"Northport","zip code":"11768","diabetes":134,"id":"a69yr5hc5rw6","lat":40.909267,"long":-73.333907},"type":"Feature","geometry":{"type":"Point","coordinates":[-73.333907,40.909267]}},{"properties":{"city":"Oakdale","zip code":"11769","diabetes":30,"id":"a69yr5hqvrp7","lat":40.731797,"long":-73.135301},"type":"Feature","geometry":{"type":"Point","coordinates":[-73.135301,40.731797]}},{"properties":{"city":"Ocean Beach","zip code":"11770","diabetes":2,"id":"a69yr5mvrwaa","lat":40.644875,"long":-73.160416},"type":"Feature","geometry":{"type":"Point","coordinates":[-73.160416,40.644875]}},{"properties":{"city":"Oyster Bay","zip code":"11771","diabetes":20,"id":"a69yr5qod65t","lat":40.875499,"long":-73.528134},"type":"Feature","geometry":{"type":"Point","coordinates":[-73.528134,40.875499]}},{"properties":{"city":"East Patchogue","zip code":"11772","diabetes":188,"id":"a69yr5ltsn0c","lat":40.754816,"long":-72.999481},"type":"Feature","geometry":{"type":"Point","coordinates":[-72.999481,40.754816]}},{"properties":{"city":"Port Jefferson Station","zip code":"11776","diabetes":92,"id":"a69yr5inqe3w","lat":40.913637,"long":-73.045918},"type":"Feature","geometry":{"type":"Point","coordinates":[-73.045918,40.913637]}},{"properties":{"city":"Port Jefferson","zip code":"11777","diabetes":15,"id":"a69yr5r6ym5k","lat":40.949796,"long":-73.059545},"type":"Feature","geometry":{"type":"Point","coordinates":[-73.059545,40.949796]}},{"properties":{"city":"Rocky Point","zip code":"11778","diabetes":17,"id":"a69yr5kj7ayf","lat":40.93646,"long":-72.934676},"type":"Feature","geometry":{"type":"Point","coordinates":[-72.934676,40.93646]}},{"properties":{"city":"Ronkonkoma","zip code":"11779","diabetes":129,"id":"a69yr5ugkep0","lat":40.815362,"long":-73.11056},"type":"Feature","geometry":{"type":"Point","coordinates":[-73.11056,40.815362]}},{"properties":{"city":"Saint James","zip code":"11780","diabetes":32,"id":"a69yr5j48ysl","lat":40.893231,"long":-73.181228},"type":"Feature","geometry":{"type":"Point","coordinates":[-73.181228,40.893231]}},{"properties":{"city":"Sayville","zip code":"11782","diabetes":45,"id":"a69yr5j6ju9h","lat":40.697816,"long":-72.974106},"type":"Feature","geometry":{"type":"Point","coordinates":[-72.974106,40.697816]}},{"properties":{"city":"Massapequa","zip code":"11783","diabetes":68,"id":"a69yr5p6kdgk","lat":40.652976,"long":-73.48774},"type":"Feature","geometry":{"type":"Point","coordinates":[-73.48774,40.652976]}},{"properties":{"city":"Selden","zip code":"11784","diabetes":89,"id":"a69yr5j6du8z","lat":40.86573,"long":-73.035545},"type":"Feature","geometry":{"type":"Point","coordinates":[-73.035545,40.86573]}},{"properties":{"city":"East Shoreham","zip code":"11786","diabetes":12,"id":"a69yr5g08owj","lat":40.946675,"long":-72.887132},"type":"Feature","geometry":{"type":"Point","coordinates":[-72.887132,40.946675]}},{"properties":{"city":"Smithtown","zip code":"11787","diabetes":121,"id":"a69yr5iqampb","lat":40.853492,"long":-73.207257},"type":"Feature","geometry":{"type":"Point","coordinates":[-73.207257,40.853492]}},{"properties":{"city":"Hauppauge","zip code":"11788","diabetes":48,"id":"a69yr5o7x0xp","lat":40.817801,"long":-73.210038},"type":"Feature","geometry":{"type":"Point","coordinates":[-73.210038,40.817801]}},{"properties":{"city":"Sound Beach","zip code":"11789","diabetes":24,"id":"a69yr5h2hvos","lat":40.95713,"long":-72.97125},"type":"Feature","geometry":{"type":"Point","coordinates":[-72.97125,40.95713]}},{"properties":{"city":"Head of the Harbor","zip code":"11790","diabetes":30,"id":"a69yr5pdkgba","lat":40.904537,"long":-73.126626},"type":"Feature","geometry":{"type":"Point","coordinates":[-73.126626,40.904537]}},{"properties":{"city":"Syosset","zip code":"11791","diabetes":45,"id":"a69yr5rahvq1","lat":40.828342,"long":-73.503483},"type":"Feature","geometry":{"type":"Point","coordinates":[-73.503483,40.828342]}},{"properties":{"city":"Wading River","zip code":"11792","diabetes":15,"id":"a69yr5s8fqy7","lat":40.947151,"long":-72.835717},"type":"Feature","geometry":{"type":"Point","coordinates":[-72.835717,40.947151]}},{"properties":{"city":"Wantagh","zip code":"11793","diabetes":80,"id":"a69yr5h574cx","lat":40.643404,"long":-73.50862},"type":"Feature","geometry":{"type":"Point","coordinates":[-73.50862,40.643404]}},{"properties":{"city":"West Islip","zip code":"11795","diabetes":62,"id":"a69yr5jowad5","lat":40.709265,"long":-73.29848},"type":"Feature","geometry":{"type":"Point","coordinates":[-73.29848,40.709265]}},{"properties":{"city":"West Sayville","zip code":"11796","diabetes":13,"id":"a69yr5il79rh","lat":40.731247,"long":-73.100156},"type":"Feature","geometry":{"type":"Point","coordinates":[-73.100156,40.731247]}},{"properties":{"city":"Woodbury","zip code":"11797","diabetes":15,"id":"a69yr5k5rdcc","lat":40.817392,"long":-73.470038},"type":"Feature","geometry":{"type":"Point","coordinates":[-73.470038,40.817392]}},{"properties":{"city":"Wyandanch","zip code":"11798","diabetes":58,"id":"a69yr5tpx21u","lat":40.751875,"long":-73.371127},"type":"Feature","geometry":{"type":"Point","coordinates":[-73.371127,40.751875]}},{"properties":{"city":"Hicksville","zip code":"11801","diabetes":104,"id":"a69yr5iiklde","lat":40.767608,"long":-73.524698},"type":"Feature","geometry":{"type":"Point","coordinates":[-73.524698,40.767608]}},{"properties":{"city":"Hicksville","zip code":"11802","diabetes":1,"id":"a69yr5qmcgg9","lat":40.77,"long":-73.53},"type":"Feature","geometry":{"type":"Point","coordinates":[-73.53,40.77]}},{"properties":{"city":"Plainview","zip code":"11803","diabetes":81,"id":"a69yr5ssfsph","lat":40.781792,"long":-73.47333},"type":"Feature","geometry":{"type":"Point","coordinates":[-73.47333,40.781792]}},{"properties":{"city":"Plainview","zip code":"11804","diabetes":16,"id":"a69yr5nufezz","lat":40.756785,"long":-73.454311},"type":"Feature","geometry":{"type":"Point","coordinates":[-73.454311,40.756785]}},{"properties":{"city":"Riverhead","zip code":"11901","diabetes":114,"id":"a69yr5sg0ucu","lat":40.92404,"long":-72.650989},"type":"Feature","geometry":{"type":"Point","coordinates":[-72.650989,40.92404]}},{"properties":{"city":"Amagansett","zip code":"11930","diabetes":2,"id":"a69yr5gwpu2x","lat":40.990862,"long":-72.095919},"type":"Feature","geometry":{"type":"Point","coordinates":[-72.095919,40.990862]}},{"properties":{"city":"Aquebogue","zip code":"11931","diabetes":5,"id":"a69yr5qsrn25","lat":40.939435,"long":-72.637606},"type":"Feature","geometry":{"type":"Point","coordinates":[-72.637606,40.939435]}},{"properties":{"city":"Bridgehampton","zip code":"11932","diabetes":6,"id":"a69yr5u96bv2","lat":40.936194,"long":-72.30097},"type":"Feature","geometry":{"type":"Point","coordinates":[-72.30097,40.936194]}},{"properties":{"city":"Calverton","zip code":"11933","diabetes":45,"id":"a69yr5j1c9r5","lat":40.92538,"long":-72.754445},"type":"Feature","geometry":{"type":"Point","coordinates":[-72.754445,40.92538]}},{"properties":{"city":"Center Moriches","zip code":"11934","diabetes":30,"id":"a69yr5jp9go1","lat":40.797526,"long":-72.792351},"type":"Feature","geometry":{"type":"Point","coordinates":[-72.792351,40.797526]}},{"properties":{"city":"Cutchogue","zip code":"11935","diabetes":13,"id":"a69yr5jtfya8","lat":41.015934,"long":-72.48691},"type":"Feature","geometry":{"type":"Point","coordinates":[-72.48691,41.015934]}},{"properties":{"city":"Springs","zip code":"11937","diabetes":21,"id":"a69yr5upxv6v","lat":41.027438,"long":-72.183606},"type":"Feature","geometry":{"type":"Point","coordinates":[-72.183606,41.027438]}},{"properties":{"city":"Greenport","zip code":"11939","diabetes":8,"id":"a69yr5mqcyl6","lat":41.12933,"long":-72.34227},"type":"Feature","geometry":{"type":"Point","coordinates":[-72.34227,41.12933]}},{"properties":{"city":"East Moriches","zip code":"11940","diabetes":17,"id":"a69yr5r28dwq","lat":40.800525,"long":-72.759351},"type":"Feature","geometry":{"type":"Point","coordinates":[-72.759351,40.800525]}},{"properties":{"city":"Eastport","zip code":"11941","diabetes":11,"id":"a69yr5tv0t7c","lat":40.824099,"long":-72.718941},"type":"Feature","geometry":{"type":"Point","coordinates":[-72.718941,40.824099]}},{"properties":{"city":"East Quogue","zip code":"11942","diabetes":14,"id":"a69yr5ro1vxf","lat":40.838061,"long":-72.577283},"type":"Feature","geometry":{"type":"Point","coordinates":[-72.577283,40.838061]}},{"properties":{"city":"Greenport","zip code":"11944","diabetes":14,"id":"a69yr5iapvg8","lat":41.095404,"long":-72.373464},"type":"Feature","geometry":{"type":"Point","coordinates":[-72.373464,41.095404]}},{"properties":{"city":"Hampton Bays","zip code":"11946","diabetes":36,"id":"a69yr5mffr7n","lat":40.870826,"long":-72.524562},"type":"Feature","geometry":{"type":"Point","coordinates":[-72.524562,40.870826]}},{"properties":{"city":"Jamesport","zip code":"11947","diabetes":5,"id":"a69yr5u4ypcd","lat":40.947229,"long":-72.586562},"type":"Feature","geometry":{"type":"Point","coordinates":[-72.586562,40.947229]}},{"properties":{"city":"Laurel","zip code":"11948","diabetes":6,"id":"a69yr5ioox24","lat":40.96903,"long":-72.557619},"type":"Feature","geometry":{"type":"Point","coordinates":[-72.557619,40.96903]}},{"properties":{"city":"Manorville","zip code":"11949","diabetes":49,"id":"a69yr5qy68iq","lat":40.868696,"long":-72.773005},"type":"Feature","geometry":{"type":"Point","coordinates":[-72.773005,40.868696]}},{"properties":{"city":"Mastic","zip code":"11950","diabetes":54,"id":"a69yr5qx5u5z","lat":40.808001,"long":-72.84841},"type":"Feature","geometry":{"type":"Point","coordinates":[-72.84841,40.808001]}},{"properties":{"city":"Mastic Beach","zip code":"11951","diabetes":47,"id":"a69yr5ncf4pp","lat":40.759939,"long":-72.834973},"type":"Feature","geometry":{"type":"Point","coordinates":[-72.834973,40.759939]}},{"properties":{"city":"Mattituck","zip code":"11952","diabetes":14,"id":"a69yr5kduhaj","lat":40.999338,"long":-72.541702},"type":"Feature","geometry":{"type":"Point","coordinates":[-72.541702,40.999338]}},{"properties":{"city":"Middle Island","zip code":"11953","diabetes":63,"id":"a69yr5ekh01o","lat":40.885911,"long":-72.949762},"type":"Feature","geometry":{"type":"Point","coordinates":[-72.949762,40.885911]}},{"properties":{"city":"Montauk","zip code":"11954","diabetes":12,"id":"a69yr5hiwsvt","lat":41.046972,"long":-71.945208},"type":"Feature","geometry":{"type":"Point","coordinates":[-71.945208,41.046972]}},{"properties":{"city":"Mastic","zip code":"11955","diabetes":14,"id":"a69yr5sf57k6","lat":40.809952,"long":-72.819629},"type":"Feature","geometry":{"type":"Point","coordinates":[-72.819629,40.809952]}},{"properties":{"city":"Dering Harbor","zip code":"11957","diabetes":2,"id":"a69yr5itvi92","lat":41.155245,"long":-72.249939},"type":"Feature","geometry":{"type":"Point","coordinates":[-72.249939,41.155245]}},{"properties":{"city":"Peconic","zip code":"11958","diabetes":1,"id":"a69yr5kl05lb","lat":41.037822,"long":-72.464992},"type":"Feature","geometry":{"type":"Point","coordinates":[-72.464992,41.037822]}},{"properties":{"city":"Quogue","zip code":"11959","diabetes":2,"id":"a69yr5ucakkp","lat":40.815181,"long":-72.606211},"type":"Feature","geometry":{"type":"Point","coordinates":[-72.606211,40.815181]}},{"properties":{"city":"Westhampton Beach","zip code":"11960","diabetes":1,"id":"a69yr5eng7r0","lat":40.806604,"long":-72.705151},"type":"Feature","geometry":{"type":"Point","coordinates":[-72.705151,40.806604]}},{"properties":{"city":"Ridge","zip code":"11961","diabetes":68,"id":"a69yr5hs9zid","lat":40.902588,"long":-72.883779},"type":"Feature","geometry":{"type":"Point","coordinates":[-72.883779,40.902588]}},{"properties":{"city":"Noyack","zip code":"11963","diabetes":16,"id":"a69yr5kaygkt","lat":40.995604,"long":-72.318885},"type":"Feature","geometry":{"type":"Point","coordinates":[-72.318885,40.995604]}},{"properties":{"city":"Shelter Island","zip code":"11964","diabetes":1,"id":"a69yr5iot4bd","lat":41.066132,"long":-72.317991},"type":"Feature","geometry":{"type":"Point","coordinates":[-72.317991,41.066132]}},{"properties":{"city":"Shelter Island Heights","zip code":"11965","diabetes":3,"id":"a69yr5lhii3f","lat":41.083057,"long":-72.305805},"type":"Feature","geometry":{"type":"Point","coordinates":[-72.305805,41.083057]}},{"properties":{"city":"Shirley","zip code":"11967","diabetes":88,"id":"a69yr5gbk97m","lat":40.790182,"long":-72.879809},"type":"Feature","geometry":{"type":"Point","coordinates":[-72.879809,40.790182]}},{"properties":{"city":"North Sea","zip code":"11968","diabetes":26,"id":"a69yr5elu1un","lat":40.894196,"long":-72.41262},"type":"Feature","geometry":{"type":"Point","coordinates":[-72.41262,40.894196]}},{"properties":{"city":"Southampton","zip code":"11969","diabetes":6,"id":"a69yr5uu8dow","lat":40.88,"long":-72.39},"type":"Feature","geometry":{"type":"Point","coordinates":[-72.39,40.88]}},{"properties":{"city":"Jamesport","zip code":"11970","diabetes":1,"id":"a69yr5ncdn8q","lat":40.937007,"long":-72.575193},"type":"Feature","geometry":{"type":"Point","coordinates":[-72.575193,40.937007]}},{"properties":{"city":"Southold","zip code":"11971","diabetes":15,"id":"a69yr5oddpom","lat":41.059748,"long":-72.426146},"type":"Feature","geometry":{"type":"Point","coordinates":[-72.426146,41.059748]}},{"properties":{"city":"Speonk","zip code":"11972","diabetes":2,"id":"a69yr5ki0hc7","lat":40.819312,"long":-72.706552},"type":"Feature","geometry":{"type":"Point","coordinates":[-72.706552,40.819312]}},{"properties":{"city":"Watermill","zip code":"11976","diabetes":2,"id":"a69yr5qsj6c3","lat":40.93015,"long":-72.342202},"type":"Feature","geometry":{"type":"Point","coordinates":[-72.342202,40.93015]}},{"properties":{"city":"Westhampton Beach","zip code":"11977","diabetes":2,"id":"a69yr5ozdkcc","lat":40.825084,"long":-72.680079},"type":"Feature","geometry":{"type":"Point","coordinates":[-72.680079,40.825084]}},{"properties":{"city":"Westhampton Beach","zip code":"11978","diabetes":3,"id":"a69yr5hs1rco","lat":40.80539,"long":-72.658983},"type":"Feature","geometry":{"type":"Point","coordinates":[-72.658983,40.80539]}},{"properties":{"city":"Yaphank","zip code":"11980","diabetes":11,"id":"a69yr5tt1r56","lat":40.830109,"long":-72.920395},"type":"Feature","geometry":{"type":"Point","coordinates":[-72.920395,40.830109]}},{"properties":{"city":"Westerlo","zip code":"12041","diabetes":1,"id":"a69yr5swjeeb","lat":42.56295,"long":-73.981789},"type":"Feature","geometry":{"type":"Point","coordinates":[-73.981789,42.56295]}},{"properties":{"city":"Worcester","zip code":"12093","diabetes":1,"id":"a69yr5p1ta0a","lat":42.493039,"long":-74.648867},"type":"Feature","geometry":{"type":"Point","coordinates":[-74.648867,42.493039]}},{"properties":{"city":"Schenevus","zip code":"12155","diabetes":1,"id":"a69yr5fht5ke","lat":42.587263,"long":-74.824507},"type":"Feature","geometry":{"type":"Point","coordinates":[-74.824507,42.587263]}},{"properties":{"city":"Castleton-on-Hudson","zip code":"12158","diabetes":1,"id":"a69yr5mv9f3w","lat":42.538335,"long":-73.822675},"type":"Feature","geometry":{"type":"Point","coordinates":[-73.822675,42.538335]}},{"properties":{"city":"Wallkill","zip code":"12589","diabetes":1,"id":"a69yr5scwzxq","lat":41.622017,"long":-74.145566},"type":"Feature","geometry":{"type":"Point","coordinates":[-74.145566,41.622017]}},{"properties":{"city":"Wappingers Falls","zip code":"12590","diabetes":1,"id":"a69yr5jty455","lat":41.596111,"long":-73.889438},"type":"Feature","geometry":{"type":"Point","coordinates":[-73.889438,41.596111]}},{"properties":{"city":"Warrensburg","zip code":"12885","diabetes":1,"id":"a69yr5sqfth8","lat":43.543188,"long":-73.815036},"type":"Feature","geometry":{"type":"Point","coordinates":[-73.815036,43.543188]}},{"properties":{"city":"Plattsburgh","zip code":"12901","diabetes":1,"id":"a69yr5paynm4","lat":44.729277,"long":-73.920006},"type":"Feature","geometry":{"type":"Point","coordinates":[-73.920006,44.729277]}},{"properties":{"city":"Dolgeville","zip code":"13329","diabetes":1,"id":"a69yr5pqjfx8","lat":43.112593,"long":-74.775211},"type":"Feature","geometry":{"type":"Point","coordinates":[-74.775211,43.112593]}},{"properties":{"city":"Massena","zip code":"13662","diabetes":1,"id":"a69yr5ijnzss","lat":44.902763,"long":-74.916916},"type":"Feature","geometry":{"type":"Point","coordinates":[-74.916916,44.902763]}},{"properties":{"city":"Mayfield Heights","zip code":"44124","diabetes":1,"id":"a69yr5exslnn","lat":41.497695,"long":-81.481317},"type":"Feature","geometry":{"type":"Point","coordinates":[-81.481317,41.497695]}},{"properties":{"city":"Progress","zip code":"17109","diabetes":1,"id":"a69yr5os1558","lat":40.291148,"long":-76.824717},"type":"Feature","geometry":{"type":"Point","coordinates":[-76.824717,40.291148]}},{"properties":{"city":"Bushkill","zip code":"18324","diabetes":2,"id":"a69yr5rn7d0v","lat":41.144448,"long":-74.997473},"type":"Feature","geometry":{"type":"Point","coordinates":[-74.997473,41.144448]}},{"properties":{"city":"Milford","zip code":"18337","diabetes":1,"id":"a69yr5hh5pu0","lat":41.319175,"long":-74.905487},"type":"Feature","geometry":{"type":"Point","coordinates":[-74.905487,41.319175]}},{"properties":{"city":"Tobyhanna","zip code":"18466","diabetes":1,"id":"a69yr5mvxssj","lat":41.187948,"long":-75.389386},"type":"Feature","geometry":{"type":"Point","coordinates":[-75.389386,41.187948]}},{"properties":{"city":"Isabela","zip code":"662","diabetes":1,"id":"a69yr5muvw94","lat":18.448928,"long":-67.018335},"type":"Feature","geometry":{"type":"Point","coordinates":[-67.018335,18.448928]}},{"properties":{"city":"Vega Alta","zip code":"692","diabetes":1,"id":"a69yr5f8pfsh","lat":18.42313,"long":-66.330684},"type":"Feature","geometry":{"type":"Point","coordinates":[-66.330684,18.42313]}},{"properties":{"city":"Cranston","zip code":"2888","diabetes":1,"id":"a69yr5nv65mn","lat":41.747318,"long":-71.406708},"type":"Feature","geometry":{"type":"Point","coordinates":[-71.406708,41.747318]}},{"properties":{"city":"Lexington","zip code":"29072","diabetes":1,"id":"a69yr5hmz0me","lat":34.000191,"long":-81.290646},"type":"Feature","geometry":{"type":"Point","coordinates":[-81.290646,34.000191]}},{"properties":{"city":"Manning","zip code":"29102","diabetes":1,"id":"a69yr5oexwui","lat":33.602353,"long":-80.213483},"type":"Feature","geometry":{"type":"Point","coordinates":[-80.213483,33.602353]}},{"properties":{"city":"Hanahan","zip code":"29406","diabetes":1,"id":"a69yr5od5nk8","lat":32.930763,"long":-80.029173},"type":"Feature","geometry":{"type":"Point","coordinates":[-80.029173,32.930763]}},{"properties":{"city":"Wando","zip code":"29466","diabetes":1,"id":"a69yr5t4nvei","lat":32.858378,"long":-79.783103},"type":"Feature","geometry":{"type":"Point","coordinates":[-79.783103,32.858378]}},{"properties":{"city":"Garden City","zip code":"29576","diabetes":1,"id":"a69yr5lgrete","lat":33.557745,"long":-79.065168},"type":"Feature","geometry":{"type":"Point","coordinates":[-79.065168,33.557745]}},{"properties":{"city":"Bluffton","zip code":"29909","diabetes":1,"id":"a69yr5ihnmho","lat":32.36404,"long":-80.847784},"type":"Feature","geometry":{"type":"Point","coordinates":[-80.847784,32.36404]}},{"properties":{"city":"Mount Juliet","zip code":"37122","diabetes":1,"id":"a69yr5p57s21","lat":36.178601,"long":-86.489974},"type":"Feature","geometry":{"type":"Point","coordinates":[-86.489974,36.178601]}},{"properties":{"city":"Karns","zip code":"37909","diabetes":1,"id":"a69yr5tvdmuo","lat":35.949065,"long":-84.022173},"type":"Feature","geometry":{"type":"Point","coordinates":[-84.022173,35.949065]}},{"properties":{"city":"Euless","zip code":"76040","diabetes":1,"id":"a69yr5srh4wp","lat":32.813645,"long":-97.097306},"type":"Feature","geometry":{"type":"Point","coordinates":[-97.097306,32.813645]}},{"properties":{"city":"Branton","zip code":"76471","diabetes":1,"id":"a69yr5gzdkih","lat":32.096087,"long":-98.946311},"type":"Feature","geometry":{"type":"Point","coordinates":[-98.946311,32.096087]}},{"properties":{"city":"San Benito","zip code":"78586","diabetes":1,"id":"a69yr5ta8suq","lat":26.082424,"long":-97.644026},"type":"Feature","geometry":{"type":"Point","coordinates":[-97.644026,26.082424]}},{"properties":{"city":"Abilene","zip code":"79602","diabetes":1,"id":"a69yr5lpe1qa","lat":32.329472,"long":-99.683367},"type":"Feature","geometry":{"type":"Point","coordinates":[-99.683367,32.329472]}},{"properties":{"city":"Granite","zip code":"84092","diabetes":1,"id":"a69yr5mic9f0","lat":40.525017,"long":-111.699407},"type":"Feature","geometry":{"type":"Point","coordinates":[-111.699407,40.525017]}},{"properties":{"city":"Seven Corners","zip code":"22205","diabetes":1,"id":"a69yr5m74q85","lat":38.88337,"long":-77.139001},"type":"Feature","geometry":{"type":"Point","coordinates":[-77.139001,38.88337]}},{"properties":{"city":"Commonwealth","zip code":"22901","diabetes":1,"id":"a69yr5geuw55","lat":38.089462,"long":-78.558213},"type":"Feature","geometry":{"type":"Point","coordinates":[-78.558213,38.089462]}},{"properties":{"city":"Bensley","zip code":"23234","diabetes":1,"id":"a69yr5ovv017","lat":37.45273,"long":-77.468861},"type":"Feature","geometry":{"type":"Point","coordinates":[-77.468861,37.45273]}},{"properties":{"city":"Chesapeake","zip code":"23323","diabetes":1,"id":"a69yr5rfw5xo","lat":36.676241,"long":-76.399291},"type":"Feature","geometry":{"type":"Point","coordinates":[-76.399291,36.676241]}},{"properties":{"city":"Virginia Beach","zip code":"23456","diabetes":1,"id":"a69yr5i8d56g","lat":36.725333,"long":-76.016577},"type":"Feature","geometry":{"type":"Point","coordinates":[-76.016577,36.725333]}},{"properties":{"city":"Chesapeake","zip code":"23464","diabetes":1,"id":"a69yr5qazc15","lat":36.798821,"long":-76.178712},"type":"Feature","geometry":{"type":"Point","coordinates":[-76.178712,36.798821]}},{"properties":{"city":"Alton","zip code":"24520","diabetes":1,"id":"a69yr5n9a70x","lat":36.618399,"long":-79.012931},"type":"Feature","geometry":{"type":"Point","coordinates":[-79.012931,36.618399]}},{"properties":{"city":"Pownal","zip code":"5261","diabetes":1,"id":"a69yr5fk8q66","lat":42.781569,"long":-73.205742},"type":"Feature","geometry":{"type":"Point","coordinates":[-73.205742,42.781569]}},{"properties":{"city":"Pleasant Prairie","zip code":"53158","diabetes":1,"id":"a69yr5jrvv0h","lat":42.531773,"long":-87.862753},"type":"Feature","geometry":{"type":"Point","coordinates":[-87.862753,42.531773]}}],"is_temporal":false,"author":{"url":"","metadata":"","contact_name":"","contact_address":"","source":"","contact_phone":""},"source":"","pagination":{"sort":null,"start":0,"total":413,"limit":1000000},"state":"complete","tags":"","published":"2014-08-12T23:31:56-04:00","id":152006}