{"type":"FeatureCollection","data_type":"Dataset","url_type":null,"permissions":[{"permissions":{"download":true,"edit":true,"view":true},"group_id":30055},{"permissions":{"download":true,"view":true},"group_id":"everyone"}],"classification":null,"title":"HNRS Locations 09-11","count":24,"stream_id":155004,"contributor":{"url":"http://geocommons.com/users/28869","name":"HopeNetwork3075"},"data_attributes":null,"calculation_params":null,"icon_link":null,"link":"http://geocommons.com/overlays/155004.json","extent":[-86.2185,41.9439,-84.4499,43.6899],"geometry_types":["point"],"unique_name":null,"name":"HNRS Locations 09-11","feature_count":24,"description":"HNRS Program Locations","next_feature":null,"is_raster":false,"short_classification":"Y","stats":{"latitude":{"max":43.689936,"mean":42.7527169583333,"variance":0.198040791059521,"stdev":0.445017742409806,"min":41.943877,"median":42.924601},"longitude":{"max":-84.449913,"mean":-85.2919094166667,"variance":0.209837743196863,"stdev":0.458080498599169,"min":-85.695909,"median":-85.563696}},"features":[{"properties":{"city":"Grand Rapids","latitude":42.94577,"zip":"49546","title":"Ada House AFC","addresses":"940 Clifford Ave SE","occupied by":"HNRS","ownership":"Owned","longitude":-85.545084,"id":"0","state":"Michigan"},"type":"Feature","geometry":{"type":"Point","coordinates":[-85.545084,42.94577]}},{"properties":{"city":"Grand Rapids","latitude":42.927328,"zip":"49546","title":"Arbor Glen","addresses":"2706 Burton Street SE","occupied by":"HNRS","ownership":"Owned","longitude":-85.609927,"id":"1","state":"Michigan"},"type":"Feature","geometry":{"type":"Point","coordinates":[-85.609927,42.927328]}},{"properties":{"city":"Big Rapids","latitude":43.689936,"zip":"49307","title":"Child &amp; Adult Rehabilitative Services Big Rapids","addresses":"745 Water Tower Road","occupied by":"HNRS","ownership":"Owned","longitude":-85.496243,"id":"2","state":"Michigan"},"type":"Feature","geometry":{"type":"Point","coordinates":[-85.496243,43.689936]}},{"properties":{"city":"Grand Rapids","latitude":42.925062,"zip":"49546","title":"CLP Apartments","addresses":"2109 Woodburn Dr SE","occupied by":"HNRS","ownership":"Leased from others","longitude":-85.577364,"id":"3","state":"Michigan"},"type":"Feature","geometry":{"type":"Point","coordinates":[-85.577364,42.925062]}},{"properties":{"city":"Kalamazoo","latitude":42.319315,"zip":"49048","title":"Eastwood","addresses":"2236 Brook Drive","occupied by":"HNRS","ownership":"Owned","longitude":-85.548192,"id":"4","state":"Michigan"},"type":"Feature","geometry":{"type":"Point","coordinates":[-85.548192,42.319315]}},{"properties":{"city":"Kentwood","latitude":42.924601,"zip":"49546","title":"Forest Glen AFC","addresses":"4222 Burton St SE","occupied by":"HNRS","ownership":"Owned","longitude":-85.563696,"id":"5","state":"Michigan"},"type":"Feature","geometry":{"type":"Point","coordinates":[-85.563696,42.924601]}},{"properties":{"city":"Coldwater","latitude":41.943877,"zip":"49036","title":"HNRS Coldwater Apartments","addresses":"528 W Chicago St Apt 01","occupied by":"HNRS","ownership":"Leased from others","longitude":-85.020511,"id":"6","state":"Michigan"},"type":"Feature","geometry":{"type":"Point","coordinates":[-85.020511,41.943877]}},{"properties":{"city":"Coldwater","latitude":41.948996,"zip":"49036","title":"HNRS Coldwater Lakewood AFC","addresses":"265 North Michigan Ave","occupied by":"HNRS","ownership":"Leased from others","longitude":-84.980919,"id":"7","state":"Michigan"},"type":"Feature","geometry":{"type":"Point","coordinates":[-84.980919,41.948996]}},{"properties":{"city":"Coldwater","latitude":41.9462,"zip":"49036","title":"HNRS Coldwater Outpatient Clinic","addresses":"200 Vista Drive","occupied by":"HNRS","ownership":"Leased from others","longitude":-84.981413,"id":"8","state":"Michigan"},"type":"Feature","geometry":{"type":"Point","coordinates":[-84.981413,41.9462]}},{"properties":{"city":"Grand Rapids","latitude":42.93404,"zip":"49506","title":"HNRS Executive East Offices","addresses":"1550 East Beltline SE","occupied by":"HNRS","ownership":"Leased from others","longitude":-85.58385,"id":"9","state":"Michigan"},"type":"Feature","geometry":{"type":"Point","coordinates":[-85.58385,42.93404]}},{"properties":{"city":"Kalamazoo","latitude":42.268034,"zip":"49009","title":"Kalamazoo Rehabilitation Services","addresses":"5990 Venture Park Drive","occupied by":"HNRS","ownership":"Leased from others","longitude":-85.667105,"id":"10","state":"Michigan"},"type":"Feature","geometry":{"type":"Point","coordinates":[-85.667105,42.268034]}},{"properties":{"city":"Grand Rapids","latitude":42.935505,"zip":"49506","title":"Maplewood Neurobehavioral","addresses":"1492 East Beltline SE","occupied by":"HNRS","ownership":"Owned","longitude":-85.58388,"id":"11","state":"Michigan"},"type":"Feature","geometry":{"type":"Point","coordinates":[-85.58388,42.935505]}},{"properties":{"city":"Wyoming","latitude":42.903843,"zip":"49509","title":"Michael House AFC","addresses":"3280 Michael Ave SW","occupied by":"HNRS","ownership":"Owned","longitude":-85.695909,"id":"12","state":"Michigan"},"type":"Feature","geometry":{"type":"Point","coordinates":[-85.695909,42.903843]}},{"properties":{"city":"Mount Pleasant","latitude":43.582526,"zip":"48858","title":"Mount Pleasant Children and Adults Outpatient Rehabilitation Clinic","addresses":"1627 E Broomfield","occupied by":"HNRS","ownership":"Leased from others","longitude":-84.777381,"id":"13","state":"Michigan"},"type":"Feature","geometry":{"type":"Point","coordinates":[-84.777381,43.582526]}},{"properties":{"city":"Grand Rapids","latitude":42.935555,"zip":"49506","title":"Sojourners Rehabilitation Services","addresses":"1490 East Beltline SE","occupied by":"HNRS","ownership":"Owned","longitude":-85.583881,"id":"15","state":"Michigan"},"type":"Feature","geometry":{"type":"Point","coordinates":[-85.583881,42.935555]}},{"properties":{"city":"Kalamazoo","latitude":42.254234,"zip":"49008","title":"Southwood AFC","addresses":"925 Parker Ave","occupied by":"HNRS","ownership":"Owned","longitude":-85.595897,"id":"16","state":"Michigan"},"type":"Feature","geometry":{"type":"Point","coordinates":[-85.595897,42.254234]}},{"properties":{"city":"Kentwood","latitude":42.869628,"zip":"49506","title":"Steelcase Enclave","addresses":"4380 52nd Street SE","occupied by":"HNRS","ownership":"Not Owned or Leased","longitude":-85.649627,"id":"17","state":"Michigan"},"type":"Feature","geometry":{"type":"Point","coordinates":[-85.649627,42.869628]}},{"properties":{"city":"Grand Rapids","latitude":42.937828,"zip":"49506","title":"Wildwood East","addresses":"3500 Lake Drive","occupied by":"HNRS","ownership":"Owned","longitude":-85.581486,"id":"18","state":"Michigan"},"type":"Feature","geometry":{"type":"Point","coordinates":[-85.581486,42.937828]}},{"properties":{"city":"Grand Rapids","latitude":42.937828,"zip":"49506","title":"Wildwood House IP","addresses":"3496 Lake Drive SE","occupied by":"HNRS","ownership":"Owned","longitude":-85.581584,"id":"19","state":"Michigan"},"type":"Feature","geometry":{"type":"Point","coordinates":[-85.581584,42.937828]}},{"properties":{"city":"Grand Rapids","latitude":42.937828,"zip":"49506","title":"Wildwood West AFC","addresses":"3492 Lake Drive SE","occupied by":"HNRS","ownership":"Owned","longitude":-85.581681,"id":"20","state":"Michigan"},"type":"Feature","geometry":{"type":"Point","coordinates":[-85.581681,42.937828]}},{"properties":{"city":"East Lansing","latitude":42.749331,"zip":"48823","title":"Cedarwood","addresses":"2711 E Lansing Dr","occupied by":"HNRSL","ownership":"Owned","longitude":-84.450077,"id":"21","state":"Michigan"},"type":"Feature","geometry":{"type":"Point","coordinates":[-84.450077,42.749331]}},{"properties":{"city":"East Lansing","latitude":42.749342,"zip":"48823","title":"Child &amp; Outpatient Services (Ped's)","addresses":"2700 E Lansing Dr","occupied by":"HNRSL","ownership":"Owned","longitude":-84.450103,"id":"22","state":"Michigan"},"type":"Feature","geometry":{"type":"Point","coordinates":[-84.450103,42.749342]}},{"properties":{"city":"East Lansing","latitude":42.749258,"zip":"48823","title":"HNRSL Greenhouse","addresses":"2775 E lansing Dr","occupied by":"HNRSL","ownership":"Owned","longitude":-84.449913,"id":"23","state":"Michigan"},"type":"Feature","geometry":{"type":"Point","coordinates":[-84.449913,42.749258]}},{"properties":{"city":"East Lansing","latitude":42.749342,"zip":"48823","title":"Oakwood Apartments","addresses":"2701 E Lansing Dr","occupied by":"HNRSL","ownership":"Owned","longitude":-84.450103,"id":"24","state":"Michigan"},"type":"Feature","geometry":{"type":"Point","coordinates":[-84.450103,42.749342]}}],"is_temporal":false,"author":{"url":"","metadata":"","contact_name":"","contact_address":"","source":"","contact_phone":""},"source":"","pagination":{"sort":null,"start":0,"total":24,"limit":1000000},"state":"complete","tags":"affiliate,counties,county,facilities,hope network,hope network rehabilitation services,location,locations,michigan,program locations,rehabilitation services,service line,statistic","published":"2014-08-13T03:47:47-04:00","id":155004}