{"type":"FeatureCollection","data_type":"Dataset","url_type":null,"permissions":[{"permissions":{"download":true,"edit":true,"view":true},"group_id":30055},{"permissions":{"download":true,"view":true},"group_id":"everyone"}],"classification":null,"title":"Developmental and Community Services (DCS)","count":45,"stream_id":155003,"contributor":{"url":"http://geocommons.com/users/28869","name":"HopeNetwork3075"},"data_attributes":null,"calculation_params":null,"icon_link":null,"link":"http://geocommons.com/overlays/155003.json","extent":[-85.7669,41.9164,-83.3997,44.2644],"geometry_types":["point"],"unique_name":null,"name":"Developmental and Community Services (DCS)","feature_count":45,"description":"Program Locations for Developmental and Community Services","next_feature":null,"is_raster":false,"short_classification":"Y","stats":{"latitude":{"max":44.264431,"mean":43.0838766,"variance":0.163406504513472,"stdev":0.404235704154732,"min":41.916429,"median":42.956803},"longitude":{"max":-83.399712,"mean":-85.5335524666667,"variance":0.119290924757119,"stdev":0.345385183175421,"min":-85.766934,"median":-85.614603}},"features":[{"properties":{"city":"Big Rapids","latitude":43.742589,"zip":"49307","title":"19 Mile Home - 1","addresses":"20520 19 Mile Road","occupied by":"HNDCS/WM","ownership":"Owned","longitude":-85.493785,"id":"a657it3yo29u","state":"Michigan"},"type":"Feature","geometry":{"type":"Point","coordinates":[-85.493785,43.742589]}},{"properties":{"city":"Big Rapids","latitude":43.742563,"zip":"49307","title":"19 Mile Home - 2","addresses":"20780 19 Mile Road","occupied by":"HNDCS/WM","ownership":"Owned","longitude":-85.499086,"id":"a657it13kekb","state":"Michigan"},"type":"Feature","geometry":{"type":"Point","coordinates":[-85.499086,43.742563]}},{"properties":{"city":"Kentwood","latitude":42.897986,"zip":"49512","title":"36th Street AFC","addresses":"4345 36th Street SE","occupied by":"HNDCS/WM","ownership":"Owned","longitude":-85.559259,"id":"a657it8yfb4s","state":"Michigan"},"type":"Feature","geometry":{"type":"Point","coordinates":[-85.559259,42.897986]}},{"properties":{"city":"Grand Rapids","latitude":42.898228,"zip":"49548","title":"36th Street Campus Building 1","addresses":"795 36th St SE","occupied by":"HNDCS/WM","ownership":"Owned","longitude":-85.645627,"id":"a657isvu5rr0","state":"Michigan"},"type":"Feature","geometry":{"type":"Point","coordinates":[-85.645627,42.898228]}},{"properties":{"city":"Grand Rapids","latitude":42.898228,"zip":"49548","title":"36th Street Campus Building 2","addresses":"781 36th St SE","occupied by":"HNDCS/WM","ownership":"Owned","longitude":-85.645627,"id":"a657it66tuoo","state":"Michigan"},"type":"Feature","geometry":{"type":"Point","coordinates":[-85.645627,42.898228]}},{"properties":{"city":"Grand Rapids","latitude":42.898228,"zip":"49548","title":"36th Street Campus Building 4","addresses":"755 36th St SE","occupied by":"HNDCS/WM","ownership":"Owned","longitude":-85.645627,"id":"a657it9gc3e6","state":"Michigan"},"type":"Feature","geometry":{"type":"Point","coordinates":[-85.645627,42.898228]}},{"properties":{"city":"Grandville","latitude":42.885027,"zip":"49548","title":"44th Street AFC","addresses":"4075 44th St SW","occupied by":"HNDCS/WM","ownership":"Owned","longitude":-85.734631,"id":"a657it3ia3wv","state":"Michigan"},"type":"Feature","geometry":{"type":"Point","coordinates":[-85.734631,42.885027]}},{"properties":{"city":"Kentwood","latitude":42.869356,"zip":"49548","title":"52nd Street AFC","addresses":"1441 52nd St SE","occupied by":"HNDCS/WM","ownership":"Owned","longitude":-85.630095,"id":"a657isve9a3v","state":"Michigan"},"type":"Feature","geometry":{"type":"Point","coordinates":[-85.630095,42.869356]}},{"properties":{"city":"Wyoming","latitude":42.866228,"zip":"49548","title":"54th St - 1 Apts","addresses":"178 54th Street","occupied by":"HNDCS/WM","ownership":"Owned and Leased to others","longitude":-85.670084,"id":"a657isy62hg9","state":"Michigan"},"type":"Feature","geometry":{"type":"Point","coordinates":[-85.670084,42.866228]}},{"properties":{"city":"Kentwood","latitude":42.855029,"zip":"49508","title":"60th Street AFC","addresses":"1947 60th St SE","occupied by":"HNDCS/WM","ownership":"Owned","longitude":-85.614603,"id":"a657isxz48k5","state":"Michigan"},"type":"Feature","geometry":{"type":"Point","coordinates":[-85.614603,42.855029]}},{"properties":{"city":"Lowell","latitude":42.943171,"zip":"49331","title":"Attwood","addresses":"1016 North Monroe","occupied by":"HNDCS/WM","ownership":"Not Owned or Leased","longitude":-85.338916,"id":"a657it52vt6h","state":"Michigan"},"type":"Feature","geometry":{"type":"Point","coordinates":[-85.338916,42.943171]}},{"properties":{"city":"Grand Rapids","latitude":42.934327,"zip":"49506","title":"Boston Home","addresses":"2141 Boston SE","occupied by":"HNDCS/WM","ownership":"Owned","longitude":-85.61531,"id":"a657it8t9kdq","state":"Michigan"},"type":"Feature","geometry":{"type":"Point","coordinates":[-85.61531,42.934327]}},{"properties":{"city":"Grand Rapids","latitude":42.981316,"zip":"49504","title":"Bristol Home AFC","addresses":"909 Bristol NW","occupied by":"HNDCS/WM","ownership":"Owned","longitude":-85.707432,"id":"a657it0vy4qx","state":"Michigan"},"type":"Feature","geometry":{"type":"Point","coordinates":[-85.707432,42.981316]}},{"properties":{"city":"Grand Rapids","latitude":42.962415,"zip":"49506","title":"Carlton Home 34","addresses":"34 Carlton SE","occupied by":"HNDCS/WM","ownership":"Owned","longitude":-85.636093,"id":"a657it0ogzff","state":"Michigan"},"type":"Feature","geometry":{"type":"Point","coordinates":[-85.636093,42.962415]}},{"properties":{"city":"Grand Rapids","latitude":42.962351,"zip":"49506","title":"Carlton Home 38","addresses":"38 Carlton SE","occupied by":"HNDCS/WM","ownership":"Owned","longitude":-85.636101,"id":"a657it1t5lxt","state":"Michigan"},"type":"Feature","geometry":{"type":"Point","coordinates":[-85.636101,42.962351]}},{"properties":{"city":"Grand Rapids","latitude":42.962287,"zip":"49506","title":"Carlton Home 42","addresses":"42 Carlton SE","occupied by":"HNDCS/WM","ownership":"Owned","longitude":-85.636109,"id":"a657it0oetck","state":"Michigan"},"type":"Feature","geometry":{"type":"Point","coordinates":[-85.636109,42.962287]}},{"properties":{"city":"Cedar Springs","latitude":43.216008,"zip":"49319","title":"Cedar Lodge AFC","addresses":"536 West St","occupied by":"HNDCS/WM","ownership":"Owned","longitude":-85.561127,"id":"a657itaznb3n","state":"Michigan"},"type":"Feature","geometry":{"type":"Point","coordinates":[-85.561127,43.216008]}},{"properties":{"city":"Cedar Springs","latitude":43.216227,"zip":"49319","title":"Cedar Springs Center","addresses":"490 West St","occupied by":"HNDCS/WM","ownership":"Owned","longitude":-85.561127,"id":"a657isvra2ei","state":"Michigan"},"type":"Feature","geometry":{"type":"Point","coordinates":[-85.561127,43.216227]}},{"properties":{"city":"Lowell","latitude":42.928702,"zip":"49331","title":"Center Street AFC","addresses":"333 S Center St","occupied by":"HNDCS/WM","ownership":"Owned","longitude":-85.348677,"id":"a657it8maabb","state":"Michigan"},"type":"Feature","geometry":{"type":"Point","coordinates":[-85.348677,42.928702]}},{"properties":{"city":"Wyoming","latitude":42.86731,"zip":"49509","title":"Clyde Park - Christian Home","addresses":"5345 Clyde Park SW","occupied by":"HNDCS/WM","ownership":"Owned","longitude":-85.684455,"id":"a657it5trsv6","state":"Michigan"},"type":"Feature","geometry":{"type":"Point","coordinates":[-85.684455,42.86731]}},{"properties":{"city":"Grand Rapids","latitude":42.93981,"zip":"49507","title":"DECC","addresses":"1301 Phillips SW","occupied by":"HNDCS/WM","ownership":"Not Owned or Leased","longitude":-85.673781,"id":"a657it342vcd","state":"Michigan"},"type":"Feature","geometry":{"type":"Point","coordinates":[-85.673781,42.93981]}},{"properties":{"city":"Grand Rapids","latitude":42.964112,"zip":"49506","title":"Devon Home","addresses":"3394 Devon Dr NE","occupied by":"HNDCS/WM","ownership":"Owned","longitude":-85.584646,"id":"a657it32pse6","state":"Michigan"},"type":"Feature","geometry":{"type":"Point","coordinates":[-85.584646,42.964112]}},{"properties":{"city":"Grand Rapids","latitude":42.914427,"zip":"49548","title":"Eastern Home AFC","addresses":"4605 Eastern Ave SE","occupied by":"HNDCS/WM","ownership":"Owned","longitude":-85.647628,"id":"a657it8rmj5g","state":"Michigan"},"type":"Feature","geometry":{"type":"Point","coordinates":[-85.647628,42.914427]}},{"properties":{"city":"Grand Rapids","latitude":42.925808,"zip":"49506","title":"Elmhurst Home AFC","addresses":"2143 Osceola SE","occupied by":"HNDCS/WM","ownership":"Owned","longitude":-85.611427,"id":"a657it5g7ewh","state":"Michigan"},"type":"Feature","geometry":{"type":"Point","coordinates":[-85.611427,42.925808]}},{"properties":{"city":"Rockford","latitude":43.088984,"zip":"49341","title":"Fox Meadow","addresses":"6986 Fox Meadow Dr NE","occupied by":"HNDCS/WM","ownership":"Owned","longitude":-85.547248,"id":"a657it65ldxl","state":"Michigan"},"type":"Feature","geometry":{"type":"Point","coordinates":[-85.547248,43.088984]}},{"properties":{"city":"Grand Rapids","latitude":42.834829,"zip":"49548","title":"Gaines  NPHC 4 Plex Apartments","addresses":"121 Gaines","occupied by":"HNDCS/WM","ownership":"Owned","longitude":-85.660888,"id":"a657it0u7bzo","state":"Michigan"},"type":"Feature","geometry":{"type":"Point","coordinates":[-85.660888,42.834829]}},{"properties":{"city":"Grand Rapids","latitude":42.859484,"zip":"49508","title":"Gentian Home AFC","addresses":"1919 Gentian SE","occupied by":"HNDCS/WM","ownership":"Owned","longitude":-85.615015,"id":"a657it4lgiae","state":"Michigan"},"type":"Feature","geometry":{"type":"Point","coordinates":[-85.615015,42.859484]}},{"properties":{"city":"Kentwood","latitude":42.905428,"zip":"49512","title":"Gilead Crisis Home AFC","addresses":"2841 32nd Street","occupied by":"HNDCS/WM","ownership":"Leased from others","longitude":-85.596824,"id":"a657it2hfd4h","state":"Michigan"},"type":"Feature","geometry":{"type":"Point","coordinates":[-85.596824,42.905428]}},{"properties":{"city":"Hersey","latitude":43.868587,"zip":"49639","title":"Hersey House AFC","addresses":"3718 175th Ave","occupied by":"HNDCS/WM","ownership":"Owned","longitude":-85.433815,"id":"a657it2e378q","state":"Michigan"},"type":"Feature","geometry":{"type":"Point","coordinates":[-85.433815,43.868587]}},{"properties":{"city":"Wyoming","latitude":42.900976,"zip":"49509","title":"Hope Network Industries - HNI","addresses":"3457 Roger B Chaffee","occupied by":"HNDCS/WM","ownership":"Leased from others","longitude":-85.654702,"id":"a657isyj9cx9","state":"Michigan"},"type":"Feature","geometry":{"type":"Point","coordinates":[-85.654702,42.900976]}},{"properties":{"city":"Grandville","latitude":42.866919,"zip":"49418","title":"Ivanrest Home AFC","addresses":"5390 Ivanrest SW","occupied by":"HNDCS/WM","ownership":"Leased from others","longitude":-85.743394,"id":"a657it478l0b","state":"Michigan"},"type":"Feature","geometry":{"type":"Point","coordinates":[-85.743394,42.866919]}},{"properties":{"city":"Grand Rapids","latitude":42.979057,"zip":"49546","title":"Kent Vocational (KVO)","addresses":"864 Crahen NE","occupied by":"HNDCS/WM","ownership":"Not Owned or Leased","longitude":-85.56052,"id":"a657itbldt4y","state":"Michigan"},"type":"Feature","geometry":{"type":"Point","coordinates":[-85.56052,42.979057]}},{"properties":{"city":"Walker","latitude":43.005194,"zip":"49534","title":"Kinney Home","addresses":"2210 Kinney NW","occupied by":"HNDCS/WM","ownership":"Owned","longitude":-85.766934,"id":"a657it5zo0ft","state":"Michigan"},"type":"Feature","geometry":{"type":"Point","coordinates":[-85.766934,43.005194]}},{"properties":{"city":"Grand Rapids","latitude":42.969362,"zip":"49503","title":"Lawndale AFC Home","addresses":"336 Lawndale NE","occupied by":"HNDCS/WM","ownership":"Owned","longitude":-85.625898,"id":"a657it4deni2","state":"Michigan"},"type":"Feature","geometry":{"type":"Point","coordinates":[-85.625898,42.969362]}},{"properties":{"city":"Big Rapids","latitude":43.67383,"zip":"49307","title":"MI Works - Big Rapids","addresses":"14330 Northland Dr.","occupied by":"HNDCS/WM","ownership":"Not Owned or Leased","longitude":-85.48337,"id":"a657iswmb0ez","state":"Michigan"},"type":"Feature","geometry":{"type":"Point","coordinates":[-85.48337,43.67383]}},{"properties":{"city":"Reed City","latitude":43.869622,"zip":"49677","title":"MI Works - Reed City","addresses":"240 E Church Street","occupied by":"HNDCS/WM","ownership":"Not Owned or Leased","longitude":-85.49956,"id":"a657isxpth25","state":"Michigan"},"type":"Feature","geometry":{"type":"Point","coordinates":[-85.49956,43.869622]}},{"properties":{"city":"Monroe","latitude":41.916429,"zip":"48161","title":"Monroe Day Program","addresses":"123 W First Street","occupied by":"HNDCS/WM","ownership":"Leased from others","longitude":-83.399712,"id":"a657it5en6hu","state":"Michigan"},"type":"Feature","geometry":{"type":"Point","coordinates":[-83.399712,41.916429]}},{"properties":{"city":"Cadillac","latitude":44.264431,"zip":"49601","title":"North Cadillac","addresses":"1610 Corwin St","occupied by":"HNDCS/WM","ownership":"Owned","longitude":-85.42483,"id":"a657isxhi7ad","state":"Michigan"},"type":"Feature","geometry":{"type":"Point","coordinates":[-85.42483,44.264431]}},{"properties":{"city":"Paris","latitude":43.781155,"zip":"49338","title":"North Paris - Beige Building","addresses":"21645 Northland Drive","occupied by":"HNDCS/WM","ownership":"Owned","longitude":-85.502922,"id":"a657ita28pkd","state":"Michigan"},"type":"Feature","geometry":{"type":"Point","coordinates":[-85.502922,43.781155]}},{"properties":{"city":"Paris","latitude":43.781695,"zip":"49338","title":"North Paris - Blue Bldg","addresses":"21685 Northland Dr","occupied by":"HNDCS/WM","ownership":"Owned","longitude":-85.502914,"id":"a657it2jr2bz","state":"Michigan"},"type":"Feature","geometry":{"type":"Point","coordinates":[-85.502914,43.781695]}},{"properties":{"city":"Grand Rapids","latitude":42.999068,"zip":"48505","title":"Northeast Center","addresses":"1430 Knapp St NE","occupied by":"HNDCS/WM","ownership":"Owned","longitude":-85.633441,"id":"a657isyv1t8s","state":"Michigan"},"type":"Feature","geometry":{"type":"Point","coordinates":[-85.633441,42.999068]}},{"properties":{"city":"Grand Rapids","latitude":42.977736,"zip":"49504","title":"Northwest Center","addresses":"751 Stocking NW","occupied by":"HNDCS/WM","ownership":"Owned","longitude":-85.689807,"id":"a657isva9hhg","state":"Michigan"},"type":"Feature","geometry":{"type":"Point","coordinates":[-85.689807,42.977736]}},{"properties":{"city":"Lake Odessa","latitude":42.786038,"zip":"48849","title":"Pearl Street Home AFC","addresses":"1332 Pearl Street","occupied by":"HNDCS/WM","ownership":"Leased from others","longitude":-85.135859,"id":"a657it6868da","state":"Michigan"},"type":"Feature","geometry":{"type":"Point","coordinates":[-85.135859,42.786038]}},{"properties":{"city":"Grand Rapids","latitude":42.956803,"zip":"49546","title":"Whitney Home AFC","addresses":"7780 Cascade Rd SE","occupied by":"HNDCS/WM","ownership":"Owned","longitude":-85.58988,"id":"a657isxlxerj","state":"Michigan"},"type":"Feature","geometry":{"type":"Point","coordinates":[-85.58988,42.956803]}},{"properties":{"city":"Cedar Springs","latitude":43.217087,"zip":"49319","title":"Willow Lodge AFC","addresses":"366 West Street","occupied by":"HNDCS/WM","ownership":"Owned","longitude":-85.561075,"id":"a657itavmszv","state":"Michigan"},"type":"Feature","geometry":{"type":"Point","coordinates":[-85.561075,43.217087]}}],"is_temporal":false,"author":{"url":"","metadata":"","contact_name":"","contact_address":"","source":"","contact_phone":""},"source":"","pagination":{"sort":null,"start":0,"total":45,"limit":1000000},"state":"complete","tags":"affiliate,counties,county,developmental and community services,facilities,hope network,location,locations,michigan,program locations,service line,statistic,statistics","published":"2014-08-13T03:47:46-04:00","id":155003}