{"type":"FeatureCollection","data_type":"Dataset","url_type":null,"permissions":[{"permissions":{"download":true,"view":true},"group_id":"everyone"}],"classification":null,"title":"Copy_of_FY11_PBD_Grantees","count":422,"stream_id":156030,"contributor":{"url":"http://geocommons.com/users/32875","name":"kmay"},"data_attributes":null,"calculation_params":null,"icon_link":null,"link":"http://geocommons.com/overlays/156030.json","extent":[-125.07,-38.8833,167.117,60.8095],"geometry_types":["point"],"unique_name":null,"name":"Copy_of_FY11_PBD_Grantees","feature_count":422,"description":"","next_feature":null,"is_raster":false,"short_classification":"Y","stats":{"column_5":{"max":99519,"mean":57594.3048780488,"variance":631445602.041704,"stdev":25128.5813774217,"min":2740,"median":60201}},"features":[{"properties":{"city":"Elba","column_5":null,"geo_score":0.0,"program name":"Take Me Fishing","id":"a6f3fkjytajv","geo_precision":"unmatched","state":"AL","agency name":"Elba Parks and Recreation"},"type":"Feature","geometry":null},{"properties":{"city":"Commerce City","column_5":null,"geo_score":0.881,"program name":"Take Me Fishing","id":"a6f3fk6dmb4c","geo_precision":"zip","state":"CO","agency name":"City of Commerce City, Parks and Recreation"},"type":"Feature","geometry":{"type":"Point","coordinates":[-72.7,6.3333333]}},{"properties":{"city":"Commerce City","column_5":null,"geo_score":0.881,"program name":"Take Me Fishing","id":"a6f3fkhjczgw","geo_precision":"zip","state":"CO","agency name":"Reunion Recreation Center"},"type":"Feature","geometry":{"type":"Point","coordinates":[-72.7,6.3333333]}},{"properties":{"city":"Miami","column_5":null,"geo_score":0.0,"program name":"Take Me Fishing","id":"a6f3fk8weumt","geo_precision":"unmatched","state":"FL","agency name":"Miami-Dade County Public Schools"},"type":"Feature","geometry":null},{"properties":{"city":"Ocala","column_5":null,"geo_score":0.0,"program name":"Take Me Fishing","id":"a6f3fk4czj3e","geo_precision":"unmatched","state":"FL","agency name":"City of Ocala Recreation and Parks"},"type":"Feature","geometry":null},{"properties":{"city":"East Point","column_5":null,"geo_score":0.0,"program name":"Take Me Fishing","id":"a6f3fkfxvo5d","geo_precision":"unmatched","state":"GA","agency name":"East Point Parks and Recreation"},"type":"Feature","geometry":null},{"properties":{"city":"Morrow","column_5":null,"geo_score":0.929,"program name":"Take Me Fishing","id":"a6f3fkemw0fh","geo_precision":"zip","state":"GA","agency name":"Clayton County Parks &amp; Rec - Reynolds Nature Preserve"},"type":"Feature","geometry":{"type":"Point","coordinates":[12.2166667,1.9833333]}},{"properties":{"city":"HONOLULU","column_5":null,"geo_score":0.0,"program name":"Take Me Fishing","id":"a6f3fkgdx8ad","geo_precision":"unmatched","state":"HI","agency name":"Honolulu Botanical Gardens"},"type":"Feature","geometry":null},{"properties":{"city":"Dixon","column_5":null,"geo_score":0.0,"program name":"Take Me Fishing","id":"a6f3fkifjhtx","geo_precision":"unmatched","state":"IA","agency name":"Scott County Conservation Board"},"type":"Feature","geometry":null},{"properties":{"city":"Iowa City","column_5":null,"geo_score":0.0,"program name":"Take Me Fishing","id":"a6f3fkdsskzg","geo_precision":"unmatched","state":"IA","agency name":"Iowa City Parks and Recreation Department"},"type":"Feature","geometry":null},{"properties":{"city":"Green Valley","column_5":null,"geo_score":0.896,"program name":"Take Me Fishing","id":"a6f3fk9ck48f","geo_precision":"zip","state":"IL","agency name":"Larry's Casting Kids"},"type":"Feature","geometry":{"type":"Point","coordinates":[35.2333333,33.05]}},{"properties":{"city":"Joliet","column_5":null,"geo_score":0.905,"program name":"Take Me Fishing","id":"a6f3fk8ezwc1","geo_precision":"zip","state":"IL","agency name":"Joliet Park District - Pilcher Park Nature Center"},"type":"Feature","geometry":{"type":"Point","coordinates":[34.6666667,31.3166667]}},{"properties":{"city":"Lombard","column_5":null,"geo_score":0.0,"program name":"Take Me Fishing","id":"a6f3fk5g6xtz","geo_precision":"unmatched","state":"IL","agency name":"York Center Park District"},"type":"Feature","geometry":null},{"properties":{"city":"Monee","column_5":null,"geo_score":0.914,"program name":"Take Me Fishing","id":"a6f3fk9ika0a","geo_precision":"zip","state":"IL","agency name":"Forest Preserve District of Will County /Monee Reservoir"},"type":"Feature","geometry":{"type":"Point","coordinates":[35.2666667,33.0166667]}},{"properties":{"city":"New Lenox","column_5":null,"geo_score":0.0,"program name":"Take Me Fishing","id":"a6f3fkaud5w9","geo_precision":"unmatched","state":"IL","agency name":"New Lenox Community Park Distirct"},"type":"Feature","geometry":null},{"properties":{"city":"Sterling","column_5":null,"geo_score":0.0,"program name":"Take Me Fishing","id":"a6f3fk6lsets","geo_precision":"unmatched","state":"IL","agency name":"STERLING PARK DISTRICT"},"type":"Feature","geometry":null},{"properties":{"city":"LENEXA","column_5":null,"geo_score":0.0,"program name":"Take Me Fishing","id":"a6f3fk6zaaxa","geo_precision":"unmatched","state":"KS","agency name":"JOHNSON COUNTY PARK AND RECREATION DISTRICT"},"type":"Feature","geometry":null},{"properties":{"city":"Baltimore","column_5":null,"geo_score":0.0,"program name":"Take Me Fishing","id":"a6f3fkbvtrbn","geo_precision":"unmatched","state":"MD","agency name":"Baltimore City Recreation and Parks"},"type":"Feature","geometry":null},{"properties":{"city":"Cadillac","column_5":null,"geo_score":0.0,"program name":"Take Me Fishing","id":"a6f3fkitbu6d","geo_precision":"unmatched","state":"MI","agency name":"MDNRE/Mitchell State Park"},"type":"Feature","geometry":null},{"properties":{"city":"PORTAGE","column_5":null,"geo_score":0.0,"program name":"Take Me Fishing","id":"a6f3fkfzee81","geo_precision":"unmatched","state":"MI","agency name":"CITY OF PORTAGE PARKS DEPARTMENT"},"type":"Feature","geometry":null},{"properties":{"city":"Tustin","column_5":null,"geo_score":0.0,"program name":"Take Me Fishing","id":"a6f3fkg6uowj","geo_precision":"unmatched","state":"MI","agency name":"Michigan 4-H/Kettunen Center"},"type":"Feature","geometry":null},{"properties":{"city":"Minneapolis","column_5":null,"geo_score":0.0,"program name":"Take Me Fishing","id":"a6f3fk6tgpyy","geo_precision":"unmatched","state":"MN","agency name":"Fishing For Life"},"type":"Feature","geometry":null},{"properties":{"city":"Saint Paul","column_5":null,"geo_score":0.937,"program name":"Take Me Fishing","id":"a6f3fkcaow8t","geo_precision":"zip","state":"MN","agency name":"City of Saint Paul Parks and Recreation"},"type":"Feature","geometry":{"type":"Point","coordinates":[111.25,46.0833333]}},{"properties":{"city":"St. Cloud","column_5":null,"geo_score":0.898,"program name":"Take Me Fishing","id":"a6f3fk7q0r90","geo_precision":"zip","state":"MN","agency name":"St. Cloud Park and Recreation Department"},"type":"Feature","geometry":{"type":"Point","coordinates":[113.2333333,48.5666667]}},{"properties":{"city":"Jackson","column_5":null,"geo_score":0.0,"program name":"Take Me Fishing","id":"a6f3fkdl36j6","geo_precision":"unmatched","state":"MS","agency name":"MS Dept Wildlife, Fisheries and Parks"},"type":"Feature","geometry":null},{"properties":{"city":"Oak Island","column_5":null,"geo_score":0.889,"program name":"Take Me Fishing","id":"a6f3fke1o0gz","geo_precision":"zip","state":"NC","agency name":"Oak Island Parks &amp; Recreation Department"},"type":"Feature","geometry":{"type":"Point","coordinates":[164.4333333,-20.35]}},{"properties":{"city":"Raleigh","column_5":null,"geo_score":0.0,"program name":"Take Me Fishing","id":"a6f3fk8nsv3g","geo_precision":"unmatched","state":"NC","agency name":"City of Raleigh Parks and Recreation"},"type":"Feature","geometry":null},{"properties":{"city":"Columbus","column_5":null,"geo_score":0.0,"program name":"Take Me Fishing","id":"a6f3fk4pd7wt","geo_precision":"unmatched","state":"OH","agency name":"Barack Recreation Center"},"type":"Feature","geometry":null},{"properties":{"city":"Fremont","column_5":null,"geo_score":0.0,"program name":"Take Me Fishing","id":"a6f3fkizmqyr","geo_precision":"unmatched","state":"OH","agency name":"City of Fremont Parks and Recreation Department"},"type":"Feature","geometry":null},{"properties":{"city":"Hermiston","column_5":null,"geo_score":0.0,"program name":"Take Me Fishing","id":"a6f3fkfmtsy0","geo_precision":"unmatched","state":"OR","agency name":"Hermiston Parks and Recreation"},"type":"Feature","geometry":null},{"properties":{"city":"Philadelphia","column_5":null,"geo_score":0.912,"program name":"Take Me Fishing","id":"a6f3fkdx2lpi","geo_precision":"zip","state":"PA","agency name":"Philly Youth Anglers Program (Collective Voices Youth Programs)"},"type":"Feature","geometry":{"type":"Point","coordinates":[-81.4,7.9833333]}},{"properties":{"city":"Fort Worth","column_5":null,"geo_score":0.0,"program name":"Take Me Fishing","id":"a6f3fkeo8bep","geo_precision":"unmatched","state":"TX","agency name":"Fort Worth Parks and Community Services"},"type":"Feature","geometry":null},{"properties":{"city":"Houston","column_5":null,"geo_score":0.0,"program name":"Take Me Fishing","id":"a6f3fkgispm8","geo_precision":"unmatched","state":"TX","agency name":"Houston Parks and Recreation  Department"},"type":"Feature","geometry":null},{"properties":{"city":"Pearland","column_5":null,"geo_score":0.0,"program name":"Take Me Fishing","id":"a6f3fke93r4i","geo_precision":"unmatched","state":"TX","agency name":"City of Pearland Parks and Recreation Department"},"type":"Feature","geometry":null},{"properties":{"city":"Rocky Mount","column_5":null,"geo_score":0.0,"program name":"Take Me Fishing","id":"a6f3fkjcrrxj","geo_precision":"unmatched","state":"VA","agency name":"Franklin County Parks &amp; Recreation"},"type":"Feature","geometry":null},{"properties":{"city":"Williamsburg","column_5":null,"geo_score":0.0,"program name":"Take Me Fishing","id":"a6f3fkk3ro5w","geo_precision":"unmatched","state":"VA","agency name":"Williamsburg Parks and Recreation Department"},"type":"Feature","geometry":null},{"properties":{"city":"La Crosse","column_5":null,"geo_score":0.0,"program name":"Take Me Fishing","id":"a6f3fkhpo52q","geo_precision":"unmatched","state":"WI","agency name":"City of La Crosse"},"type":"Feature","geometry":null},{"properties":{"city":"El Centro","column_5":null,"geo_score":0.9,"program name":"Take Me Fishing","id":"a6f3fkdoywcl","geo_precision":"zip","state":"CA","agency name":"City of El Centro Parks and Recreation Department"},"type":"Feature","geometry":{"type":"Point","coordinates":[-77.232752517,48.383487733]}},{"properties":{"city":"Rancho Cordova","column_5":null,"geo_score":0.89,"program name":"Take Me Fishing","id":"a6f3fkki76dr","geo_precision":"zip","state":"CA","agency name":"Cordova Recreation and Park District"},"type":"Feature","geometry":{"type":"Point","coordinates":[-78.116222333,45.000122864]}},{"properties":{"city":"Santa Maria","column_5":null,"geo_score":0.945,"program name":"Take Me Fishing","id":"a6f3fk6qou91","geo_precision":"zip","state":"CA","agency name":"People for Leisure and Youth, Inc"},"type":"Feature","geometry":{"type":"Point","coordinates":[-73.799192449,45.25008039]}},{"properties":{"city":"Cumming","column_5":null,"geo_score":0.0,"program name":"Take Me Fishing","id":"a6f3fk8mv9b7","geo_precision":"unmatched","state":"GA","agency name":"Forsyth County"},"type":"Feature","geometry":null},{"properties":{"city":"Gwinett","column_5":null,"geo_score":0.0,"program name":"Take Me Fishing","id":"a6f3fk52kzzj","geo_precision":"unmatched","state":"GA","agency name":"Gwinnett County Parks and Recreation"},"type":"Feature","geometry":null},{"properties":{"city":"Kailua","column_5":null,"geo_score":0.0,"program name":"Take Me Fishing","id":"a6f3fkadgpcy","geo_precision":"unmatched","state":"HI","agency name":"Kama`aina Kids"},"type":"Feature","geometry":null},{"properties":{"city":"Davenport","column_5":null,"geo_score":0.0,"program name":"Take Me Fishing","id":"a6f3fk92ss9i","geo_precision":"unmatched","state":"IA","agency name":"Davenport Parks and Recreation"},"type":"Feature","geometry":null},{"properties":{"city":"Harvey","column_5":null,"geo_score":0.939,"program name":"Take Me Fishing","id":"a6f3fkdrdgqp","geo_precision":"zip","state":"IL","agency name":"Harvey Park District"},"type":"Feature","geometry":{"type":"Point","coordinates":[35.1,31.0666667]}},{"properties":{"city":"Round Lake","column_5":null,"geo_score":0.0,"program name":"Take Me Fishing","id":"a6f3fkiq6b24","geo_precision":"unmatched","state":"IL","agency name":"Round Lake Area Park District"},"type":"Feature","geometry":null},{"properties":{"city":"Baton Rouge","column_5":null,"geo_score":0.0,"program name":"Take Me Fishing","id":"a6f3fk5m9mu3","geo_precision":"unmatched","state":"LA","agency name":"East Baton Rouge Recreation and Park Commission"},"type":"Feature","geometry":null},{"properties":{"city":"Billerica","column_5":null,"geo_score":0.0,"program name":"Take Me Fishing","id":"a6f3fkkmyhm8","geo_precision":"unmatched","state":"MA","agency name":"Billerica Recreation Department"},"type":"Feature","geometry":null},{"properties":{"city":"Buffalo","column_5":null,"geo_score":0.0,"program name":"Take Me Fishing","id":"a6f3fke4ngey","geo_precision":"unmatched","state":"MN","agency name":"City of Buffalo Parks Department"},"type":"Feature","geometry":null},{"properties":{"city":"PLYMOUTH","column_5":null,"geo_score":0.0,"program name":"Take Me Fishing","id":"a6f3fkkr3inw","geo_precision":"unmatched","state":"MN","agency name":"THREE RIVERS PARK DISTRICT"},"type":"Feature","geometry":null},{"properties":{"city":"Wabasha","column_5":null,"geo_score":0.0,"program name":"Take Me Fishing","id":"a6f3fk6l12h9","geo_precision":"unmatched","state":"MN","agency name":"National Eagle Center"},"type":"Feature","geometry":null},{"properties":{"city":"Clayton","column_5":null,"geo_score":0.0,"program name":"Take Me Fishing","id":"a6f3fk8uoou4","geo_precision":"unmatched","state":"MO","agency name":"St Louis County Department of Parks and Recreation"},"type":"Feature","geometry":null},{"properties":{"city":"Sumner","column_5":null,"geo_score":0.0,"program name":"Take Me Fishing","id":"a6f3fkgt0hgh","geo_precision":"unmatched","state":"MS","agency name":"Tallahatchie County Department of Parks, Recreation, and Tourism"},"type":"Feature","geometry":null},{"properties":{"city":"Clinton","column_5":null,"geo_score":0.0,"program name":"Take Me Fishing","id":"a6f3fkfeoeml","geo_precision":"unmatched","state":"NC","agency name":"Clinton Recreation &amp; Parks Department"},"type":"Feature","geometry":null},{"properties":{"city":"Fayetteville","column_5":null,"geo_score":0.0,"program name":"Take Me Fishing","id":"a6f3fkarcd8m","geo_precision":"unmatched","state":"NC","agency name":"Fayetteville-Cumberland Parks and Recreation"},"type":"Feature","geometry":null},{"properties":{"city":"Englewood","column_5":null,"geo_score":0.0,"program name":"Take Me Fishing","id":"a6f3fk6g2190","geo_precision":"unmatched","state":"NJ","agency name":"Englewood Recreation Department"},"type":"Feature","geometry":null},{"properties":{"city":"Hamburg","column_5":null,"geo_score":0.0,"program name":"Take Me Fishing","id":"a6f3fkhwkbwj","geo_precision":"unmatched","state":"NY","agency name":"Town of hamburg Recreation Department"},"type":"Feature","geometry":null},{"properties":{"city":"Spartanburg","column_5":null,"geo_score":0.0,"program name":"Take Me Fishing","id":"a6f3fk7v7cz9","geo_precision":"unmatched","state":"SC","agency name":"Spartanburg Parks Commission"},"type":"Feature","geometry":null},{"properties":{"city":"Cedar Park","column_5":null,"geo_score":0.0,"program name":"Take Me Fishing","id":"a6f3fkijti4k","geo_precision":"unmatched","state":"TX","agency name":"Williamson County Parks and Recreation Department"},"type":"Feature","geometry":null},{"properties":{"city":"Corpus Christi","column_5":null,"geo_score":0.0,"program name":"Take Me Fishing","id":"a6f3fk6ovq9p","geo_precision":"unmatched","state":"TX","agency name":"City of Corpus Christi"},"type":"Feature","geometry":null},{"properties":{"city":"Houston","column_5":null,"geo_score":0.0,"program name":"Take Me Fishing","id":"a6f3fk4hnobc","geo_precision":"unmatched","state":"TX","agency name":"Greens Bayou Corridor Coalition"},"type":"Feature","geometry":null},{"properties":{"city":"Missouri City","column_5":null,"geo_score":0.0,"program name":"Take Me Fishing","id":"a6f3fk6r2bml","geo_precision":"unmatched","state":"TX","agency name":"City of Missouri City Parks and Recreation Department"},"type":"Feature","geometry":null},{"properties":{"city":"Pasadena","column_5":null,"geo_score":0.0,"program name":"Take Me Fishing","id":"a6f3fkew233h","geo_precision":"unmatched","state":"TX","agency name":"City of Pasadena"},"type":"Feature","geometry":null},{"properties":{"city":"White Settlement","column_5":null,"geo_score":0.0,"program name":"Take Me Fishing","id":"a6f3fkddqrq9","geo_precision":"unmatched","state":"TX","agency name":"City of White Settlement"},"type":"Feature","geometry":null},{"properties":{"city":"Renton","column_5":null,"geo_score":0.0,"program name":"Take Me Fishing","id":"a6f3fkcqveks","geo_precision":"unmatched","state":"WA","agency name":"City of Renton Community Services Department"},"type":"Feature","geometry":null},{"properties":{"city":"Yakima","column_5":null,"geo_score":0.0,"program name":"Take Me Fishing","id":"a6f3fkagqu02","geo_precision":"unmatched","state":"WA","agency name":"Yakima Greenway Foundation"},"type":"Feature","geometry":null},{"properties":{"city":"Janesville","column_5":null,"geo_score":0.0,"program name":"Take Me Fishing","id":"a6f3fke0uaqk","geo_precision":"unmatched","state":"WI","agency name":"Rock County Parks"},"type":"Feature","geometry":null},{"properties":{"city":"Prairie du Chien","column_5":null,"geo_score":0.0,"program name":"Take Me Fishing","id":"a6f3fk4imay3","geo_precision":"unmatched","state":"WI","agency name":"Prairie du Chien Parks and Recreation Department"},"type":"Feature","geometry":null},{"properties":{"city":"Evanston","column_5":null,"geo_score":0.0,"program name":"Tennis In the Parks","id":"a6f3fkfn63gu","geo_precision":"unmatched","state":"IL","agency name":"City of Evanston"},"type":"Feature","geometry":null},{"properties":{"city":"Independence","column_5":null,"geo_score":0.0,"program name":"Tennis In the Parks","id":"a6f3fk8l4cfk","geo_precision":"unmatched","state":"MO","agency name":"City of Independence Parks &amp; Recreation"},"type":"Feature","geometry":null},{"properties":{"city":"St Augustine","column_5":null,"geo_score":0.0,"program name":"Tennis In the Parks","id":"a6f3fk59vovn","geo_precision":"unmatched","state":"FL","agency name":"St. Johns County Recreation &amp; Parks"},"type":"Feature","geometry":null},{"properties":{"city":"Raleigh","column_5":null,"geo_score":0.0,"program name":"Tennis In the Parks","id":"a6f3fkaktw7c","geo_precision":"unmatched","state":"NC","agency name":"Raleigh Parks &amp; Recreation"},"type":"Feature","geometry":null},{"properties":{"city":"Convent Station","column_5":null,"geo_score":0.0,"program name":"Tennis In the Parks","id":"a6f3fkdgin20","geo_precision":"unmatched","state":"NJ","agency name":"Township of Morris"},"type":"Feature","geometry":null},{"properties":{"city":"Albany","column_5":null,"geo_score":0.0,"program name":"Tennis In the Parks","id":"a6f3fk5jubd9","geo_precision":"unmatched","state":"GA","agency name":"City of Albany Recreation &amp; Parks"},"type":"Feature","geometry":null},{"properties":{"city":"Arlington","column_5":null,"geo_score":0.0,"program name":"Tennis In the Parks","id":"a6f3fkkke9ox","geo_precision":"unmatched","state":"VA","agency name":"Arlington Parks, Recreation, and Cultural Resources"},"type":"Feature","geometry":null},{"properties":{"city":"Parker","column_5":null,"geo_score":0.929,"program name":"Tennis In the Parks","id":"a6f3fkal081m","geo_precision":"zip","state":"CO","agency name":"Town of Parker"},"type":"Feature","geometry":{"type":"Point","coordinates":[-78.8358333,1.6488889]}},{"properties":{"city":"Tempe","column_5":null,"geo_score":0.0,"program name":"Tennis In the Parks","id":"a6f3fk4mm5d0","geo_precision":"unmatched","state":"AZ","agency name":"Kiwanis Recreation Center"},"type":"Feature","geometry":null},{"properties":{"city":"Southfield","column_5":null,"geo_score":0.0,"program name":"Tennis In the Parks","id":"a6f3fkj8whjc","geo_precision":"unmatched","state":"MI","agency name":"Southfield Parks &amp; Recreation"},"type":"Feature","geometry":null},{"properties":{"city":"Baton Rouge","column_5":null,"geo_score":0.0,"program name":"Tennis In the Parks","id":"a6f3fk7gx4l9","geo_precision":"unmatched","state":"LA","agency name":"BREC"},"type":"Feature","geometry":null},{"properties":{"city":"Channahon","column_5":null,"geo_score":0.0,"program name":"Tennis In the Parks","id":"a6f3fkj9ubcb","geo_precision":"unmatched","state":"IL","agency name":"Channahon Park District"},"type":"Feature","geometry":null},{"properties":{"city":"Tulsa","column_5":null,"geo_score":0.0,"program name":"Tennis In the Parks","id":"a6f3fkjczu3n","geo_precision":"unmatched","state":"OK","agency name":"City of Tulsa"},"type":"Feature","geometry":null},{"properties":{"city":"Highlands Ranch","column_5":null,"geo_score":0.888,"program name":"Tennis In the Parks","id":"a6f3fk60w3od","geo_precision":"zip","state":"CO","agency name":"Highlands Ranch Metro District"},"type":"Feature","geometry":{"type":"Point","coordinates":[-74.7666667,8.1]}},{"properties":{"city":"Versailles","column_5":null,"geo_score":0.0,"program name":"Tennis In the Parks","id":"a6f3fki81t5r","geo_precision":"unmatched","state":"KY","agency name":"Versailles-Woodford Co. Parks &amp; Recreation Department"},"type":"Feature","geometry":null},{"properties":{"city":"Homewood","column_5":null,"geo_score":0.0,"program name":"Tennis In the Parks","id":"a6f3fk8v5zau","geo_precision":"unmatched","state":"IL","agency name":"Homewood-Flossmoor"},"type":"Feature","geometry":null},{"properties":{"city":"Hanover","column_5":null,"geo_score":0.0,"program name":"Tennis In the Parks","id":"a6f3fk9uxu2w","geo_precision":"unmatched","state":"PA","agency name":"York Adams CTA"},"type":"Feature","geometry":null},{"properties":{"city":"Nashville","column_5":null,"geo_score":0.0,"program name":"Tennis In the Parks","id":"a6f3fkganmd3","geo_precision":"unmatched","state":"AR","agency name":"Nashville Parks &amp; Recreation"},"type":"Feature","geometry":null},{"properties":{"city":"Casselton","column_5":null,"geo_score":0.0,"program name":"Tennis In the Parks","id":"a6f3fkkb2gyv","geo_precision":"unmatched","state":"ND","agency name":"Casselton Parks and Rec"},"type":"Feature","geometry":null},{"properties":{"city":"Clearfield","column_5":null,"geo_score":0.0,"program name":"Tennis In the Parks","id":"a6f3fkae2xt2","geo_precision":"unmatched","state":"UT","agency name":"Clearfield City Recreation"},"type":"Feature","geometry":null},{"properties":{"city":"Eden Prairie","column_5":null,"geo_score":0.0,"program name":"Tennis In the Parks","id":"a6f3fk7hnq9a","geo_precision":"unmatched","state":"MN","agency name":"Eden Prairie Parks &amp; Recreation"},"type":"Feature","geometry":null},{"properties":{"city":"Washington","column_5":null,"geo_score":0.0,"program name":"Tennis In the Parks","id":"a6f3fkfhaln7","geo_precision":"unmatched","state":"DC","agency name":"Smart Activities for Fitness and Education (S,A.F.E.)"},"type":"Feature","geometry":null},{"properties":{"city":"Fort Lauderdale","column_5":null,"geo_score":0.0,"program name":"Tennis In the Parks","id":"a6f3fkimios4","geo_precision":"unmatched","state":"FL","agency name":"City of Fort Lauderdale"},"type":"Feature","geometry":null},{"properties":{"city":"Vancouver","column_5":null,"geo_score":0.0,"program name":"Tennis In the Parks","id":"a6f3fkcqyhle","geo_precision":"unmatched","state":"WA","agency name":"Vancouver-Clark Parks &amp; Recreation"},"type":"Feature","geometry":null},{"properties":{"city":"Sebastopol","column_5":null,"geo_score":1.0,"program name":"Tennis In the Parks","id":"a6f3fkbi4muk","geo_precision":"zip","state":"CA","agency name":"Sebastopol Community Center"},"type":"Feature","geometry":{"type":"Point","coordinates":[-80.833015525,43.333393356]}},{"properties":{"city":"West Sacramento","column_5":null,"geo_score":0.888,"program name":"Tennis In the Parks","id":"a6f3fkda7h85","geo_precision":"zip","state":"CA","agency name":"City of West Sacramento"},"type":"Feature","geometry":{"type":"Point","coordinates":[-125.069765044,51.216393622]}},{"properties":{"city":"Spokane","column_5":null,"geo_score":0.0,"program name":"Tennis In the Parks","id":"a6f3fkcd5vhu","geo_precision":"unmatched","state":"WA","agency name":"City of Spokane Parks and Recreaion"},"type":"Feature","geometry":null},{"properties":{"city":"Evansville","column_5":null,"geo_score":0.0,"program name":"Tennis In the Parks","id":"a6f3fkc6ph60","geo_precision":"unmatched","state":"IN","agency name":"Oak Meadow Golf Club/SCATA Tennis"},"type":"Feature","geometry":null},{"properties":{"city":"Elkin","column_5":null,"geo_score":0.0,"program name":"Tennis In the Parks","id":"a6f3fk509gsx","geo_precision":"unmatched","state":"NC","agency name":"Elkin Recreation &amp; Parks Department"},"type":"Feature","geometry":null},{"properties":{"city":"Broadview Heights","column_5":null,"geo_score":0.0,"program name":"Tennis In the Parks","id":"a6f3fk8bl3cp","geo_precision":"unmatched","state":"OH","agency name":"Broadview Heights Parks &amp; Recreation"},"type":"Feature","geometry":null},{"properties":{"city":"Vestavia Hills","column_5":null,"geo_score":0.0,"program name":"Tennis In the Parks","id":"a6f3fkaoy2zx","geo_precision":"unmatched","state":"AL","agency name":"Vestavia Hills"},"type":"Feature","geometry":null},{"properties":{"city":"Peace Dale","column_5":null,"geo_score":0.0,"program name":"Tennis In the Parks","id":"a6f3fk4fr97m","geo_precision":"unmatched","state":"RI","agency name":"South Kingstown Parks &amp; Recreation"},"type":"Feature","geometry":null},{"properties":{"city":"New Bern","column_5":null,"geo_score":0.878,"program name":"Tennis In the Parks","id":"a6f3fk95tbzb","geo_precision":"zip","state":"NC","agency name":"City of New Bern Parks &amp; Recreation"},"type":"Feature","geometry":{"type":"Point","coordinates":[165.45,-21.2166667]}},{"properties":{"city":"Edenton","column_5":null,"geo_score":0.0,"program name":"Tennis In the Parks","id":"a6f3fkfullzk","geo_precision":"unmatched","state":"NC","agency name":"Chowan Tennis Association"},"type":"Feature","geometry":null},{"properties":{"city":"Gate City","column_5":null,"geo_score":0.0,"program name":"Tennis In the Parks","id":"a6f3fkgkdq0e","geo_precision":"unmatched","state":"VA","agency name":"Scott County Recreation Department"},"type":"Feature","geometry":null},{"properties":{"city":"Arlington Heights","column_5":null,"geo_score":0.0,"program name":"Tennis In the Parks","id":"a6f3fk7t5iyr","geo_precision":"unmatched","state":"IL","agency name":"Arlington Heights Park District"},"type":"Feature","geometry":null},{"properties":{"city":"Talladega","column_5":null,"geo_score":0.0,"program name":"Tennis In the Parks","id":"a6f3fkdpio93","geo_precision":"unmatched","state":"AL","agency name":"Talladega Parks and Recreation"},"type":"Feature","geometry":null},{"properties":{"city":"Grants Pass","column_5":null,"geo_score":0.0,"program name":"Tennis In the Parks","id":"a6f3fki15or7","geo_precision":"unmatched","state":"OR","agency name":"Grants Pass Community Tennis Association"},"type":"Feature","geometry":null},{"properties":{"city":"Ignacio","column_5":null,"geo_score":0.898,"program name":"Tennis In the Parks","id":"a6f3fk6xa3q9","geo_precision":"zip","state":"CO","agency name":"Town of Ignacio"},"type":"Feature","geometry":{"type":"Point","coordinates":[-76.0666667,2.5566667]}},{"properties":{"city":"Rome","column_5":null,"geo_score":0.929,"program name":"Tennis In the Parks","id":"a6f3fkbigp77","geo_precision":"zip","state":"GA","agency name":"Rome-Floyd Parks and Recreation Authority"},"type":"Feature","geometry":{"type":"Point","coordinates":[12.0833333,-1.3166667]}},{"properties":{"city":"Conway","column_5":null,"geo_score":0.0,"program name":"Tennis In the Parks","id":"a6f3fk8wb4xu","geo_precision":"unmatched","state":"SC","agency name":"Conway Parks, Recreation &amp; Tourism"},"type":"Feature","geometry":null},{"properties":{"city":"Union City","column_5":null,"geo_score":0.873,"program name":"Tennis In the Parks","id":"a6f3fkg37ky6","geo_precision":"zip","state":"CA","agency name":"City of Union City / UCLS"},"type":"Feature","geometry":{"type":"Point","coordinates":[-113.46034431,53.447356688]}},{"properties":{"city":"Piedmont","column_5":null,"geo_score":0.917,"program name":"Tennis In the Parks","id":"a6f3fkasthv7","geo_precision":"zip","state":"CA","agency name":"City of Oakland Parks and Recreation"},"type":"Feature","geometry":{"type":"Point","coordinates":[-84.866581118,47.733383679]}},{"properties":{"city":"Arecibo","column_5":null,"geo_score":1.0,"program name":"Tennis In the Parks","id":"a6f3fki247as","geo_precision":"zip","state":"PR","agency name":"Arecibo Tennis"},"type":"Feature","geometry":{"type":"Point","coordinates":[-66.7157306,18.472445]}},{"properties":{"city":"McHenry","column_5":null,"geo_score":0.0,"program name":"Tennis In the Parks","id":"a6f3fkistiry","geo_precision":"unmatched","state":"IL","agency name":"McHenry Parks &amp; Recreation Department"},"type":"Feature","geometry":null},{"properties":{"city":"Whiteville","column_5":null,"geo_score":0.0,"program name":"Tennis In the Parks","id":"a6f3fkdjsrn7","geo_precision":"unmatched","state":"NC","agency name":"Whiteville Parks and Recreation"},"type":"Feature","geometry":null},{"properties":{"city":"Henderson","column_5":null,"geo_score":0.0,"program name":"Tennis In the Parks","id":"a6f3fk94uo77","geo_precision":"unmatched","state":"NV","agency name":"City of Henderson, Nevada"},"type":"Feature","geometry":null},{"properties":{"city":"Cohasset","column_5":null,"geo_score":0.929,"program name":"Tennis In the Parks","id":"a6f3fk5ep0rb","geo_precision":"zip","state":"MA","agency name":"Cohasset Recreation Department"},"type":"Feature","geometry":{"type":"Point","coordinates":[-6.86179382228934,31.1699245233267]}},{"properties":{"city":"Ocala","column_5":null,"geo_score":0.0,"program name":"Tennis In the Parks","id":"a6f3fk8nx7lx","geo_precision":"unmatched","state":"FL","agency name":"Marion County Parks and Recreation"},"type":"Feature","geometry":null},{"properties":{"city":"Raytown","column_5":null,"geo_score":0.0,"program name":"Tennis In the Parks","id":"a6f3fkimvheh","geo_precision":"unmatched","state":"MO","agency name":"Raytown Parks and Rec Dept"},"type":"Feature","geometry":null},{"properties":{"city":"North Augusta","column_5":null,"geo_score":0.0,"program name":"Tennis In the Parks","id":"a6f3fk7gjgnw","geo_precision":"unmatched","state":"SC","agency name":"North Augusta Parks and Recreation"},"type":"Feature","geometry":null},{"properties":{"city":"Moss Point","column_5":null,"geo_score":0.0,"program name":"Tennis In the Parks","id":"a6f3fketmhtn","geo_precision":"unmatched","state":"MS","agency name":"Moss Point Parks &amp; Recreation"},"type":"Feature","geometry":null},{"properties":{"city":"Volga","column_5":null,"geo_score":0.898,"program name":"Tennis In the Parks","id":"a6f3fk77m4jj","geo_precision":"zip","state":"SD","agency name":"Volga Park and Recreation"},"type":"Feature","geometry":{"type":"Point","coordinates":[33.2,10.1166667]}},{"properties":{"city":"Thief River Falls","column_5":null,"geo_score":0.0,"program name":"Tennis In the Parks","id":"a6f3fkht28ev","geo_precision":"unmatched","state":"MN","agency name":"Thief River Falls Parks and Recreation"},"type":"Feature","geometry":null},{"properties":{"city":"Fredonia","column_5":null,"geo_score":0.0,"program name":"Tennis In the Parks","id":"a6f3fkibnbz1","geo_precision":"unmatched","state":"KS","agency name":"Fredonia Tennis Association"},"type":"Feature","geometry":null},{"properties":{"city":"Marquette","column_5":null,"geo_score":0.0,"program name":"Tennis In the Parks","id":"a6f3fk7n4m0w","geo_precision":"unmatched","state":"MI","agency name":"City of Marquette"},"type":"Feature","geometry":null},{"properties":{"city":"Quincy","column_5":null,"geo_score":0.0,"program name":"Tennis In the Parks","id":"a6f3fk7t5aaf","geo_precision":"unmatched","state":"IL","agency name":"Quincy Park District"},"type":"Feature","geometry":null},{"properties":{"city":"Cape Vincent","column_5":null,"geo_score":0.0,"program name":"Tennis In the Parks","id":"a6f3fk4lz8if","geo_precision":"unmatched","state":"NY","agency name":"Cape Vincent Recreation Park"},"type":"Feature","geometry":null},{"properties":{"city":"Tamuning","column_5":null,"geo_score":0.0,"program name":"Tennis In the Parks","id":"a6f3fki9kb82","geo_precision":"unmatched","state":"HI","agency name":"Guam Community Tennis Association Inc."},"type":"Feature","geometry":null},{"properties":{"city":"Forest Park","column_5":null,"geo_score":0.0,"program name":"Tennis In the Parks","id":"a6f3fka4ccn2","geo_precision":"unmatched","state":"IL","agency name":"Park District of Forest Park"},"type":"Feature","geometry":null},{"properties":{"city":"Euclid","column_5":null,"geo_score":0.0,"program name":"Tennis In the Parks","id":"a6f3fk8krslo","geo_precision":"unmatched","state":"OH","agency name":"City of Euclid Recreation Department"},"type":"Feature","geometry":null},{"properties":{"city":"Redondo Beach","column_5":null,"geo_score":0.869,"program name":"Tennis In the Parks","id":"a6f3fkffljou","geo_precision":"zip","state":"CA","agency name":"South Bay Tennis Network"},"type":"Feature","geometry":{"type":"Point","coordinates":[-74.549179628,49.933438264]}},{"properties":{"city":"Edgewater","column_5":null,"geo_score":0.0,"program name":"Tennis In the Parks","id":"a6f3fke6cvnv","geo_precision":"unmatched","state":"CO","agency name":"City of Edgewater"},"type":"Feature","geometry":null},{"properties":{"city":"garden city","column_5":null,"geo_score":0.0,"program name":"Tennis In the Parks","id":"a6f3fkf2ad0y","geo_precision":"unmatched","state":"NY","agency name":"Garden city tennis courts"},"type":"Feature","geometry":null},{"properties":{"city":"Port Jefferson","column_5":null,"geo_score":0.0,"program name":"Tennis In the Parks","id":"a6f3fkglnbma","geo_precision":"unmatched","state":"NY","agency name":"Long Island Foundation for Education &amp; Sports"},"type":"Feature","geometry":null},{"properties":{"city":"Gun Barrel City","column_5":null,"geo_score":0.0,"program name":"Tennis In the Parks","id":"a6f3fk6raat6","geo_precision":"unmatched","state":"TX","agency name":"Gun Barrel City Park"},"type":"Feature","geometry":null},{"properties":{"city":"Fredericksburg","column_5":null,"geo_score":0.0,"program name":"Tennis In the Parks","id":"a6f3fkko513u","geo_precision":"unmatched","state":"VA","agency name":"Fredericksburg Parks and Recreation"},"type":"Feature","geometry":null},{"properties":{"city":"Hacienda Heights","column_5":null,"geo_score":0.933,"program name":"Tennis In the Parks","id":"a6f3fka256w3","geo_precision":"zip","state":"CA","agency name":"Southeast Recreation District, South Agency"},"type":"Feature","geometry":{"type":"Point","coordinates":[-97.364260475,49.860600036]}},{"properties":{"city":"Massillon","column_5":null,"geo_score":0.0,"program name":"Tennis In the Parks","id":"a6f3fkhv6c89","geo_precision":"unmatched","state":"OH","agency name":"City of Massillon Parks &amp; Recreation Department"},"type":"Feature","geometry":null},{"properties":{"city":"ossining","column_5":null,"geo_score":0.0,"program name":"Tennis In the Parks","id":"a6f3fk5r61zj","geo_precision":"unmatched","state":"NY","agency name":"ossining community tennis"},"type":"Feature","geometry":null},{"properties":{"city":"Scottsdale","column_5":null,"geo_score":0.0,"program name":"Tennis In the Parks","id":"a6f3fka1amc6","geo_precision":"unmatched","state":"AZ","agency name":"City of Scottsdale/Parks and Recreation Department"},"type":"Feature","geometry":null},{"properties":{"city":"Rancho Cordova","column_5":null,"geo_score":0.89,"program name":"Tennis In the Parks","id":"a6f3fk4nb24b","geo_precision":"zip","state":"CA","agency name":"Cordova Recreation &amp; Park District"},"type":"Feature","geometry":{"type":"Point","coordinates":[-78.116222333,45.000122864]}},{"properties":{"city":"Compton","column_5":null,"geo_score":0.939,"program name":"Tennis In the Parks","id":"a6f3fkjf0k0b","geo_precision":"zip","state":"CA","agency name":"City of Compton Parks, Recreation and Special Services"},"type":"Feature","geometry":{"type":"Point","coordinates":[-79.432899372,43.133414858]}},{"properties":{"city":"Torrance","column_5":null,"geo_score":1.0,"program name":"Tennis In the Parks","id":"a6f3fk6mojvg","geo_precision":"zip","state":"CA","agency name":"City of Torrance"},"type":"Feature","geometry":{"type":"Point","coordinates":[-82.166459671,49.633532699]}},{"properties":{"city":"Block Island","column_5":null,"geo_score":0.0,"program name":"Tennis In the Parks","id":"a6f3fk5jq6id","geo_precision":"unmatched","state":"RI","agency name":"Block Island Recreation Department"},"type":"Feature","geometry":null},{"properties":{"city":"La Crescent","column_5":null,"geo_score":0.0,"program name":"Tennis In the Parks","id":"a6f3fk7f2rb8","geo_precision":"unmatched","state":"MN","agency name":"City of La Crescent"},"type":"Feature","geometry":null},{"properties":{"city":"Tallahassee","column_5":null,"geo_score":0.0,"program name":"Tennis In the Parks","id":"a6f3fk9mdgfa","geo_precision":"unmatched","state":"FL","agency name":"City of Tallahassee"},"type":"Feature","geometry":null},{"properties":{"city":"Cordova","column_5":null,"geo_score":0.0,"program name":"Tennis In the Parks","id":"a6f3fki2ceiv","geo_precision":"unmatched","state":"TN","agency name":"Shelby County Tennis Association"},"type":"Feature","geometry":null},{"properties":{"city":"Middletown","column_5":null,"geo_score":0.0,"program name":"Tennis In the Parks","id":"a6f3fk9yg98s","geo_precision":"unmatched","state":"NY","agency name":"Town of Wallkill Parks"},"type":"Feature","geometry":null},{"properties":{"city":"Amarillo","column_5":null,"geo_score":0.0,"program name":"Tennis In the Parks","id":"a6f3fkd9zniu","geo_precision":"unmatched","state":"TX","agency name":"City of Amarillo Parks &amp; Recreation"},"type":"Feature","geometry":null},{"properties":{"city":"Mechanicsburg","column_5":null,"geo_score":0.0,"program name":"Tennis In the Parks","id":"a6f3fkf2coe7","geo_precision":"unmatched","state":"PA","agency name":"Mechanicsburg Parks and Recreation Department"},"type":"Feature","geometry":null},{"properties":{"city":"Worcester","column_5":null,"geo_score":0.0,"program name":"Tennis In the Parks","id":"a6f3fkdvpx5t","geo_precision":"unmatched","state":"PA","agency name":"Variety Club Camp and Developmental Center"},"type":"Feature","geometry":null},{"properties":{"city":"Lawrence Township","column_5":null,"geo_score":0.0,"program name":"Tennis In the Parks","id":"a6f3fk4cbr9g","geo_precision":"unmatched","state":"NJ","agency name":"Lawrence Township Recreation Department"},"type":"Feature","geometry":null},{"properties":{"city":"Arlington","column_5":null,"geo_score":0.0,"program name":"Tennis In the Parks","id":"a6f3fkkrhojq","geo_precision":"unmatched","state":"TX","agency name":"Arlington Parks &amp; Recreation/Arlington Tennis Center"},"type":"Feature","geometry":null},{"properties":{"city":"Oconomowoc","column_5":null,"geo_score":0.0,"program name":"Tennis In the Parks","id":"a6f3fk74f1ab","geo_precision":"unmatched","state":"WI","agency name":"City of Oconomowoc Parks, Recreation and Forestry"},"type":"Feature","geometry":null},{"properties":{"city":"Klamath Falls","column_5":null,"geo_score":0.0,"program name":"Tennis In the Parks","id":"a6f3fker8art","geo_precision":"unmatched","state":"OR","agency name":"Klamath Falls City Parks &amp; Cemeteries"},"type":"Feature","geometry":null},{"properties":{"city":"Test","column_5":null,"geo_score":0.0,"program name":"Tennis In the Parks","id":"a6f3fk6brjsj","geo_precision":"unmatched","state":"NY","agency name":"Test"},"type":"Feature","geometry":null},{"properties":{"city":"Glendora","column_5":null,"geo_score":0.912,"program name":"Tennis In the Parks","id":"a6f3fkgl0xex","geo_precision":"zip","state":"CA","agency name":"City of Glendora"},"type":"Feature","geometry":{"type":"Point","coordinates":[-120.7031762,59.666739979]}},{"properties":{"city":"Bradenton","column_5":null,"geo_score":0.0,"program name":"Tennis In the Parks","id":"a6f3fk7a0vnk","geo_precision":"unmatched","state":"FL","agency name":"Manatee County Parks and Recreation"},"type":"Feature","geometry":null},{"properties":{"city":"Berlin","column_5":null,"geo_score":0.0,"program name":"Tennis In the Parks","id":"a6f3fkaezjj6","geo_precision":"unmatched","state":"MA","agency name":"Town of Berlin / Recreation Committee"},"type":"Feature","geometry":null},{"properties":{"city":"Rindge","column_5":null,"geo_score":0.0,"program name":"Tennis In the Parks","id":"a6f3fk6ple31","geo_precision":"unmatched","state":"NH","agency name":"Rindge Recreation Department"},"type":"Feature","geometry":null},{"properties":{"city":"Mendota Heights","column_5":null,"geo_score":0.0,"program name":"Tennis In the Parks","id":"a6f3fk5nocsu","geo_precision":"unmatched","state":"MN","agency name":"City of Mendota Heights Parks and Recreation"},"type":"Feature","geometry":null},{"properties":{"city":"Arden Hills","column_5":null,"geo_score":0.905,"program name":"Tennis In the Parks","id":"a6f3fk8y9iud","geo_precision":"zip","state":"MN","agency name":"City of Arden Hills"},"type":"Feature","geometry":{"type":"Point","coordinates":[113.9833333,46.65]}},{"properties":{"city":"Madison","column_5":null,"geo_score":0.0,"program name":"Tennis In the Parks","id":"a6f3fkk08dbe","geo_precision":"unmatched","state":"WI","agency name":"Dane County Parks"},"type":"Feature","geometry":null},{"properties":{"city":"Marshfield","column_5":null,"geo_score":0.0,"program name":"Tennis In the Parks","id":"a6f3fkb2sxdf","geo_precision":"unmatched","state":"WI","agency name":"Marshfield Parks &amp; Recreation Department"},"type":"Feature","geometry":null},{"properties":{"city":"Marinette","column_5":null,"geo_score":0.0,"program name":"Tennis In the Parks","id":"a6f3fkbzki61","geo_precision":"unmatched","state":"WI","agency name":"Marinette Recreation Dept"},"type":"Feature","geometry":null},{"properties":{"city":"Navasota","column_5":null,"geo_score":0.0,"program name":"Tennis In the Parks","id":"a6f3fk4s02g5","geo_precision":"unmatched","state":"TX","agency name":"City of Navasota"},"type":"Feature","geometry":null},{"properties":{"city":"Miami","column_5":null,"geo_score":0.0,"program name":"Tennis In the Parks","id":"a6f3fkh4zqr3","geo_precision":"unmatched","state":"FL","agency name":"City of Miami"},"type":"Feature","geometry":null},{"properties":{"city":"New Providence","column_5":null,"geo_score":0.0,"program name":"Tennis In the Parks","id":"a6f3fkb8r471","geo_precision":"unmatched","state":"NJ","agency name":"New Providence Recreation"},"type":"Feature","geometry":null},{"properties":{"city":"Auburn","column_5":null,"geo_score":0.0,"program name":"Tennis In the Parks","id":"a6f3fkergqat","geo_precision":"unmatched","state":"WA","agency name":"Auburn Parks, Arts &amp; Recreation"},"type":"Feature","geometry":null},{"properties":{"city":"Lakeside","column_5":null,"geo_score":0.0,"program name":"Tennis In the Parks","id":"a6f3fk5ugtip","geo_precision":"unmatched","state":"MT","agency name":"Flathead County Parks and Recreation and Weeds"},"type":"Feature","geometry":null},{"properties":{"city":"Monroe","column_5":null,"geo_score":0.0,"program name":"Tennis In the Parks","id":"a6f3fk9o7w3s","geo_precision":"unmatched","state":"LA","agency name":"City of Monroe, Louisiana"},"type":"Feature","geometry":null},{"properties":{"city":"Rosemount","column_5":null,"geo_score":0.0,"program name":"Tennis In the Parks","id":"a6f3fkb71mt4","geo_precision":"unmatched","state":"MN","agency name":"Rosemount parks and Recreation"},"type":"Feature","geometry":null},{"properties":{"city":"Big Bear Lake","column_5":null,"geo_score":0.909,"program name":"Tennis In the Parks","id":"a6f3fk6qdq4a","geo_precision":"zip","state":"CA","agency name":"Big Bear Valley Recreation &amp; Park District"},"type":"Feature","geometry":{"type":"Point","coordinates":[-79.666337962,44.400107467]}},{"properties":{"city":"Crescent City","column_5":null,"geo_score":0.913,"program name":"Tennis In the Parks","id":"a6f3fk8t1c9c","geo_precision":"zip","state":"CA","agency name":"Del Norte Tennis Association"},"type":"Feature","geometry":{"type":"Point","coordinates":[-58.381495126,51.166814857]}},{"properties":{"city":"Redlands","column_5":null,"geo_score":0.982,"program name":"Tennis In the Parks","id":"a6f3fkj6qp1z","geo_precision":"zip","state":"CA","agency name":"City of Redlands"},"type":"Feature","geometry":{"type":"Point","coordinates":[-54.125958822,46.815204135]}},{"properties":{"city":"Monte Rio","column_5":null,"geo_score":0.893,"program name":"Tennis In the Parks","id":"a6f3fk4mwes8","geo_precision":"zip","state":"CA","agency name":"Monte Rio Recreation and Park District"},"type":"Feature","geometry":{"type":"Point","coordinates":[-99.501898367,51.317206088]}},{"properties":{"city":"Perrysburg","column_5":null,"geo_score":0.0,"program name":"Tennis In the Parks","id":"a6f3fkikuk9x","geo_precision":"unmatched","state":"OH","agency name":"City of Perrysburg"},"type":"Feature","geometry":null},{"properties":{"city":"East Cleveland","column_5":null,"geo_score":0.0,"program name":"Tennis In the Parks","id":"a6f3fk7unvyx","geo_precision":"unmatched","state":"OH","agency name":"M.L.K. Civic Center"},"type":"Feature","geometry":null},{"properties":{"city":"Upper Arlington","column_5":null,"geo_score":0.0,"program name":"Tennis In the Parks","id":"a6f3fke5rr77","geo_precision":"unmatched","state":"OH","agency name":"City of Upper Arlington Parks &amp; Recreation"},"type":"Feature","geometry":null},{"properties":{"city":"Newburyport","column_5":null,"geo_score":0.0,"program name":"Tennis In the Parks","id":"a6f3fkbx635n","geo_precision":"unmatched","state":"MA","agency name":"Newburyport Youth Services"},"type":"Feature","geometry":null},{"properties":{"city":"Germantown","column_5":null,"geo_score":0.0,"program name":"Tennis In the Parks","id":"a6f3fkjuua7n","geo_precision":"unmatched","state":"WI","agency name":"Germantown Park &amp; Recreation Department"},"type":"Feature","geometry":null},{"properties":{"city":"Wauwatsoa","column_5":null,"geo_score":0.0,"program name":"Tennis In the Parks","id":"a6f3fk6ukncc","geo_precision":"unmatched","state":"WI","agency name":"Wauwatosa Recreation Department"},"type":"Feature","geometry":null},{"properties":{"city":"Williston","column_5":null,"geo_score":0.0,"program name":"Tennis In the Parks","id":"a6f3fkkthziy","geo_precision":"unmatched","state":"ND","agency name":"Williston Parks and Recreation DIstrict"},"type":"Feature","geometry":null},{"properties":{"city":"Marietta","column_5":null,"geo_score":0.0,"program name":"Tennis In the Parks","id":"a6f3fkhnnd5s","geo_precision":"unmatched","state":"GA","agency name":"Cobb County Parks Recreation and Cultural Affairs"},"type":"Feature","geometry":null},{"properties":{"city":"Madison","column_5":null,"geo_score":0.0,"program name":"Tennis In the Parks","id":"a6f3fkjpopkx","geo_precision":"unmatched","state":"WI","agency name":"Madison School &amp; Community Recreation"},"type":"Feature","geometry":null},{"properties":{"city":"Springville","column_5":null,"geo_score":0.0,"program name":"Tennis In the Parks","id":"a6f3fk5tmnqd","geo_precision":"unmatched","state":"AL","agency name":"City of Springville"},"type":"Feature","geometry":null},{"properties":{"city":"Marietta","column_5":null,"geo_score":0.0,"program name":"Tennis In the Parks","id":"a6f3fkg37xug","geo_precision":"unmatched","state":"GA","agency name":"Laurel Park Tennis Center"},"type":"Feature","geometry":null},{"properties":{"city":"Sauk City","column_5":null,"geo_score":0.0,"program name":"Tennis In the Parks","id":"a6f3fk7wv4bc","geo_precision":"unmatched","state":"WI","agency name":"Sauk Prairie Recreation Department"},"type":"Feature","geometry":null},{"properties":{"city":"Fort Collins","column_5":null,"geo_score":0.883,"program name":"Tennis In the Parks","id":"a6f3fkjlw9l1","geo_precision":"zip","state":"CO","agency name":"Lewis Tennis School"},"type":"Feature","geometry":{"type":"Point","coordinates":[-77.4,5.4]}},{"properties":{"city":"Des Moines","column_5":null,"geo_score":0.0,"program name":"Tennis In the Parks","id":"a6f3fkfwzjak","geo_precision":"unmatched","state":"IA","agency name":"Des Moines Parks and Recreation"},"type":"Feature","geometry":null},{"properties":{"city":"Kanasas City","column_5":null,"geo_score":0.0,"program name":"Tennis In the Parks","id":"a6f3fk5hyrn4","geo_precision":"unmatched","state":"MO","agency name":"City of Kanab Parks and Recration Board"},"type":"Feature","geometry":null},{"properties":{"city":"Billerica","column_5":null,"geo_score":0.0,"program name":"Tennis In the Parks","id":"a6f3fk7zhpmi","geo_precision":"unmatched","state":"MA","agency name":"Town of Billerica Recreation Department"},"type":"Feature","geometry":null},{"properties":{"city":"West Allis","column_5":null,"geo_score":0.0,"program name":"Tennis In the Parks","id":"a6f3fkg0ft2x","geo_precision":"unmatched","state":"WI","agency name":"West Allis-West Milwaukee Recreation Department"},"type":"Feature","geometry":null},{"properties":{"city":"Laurel","column_5":null,"geo_score":0.0,"program name":"Tennis In the Parks","id":"a6f3fkhqkn36","geo_precision":"unmatched","state":"MD","agency name":"The Maryland-National Capital Park and Planning Commission"},"type":"Feature","geometry":null},{"properties":{"city":"CROWLEY","column_5":null,"geo_score":0.0,"program name":"Tennis In the Parks","id":"a6f3fkakgpqe","geo_precision":"unmatched","state":"LA","agency name":"CROWLEY RECREATION DEPARTMENT"},"type":"Feature","geometry":null},{"properties":{"city":"Bethesda","column_5":null,"geo_score":0.0,"program name":"Tennis In the Parks","id":"a6f3fka3d7mj","geo_precision":"unmatched","state":"MD","agency name":"MNCPPC"},"type":"Feature","geometry":null},{"properties":{"city":"Kerrville","column_5":null,"geo_score":0.0,"program name":"Tennis In the Parks","id":"a6f3fkbjlg8m","geo_precision":"unmatched","state":"TX","agency name":"HEB MUNICIPAL TENNIS CENTER/Kerrville Parks &amp; Recreation"},"type":"Feature","geometry":null},{"properties":{"city":"Brooklyn","column_5":null,"geo_score":0.0,"program name":"Tennis In the Parks","id":"a6f3fkfdzklp","geo_precision":"unmatched","state":"NY","agency name":"Lincoln Terrace Tennis Association"},"type":"Feature","geometry":null},{"properties":{"city":"Baltimore","column_5":null,"geo_score":0.0,"program name":"Tennis In the Parks","id":"a6f3fkic8gh3","geo_precision":"unmatched","state":"MD","agency name":"Baltimore City Tennis Association"},"type":"Feature","geometry":null},{"properties":{"city":"Wheaton","column_5":null,"geo_score":0.0,"program name":"Tennis In the Parks","id":"a6f3fk73ed5r","geo_precision":"unmatched","state":"MD","agency name":"MNCPPC"},"type":"Feature","geometry":null},{"properties":{"city":"High Point","column_5":null,"geo_score":0.0,"program name":"Tennis In the Parks","id":"a6f3fk4epbxr","geo_precision":"unmatched","state":"NC","agency name":"Oak Hollow Tennis Center"},"type":"Feature","geometry":null},{"properties":{"city":"Norman","column_5":null,"geo_score":0.0,"program name":"Tennis In the Parks","id":"a6f3fk56vsjh","geo_precision":"unmatched","state":"OK","agency name":"Westwood Tennis Center"},"type":"Feature","geometry":null},{"properties":{"city":"Tonawanda","column_5":null,"geo_score":0.0,"program name":"Tennis In the Parks","id":"a6f3fkglinhi","geo_precision":"unmatched","state":"NY","agency name":"City of Tonawanda Recreation Department"},"type":"Feature","geometry":null},{"properties":{"city":"Sand Springs","column_5":null,"geo_score":0.0,"program name":"Tennis In the Parks","id":"a6f3fk4zmbb7","geo_precision":"unmatched","state":"OK","agency name":"River Valley Recreation Council"},"type":"Feature","geometry":null},{"properties":{"city":"Winston Salem","column_5":null,"geo_score":0.905,"program name":"Tennis In the Parks","id":"a6f3fkjo87e7","geo_precision":"zip","state":"NC","agency name":"Randy Pate Tennis Academy"},"type":"Feature","geometry":{"type":"Point","coordinates":[167.1166667,-20.7666667]}},{"properties":{"city":"Athens","column_5":null,"geo_score":0.0,"program name":"Tennis In the Parks","id":"a6f3fk9u4ifu","geo_precision":"unmatched","state":"TN","agency name":"City of Athens, Parks &amp; Recreation"},"type":"Feature","geometry":null},{"properties":{"city":"Haines City","column_5":null,"geo_score":0.0,"program name":"Tennis In the Parks","id":"a6f3fka7resl","geo_precision":"unmatched","state":"FL","agency name":"City of Haines City"},"type":"Feature","geometry":null},{"properties":{"city":"Oneonta","column_5":null,"geo_score":0.0,"program name":"Tennis In the Parks","id":"a6f3fk8u6834","geo_precision":"unmatched","state":"NY","agency name":"City Of Oneonta"},"type":"Feature","geometry":null},{"properties":{"city":"Rome","column_5":null,"geo_score":0.0,"program name":"Tennis In the Parks","id":"a6f3fkdxikwv","geo_precision":"unmatched","state":"NY","agency name":"City of Rome Dept. of Parks &amp; Recreation"},"type":"Feature","geometry":null},{"properties":{"city":"Jamestown","column_5":null,"geo_score":0.0,"program name":"Tennis In the Parks","id":"a6f3fkjy39rk","geo_precision":"unmatched","state":"RI","agency name":"Jamestown Parks and Recreation"},"type":"Feature","geometry":null},{"properties":{"city":"Augusta","column_5":null,"geo_score":0.0,"program name":"Tennis In the Parks","id":"a6f3fk948fpl","geo_precision":"unmatched","state":"GA","agency name":"Newman Tennis Center"},"type":"Feature","geometry":null},{"properties":{"city":"Cedarburg","column_5":null,"geo_score":0.0,"program name":"Tennis In the Parks","id":"a6f3fk8xwc4f","geo_precision":"unmatched","state":"WI","agency name":"City of Cedarburg Parks and Recreation"},"type":"Feature","geometry":null},{"properties":{"city":"St. Simons Island","column_5":null,"geo_score":0.0,"program name":"Tennis In the Parks","id":"a6f3fkkavbjb","geo_precision":"unmatched","state":"GA","agency name":"Tennis Etc."},"type":"Feature","geometry":null},{"properties":{"city":"Des Peres","column_5":null,"geo_score":0.0,"program name":"Tennis In the Parks","id":"a6f3fk5et7kp","geo_precision":"unmatched","state":"MO","agency name":"City of Des Peres Parks and Recreation"},"type":"Feature","geometry":null},{"properties":{"city":"Littleton","column_5":null,"geo_score":0.0,"program name":"Tennis In the Parks","id":"a6f3fki97s18","geo_precision":"unmatched","state":"CO","agency name":"Columbine Knolls Recreation District"},"type":"Feature","geometry":null},{"properties":{"city":"Fairmont","column_5":null,"geo_score":0.0,"program name":"Tennis In the Parks","id":"a6f3fk4izmyx","geo_precision":"unmatched","state":"WV","agency name":"Marion County Parks and Recreation Commission"},"type":"Feature","geometry":null},{"properties":{"city":"Lansing","column_5":null,"geo_score":0.0,"program name":"Tennis In the Parks","id":"a6f3fkazv6kh","geo_precision":"unmatched","state":"MI","agency name":"Shabazz Academy"},"type":"Feature","geometry":null},{"properties":{"city":"Eureka","column_5":null,"geo_score":0.0,"program name":"Tennis In the Parks","id":"a6f3fk52fx67","geo_precision":"unmatched","state":"MO","agency name":"Rockwood School District - Community Education"},"type":"Feature","geometry":null},{"properties":{"city":"Columbia","column_5":null,"geo_score":0.0,"program name":"Tennis In the Parks","id":"a6f3fkh3qkm2","geo_precision":"unmatched","state":"SC","agency name":"Richland County Rereation Commission"},"type":"Feature","geometry":null},{"properties":{"city":"Grand Rapids","column_5":null,"geo_score":0.0,"program name":"Tennis In the Parks","id":"a6f3fk7lll6o","geo_precision":"unmatched","state":"MI","agency name":"CrossCourt Tennis CTA"},"type":"Feature","geometry":null},{"properties":{"city":"Kingsport","column_5":null,"geo_score":0.0,"program name":"Tennis In the Parks","id":"a6f3fk54ww2v","geo_precision":"unmatched","state":"TN","agency name":"Kingsport Parks and Recreation"},"type":"Feature","geometry":null},{"properties":{"city":"Baileyville","column_5":null,"geo_score":0.0,"program name":"Tennis In the Parks","id":"a6f3fkchhmup","geo_precision":"unmatched","state":"ME","agency name":"Woodland Parks &amp; Recreation Dept."},"type":"Feature","geometry":null},{"properties":{"city":"Lexington","column_5":null,"geo_score":0.0,"program name":"Tennis In the Parks","id":"a6f3fk7egw77","geo_precision":"unmatched","state":"MA","agency name":"Lexington Recreation Department"},"type":"Feature","geometry":null},{"properties":{"city":"Ashland","column_5":null,"geo_score":0.0,"program name":"Tennis In the Parks","id":"a6f3fkenn9w7","geo_precision":"unmatched","state":"WI","agency name":"Ashland Parks and Recreation"},"type":"Feature","geometry":null},{"properties":{"city":"Hermitage","column_5":null,"geo_score":0.0,"program name":"Tennis In the Parks","id":"a6f3fkdbqjb5","geo_precision":"unmatched","state":"PA","agency name":"Buhl Park Corporation"},"type":"Feature","geometry":null},{"properties":{"city":"Falcon Heights","column_5":null,"geo_score":0.0,"program name":"Tennis In the Parks","id":"a6f3fkbn9e3y","geo_precision":"unmatched","state":"MN","agency name":"City of Falcon Heights"},"type":"Feature","geometry":null},{"properties":{"city":"Greenville","column_5":null,"geo_score":0.9,"program name":"Tennis In the Parks","id":"a6f3fkalqx32","geo_precision":"zip","state":"ME","agency name":"Greenville Recreation"},"type":"Feature","geometry":{"type":"Point","coordinates":[19.55,42.7555556]}},{"properties":{"city":"Worland","column_5":null,"geo_score":0.0,"program name":"Tennis In the Parks","id":"a6f3fkhye5fr","geo_precision":"unmatched","state":"WY","agency name":"Worland Recreation Board"},"type":"Feature","geometry":null},{"properties":{"city":"Peabody","column_5":null,"geo_score":0.0,"program name":"Tennis In the Parks","id":"a6f3fk9tgoy7","geo_precision":"unmatched","state":"MA","agency name":"City of Peabody - Recreation, Parks &amp; Forestry"},"type":"Feature","geometry":null},{"properties":{"city":"Columbia","column_5":null,"geo_score":0.0,"program name":"Tennis In the Parks","id":"a6f3fk5ss1zq","geo_precision":"unmatched","state":"MD","agency name":"Howard County Recreation &amp; Parks"},"type":"Feature","geometry":null},{"properties":{"city":"Martinez","column_5":null,"geo_score":0.0,"program name":"Tennis In the Parks","id":"a6f3fkjfbrgy","geo_precision":"unmatched","state":"GA","agency name":"MACH Academy, Inc."},"type":"Feature","geometry":null},{"properties":{"city":"Laurel","column_5":null,"geo_score":0.0,"program name":"Tennis In the Parks","id":"a6f3fkce6lzk","geo_precision":"unmatched","state":"MD","agency name":"Laurel Department of Parks and Recreation"},"type":"Feature","geometry":null},{"properties":{"city":"Green River","column_5":null,"geo_score":0.0,"program name":"Tennis In the Parks","id":"a6f3fkkchw3v","geo_precision":"unmatched","state":"WY","agency name":"Green River Parks and Recreation"},"type":"Feature","geometry":null},{"properties":{"city":"Baltimore","column_5":null,"geo_score":0.0,"program name":"Tennis In the Parks","id":"a6f3fkk8spta","geo_precision":"unmatched","state":"MD","agency name":"Friends of Patterson Park"},"type":"Feature","geometry":null},{"properties":{"city":"Waukesha","column_5":null,"geo_score":0.0,"program name":"Tennis In the Parks","id":"a6f3fki0fdml","geo_precision":"unmatched","state":"WI","agency name":"Waukesha Parks, Recreation &amp; Forestry Department"},"type":"Feature","geometry":null},{"properties":{"city":"Carmel","column_5":null,"geo_score":0.0,"program name":"Tennis In the Parks","id":"a6f3fkawoy0c","geo_precision":"unmatched","state":"NY","agency name":"Pete Rendich Test"},"type":"Feature","geometry":null},{"properties":{"city":"East Meadow","column_5":null,"geo_score":0.0,"program name":"Tennis In the Parks","id":"a6f3fkjbybbf","geo_precision":"unmatched","state":"NY","agency name":"Nassau County Department of Parks, Recreation and Museums"},"type":"Feature","geometry":null},{"properties":{"city":"Clinton","column_5":null,"geo_score":0.0,"program name":"Tennis In the Parks","id":"a6f3fk9x1hzn","geo_precision":"unmatched","state":"IA","agency name":"City of Clinton"},"type":"Feature","geometry":null},{"properties":{"city":"Lakewood","column_5":null,"geo_score":0.0,"program name":"Tennis In the Parks","id":"a6f3fkezq6zn","geo_precision":"unmatched","state":"NJ","agency name":"Lakewood Township Parks and Recreation"},"type":"Feature","geometry":null},{"properties":{"city":"Mountainside","column_5":null,"geo_score":0.0,"program name":"Tennis In the Parks","id":"a6f3fkbqs3dj","geo_precision":"unmatched","state":"NJ","agency name":"Borough of Mountainside Recreation Department"},"type":"Feature","geometry":null},{"properties":{"city":"Fuquay-Varina","column_5":null,"geo_score":0.0,"program name":"Tennis In the Parks","id":"a6f3fk52bo8y","geo_precision":"unmatched","state":"NC","agency name":"Fuquay-Varina Parks &amp; Recreation"},"type":"Feature","geometry":null},{"properties":{"city":"Milford","column_5":null,"geo_score":0.959,"program name":"Tennis In the Parks","id":"a6f3fkjxyt58","geo_precision":"zip","state":"DE","agency name":"Milford Parks &amp; Recreation Dept."},"type":"Feature","geometry":{"type":"Point","coordinates":[6.45936012268066,51.1513553945742]}},{"properties":{"city":"Seaford","column_5":null,"geo_score":0.918,"program name":"Tennis In the Parks","id":"a6f3fk9bagit","geo_precision":"zip","state":"DE","agency name":"City of Seaford Parks &amp; Recreation"},"type":"Feature","geometry":{"type":"Point","coordinates":[7.8833333,47.7333333]}},{"properties":{"city":"Little Rock","column_5":null,"geo_score":0.886,"program name":"Tennis In the Parks","id":"a6f3fkjy2oi6","geo_precision":"zip","state":"AR","agency name":"Little Rock Parks and Rec - Rebsamen Ten"},"type":"Feature","geometry":{"type":"Point","coordinates":[-59.7,-38.8833333]}},{"properties":{"city":"Shoreview","column_5":null,"geo_score":0.0,"program name":"Tennis In the Parks","id":"a6f3fkjw2de3","geo_precision":"unmatched","state":"MN","agency name":"Shoreview Parks &amp; Recreation"},"type":"Feature","geometry":null},{"properties":{"city":"Wilmington","column_5":null,"geo_score":0.0,"program name":"Tennis In the Parks","id":"a6f3fkehc06c","geo_precision":"unmatched","state":"DE","agency name":"Bellevue State Park"},"type":"Feature","geometry":null},{"properties":{"city":"medford","column_5":null,"geo_score":0.0,"program name":"Tennis In the Parks","id":"a6f3fkiz2gxp","geo_precision":"unmatched","state":"NJ","agency name":"Tamarac Tennis Association"},"type":"Feature","geometry":null},{"properties":{"city":"Claremont","column_5":null,"geo_score":0.0,"program name":"Tennis In the Parks","id":"a6f3fk8kxsdm","geo_precision":"unmatched","state":"NH","agency name":"Claremont Parks &amp; Recreation"},"type":"Feature","geometry":null},{"properties":{"city":"Florence","column_5":null,"geo_score":0.0,"program name":"Tennis In the Parks","id":"a6f3fk9i529q","geo_precision":"unmatched","state":"SC","agency name":"Florence Tennis Center"},"type":"Feature","geometry":null},{"properties":{"city":"WINFIELD","column_5":null,"geo_score":0.0,"program name":"Tennis In the Parks","id":"a6f3fk71mi4z","geo_precision":"unmatched","state":"IL","agency name":"WINFIELD PARK DISTRICT"},"type":"Feature","geometry":null},{"properties":{"city":"The Woodlands","column_5":null,"geo_score":0.0,"program name":"Tennis In the Parks","id":"a6f3fkb75m2p","geo_precision":"unmatched","state":"TX","agency name":"The Woodlands Township"},"type":"Feature","geometry":null},{"properties":{"city":"Attleboro","column_5":null,"geo_score":0.929,"program name":"Tennis In the Parks","id":"a6f3fk58jpuq","geo_precision":"zip","state":"MA","agency name":"Attleboro Recreation Department"},"type":"Feature","geometry":{"type":"Point","coordinates":[-9.4,29.95]}},{"properties":{"city":"Litchfield","column_5":null,"geo_score":0.0,"program name":"Tennis In the Parks","id":"a6f3fkclal35","geo_precision":"unmatched","state":"NH","agency name":"LITCHFIELD RECREATION COMMISSION"},"type":"Feature","geometry":null},{"properties":{"city":"mendon","column_5":null,"geo_score":0.0,"program name":"Tennis In the Parks","id":"a6f3fkf00orx","geo_precision":"unmatched","state":"MA","agency name":"mendon parks and Rec"},"type":"Feature","geometry":null},{"properties":{"city":"Palm Coast","column_5":null,"geo_score":0.0,"program name":"Tennis In the Parks","id":"a6f3fk5a8q88","geo_precision":"unmatched","state":"FL","agency name":"Palm Coast Tennis Center"},"type":"Feature","geometry":null},{"properties":{"city":"Truro","column_5":null,"geo_score":0.918,"program name":"Tennis In the Parks","id":"a6f3fk641d09","geo_precision":"zip","state":"MA","agency name":"Town of Truro Recreation Department"},"type":"Feature","geometry":{"type":"Point","coordinates":[-7.15,31.53]}},{"properties":{"city":"Oklahoma City","column_5":null,"geo_score":0.0,"program name":"Tennis In the Parks","id":"a6f3fkgmvdrv","geo_precision":"unmatched","state":"OK","agency name":"The City of Oklahoma CIty Parks and Recreation Dept."},"type":"Feature","geometry":null},{"properties":{"city":"Menasha","column_5":null,"geo_score":0.0,"program name":"Tennis In the Parks","id":"a6f3fka51ln2","geo_precision":"unmatched","state":"WI","agency name":"City of Menahsa"},"type":"Feature","geometry":null},{"properties":{"city":"Wilmington","column_5":null,"geo_score":0.0,"program name":"Tennis In the Parks","id":"a6f3fkd03oht","geo_precision":"unmatched","state":"NC","agency name":"New Hanover County Parks &amp; Gardens"},"type":"Feature","geometry":null},{"properties":{"city":"Marlboro","column_5":null,"geo_score":0.0,"program name":"Tennis In the Parks","id":"a6f3fkdj7e0h","geo_precision":"unmatched","state":"NJ","agency name":"Marlboro Township Recreation and Parks"},"type":"Feature","geometry":null},{"properties":{"city":"Yanceyville","column_5":null,"geo_score":0.0,"program name":"Tennis In the Parks","id":"a6f3fkgo01mn","geo_precision":"unmatched","state":"NC","agency name":"caswell county parks and rec"},"type":"Feature","geometry":null},{"properties":{"city":"Milton","column_5":null,"geo_score":0.0,"program name":"Tennis In the Parks","id":"a6f3fkjatcpz","geo_precision":"unmatched","state":"FL","agency name":"City of Milton"},"type":"Feature","geometry":null},{"properties":{"city":"Cerritos","column_5":null,"geo_score":0.911,"program name":"Tennis In the Parks","id":"a6f3fk83xvrq","geo_precision":"zip","state":"CA","agency name":"Cerritos Tennis Center"},"type":"Feature","geometry":{"type":"Point","coordinates":[-121.952565697,49.132980621]}},{"properties":{"city":"Antelope","column_5":null,"geo_score":1.0,"program name":"Tennis In the Parks","id":"a6f3fkh1v76w","geo_precision":"zip","state":"CA","agency name":"Sacramento Community Tennis Association"},"type":"Feature","geometry":{"type":"Point","coordinates":[-108.334694271,50.15007444]}},{"properties":{"city":"Portland","column_5":null,"geo_score":0.0,"program name":"Tennis In the Parks","id":"a6f3fkec203t","geo_precision":"unmatched","state":"OR","agency name":"child"},"type":"Feature","geometry":null},{"properties":{"city":"East Greenwich","column_5":null,"geo_score":0.0,"program name":"Tennis In the Parks","id":"a6f3fkkaws6g","geo_precision":"unmatched","state":"RI","agency name":"East Greenwich Parks &amp; Recreation"},"type":"Feature","geometry":null},{"properties":{"city":"Marco Island","column_5":null,"geo_score":0.0,"program name":"Tennis In the Parks","id":"a6f3fk6fjsy2","geo_precision":"unmatched","state":"FL","agency name":"City of Marco Island"},"type":"Feature","geometry":null},{"properties":{"city":"Havelock","column_5":null,"geo_score":0.0,"program name":"Tennis In the Parks","id":"a6f3fk82gatt","geo_precision":"unmatched","state":"NC","agency name":"Havelock Parks and Recreation"},"type":"Feature","geometry":null},{"properties":{"city":"Littleton","column_5":null,"geo_score":0.0,"program name":"Tennis In the Parks","id":"a6f3fke181w9","geo_precision":"unmatched","state":"CO","agency name":"Ken-Caryl Ranch Metro District"},"type":"Feature","geometry":null},{"properties":{"city":"Fort Myers","column_5":null,"geo_score":0.0,"program name":"Tennis In the Parks","id":"a6f3fkia5sry","geo_precision":"unmatched","state":"FL","agency name":"Lee County Parks and Recreation"},"type":"Feature","geometry":null},{"properties":{"city":"ormond beach","column_5":null,"geo_score":0.0,"program name":"Tennis In the Parks","id":"a6f3fkcwf3bn","geo_precision":"unmatched","state":"FL","agency name":"Fitgyms ( families in training)"},"type":"Feature","geometry":null},{"properties":{"city":"Cincinnati","column_5":null,"geo_score":0.0,"program name":"Tennis In the Parks","id":"a6f3fkdpjc0p","geo_precision":"unmatched","state":"OH","agency name":"Evendale Recreation Department"},"type":"Feature","geometry":null},{"properties":{"city":"Redmond","column_5":null,"geo_score":0.0,"program name":"Tennis In the Parks","id":"a6f3fk6arknc","geo_precision":"unmatched","state":"WA","agency name":"Marymoor Sports / Northwest Sports Foundation"},"type":"Feature","geometry":null},{"properties":{"city":"Breinigsville","column_5":null,"geo_score":0.0,"program name":"Tennis In the Parks","id":"a6f3fkfqv8tw","geo_precision":"unmatched","state":"PA","agency name":"Upper Macungie Township"},"type":"Feature","geometry":null},{"properties":{"city":"Apopka","column_5":null,"geo_score":0.0,"program name":"Tennis In the Parks","id":"a6f3fk5ws030","geo_precision":"unmatched","state":"FL","agency name":"City of Apopka"},"type":"Feature","geometry":null},{"properties":{"city":"Butler","column_5":null,"geo_score":0.0,"program name":"Tennis In the Parks","id":"a6f3fkeuky2r","geo_precision":"unmatched","state":"PA","agency name":"City of Butler, Pennsylvania"},"type":"Feature","geometry":null},{"properties":{"city":"Sumter","column_5":null,"geo_score":0.0,"program name":"Tennis In the Parks","id":"a6f3fkei5xv7","geo_precision":"unmatched","state":"SC","agency name":"City of Sumter/ Palmetto Tennis Center"},"type":"Feature","geometry":null},{"properties":{"city":"Villa Park","column_5":null,"geo_score":0.0,"program name":"Tennis In the Parks","id":"a6f3fk4vi8s1","geo_precision":"unmatched","state":"IL","agency name":"Villa Park, Parks and Recreation"},"type":"Feature","geometry":null},{"properties":{"city":"Kenner","column_5":null,"geo_score":0.0,"program name":"Tennis In the Parks","id":"a6f3fk56y8ng","geo_precision":"unmatched","state":"LA","agency name":"City of Kenner Parks &amp; Recreation Dept."},"type":"Feature","geometry":null},{"properties":{"city":"Bristow","column_5":null,"geo_score":0.0,"program name":"Tennis In the Parks","id":"a6f3fkf0rm7h","geo_precision":"unmatched","state":"OK","agency name":"City of Bristow Park Department"},"type":"Feature","geometry":null},{"properties":{"city":"Irvine","column_5":null,"geo_score":1.0,"program name":"Tennis In the Parks","id":"a6f3fkconorr","geo_precision":"zip","state":"CA","agency name":"City of Irvine"},"type":"Feature","geometry":{"type":"Point","coordinates":[-52.864756525,47.533188019]}},{"properties":{"city":"Winter Haven","column_5":null,"geo_score":0.0,"program name":"Tennis In the Parks","id":"a6f3fk52ep23","geo_precision":"unmatched","state":"FL","agency name":"City of Winter Haven"},"type":"Feature","geometry":null},{"properties":{"city":"Birmingham","column_5":null,"geo_score":0.0,"program name":"Tennis In the Parks","id":"a6f3fkgh0g0r","geo_precision":"unmatched","state":"AL","agency name":"Highland Park Tennis Center"},"type":"Feature","geometry":null},{"properties":{"city":"welsh","column_5":null,"geo_score":0.0,"program name":"Tennis In the Parks","id":"a6f3fkcso3fd","geo_precision":"unmatched","state":"LA","agency name":"Town of Welsh Parks &amp; Recreation"},"type":"Feature","geometry":null},{"properties":{"city":"Ottawa","column_5":null,"geo_score":0.0,"program name":"Tennis In the Parks","id":"a6f3fk8d0pee","geo_precision":"unmatched","state":"KS","agency name":"Ottawa Recreation Commission"},"type":"Feature","geometry":null},{"properties":{"city":"Rocky Mount","column_5":null,"geo_score":0.9,"program name":"Tennis In the Parks","id":"a6f3fkirg00i","geo_precision":"zip","state":"NC","agency name":"Rocky Mount Parks and Recreation Department"},"type":"Feature","geometry":{"type":"Point","coordinates":[165.6833333,-21.7]}},{"properties":{"city":"Bessemer","column_5":null,"geo_score":0.0,"program name":"Tennis In the Parks","id":"a6f3fkei0n87","geo_precision":"unmatched","state":"AL","agency name":"Bessemer Roosevelt Tennis Park"},"type":"Feature","geometry":null},{"properties":{"city":"Snellville","column_5":null,"geo_score":0.0,"program name":"Tennis In the Parks","id":"a6f3fki8vb37","geo_precision":"unmatched","state":"GA","agency name":"Four Seasons Racquet Club"},"type":"Feature","geometry":null},{"properties":{"city":"Tenants Harbor","column_5":null,"geo_score":0.0,"program name":"Tennis In the Parks","id":"a6f3fkelm5rz","geo_precision":"unmatched","state":"ME","agency name":"St. George (Maine) Parks &amp; Recreation Department"},"type":"Feature","geometry":null},{"properties":{"city":"Pittsburgh","column_5":null,"geo_score":0.0,"program name":"Tennis In the Parks","id":"a6f3fkhu3b0s","geo_precision":"unmatched","state":"PA","agency name":"Brentwood Park Initiative"},"type":"Feature","geometry":null},{"properties":{"city":"georgetown","column_5":null,"geo_score":1.0,"program name":"Tennis In the Parks","id":"a6f3fk8jcecc","geo_precision":"zip","state":"KY","agency name":"georgetown-scott co. parks and recreation dept"},"type":"Feature","geometry":{"type":"Point","coordinates":[-81.3833333,19.3]}},{"properties":{"city":"Lewisburg","column_5":null,"geo_score":0.0,"program name":"Tennis In the Parks","id":"a6f3fk5gw58p","geo_precision":"unmatched","state":"WV","agency name":"Greenbirer County Arts and Recreation"},"type":"Feature","geometry":null},{"properties":{"city":"Montgomery","column_5":null,"geo_score":0.0,"program name":"Tennis In the Parks","id":"a6f3fkka52v7","geo_precision":"unmatched","state":"AL","agency name":"O'Connor Tennis Center"},"type":"Feature","geometry":null},{"properties":{"city":"San Francisco","column_5":null,"geo_score":0.901,"program name":"Tennis In the Parks","id":"a6f3fk7ra2yo","geo_precision":"zip","state":"CA","agency name":"San Francisco Recreation &amp; Park Department"},"type":"Feature","geometry":{"type":"Point","coordinates":[-76.432700044,44.800114145]}},{"properties":{"city":"Lake Elsinore","column_5":null,"geo_score":0.881,"program name":"Tennis In the Parks","id":"a6f3fkisgmtc","geo_precision":"zip","state":"CA","agency name":"QTA (Quality Tennis Association) QT for short"},"type":"Feature","geometry":{"type":"Point","coordinates":[-119.419076091,50.133079028]}},{"properties":{"city":"Heflin","column_5":null,"geo_score":0.0,"program name":"Tennis In the Parks","id":"a6f3fk9ha8jy","geo_precision":"unmatched","state":"AL","agency name":"City of Heflin"},"type":"Feature","geometry":null},{"properties":{"city":"Pinecrest","column_5":null,"geo_score":0.0,"program name":"Tennis In the Parks","id":"a6f3fkk6l0af","geo_precision":"unmatched","state":"FL","agency name":"Village of Pinecrest"},"type":"Feature","geometry":null},{"properties":{"city":"Pharr","column_5":null,"geo_score":0.0,"program name":"Tennis In the Parks","id":"a6f3fkeqvfio","geo_precision":"unmatched","state":"TX","agency name":"City of Pharr Parks and Recreation Department"},"type":"Feature","geometry":null},{"properties":{"city":"Manning","column_5":null,"geo_score":0.0,"program name":"Tennis In the Parks","id":"a6f3fkay14jv","geo_precision":"unmatched","state":"IA","agency name":"Manning Recreation Center"},"type":"Feature","geometry":null},{"properties":{"city":"Wellington","column_5":null,"geo_score":0.0,"program name":"Tennis In the Parks","id":"a6f3fkb71cn4","geo_precision":"unmatched","state":"KS","agency name":"City of Wellington, Parks Dept."},"type":"Feature","geometry":null},{"properties":{"city":"Washington","column_5":null,"geo_score":0.0,"program name":"Tennis In the Parks","id":"a6f3fk8ortx9","geo_precision":"unmatched","state":"DC","agency name":"Capital Region Education And Tennis Experience"},"type":"Feature","geometry":null},{"properties":{"city":"Iowa City","column_5":52240,"geo_score":0.0,"program name":"Grow Your Park","id":"a6f3fk4he537","geo_precision":"unmatched","state":"IA","agency name":"Iowa City Parks and Recreation Division"},"type":"Feature","geometry":null},{"properties":{"city":"Evanston","column_5":60201,"geo_score":0.0,"program name":"Grow Your Park","id":"a6f3fkj0km35","geo_precision":"unmatched","state":"IL","agency name":"Evanston Parks, Recreation and Community Services"},"type":"Feature","geometry":null},{"properties":{"city":"Pekin","column_5":61554,"geo_score":0.0,"program name":"Grow Your Park","id":"a6f3fk6l4t0x","geo_precision":"unmatched","state":"IL","agency name":"Pekin Park District"},"type":"Feature","geometry":null},{"properties":{"city":"Peoria","column_5":61603,"geo_score":0.0,"program name":"Grow Your Park","id":"a6f3fkaoqzvc","geo_precision":"unmatched","state":"IL","agency name":"Peoria Park District"},"type":"Feature","geometry":null},{"properties":{"city":"Rockford","column_5":61101,"geo_score":0.0,"program name":"Grow Your Park","id":"a6f3fkfo68dw","geo_precision":"unmatched","state":"IL","agency name":"Rockford Park District"},"type":"Feature","geometry":null},{"properties":{"city":"Lansing","column_5":48933,"geo_score":0.0,"program name":"Grow Your Park","id":"a6f3fk4lhe8o","geo_precision":"unmatched","state":"MI","agency name":"Lansing Department of Parks and Recreation"},"type":"Feature","geometry":null},{"properties":{"city":"Minneapolis","column_5":55409,"geo_score":0.0,"program name":"Grow Your Park","id":"a6f3fkim65zx","geo_precision":"unmatched","state":"MN","agency name":"Minneapolis Park &amp; Recreation Board"},"type":"Feature","geometry":null},{"properties":{"city":"Lincoln","column_5":68508,"geo_score":0.891,"program name":"Grow Your Park","id":"a6f3fk8p38pm","geo_precision":"zip","state":"NE","agency name":"Lincoln Parks &amp; Recreation Department"},"type":"Feature","geometry":{"type":"Point","coordinates":[1.2033,13.6944]}},{"properties":{"city":"Omaha","column_5":68110,"geo_score":0.0,"program name":"Grow Your Park","id":"a6f3fk4q1t8i","geo_precision":"unmatched","state":"NE","agency name":"Omaha Parks, Recreation &amp; Public Property"},"type":"Feature","geometry":null},{"properties":{"city":"Dayton","column_5":45414,"geo_score":0.0,"program name":"Grow Your Park","id":"a6f3fk9dg086","geo_precision":"unmatched","state":"OH","agency name":"Five Rivers MetroParks"},"type":"Feature","geometry":null},{"properties":{"city":"Pensacola","column_5":32521,"geo_score":0.0,"program name":"Grow Your Park","id":"a6f3fk8a45i5","geo_precision":"unmatched","state":"FL","agency name":"Pensacola Parks and Recreation Department"},"type":"Feature","geometry":null},{"properties":{"city":"Columbia","column_5":29223,"geo_score":0.0,"program name":"Grow Your Park","id":"a6f3fk4rq23x","geo_precision":"unmatched","state":"SC","agency name":"Richland County Recreation Foundation"},"type":"Feature","geometry":null},{"properties":{"city":"Springfield","column_5":45503,"geo_score":0.0,"program name":"Grow Your Park","id":"a6f3fk9hbpkh","geo_precision":"unmatched","state":"OH","agency name":"National Trail Parks and Recreation District"},"type":"Feature","geometry":null},{"properties":{"city":"McAllen","column_5":78501,"geo_score":0.0,"program name":"Grow Your Park","id":"a6f3fk71dmo0","geo_precision":"unmatched","state":"TX","agency name":"McAllen Parks and Recreation Department"},"type":"Feature","geometry":null},{"properties":{"city":"Shreveport","column_5":71101,"geo_score":0.0,"program name":"Grow Your Park","id":"a6f3fkdl0q9u","geo_precision":"unmatched","state":"LA","agency name":"Shreveport Public Assembly and Recreation"},"type":"Feature","geometry":null},{"properties":{"city":"Baltimore","column_5":21231,"geo_score":0.0,"program name":"Grow Your Park","id":"a6f3fkfpu2r1","geo_precision":"unmatched","state":"MD","agency name":"The Friends of Patterson Park"},"type":"Feature","geometry":null},{"properties":{"city":"Oxford","column_5":38655,"geo_score":0.0,"program name":"Grow Your Park","id":"a6f3fk9ahkx6","geo_precision":"unmatched","state":"MS","agency name":"Oxford Park Commission"},"type":"Feature","geometry":null},{"properties":{"city":"Reno","column_5":89509,"geo_score":0.0,"program name":"Grow Your Park","id":"a6f3fkesono1","geo_precision":"unmatched","state":"NV","agency name":"Reno Parks, Recreation &amp; Community Services"},"type":"Feature","geometry":null},{"properties":{"city":"Topeka","column_5":66616,"geo_score":0.0,"program name":"Grow Your Park","id":"a6f3fki0ret1","geo_precision":"unmatched","state":"KS","agency name":"Topeka, Oakland Community Center"},"type":"Feature","geometry":null},{"properties":{"city":"Eugene","column_5":97401,"geo_score":0.0,"program name":"Grow Your Park","id":"a6f3fkbkm2cb","geo_precision":"unmatched","state":"OR","agency name":"Eugene Recreation"},"type":"Feature","geometry":null},{"properties":{"city":"Albuquerque","column_5":87103,"geo_score":0.0,"program name":"Serving Communities - Healthy Meals for Children","id":"a6f3fke0o4g0","geo_precision":"unmatched","state":"NM","agency name":"Albuquerque Department of Family and Community Services"},"type":"Feature","geometry":null},{"properties":{"city":"Altanta","column_5":30303,"geo_score":0.0,"program name":"Serving Communities - Healthy Meals for Children","id":"a6f3fk65s7fj","geo_precision":"unmatched","state":"GA","agency name":"Atlanta Department of Parks, Recreation and Cultural Affairs"},"type":"Feature","geometry":null},{"properties":{"city":"Austin","column_5":78704,"geo_score":0.0,"program name":"Serving Communities - Healthy Meals for Children","id":"a6f3fk6i7ede","geo_precision":"unmatched","state":"TX","agency name":"Austin Parks and Recreation Department"},"type":"Feature","geometry":null},{"properties":{"city":"Chicago","column_5":60611,"geo_score":0.0,"program name":"Serving Communities - Healthy Meals for Children","id":"a6f3fka17c7k","geo_precision":"unmatched","state":"IL","agency name":"Chicago Park District"},"type":"Feature","geometry":null},{"properties":{"city":"Bakersfield","column_5":93301,"geo_score":0.905,"program name":"Serving Communities - Healthy Meals for Children","id":"a6f3fk4r1jod","geo_precision":"zip","state":"CA","agency name":"Bakersfield Recreation and Parks"},"type":"Feature","geometry":{"type":"Point","coordinates":[-78.197952145,60.809464622]}},{"properties":{"city":"Columbus","column_5":43205,"geo_score":0.0,"program name":"Serving Communities - Healthy Meals for Children","id":"a6f3fkj31xsj","geo_precision":"unmatched","state":"OH","agency name":"Columbus Recreation and Parks Department"},"type":"Feature","geometry":null},{"properties":{"city":"Greenville","column_5":29601,"geo_score":0.0,"program name":"Serving Communities - Healthy Meals for Children","id":"a6f3fk6mdoyl","geo_precision":"unmatched","state":"SC","agency name":"Greenville Parks and Recreation Department"},"type":"Feature","geometry":null},{"properties":{"city":"Indianapolis","column_5":26204,"geo_score":0.0,"program name":"Serving Communities - Healthy Meals for Children","id":"a6f3fkbd6e5l","geo_precision":"unmatched","state":"IN","agency name":"Indianapolis Parks Foundation"},"type":"Feature","geometry":null},{"properties":{"city":"Los Angeles","column_5":90064,"geo_score":0.9,"program name":"Serving Communities - Healthy Meals for Children","id":"a6f3fkcmtym6","geo_precision":"zip","state":"CA","agency name":"Los Angeles Department of Recreation and Parks"},"type":"Feature","geometry":{"type":"Point","coordinates":[-55.598110211,49.949945903]}},{"properties":{"city":"Montgomery","column_5":36106,"geo_score":0.0,"program name":"Serving Communities - Healthy Meals for Children","id":"a6f3fke27bp5","geo_precision":"unmatched","state":"AL","agency name":"Montgomery, Parks and Recreation"},"type":"Feature","geometry":null},{"properties":{"city":"Portland","column_5":97204,"geo_score":0.0,"program name":"Serving Communities - Healthy Meals for Children","id":"a6f3fk9w89oc","geo_precision":"unmatched","state":"OR","agency name":"Portland Parks and Recreation"},"type":"Feature","geometry":null},{"properties":{"city":"San Diego","column_5":92101,"geo_score":0.893,"program name":"Serving Communities - Healthy Meals for Children","id":"a6f3fkbyg9t7","geo_precision":"zip","state":"CA","agency name":"San Diego Park and Recreation Department"},"type":"Feature","geometry":{"type":"Point","coordinates":[-116.602093777,51.049964127]}},{"properties":{"city":"St. Petersburg","column_5":33713,"geo_score":0.0,"program name":"Serving Communities - Healthy Meals for Children","id":"a6f3fk4n13li","geo_precision":"unmatched","state":"FL","agency name":"St. Petersburg Parks and Recreation Department"},"type":"Feature","geometry":null},{"properties":{"city":"District of Columbia","column_5":20010,"geo_score":0.0,"program name":"Serving Communities - Healthy Meals for Children","id":"a6f3fk4nv2xt","geo_precision":"unmatched","state":"DC","agency name":"D.C. Department of Parks and Recreation"},"type":"Feature","geometry":null},{"properties":{"city":"Wichita","column_5":67202,"geo_score":0.0,"program name":"Serving Communities - Healthy Meals for Children","id":"a6f3fkclmfw2","geo_precision":"unmatched","state":"KS","agency name":"Wichita Parks and Recreation"},"type":"Feature","geometry":null},{"properties":{"city":"Monte Vista","column_5":81144,"geo_score":0.9,"program name":"Serving Communities - Healthy Meals for Children","id":"a6f3fk6qz58o","geo_precision":"zip","state":"CO","agency name":"Monte Vista Recreation Department"},"type":"Feature","geometry":{"type":"Point","coordinates":[-74.9666667,10.45]}},{"properties":{"city":"Bloomington","column_5":47402,"geo_score":0.0,"program name":"Serving Communities - Healthy Meals for Children","id":"a6f3fkcz080t","geo_precision":"unmatched","state":"IN","agency name":"Bloomington Parks and Recreation"},"type":"Feature","geometry":null},{"properties":{"city":"New Bedford","column_5":2740,"geo_score":0.886,"program name":"Serving Communities - Healthy Meals for Children","id":"a6f3fkb3ed3s","geo_precision":"zip","state":"MA","agency name":"New Bedford-Recreation Department"},"type":"Feature","geometry":{"type":"Point","coordinates":[-5.77031659892188,32.2602519794122]}},{"properties":{"city":"Flint","column_5":48506,"geo_score":0.0,"program name":"Serving Communities - Healthy Meals for Children","id":"a6f3fkipiyx1","geo_precision":"unmatched","state":"MI","agency name":"Genesee County Parks &amp; Recreation Commission"},"type":"Feature","geometry":null},{"properties":{"city":"Kansas City","column_5":64130,"geo_score":0.0,"program name":"Serving Communities - Healthy Meals for Children","id":"a6f3fkdx7n9w","geo_precision":"unmatched","state":"MO","agency name":"Kansas City, Missouri Parks and Recreation Department"},"type":"Feature","geometry":null},{"properties":{"city":"Aberdeen","column_5":39730,"geo_score":0.0,"program name":"Serving Communities - Healthy Meals for Children","id":"a6f3fkio930h","geo_precision":"unmatched","state":"MS","agency name":"Aberdeen Parks and Recreation"},"type":"Feature","geometry":null},{"properties":{"city":"Plainfield","column_5":7060,"geo_score":0.0,"program name":"Serving Communities - Healthy Meals for Children","id":"a6f3fk8mh6f2","geo_precision":"unmatched","state":"NJ","agency name":"Plainfield Division of Parks and Recreation"},"type":"Feature","geometry":null},{"properties":{"city":"New York","column_5":10065,"geo_score":0.0,"program name":"Serving Communities - Healthy Meals for Children","id":"a6f3fkahpe8n","geo_precision":"unmatched","state":"NY","agency name":"New York City Department of Parks &amp; Recreation"},"type":"Feature","geometry":null},{"properties":{"city":"Philadelphia","column_5":19102,"geo_score":0.912,"program name":"Serving Communities - Healthy Meals for Children","id":"a6f3fkhegi6l","geo_precision":"zip","state":"PA","agency name":"Philadelphia Parks &amp; Recreation"},"type":"Feature","geometry":{"type":"Point","coordinates":[-81.4,7.9833333]}},{"properties":{"city":"Brownsville","column_5":38012,"geo_score":0.0,"program name":"Serving Communities - Healthy Meals for Children","id":"a6f3fkab3zuq","geo_precision":"unmatched","state":"TN","agency name":"Brownsville/Haywood County Parks &amp; Recreation"},"type":"Feature","geometry":null},{"properties":{"city":"Houston","column_5":77023,"geo_score":0.0,"program name":"Serving Communities - Healthy Meals for Children","id":"a6f3fkjptydg","geo_precision":"unmatched","state":"TX","agency name":"Houston Parks and Recreation Department"},"type":"Feature","geometry":null},{"properties":{"city":"Richmond","column_5":23219,"geo_score":0.0,"program name":"Serving Communities - Healthy Meals for Children","id":"a6f3fkaicblg","geo_precision":"unmatched","state":"VA","agency name":"Richmond Parks, Recreation and Community Facilities"},"type":"Feature","geometry":null},{"properties":{"city":"West Bend","column_5":53095,"geo_score":0.0,"program name":"Serving Communities - Healthy Meals for Children","id":"a6f3fk5pnly6","geo_precision":"unmatched","state":"WI","agency name":"West Bend Park, Recreation and Forestry Department"},"type":"Feature","geometry":null},{"properties":{"city":"Hialeah","column_5":33013,"geo_score":0.0,"program name":"Serving Communities - Healthy Meals for Children","id":"a6f3fkjj78b3","geo_precision":"unmatched","state":"FL","agency name":"Hialeah's Department of Parks and Recreation"},"type":"Feature","geometry":null},{"properties":{"city":"Saint Paul","column_5":55102,"geo_score":0.937,"program name":"Serving Communities - Healthy Meals for Children","id":"a6f3fk6y7hhp","geo_precision":"zip","state":"MN","agency name":"Saint Paul Parks and Recreation"},"type":"Feature","geometry":{"type":"Point","coordinates":[111.25,46.0833333]}},{"properties":{"city":"Miami","column_5":33130,"geo_score":0.0,"program name":"Soccer For Success","id":"a6f3fk9tse3u","geo_precision":"unmatched","state":"FL","agency name":"Miami Department of Parks and Recreation"},"type":"Feature","geometry":null},{"properties":{"city":"Glendale","column_5":85301,"geo_score":0.0,"program name":"SNAG G-Ball","id":"a6f3fk80vt5z","geo_precision":"unmatched","state":"AZ","agency name":"Glendale Parks &amp; Recreation"},"type":"Feature","geometry":null},{"properties":{"city":"Manhattan Beach","column_5":90266,"geo_score":0.867,"program name":"SNAG G-Ball","id":"a6f3fkbiffgo","geo_precision":"zip","state":"CA","agency name":"Manhattan Beach Parks and Recreation Department"},"type":"Feature","geometry":{"type":"Point","coordinates":[-74.549179628,49.933438264]}},{"properties":{"city":"Santa Clarita","column_5":91355,"geo_score":0.905,"program name":"SNAG G-Ball","id":"a6f3fk7ipu60","geo_precision":"zip","state":"CA","agency name":"Santa Clarita - Parks, Recreation, and Community Services"},"type":"Feature","geometry":{"type":"Point","coordinates":[-78.316232779,44.283421244]}},{"properties":{"city":"Carson","column_5":90810,"geo_score":1.0,"program name":"SNAG G-Ball","id":"a6f3fk5aab9i","geo_precision":"zip","state":"CA","agency name":"Carson Parks and Recreation Department"},"type":"Feature","geometry":{"type":"Point","coordinates":[-81.733087834,46.166768908]}},{"properties":{"city":"Federal Heights","column_5":80260,"geo_score":0.888,"program name":"SNAG G-Ball","id":"a6f3fk95tkyx","geo_precision":"zip","state":"CO","agency name":"Hyland Hills Park &amp; Recreation District"},"type":"Feature","geometry":{"type":"Point","coordinates":[-73.4133333,6.0683333]}},{"properties":{"city":"Vero Beach","column_5":32967,"geo_score":0.0,"program name":"SNAG G-Ball","id":"a6f3fk9tihd1","geo_precision":"unmatched","state":"FL","agency name":"Indian River County Recreation Department"},"type":"Feature","geometry":null},{"properties":{"city":"Orlando","column_5":32808,"geo_score":0.0,"program name":"SNAG G-Ball","id":"a6f3fkatncbt","geo_precision":"unmatched","state":"FL","agency name":"Orange County Parks and Recreation"},"type":"Feature","geometry":null},{"properties":{"city":"Miami","column_5":33128,"geo_score":0.0,"program name":"SNAG G-Ball","id":"a6f3fkeu29sv","geo_precision":"unmatched","state":"FL","agency name":"Miami-Dade County Park and Recreation Department"},"type":"Feature","geometry":null},{"properties":{"city":"Treasure Island","column_5":33706,"geo_score":0.0,"program name":"SNAG G-Ball","id":"a6f3fkg5yakq","geo_precision":"unmatched","state":"FL","agency name":"Treasure Island Recreation Department"},"type":"Feature","geometry":null},{"properties":{"city":"Lawrence","column_5":66044,"geo_score":0.0,"program name":"SNAG G-Ball","id":"a6f3fk5hsxu4","geo_precision":"unmatched","state":"KS","agency name":"Lawrence Parks and Recreation"},"type":"Feature","geometry":null},{"properties":{"city":"Ann Arbor","column_5":48105,"geo_score":0.0,"program name":"SNAG G-Ball","id":"a6f3fkahy9lm","geo_precision":"unmatched","state":"MI","agency name":"Ann Arbor Parks &amp; Recreation"},"type":"Feature","geometry":null},{"properties":{"city":"Roseville","column_5":55113,"geo_score":0.0,"program name":"SNAG G-Ball","id":"a6f3fkh5ngma","geo_precision":"unmatched","state":"MN","agency name":"Roseville Parks &amp; Recreation"},"type":"Feature","geometry":null},{"properties":{"city":"Springfield","column_5":65810,"geo_score":0.0,"program name":"SNAG G-Ball","id":"a6f3fkfrv2ss","geo_precision":"unmatched","state":"MO","agency name":"Springfield-Greene County Parks and Recreation"},"type":"Feature","geometry":null},{"properties":{"city":"Los Alamos","column_5":87544,"geo_score":0.0,"program name":"SNAG G-Ball","id":"a6f3fk9vv6uq","geo_precision":"unmatched","state":"NM","agency name":"Los Alamos County Recreation Division"},"type":"Feature","geometry":null},{"properties":{"city":"West Allis","column_5":53214,"geo_score":0.0,"program name":"SNAG G-Ball","id":"a6f3fkb7ks88","geo_precision":"unmatched","state":"WI","agency name":"West Allis-West Milwaukee Recreation Department"},"type":"Feature","geometry":null},{"properties":{"city":"Anchorage","column_5":99519,"geo_score":0.0,"program name":"Parks: Return &amp; Restore","id":"a6f3fk4bg4bf","geo_precision":"unmatched","state":"Alaska","agency name":"Anchorage Parks and Recreation Department"},"type":"Feature","geometry":null},{"properties":{"city":"Rockford","column_5":61101,"geo_score":0.0,"program name":"Parks: Return &amp; Restore","id":"a6f3fkfdustt","geo_precision":"unmatched","state":"IL","agency name":"Rockford Park District"},"type":"Feature","geometry":null},{"properties":{"city":"Orlando","column_5":32808,"geo_score":0.0,"program name":"Parks: Return &amp; Restore","id":"a6f3fkcv3zjx","geo_precision":"unmatched","state":"FL","agency name":"Orange County Parks &amp; Recreation Division"},"type":"Feature","geometry":null},{"properties":{"city":"Greenbelt","column_5":20770,"geo_score":0.0,"program name":"Parks: Return &amp; Restore","id":"a6f3fk6bc0ld","geo_precision":"unmatched","state":"MD","agency name":"Maryland-National Capital Park and Planning Commission"},"type":"Feature","geometry":null},{"properties":{"city":"Phoenix","column_5":85007,"geo_score":0.0,"program name":"Parks: Return &amp; Restore","id":"a6f3fkh0gixj","geo_precision":"unmatched","state":"AZ","agency name":"River of Dreams/City of Phoenix Parks and Recreation Department"},"type":"Feature","geometry":null},{"properties":{"city":"Fort Collins","column_5":80522,"geo_score":0.883,"program name":"Parks: Return &amp; Restore","id":"a6f3fkbek2yk","geo_precision":"zip","state":"CO","agency name":"Fort Collins Recreation Department/Adaptive Recreation Opportunities"},"type":"Feature","geometry":{"type":"Point","coordinates":[-77.4,5.4]}},{"properties":{"city":"Kahului","column_5":96732,"geo_score":0.0,"program name":"Parks: Return &amp; Restore","id":"a6f3fkj8buoz","geo_precision":"unmatched","state":"HI","agency name":"County of Maui Parks and Recreation Support Services Division"},"type":"Feature","geometry":null},{"properties":{"city":"Las Vegas","column_5":89101,"geo_score":0.0,"program name":"Parks: Return &amp; Restore","id":"a6f3fkhz78h6","geo_precision":"unmatched","state":"NV","agency name":"Las Vegas Dept. of Leisure Services/Adaptive Division"},"type":"Feature","geometry":null},{"properties":{"city":"Columbus","column_5":43205,"geo_score":0.0,"program name":"Parks: Return &amp; Restore","id":"a6f3fkflx95k","geo_precision":"unmatched","state":"OH","agency name":"Columbus Recreation and Parks Department"},"type":"Feature","geometry":null},{"properties":{"city":"Wichita","column_5":67202,"geo_score":0.0,"program name":"Parks: Return &amp; Restore","id":"a6f3fkfg1utk","geo_precision":"unmatched","state":"KS","agency name":"City of Wichita Park and Recreation"},"type":"Feature","geometry":null},{"properties":{"city":"Cedar Rapids","column_5":52403,"geo_score":0.0,"program name":"Parks: Return &amp; Restore","id":"a6f3fki883ue","geo_precision":"unmatched","state":"IA","agency name":"Cedar Rapids Parks and Recreation Department"},"type":"Feature","geometry":null},{"properties":{"city":"Reno","column_5":89512,"geo_score":0.0,"program name":"Parks: Return &amp; Restore","id":"a6f3fkeu2pde","geo_precision":"unmatched","state":"NV","agency name":"City of Reno Parks, Recreation and Community Services"},"type":"Feature","geometry":null},{"properties":{"city":"Houston","column_5":77023,"geo_score":0.0,"program name":"Parks: Return &amp; Restore","id":"a6f3fk69eowr","geo_precision":"unmatched","state":"TX","agency name":"Houston Parks and Recreation Department"},"type":"Feature","geometry":null},{"properties":{"city":"Cincinnati","column_5":45202,"geo_score":0.0,"program name":"Parks: Return &amp; Restore","id":"a6f3fkfxrcj4","geo_precision":"unmatched","state":"OH","agency name":"Cincinnati Recreation Foundation"},"type":"Feature","geometry":null},{"properties":{"city":"Colorado Springs","column_5":80909,"geo_score":0.933,"program name":"Parks: Return &amp; Restore","id":"a6f3fk9jd7jk","geo_precision":"zip","state":"CO","agency name":"City of Colorado Springs Therapeutic Recreation Program"},"type":"Feature","geometry":{"type":"Point","coordinates":[-75.2666667,10.6666667]}},{"properties":{"city":"Midvale","column_5":84047,"geo_score":0.0,"program name":"Parks: Return &amp; Restore","id":"a6f3fkiudg0v","geo_precision":"unmatched","state":"UT","agency name":"Salt Lake County Park and Recreation"},"type":"Feature","geometry":null},{"properties":{"city":"Chicago","column_5":null,"geo_score":0.0,"program name":"ACHIEVE","id":"a6f3fkhgpldf","geo_precision":"unmatched","state":"IL","agency name":"Chicago Park District"},"type":"Feature","geometry":null},{"properties":{"city":"Davenport","column_5":null,"geo_score":0.0,"program name":"ACHIEVE","id":"a6f3fk8k8b4g","geo_precision":"unmatched","state":"IA","agency name":"Davenport Parks &amp; Recreation Dept."},"type":"Feature","geometry":null},{"properties":{"city":"Greenville","column_5":null,"geo_score":0.0,"program name":"ACHIEVE","id":"a6f3fkjrtjqb","geo_precision":"unmatched","state":"SC","agency name":"City of Greenville Parks and Recreation"},"type":"Feature","geometry":null},{"properties":{"city":"La Mirada","column_5":null,"geo_score":0.875,"program name":"ACHIEVE","id":"a6f3fk8v8i7x","geo_precision":"zip","state":"CA","agency name":"City of La Mirada"},"type":"Feature","geometry":{"type":"Point","coordinates":[-120.794204554,50.112248552]}},{"properties":{"city":"Longview","column_5":null,"geo_score":0.0,"program name":"ACHIEVE","id":"a6f3fkecsuet","geo_precision":"unmatched","state":"WA","agency name":"Longview Parks and Recreation Department"},"type":"Feature","geometry":null},{"properties":{"city":"Lynnwood","column_5":null,"geo_score":0.839,"program name":"ACHIEVE","id":"a6f3fka8fy4l","geo_precision":"zip","state":"WA","agency name":"Lynwood Parks, Recreation &amp; Cultural Arst"},"type":"Feature","geometry":{"type":"Point","coordinates":[-118.2114603,33.930293]}},{"properties":{"city":"Montgomery","column_5":null,"geo_score":0.0,"program name":"ACHIEVE","id":"a6f3fkiivmnp","geo_precision":"unmatched","state":"AL","agency name":"Montgomery County Parks and Recreation Department"},"type":"Feature","geometry":null},{"properties":{"city":"North Miami","column_5":null,"geo_score":0.0,"program name":"ACHIEVE","id":"a6f3fkgqn56s","geo_precision":"unmatched","state":"FL","agency name":"City of North Miami"},"type":"Feature","geometry":null},{"properties":{"city":"O'Fallon","column_5":null,"geo_score":0.0,"program name":"ACHIEVE","id":"a6f3fk5o3n60","geo_precision":"unmatched","state":"MO","agency name":"O'Fallon Parks and Recreation Department"},"type":"Feature","geometry":null},{"properties":{"city":"Pierre","column_5":null,"geo_score":0.952,"program name":"ACHIEVE","id":"a6f3fk80o73s","geo_precision":"zip","state":"SD","agency name":"City of Pierre Parks and Recreation"},"type":"Feature","geometry":{"type":"Point","coordinates":[32.0333333,8.0333333]}},{"properties":{"city":"Arlington","column_5":null,"geo_score":0.0,"program name":"ACHIEVE","id":"a6f3fki5yrs1","geo_precision":"unmatched","state":"VA","agency name":"Arlington Department of Parks, Recreation and Cultural Resources"},"type":"Feature","geometry":null},{"properties":{"city":"Casper","column_5":null,"geo_score":0.0,"program name":"ACHIEVE","id":"a6f3fkjvfglp","geo_precision":"unmatched","state":"WY","agency name":"City of Casper Recreation Division"},"type":"Feature","geometry":null},{"properties":{"city":"Fort Collins","column_5":null,"geo_score":0.883,"program name":"ACHIEVE","id":"a6f3fkemwj4t","geo_precision":"zip","state":"CO","agency name":"City of Fort Collins Recreation Department"},"type":"Feature","geometry":{"type":"Point","coordinates":[-77.4,5.4]}},{"properties":{"city":"Hastings","column_5":null,"geo_score":0.0,"program name":"ACHIEVE","id":"a6f3fkatkqn4","geo_precision":"unmatched","state":"NE","agency name":"City of Hastings Parks and Recreation Department"},"type":"Feature","geometry":null},{"properties":{"city":"Jackson","column_5":null,"geo_score":0.0,"program name":"ACHIEVE","id":"a6f3fkebxbhe","geo_precision":"unmatched","state":"TN","agency name":"City of Jackson  Recreation and Parks Department"},"type":"Feature","geometry":null},{"properties":{"city":"McMinnville","column_5":null,"geo_score":0.0,"program name":"ACHIEVE","id":"a6f3fk9drat2","geo_precision":"unmatched","state":"TN","agency name":"McMinnville Parks and Recreation"},"type":"Feature","geometry":null},{"properties":{"city":"Morristown","column_5":null,"geo_score":0.0,"program name":"ACHIEVE","id":"a6f3fkboohcm","geo_precision":"unmatched","state":"NJ","agency name":"Morris County Park Commission"},"type":"Feature","geometry":null},{"properties":{"city":"Newport","column_5":null,"geo_score":0.0,"program name":"ACHIEVE","id":"a6f3fkfnfxn1","geo_precision":"unmatched","state":"RI","agency name":"Newport Recreation Department"},"type":"Feature","geometry":null},{"properties":{"city":"Pipestone","column_5":null,"geo_score":0.0,"program name":"ACHIEVE","id":"a6f3fke9i8nf","geo_precision":"unmatched","state":"MN","agency name":"Pipestone Park and Recreation Department"},"type":"Feature","geometry":null},{"properties":{"city":"Tulsa","column_5":null,"geo_score":0.0,"program name":"ACHIEVE","id":"a6f3fkk58zc8","geo_precision":"unmatched","state":"OK","agency name":"Parks and Recreation Department"},"type":"Feature","geometry":null},{"properties":{"city":"Annapolis","column_5":null,"geo_score":0.0,"program name":"ACHIEVE","id":"a6f3fkftaqi0","geo_precision":"unmatched","state":"MD","agency name":"Annapolis Recreation and Parks"},"type":"Feature","geometry":null},{"properties":{"city":"Belleville","column_5":null,"geo_score":0.0,"program name":"ACHIEVE","id":"a6f3fk8mm6gw","geo_precision":"unmatched","state":"MI","agency name":"Van Buren Township Parks &amp; Recreation"},"type":"Feature","geometry":null},{"properties":{"city":"Bismarck","column_5":null,"geo_score":0.0,"program name":"ACHIEVE","id":"a6f3fkczo8yb","geo_precision":"unmatched","state":"ND","agency name":"Bismarck Parks and Recreation District"},"type":"Feature","geometry":null},{"properties":{"city":"Corpus Christi","column_5":null,"geo_score":0.0,"program name":"ACHIEVE","id":"a6f3fkhuwfwp","geo_precision":"unmatched","state":"TX","agency name":"Corpus Christi Parks &amp; Recreation Depart"},"type":"Feature","geometry":null},{"properties":{"city":"Grand Forks","column_5":null,"geo_score":0.0,"program name":"ACHIEVE","id":"a6f3fkg7zjwf","geo_precision":"unmatched","state":"ND","agency name":"Grand Forks Park District"},"type":"Feature","geometry":null},{"properties":{"city":"Greenbelt","column_5":null,"geo_score":0.0,"program name":"ACHIEVE","id":"a6f3fkh1t2xl","geo_precision":"unmatched","state":"MD","agency name":"Prince George's County Department of Parks and Recreation"},"type":"Feature","geometry":null},{"properties":{"city":"Helena","column_5":null,"geo_score":0.0,"program name":"ACHIEVE","id":"a6f3fkh1lawu","geo_precision":"unmatched","state":"MT","agency name":"City of Helena Parks and Recreation"},"type":"Feature","geometry":null},{"properties":{"city":"Miamisburg","column_5":null,"geo_score":0.0,"program name":"ACHIEVE","id":"a6f3fkf28z6y","geo_precision":"unmatched","state":"OH","agency name":"City of Miamisburg"},"type":"Feature","geometry":null},{"properties":{"city":"Rock Hill","column_5":null,"geo_score":0.0,"program name":"ACHIEVE","id":"a6f3fkfqkfvu","geo_precision":"unmatched","state":"SC","agency name":"City of Rock Hill Parks, Recreation and Tourism Department"},"type":"Feature","geometry":null},{"properties":{"city":"Yuba City","column_5":null,"geo_score":0.875,"program name":"ACHIEVE","id":"a6f3fk85z5cj","geo_precision":"zip","state":"CA","agency name":"City of Yuba City Parks &amp; Recreation Department"},"type":"Feature","geometry":{"type":"Point","coordinates":[-113.46034431,53.447356688]}},{"properties":{"city":"Lihue","column_5":null,"geo_score":0.0,"program name":"CPPW","id":"a6f3fka27d2s","geo_precision":"unmatched","state":"HI","agency name":"County of Kauai"},"type":"Feature","geometry":null},{"properties":{"city":"San Antonio","column_5":null,"geo_score":0.0,"program name":"CPPW","id":"a6f3fk5ty96e","geo_precision":"unmatched","state":"TX","agency name":"City of San Antonio"},"type":"Feature","geometry":null},{"properties":{"city":"Louisville","column_5":null,"geo_score":0.0,"program name":"CPPW","id":"a6f3fk4ilspl","geo_precision":"unmatched","state":"KY","agency name":"Louisville/Jefferson County"},"type":"Feature","geometry":null},{"properties":{"city":"Miami","column_5":null,"geo_score":0.0,"program name":"CPPW","id":"a6f3fkajk0zf","geo_precision":"unmatched","state":"FL","agency name":"Miami-Dade County"},"type":"Feature","geometry":null},{"properties":{"city":"Cincinnati","column_5":null,"geo_score":0.0,"program name":"CPPW","id":"a6f3fkb2jree","geo_precision":"unmatched","state":"OH","agency name":"Hamilton County"},"type":"Feature","geometry":null},{"properties":{"city":"Parkersburg","column_5":null,"geo_score":0.0,"program name":"CPPW","id":"a6f3fk589ask","geo_precision":"unmatched","state":"WV","agency name":"West Virginia- Mid-Ohio Valley"},"type":"Feature","geometry":null},{"properties":{"city":"Philadelphia","column_5":null,"geo_score":0.912,"program name":"CPPW","id":"a6f3fki58143","geo_precision":"zip","state":"PA","agency name":"City of Philadelphia"},"type":"Feature","geometry":{"type":"Point","coordinates":[-81.4,7.9833333]}},{"properties":{"city":"Minneapolis","column_5":null,"geo_score":0.0,"program name":"CPPW","id":"a6f3fk87a42b","geo_precision":"unmatched","state":"MN","agency name":"City of Minneapolis"},"type":"Feature","geometry":null},{"properties":{"city":"Evansville","column_5":null,"geo_score":0.0,"program name":"CPPW","id":"a6f3fk7euhtt","geo_precision":"unmatched","state":"IN","agency name":"Vanderburgh County"},"type":"Feature","geometry":null},{"properties":{"city":"Portland","column_5":null,"geo_score":0.0,"program name":"CPPW","id":"a6f3fkbn3u85","geo_precision":"unmatched","state":"OR","agency name":"Multnomah County"},"type":"Feature","geometry":null}],"is_temporal":false,"author":{"url":"","metadata":null,"contact_name":null,"contact_address":null,"source":null,"contact_phone":null},"source":"","pagination":{"sort":null,"start":0,"total":422,"limit":1000000},"state":"complete","tags":"","published":"2014-08-13T05:36:45-04:00","id":156030}