{"type":"FeatureCollection","data_type":"Dataset","url_type":null,"permissions":[{"permissions":{"download":true,"view":true},"group_id":"everyone"}],"classification":null,"title":"hosts_9-19","count":315,"stream_id":156921,"contributor":{"url":"http://geocommons.com/users/33078","name":"imonitor"},"data_attributes":null,"calculation_params":null,"icon_link":null,"link":"http://geocommons.com/overlays/156921.json","extent":[0.0,0.0,0.0,0.0],"geometry_types":[],"unique_name":null,"name":"hosts_9-19","feature_count":315,"description":"","next_feature":null,"is_raster":false,"short_classification":"Y","stats":{},"features":[{"properties":{"zip":"60661","id":"a6kkegn6yh77"},"type":"Feature","geometry":null},{"properties":{"zip":"20170","id":"a6kkeglo4kli"},"type":"Feature","geometry":null},{"properties":{"zip":"75027","id":"a6kkegjy9xxi"},"type":"Feature","geometry":null},{"properties":{"zip":"98121","id":"a6kkegq89bf7"},"type":"Feature","geometry":null},{"properties":{"zip":"33132","id":"a6kkegqtak4d"},"type":"Feature","geometry":null},{"properties":{"zip":"75027","id":"a6kkegrpcyl2"},"type":"Feature","geometry":null},{"properties":{"zip":"20910","id":"a6kkegdc0f36"},"type":"Feature","geometry":null},{"properties":{"zip":"75027","id":"a6kkegguo3nl"},"type":"Feature","geometry":null},{"properties":{"zip":"75027","id":"a6kkegkdkqhb"},"type":"Feature","geometry":null},{"properties":{"zip":"75027","id":"a6kkegjioyw5"},"type":"Feature","geometry":null},{"properties":{"zip":"59803","id":"a6kkegjxxwkv"},"type":"Feature","geometry":null},{"properties":{"zip":"01803","id":"a6kkegj13hnd"},"type":"Feature","geometry":null},{"properties":{"zip":"92821","id":"a6kkegcgjexu"},"type":"Feature","geometry":null},{"properties":{"zip":"60606","id":"a6kkegq0uss4"},"type":"Feature","geometry":null},{"properties":{"zip":"60005","id":"a6kkeggdwicl"},"type":"Feature","geometry":null},{"properties":{"zip":"33602","id":"a6kkegna26pp"},"type":"Feature","geometry":null},{"properties":{"zip":"32923","id":"a6kkegfrk8v6"},"type":"Feature","geometry":null},{"properties":{"zip":"91361","id":"a6kkegq2mogs"},"type":"Feature","geometry":null},{"properties":{"zip":"89016","id":"a6kkegcbhvjc"},"type":"Feature","geometry":null},{"properties":{"zip":"92821","id":"a6kkegpd2j1y"},"type":"Feature","geometry":null},{"properties":{"zip":"91361","id":"a6kkegf0ou8v"},"type":"Feature","geometry":null},{"properties":{"zip":"60604","id":"a6kkeglqnya7"},"type":"Feature","geometry":null},{"properties":{"zip":"15203","id":"a6kkegm4gxfp"},"type":"Feature","geometry":null},{"properties":{"zip":"43228","id":"a6kkegk6bghs"},"type":"Feature","geometry":null},{"properties":{"zip":"95134","id":"a6kkegkgkfz3"},"type":"Feature","geometry":null},{"properties":{"zip":"15090","id":"a6kkegh3r9r7"},"type":"Feature","geometry":null},{"properties":{"zip":"85260","id":"a6kkegr42adf"},"type":"Feature","geometry":null},{"properties":{"zip":"30309","id":"a6kkegrezp50"},"type":"Feature","geometry":null},{"properties":{"zip":"85260","id":"a6kkeghf37pz"},"type":"Feature","geometry":null},{"properties":{"zip":"60616","id":"a6kkegozp6v2"},"type":"Feature","geometry":null},{"properties":{"zip":"60616","id":"a6kkegoljg4b"},"type":"Feature","geometry":null},{"properties":{"zip":"85260","id":"a6kkegbl39sm"},"type":"Feature","geometry":null},{"properties":{"zip":"33602","id":"a6kkegk928rg"},"type":"Feature","geometry":null},{"properties":{"zip":"18510","id":"a6kkegkrbuxw"},"type":"Feature","geometry":null},{"properties":{"zip":"92821","id":"a6kkegnu7d5x"},"type":"Feature","geometry":null},{"properties":{"zip":"75027","id":"a6kkegkxgat5"},"type":"Feature","geometry":null},{"properties":{"zip":"85260","id":"a6kkegmbrrkv"},"type":"Feature","geometry":null},{"properties":{"zip":"92821","id":"a6kkegma04g8"},"type":"Feature","geometry":null},{"properties":{"zip":"75027","id":"a6kkegmh8zjr"},"type":"Feature","geometry":null},{"properties":{"zip":"92821","id":"a6kkegkqyugy"},"type":"Feature","geometry":null},{"properties":{"zip":"85260","id":"a6kkege2xrjh"},"type":"Feature","geometry":null},{"properties":{"zip":"75027","id":"a6kkegpzrpvy"},"type":"Feature","geometry":null},{"properties":{"zip":"75027","id":"a6kkegke0piz"},"type":"Feature","geometry":null},{"properties":{"zip":"60616","id":"a6kkegcbmf5o"},"type":"Feature","geometry":null},{"properties":{"zip":"60616","id":"a6kkegj0mxb2"},"type":"Feature","geometry":null},{"properties":{"zip":"24244","id":"a6kkegnao45i"},"type":"Feature","geometry":null},{"properties":{"zip":"92821","id":"a6kkegdv5hdn"},"type":"Feature","geometry":null},{"properties":{"zip":"92821","id":"a6kkegoug4gj"},"type":"Feature","geometry":null},{"properties":{"zip":"75093","id":"a6kkegqx6p9j"},"type":"Feature","geometry":null},{"properties":{"zip":"20170","id":"a6kkeglfzlon"},"type":"Feature","geometry":null},{"properties":{"zip":"43231","id":"a6kkegdpnkt4"},"type":"Feature","geometry":null},{"properties":{"zip":"18510","id":"a6kkegbzl8ds"},"type":"Feature","geometry":null},{"properties":{"zip":"21032","id":"a6kkegnv0u59"},"type":"Feature","geometry":null},{"properties":{"zip":"89119","id":"a6kkegpgeiei"},"type":"Feature","geometry":null},{"properties":{"zip":"75027","id":"a6kkegoz1vwv"},"type":"Feature","geometry":null},{"properties":{"zip":"92821","id":"a6kkegosdiia"},"type":"Feature","geometry":null},{"properties":{"zip":"92821","id":"a6kkegn70n5a"},"type":"Feature","geometry":null},{"properties":{"zip":"21601","id":"a6kkegl6pdbu"},"type":"Feature","geometry":null},{"properties":{"zip":"75027","id":"a6kkegr45g9t"},"type":"Feature","geometry":null},{"properties":{"zip":"75027","id":"a6kkeghtuo23"},"type":"Feature","geometry":null},{"properties":{"zip":"75027","id":"a6kkeggg9943"},"type":"Feature","geometry":null},{"properties":{"zip":"60616","id":"a6kkegg3oe2t"},"type":"Feature","geometry":null},{"properties":{"zip":"15203","id":"a6kkegn8l1b7"},"type":"Feature","geometry":null},{"properties":{"zip":"75027","id":"a6kkegfppdgd"},"type":"Feature","geometry":null},{"properties":{"zip":"17552","id":"a6kkegipfeg5"},"type":"Feature","geometry":null},{"properties":{"zip":"07093","id":"a6kkeglfs44e"},"type":"Feature","geometry":null},{"properties":{"zip":"85260","id":"a6kkegbewa8z"},"type":"Feature","geometry":null},{"properties":{"zip":"60616","id":"a6kkeggotnzf"},"type":"Feature","geometry":null},{"properties":{"zip":"85260","id":"a6kkegos2wj0"},"type":"Feature","geometry":null},{"properties":{"zip":"66210","id":"a6kkegjp7jkp"},"type":"Feature","geometry":null},{"properties":{"zip":"66210","id":"a6kkegd0orek"},"type":"Feature","geometry":null},{"properties":{"zip":"75027","id":"a6kkegkn1gei"},"type":"Feature","geometry":null},{"properties":{"zip":"92821","id":"a6kkegpwphww"},"type":"Feature","geometry":null},{"properties":{"zip":"32801","id":"a6kkegmug546"},"type":"Feature","geometry":null},{"properties":{"zip":"66210","id":"a6kkeghd7275"},"type":"Feature","geometry":null},{"properties":{"zip":"94089","id":"a6kkegm5zdlz"},"type":"Feature","geometry":null},{"properties":{"zip":"24244","id":"a6kkegem8fzj"},"type":"Feature","geometry":null},{"properties":{"zip":"95827","id":"a6kkegrmoybj"},"type":"Feature","geometry":null},{"properties":{"zip":"60606","id":"a6kkegk1b98y"},"type":"Feature","geometry":null},{"properties":{"zip":"84606","id":"a6kkegnhkhqe"},"type":"Feature","geometry":null},{"properties":{"zip":"32258","id":"a6kkegdedxjs"},"type":"Feature","geometry":null},{"properties":{"zip":"75027","id":"a6kkeggt6xcs"},"type":"Feature","geometry":null},{"properties":{"zip":"92821","id":"a6kkegn5x3cc"},"type":"Feature","geometry":null},{"properties":{"zip":"60005","id":"a6kkeggxc5kd"},"type":"Feature","geometry":null},{"properties":{"zip":"85260","id":"a6kkegdzh143"},"type":"Feature","geometry":null},{"properties":{"zip":"44240","id":"a6kkegp72nlt"},"type":"Feature","geometry":null},{"properties":{"zip":"60005","id":"a6kkeginvwly"},"type":"Feature","geometry":null},{"properties":{"zip":"01803","id":"a6kkegefnle1"},"type":"Feature","geometry":null},{"properties":{"zip":"92821","id":"a6kkegizrult"},"type":"Feature","geometry":null},{"properties":{"zip":"85260","id":"a6kkegmqtbve"},"type":"Feature","geometry":null},{"properties":{"zip":"80112","id":"a6kkegjujn90"},"type":"Feature","geometry":null},{"properties":{"zip":"75027","id":"a6kkegbtxby2"},"type":"Feature","geometry":null},{"properties":{"zip":"75027","id":"a6kkegib85tn"},"type":"Feature","geometry":null},{"properties":{"zip":"75027","id":"a6kkegoy6kpw"},"type":"Feature","geometry":null},{"properties":{"zip":"75027","id":"a6kkegc5mhuq"},"type":"Feature","geometry":null},{"properties":{"zip":"43231","id":"a6kkegi7hva6"},"type":"Feature","geometry":null},{"properties":{"zip":"20170","id":"a6kkegne19ux"},"type":"Feature","geometry":null},{"properties":{"zip":"75027","id":"a6kkegosbhyh"},"type":"Feature","geometry":null},{"properties":{"zip":"11753","id":"a6kkegqrk0sz"},"type":"Feature","geometry":null},{"properties":{"zip":"92821","id":"a6kkeghs441c"},"type":"Feature","geometry":null},{"properties":{"zip":"75027","id":"a6kkegic2p8i"},"type":"Feature","geometry":null},{"properties":{"zip":"66615","id":"a6kkeggq17ma"},"type":"Feature","geometry":null},{"properties":{"zip":"48124","id":"a6kkegevuihz"},"type":"Feature","geometry":null},{"properties":{"zip":"90503","id":"a6kkegkmvg0c"},"type":"Feature","geometry":null},{"properties":{"zip":"92821","id":"a6kkegmavp5q"},"type":"Feature","geometry":null},{"properties":{"zip":"85260","id":"a6kkegkwg2cn"},"type":"Feature","geometry":null},{"properties":{"zip":"84606","id":"a6kkegn8ch78"},"type":"Feature","geometry":null},{"properties":{"zip":"85260","id":"a6kkegfr214i"},"type":"Feature","geometry":null},{"properties":{"zip":"33602","id":"a6kkegnegbti"},"type":"Feature","geometry":null},{"properties":{"zip":"75027","id":"a6kkeglk3se3"},"type":"Feature","geometry":null},{"properties":{"zip":"60089","id":"a6kkegf6oern"},"type":"Feature","geometry":null},{"properties":{"zip":"32801","id":"a6kkegny1t8e"},"type":"Feature","geometry":null},{"properties":{"zip":"75027","id":"a6kkeggkludn"},"type":"Feature","geometry":null},{"properties":{"zip":"90071","id":"a6kkegriit5o"},"type":"Feature","geometry":null},{"properties":{"zip":"97209","id":"a6kkegizp4f3"},"type":"Feature","geometry":null},{"properties":{"zip":"92103","id":"a6kkegr8ww20"},"type":"Feature","geometry":null},{"properties":{"zip":"75027","id":"a6kkegf50riy"},"type":"Feature","geometry":null},{"properties":{"zip":"75027","id":"a6kkego4dt1j"},"type":"Feature","geometry":null},{"properties":{"zip":"75027","id":"a6kkegmmop2g"},"type":"Feature","geometry":null},{"properties":{"zip":"92821","id":"a6kkegr9gc9n"},"type":"Feature","geometry":null},{"properties":{"zip":"94105","id":"a6kkegdyd1nn"},"type":"Feature","geometry":null},{"properties":{"zip":"28655","id":"a6kkegoi8ob2"},"type":"Feature","geometry":null},{"properties":{"zip":"66210","id":"a6kkegrgmlpk"},"type":"Feature","geometry":null},{"properties":{"zip":"60607","id":"a6kkegbgo26i"},"type":"Feature","geometry":null},{"properties":{"zip":"80202","id":"a6kkegp2re5n"},"type":"Feature","geometry":null},{"properties":{"zip":"80112","id":"a6kkegcjtjr8"},"type":"Feature","geometry":null},{"properties":{"zip":"85260","id":"a6kkege7b4xa"},"type":"Feature","geometry":null},{"properties":{"zip":"48917","id":"a6kkegk0umd8"},"type":"Feature","geometry":null},{"properties":{"zip":"80202","id":"a6kkegplcsxh"},"type":"Feature","geometry":null},{"properties":{"zip":"10018","id":"a6kkegjgugn3"},"type":"Feature","geometry":null},{"properties":{"zip":"75027","id":"a6kkege2aip8"},"type":"Feature","geometry":null},{"properties":{"zip":"85260","id":"a6kkegmqw5fw"},"type":"Feature","geometry":null},{"properties":{"zip":"92821","id":"a6kkegqy8r7t"},"type":"Feature","geometry":null},{"properties":{"zip":"66615","id":"a6kkeglmbo1i"},"type":"Feature","geometry":null},{"properties":{"zip":"60616","id":"a6kkegbuzkfj"},"type":"Feature","geometry":null},{"properties":{"zip":"60661","id":"a6kkegeea5py"},"type":"Feature","geometry":null},{"properties":{"zip":"75027","id":"a6kkegqiftwx"},"type":"Feature","geometry":null},{"properties":{"zip":"75027","id":"a6kkegl2nmvo"},"type":"Feature","geometry":null},{"properties":{"zip":"75027","id":"a6kkegblkb7i"},"type":"Feature","geometry":null},{"properties":{"zip":"92821","id":"a6kkegb81bev"},"type":"Feature","geometry":null},{"properties":{"zip":"84332","id":"a6kkegmu808t"},"type":"Feature","geometry":null},{"properties":{"zip":"80112","id":"a6kkegp9uul6"},"type":"Feature","geometry":null},{"properties":{"zip":"75027","id":"a6kkegouebyb"},"type":"Feature","geometry":null},{"properties":{"zip":"84332","id":"a6kkegr12ica"},"type":"Feature","geometry":null},{"properties":{"zip":"85260","id":"a6kkegpxcofc"},"type":"Feature","geometry":null},{"properties":{"zip":"47807","id":"a6kkegoofclb"},"type":"Feature","geometry":null},{"properties":{"zip":"30303","id":"a6kkegr97f1x"},"type":"Feature","geometry":null},{"properties":{"zip":"92821","id":"a6kkegig2nbo"},"type":"Feature","geometry":null},{"properties":{"zip":"92821","id":"a6kkegpr9r01"},"type":"Feature","geometry":null},{"properties":{"zip":"60607","id":"a6kkegnjat9z"},"type":"Feature","geometry":null},{"properties":{"zip":"84332","id":"a6kkegi8bvqs"},"type":"Feature","geometry":null},{"properties":{"zip":"72634","id":"a6kkeggloo5m"},"type":"Feature","geometry":null},{"properties":{"zip":"92821","id":"a6kkegh2n8c9"},"type":"Feature","geometry":null},{"properties":{"zip":"59803","id":"a6kkegbwsmch"},"type":"Feature","geometry":null},{"properties":{"zip":"85260","id":"a6kkeglc1t4z"},"type":"Feature","geometry":null},{"properties":{"zip":"90232","id":"a6kkegeceqi7"},"type":"Feature","geometry":null},{"properties":{"zip":"75027","id":"a6kkegh7iwjr"},"type":"Feature","geometry":null},{"properties":{"zip":"19087","id":"a6kkegd2ugq9"},"type":"Feature","geometry":null},{"properties":{"zip":"84606","id":"a6kkegfkmgrz"},"type":"Feature","geometry":null},{"properties":{"zip":"85260","id":"a6kkegqnr7cw"},"type":"Feature","geometry":null},{"properties":{"zip":"90014","id":"a6kkegpiqm5f"},"type":"Feature","geometry":null},{"properties":{"zip":"75027","id":"a6kkegr0skkz"},"type":"Feature","geometry":null},{"properties":{"zip":"75027","id":"a6kkegcqheew"},"type":"Feature","geometry":null},{"properties":{"zip":"75027","id":"a6kkegngy9sh"},"type":"Feature","geometry":null},{"properties":{"zip":"60616","id":"a6kkegq5o3sf"},"type":"Feature","geometry":null},{"properties":{"zip":"59808","id":"a6kkege0fzwx"},"type":"Feature","geometry":null},{"properties":{"zip":"33186","id":"a6kkegpagqns"},"type":"Feature","geometry":null},{"properties":{"zip":"95827","id":"a6kkegbgkh23"},"type":"Feature","geometry":null},{"properties":{"zip":"80112","id":"a6kkegii7ow2"},"type":"Feature","geometry":null},{"properties":{"zip":"75027","id":"a6kkegkvfgg2"},"type":"Feature","geometry":null},{"properties":{"zip":"30303","id":"a6kkegk9fgzr"},"type":"Feature","geometry":null},{"properties":{"zip":"75027","id":"a6kkegjcmx6l"},"type":"Feature","geometry":null},{"properties":{"zip":"06611","id":"a6kkeglsnxm9"},"type":"Feature","geometry":null},{"properties":{"zip":"75027","id":"a6kkegiikh6m"},"type":"Feature","geometry":null},{"properties":{"zip":"85260","id":"a6kkegrg0f9w"},"type":"Feature","geometry":null},{"properties":{"zip":"33602","id":"a6kkegf5r717"},"type":"Feature","geometry":null},{"properties":{"zip":"92821","id":"a6kkegfmlj29"},"type":"Feature","geometry":null},{"properties":{"zip":"80112","id":"a6kkeghims3h"},"type":"Feature","geometry":null},{"properties":{"zip":"92821","id":"a6kkegpd9taj"},"type":"Feature","geometry":null},{"properties":{"zip":"30309","id":"a6kkeglc0hp8"},"type":"Feature","geometry":null},{"properties":{"zip":"95827","id":"a6kkegb8ugin"},"type":"Feature","geometry":null},{"properties":{"zip":"32801","id":"a6kkegk44orh"},"type":"Feature","geometry":null},{"properties":{"zip":"32801","id":"a6kkegghic44"},"type":"Feature","geometry":null},{"properties":{"zip":"28803","id":"a6kkegmue4cd"},"type":"Feature","geometry":null},{"properties":{"zip":"30309","id":"a6kkeglctcdf"},"type":"Feature","geometry":null},{"properties":{"zip":"03064","id":"a6kkegbg4kvk"},"type":"Feature","geometry":null},{"properties":{"zip":"60616","id":"a6kkegnbackl"},"type":"Feature","geometry":null},{"properties":{"zip":"59803","id":"a6kkegq4fv0e"},"type":"Feature","geometry":null},{"properties":{"zip":"75027","id":"a6kkeghx4gm1"},"type":"Feature","geometry":null},{"properties":{"zip":"23452","id":"a6kkegm9a975"},"type":"Feature","geometry":null},{"properties":{"zip":"85260","id":"a6kkegi83ebq"},"type":"Feature","geometry":null},{"properties":{"zip":"85260","id":"a6kkegrgxqb4"},"type":"Feature","geometry":null},{"properties":{"zip":"92821","id":"a6kkegn1kfen"},"type":"Feature","geometry":null},{"properties":{"zip":"66210","id":"a6kkeggf0q1q"},"type":"Feature","geometry":null},{"properties":{"zip":"60616","id":"a6kkeghueuc2"},"type":"Feature","geometry":null},{"properties":{"zip":"92821","id":"a6kkegbwdq80"},"type":"Feature","geometry":null},{"properties":{"zip":"75027","id":"a6kkegi5rioi"},"type":"Feature","geometry":null},{"properties":{"zip":"59803","id":"a6kkegr8i8za"},"type":"Feature","geometry":null},{"properties":{"zip":"75027","id":"a6kkegfr7b9n"},"type":"Feature","geometry":null},{"properties":{"zip":"19403","id":"a6kkegdrmu5m"},"type":"Feature","geometry":null},{"properties":{"zip":"95827","id":"a6kkegbqmei2"},"type":"Feature","geometry":null},{"properties":{"zip":"59803","id":"a6kkeggqbfo5"},"type":"Feature","geometry":null},{"properties":{"zip":"95827","id":"a6kkegni8afj"},"type":"Feature","geometry":null},{"properties":{"zip":"60616","id":"a6kkegcg00xr"},"type":"Feature","geometry":null},{"properties":{"zip":"85260","id":"a6kkegpveqkh"},"type":"Feature","geometry":null},{"properties":{"zip":"75027","id":"a6kkegflugno"},"type":"Feature","geometry":null},{"properties":{"zip":"75027","id":"a6kkegkmiqpo"},"type":"Feature","geometry":null},{"properties":{"zip":"85260","id":"a6kkegodejny"},"type":"Feature","geometry":null},{"properties":{"zip":"97209","id":"a6kkegpg8a5v"},"type":"Feature","geometry":null},{"properties":{"zip":"75027","id":"a6kkegklu17i"},"type":"Feature","geometry":null},{"properties":{"zip":"75027","id":"a6kkegmu6eth"},"type":"Feature","geometry":null},{"properties":{"zip":"32801","id":"a6kkegpjd9tc"},"type":"Feature","geometry":null},{"properties":{"zip":"20170","id":"a6kkegd3x1q7"},"type":"Feature","geometry":null},{"properties":{"zip":"48106","id":"a6kkegfe544i"},"type":"Feature","geometry":null},{"properties":{"zip":"53189","id":"a6kkegdyfcv2"},"type":"Feature","geometry":null},{"properties":{"zip":"11050","id":"a6kkegfl3ca6"},"type":"Feature","geometry":null},{"properties":{"zip":"85260","id":"a6kkegkiqgd9"},"type":"Feature","geometry":null},{"properties":{"zip":"85260","id":"a6kkegqfqm3r"},"type":"Feature","geometry":null},{"properties":{"zip":"85260","id":"a6kkegp1v5x6"},"type":"Feature","geometry":null},{"properties":{"zip":"85260","id":"a6kkegdxk0rv"},"type":"Feature","geometry":null},{"properties":{"zip":"78218","id":"a6kkegker362"},"type":"Feature","geometry":null},{"properties":{"zip":"75027","id":"a6kkegofmuut"},"type":"Feature","geometry":null},{"properties":{"zip":"75027","id":"a6kkegowbe9r"},"type":"Feature","geometry":null},{"properties":{"zip":"21601","id":"a6kkegq15t3c"},"type":"Feature","geometry":null},{"properties":{"zip":"21601","id":"a6kkegpwp9qx"},"type":"Feature","geometry":null},{"properties":{"zip":"75027","id":"a6kkegngzsvl"},"type":"Feature","geometry":null},{"properties":{"zip":"85260","id":"a6kkego0e6ld"},"type":"Feature","geometry":null},{"properties":{"zip":"85260","id":"a6kkegf6vcbw"},"type":"Feature","geometry":null},{"properties":{"zip":"85260","id":"a6kkegq1m36e"},"type":"Feature","geometry":null},{"properties":{"zip":"75247","id":"a6kkegnx5aai"},"type":"Feature","geometry":null},{"properties":{"zip":"60616","id":"a6kkegffi7d6"},"type":"Feature","geometry":null},{"properties":{"zip":"95827","id":"a6kkegha799r"},"type":"Feature","geometry":null},{"properties":{"zip":"32801","id":"a6kkegqlodcc"},"type":"Feature","geometry":null},{"properties":{"zip":"85260","id":"a6kkegpzkje4"},"type":"Feature","geometry":null},{"properties":{"zip":"85260","id":"a6kkegg52dgj"},"type":"Feature","geometry":null},{"properties":{"zip":"28803","id":"a6kkeglps9xj"},"type":"Feature","geometry":null},{"properties":{"zip":"33309","id":"a6kkegrcp6cd"},"type":"Feature","geometry":null},{"properties":{"zip":"32801","id":"a6kkegifso16"},"type":"Feature","geometry":null},{"properties":{"zip":"92821","id":"a6kkegnqidti"},"type":"Feature","geometry":null},{"properties":{"zip":"75027","id":"a6kkegh1ma5l"},"type":"Feature","geometry":null},{"properties":{"zip":"94043","id":"a6kkegi3rylt"},"type":"Feature","geometry":null},{"properties":{"zip":"75027","id":"a6kkegplv1jr"},"type":"Feature","geometry":null},{"properties":{"zip":"18510","id":"a6kkegpv2k8f"},"type":"Feature","geometry":null},{"properties":{"zip":"85260","id":"a6kkegott7gq"},"type":"Feature","geometry":null},{"properties":{"zip":"85260","id":"a6kkegp93wgz"},"type":"Feature","geometry":null},{"properties":{"zip":"75027","id":"a6kkegchxlvs"},"type":"Feature","geometry":null},{"properties":{"zip":"33309","id":"a6kkegi3110g"},"type":"Feature","geometry":null},{"properties":{"zip":"84332","id":"a6kkegn5osb3"},"type":"Feature","geometry":null},{"properties":{"zip":"60005","id":"a6kkegir268k"},"type":"Feature","geometry":null},{"properties":{"zip":"01803","id":"a6kkegj84l5u"},"type":"Feature","geometry":null},{"properties":{"zip":"92821","id":"a6kkegrnxp9q"},"type":"Feature","geometry":null},{"properties":{"zip":"06611","id":"a6kkegmdlaeq"},"type":"Feature","geometry":null},{"properties":{"zip":"92821","id":"a6kkegk2qgss"},"type":"Feature","geometry":null},{"properties":{"zip":"95827","id":"a6kkegjctrv3"},"type":"Feature","geometry":null},{"properties":{"zip":"33602","id":"a6kkegizik5t"},"type":"Feature","geometry":null},{"properties":{"zip":"75027","id":"a6kkegprd2ll"},"type":"Feature","geometry":null},{"properties":{"zip":"75027","id":"a6kkegbyd6mc"},"type":"Feature","geometry":null},{"properties":{"zip":"85260","id":"a6kkegnospvh"},"type":"Feature","geometry":null},{"properties":{"zip":"85260","id":"a6kkeggum7il"},"type":"Feature","geometry":null},{"properties":{"zip":"84332","id":"a6kkegpmca04"},"type":"Feature","geometry":null},{"properties":{"zip":"75027","id":"a6kkeglexsg8"},"type":"Feature","geometry":null},{"properties":{"zip":"94035","id":"a6kkeghpbg7w"},"type":"Feature","geometry":null},{"properties":{"zip":"85260","id":"a6kkegmrr1kl"},"type":"Feature","geometry":null},{"properties":{"zip":"95827","id":"a6kkegp37qoq"},"type":"Feature","geometry":null},{"properties":{"zip":"85260","id":"a6kkegcvmmo2"},"type":"Feature","geometry":null},{"properties":{"zip":"14221","id":"a6kkeglnw4nb"},"type":"Feature","geometry":null},{"properties":{"zip":"28217","id":"a6kkegmfek9i"},"type":"Feature","geometry":null},{"properties":{"zip":"75027","id":"a6kkegbon287"},"type":"Feature","geometry":null},{"properties":{"zip":"95827","id":"a6kkegnonoam"},"type":"Feature","geometry":null},{"properties":{"zip":"92821","id":"a6kkegekjg18"},"type":"Feature","geometry":null},{"properties":{"zip":"60616","id":"a6kkegcnic3z"},"type":"Feature","geometry":null},{"properties":{"zip":"92821","id":"a6kkeglqqwme"},"type":"Feature","geometry":null},{"properties":{"zip":"33602","id":"a6kkegdwie48"},"type":"Feature","geometry":null},{"properties":{"zip":"85260","id":"a6kkeglowiox"},"type":"Feature","geometry":null},{"properties":{"zip":"92821","id":"a6kkegeqpbqi"},"type":"Feature","geometry":null},{"properties":{"zip":"32801","id":"a6kkegg8dyk8"},"type":"Feature","geometry":null},{"properties":{"zip":"92821","id":"a6kkegj1ld92"},"type":"Feature","geometry":null},{"properties":{"zip":"43231","id":"a6kkegl2q73m"},"type":"Feature","geometry":null},{"properties":{"zip":"92821","id":"a6kkegpn4vv4"},"type":"Feature","geometry":null},{"properties":{"zip":"75027","id":"a6kkegrq4ghy"},"type":"Feature","geometry":null},{"properties":{"zip":"85260","id":"a6kkegmvaw45"},"type":"Feature","geometry":null},{"properties":{"zip":"98121","id":"a6kkegnupnwg"},"type":"Feature","geometry":null},{"properties":{"zip":"95827","id":"a6kkegkkka8v"},"type":"Feature","geometry":null},{"properties":{"zip":"75093","id":"a6kkegizgez0"},"type":"Feature","geometry":null},{"properties":{"zip":"01803","id":"a6kkegiw35zd"},"type":"Feature","geometry":null},{"properties":{"zip":"33602","id":"a6kkegl62k26"},"type":"Feature","geometry":null},{"properties":{"zip":"53201","id":"a6kkegqfnd71"},"type":"Feature","geometry":null},{"properties":{"zip":"95827","id":"a6kkegoa6ah7"},"type":"Feature","geometry":null},{"properties":{"zip":"92821","id":"a6kkegej9hls"},"type":"Feature","geometry":null},{"properties":{"zip":"75027","id":"a6kkegqz1edj"},"type":"Feature","geometry":null},{"properties":{"zip":"85260","id":"a6kkegker3yt"},"type":"Feature","geometry":null},{"properties":{"zip":"92821","id":"a6kkegkzpvft"},"type":"Feature","geometry":null},{"properties":{"zip":"66210","id":"a6kkegevt2kq"},"type":"Feature","geometry":null},{"properties":{"zip":"07014","id":"a6kkegq8rnnd"},"type":"Feature","geometry":null},{"properties":{"zip":"92821","id":"a6kkegjxff0c"},"type":"Feature","geometry":null},{"properties":{"zip":"85260","id":"a6kkege59161"},"type":"Feature","geometry":null},{"properties":{"zip":"07094","id":"a6kkegq7wutf"},"type":"Feature","geometry":null},{"properties":{"zip":"07014","id":"a6kkeglx4068"},"type":"Feature","geometry":null},{"properties":{"zip":"92821","id":"a6kkegk2tivs"},"type":"Feature","geometry":null},{"properties":{"zip":"92821","id":"a6kkegr5erlo"},"type":"Feature","geometry":null},{"properties":{"zip":"75027","id":"a6kkegmjd8g5"},"type":"Feature","geometry":null},{"properties":{"zip":"85260","id":"a6kkegc2v3jt"},"type":"Feature","geometry":null},{"properties":{"zip":"02451","id":"a6kkeggfya6b"},"type":"Feature","geometry":null},{"properties":{"zip":"32801","id":"a6kkegr0bya2"},"type":"Feature","geometry":null},{"properties":{"zip":"75027","id":"a6kkegbk1kn3"},"type":"Feature","geometry":null},{"properties":{"zip":"92821","id":"a6kkegns64no"},"type":"Feature","geometry":null},{"properties":{"zip":"85260","id":"a6kkegl95egl"},"type":"Feature","geometry":null},{"properties":{"zip":"75027","id":"a6kkegny5ils"},"type":"Feature","geometry":null},{"properties":{"zip":"85260","id":"a6kkeggsll1u"},"type":"Feature","geometry":null},{"properties":{"zip":"85260","id":"a6kkegpm8lqz"},"type":"Feature","geometry":null},{"properties":{"zip":"75027","id":"a6kkegf42dmq"},"type":"Feature","geometry":null},{"properties":{"zip":"95827","id":"a6kkegjdhzwm"},"type":"Feature","geometry":null},{"properties":{"zip":"80112","id":"a6kkeghmdszr"},"type":"Feature","geometry":null},{"properties":{"zip":"01803","id":"a6kkegdghdkn"},"type":"Feature","geometry":null},{"properties":{"zip":"19403","id":"a6kkegfytvxu"},"type":"Feature","geometry":null}],"is_temporal":false,"author":{"url":"","metadata":null,"contact_name":null,"contact_address":null,"source":null,"contact_phone":null},"source":"","pagination":{"sort":null,"start":0,"total":315,"limit":1000000},"state":"complete","tags":"","published":"2014-08-13T06:53:22-04:00","id":156921}