{"type":"FeatureCollection","data_type":"Dataset","url_type":null,"permissions":[{"permissions":{"download":true,"view":true},"group_id":"everyone"}],"classification":null,"title":"Wolf Pack football team","count":99,"stream_id":157090,"contributor":{"url":"http://geocommons.com/users/28169","name":"lgustus"},"data_attributes":null,"calculation_params":null,"icon_link":null,"link":"http://geocommons.com/overlays/157090.json","extent":[-170.605,-14.275,-72.2642,59.0692],"geometry_types":["point"],"unique_name":null,"name":"Wolf Pack football team","feature_count":99,"description":"The Nevada football team's 2011-12 roster, mapped by hometown.","next_feature":null,"is_raster":false,"short_classification":"Y","stats":{},"features":[{"properties":{"city":"Glendale","name":"Shane Anderson","geo_score":0.714,"year":"SR","id":"a63fjsv5ttb1","geo_precision":"city","position":"Wide Receiver","state":"Ariz."},"type":"Feature","geometry":{"type":"Point","coordinates":[-112.185987,33.538652]}},{"properties":{"city":"Burlington","name":"Kolby Arendse","geo_score":0.714,"year":"SO","id":"a63fjt2v9be1","geo_precision":"city","position":"Tight End","state":"Wash."},"type":"Feature","geometry":{"type":"Point","coordinates":[-85.938849,32.580411]}},{"properties":{"city":"Stockton","name":"Mark Avery","geo_score":0.651,"year":"JR","id":"a63fjt1fyl3u","geo_precision":"city","position":"Defensive Line","state":"Calif."},"type":"Feature","geometry":{"type":"Point","coordinates":[-86.027191,33.422887]}},{"properties":{"city":"Las Vegas","name":"Mike Ball","geo_score":0.714,"year":"JR","id":"a63fjt4x0cdl","geo_precision":"city","position":"Running Back","state":"Nev."},"type":"Feature","geometry":{"type":"Point","coordinates":[-115.137223,36.174971]}},{"properties":{"city":"Fontana","name":"Chris Barker","geo_score":0.679,"year":"JR","id":"a63fjsu9f8q7","geo_precision":"city","position":"Offensive Line","state":"Calif."},"type":"Feature","geometry":{"type":"Point","coordinates":[-90.813449,36.000627]}},{"properties":{"city":"Moreno Valley","name":"Necho Beard","geo_score":0.607,"year":"RS FR","id":"a63fjszftlx5","geo_precision":"city","position":"Wide Receiver","state":"Calif."},"type":"Feature","geometry":{"type":"Point","coordinates":[-92.820441,33.699554]}},{"properties":{"city":"Los Angeles","name":"Dray Bell","geo_score":0.714,"year":"JR","id":"a63fjt0ltska","geo_precision":"city","position":"Linebacker","state":"Calif."},"type":"Feature","geometry":{"type":"Point","coordinates":[-118.243685,34.052234]}},{"properties":{"city":"Long Beach","name":"Joel Bitonio","geo_score":0.714,"year":"SO","id":"a63fjt5pulp9","geo_precision":"city","position":"Offensive Line","state":"Calif."},"type":"Feature","geometry":{"type":"Point","coordinates":[-118.189235,33.766962]}},{"properties":{"city":"Las Vegas","name":"Bubba Boudreaux","geo_score":0.714,"year":"SR","id":"a63fjt0u33ft","geo_precision":"city","position":"Defensive Back","state":"Nev."},"type":"Feature","geometry":{"type":"Point","coordinates":[-115.137223,36.174971]}},{"properties":{"city":"Fresno","name":"DeAndre Boughton","geo_score":0.714,"year":"SR","id":"a63fjsydyj7f","geo_precision":"city","position":"Linebacker","state":"Calif."},"type":"Feature","geometry":{"type":"Point","coordinates":[-119.772366,36.747727]}},{"properties":{"city":"Stevenson Ranch","name":"Aaron Bradley","geo_score":0.663,"year":"RS FR","id":"a63fjsrsed50","geo_precision":"city","position":"Wide Receiver","state":"Calif."},"type":"Feature","geometry":{"type":"Point","coordinates":[-87.433345,38.01671]}},{"properties":{"city":"Fallbrook","name":"Zach Brickell","geo_score":0.647,"year":"FR","id":"a63fjsv6izvx","geo_precision":"city","position":"Offensive Line","state":"Calif."},"type":"Feature","geometry":{"type":"Point","coordinates":[-117.394206,33.223369]}},{"properties":{"city":"Fresno","name":"Kendall Brock","geo_score":0.714,"year":"FR","id":"a63fjsuhf2gx","geo_precision":"city","position":"Running Back","state":"Calif."},"type":"Feature","geometry":{"type":"Point","coordinates":[-119.772366,36.747727]}},{"properties":{"city":"Corona","name":"Aaron Brown","geo_score":0.714,"year":"RS FR","id":"a63fjsu5q40b","geo_precision":"city","position":"Defensive Back","state":"Calif."},"type":"Feature","geometry":{"type":"Point","coordinates":[-87.46945,33.708444]}},{"properties":{"city":"Pasadena","name":"Thaddeus Brown","geo_score":0.714,"year":"JR","id":"a63fjt4j7gqg","geo_precision":"city","position":"Defensive Back","state":"Calif."},"type":"Feature","geometry":{"type":"Point","coordinates":[-118.144516,34.147785]}},{"properties":{"city":"Bellflower","name":"Kaelin Burnett","geo_score":0.714,"year":"SR","id":"a63fjszuhmlu","geo_precision":"city","position":"Defensive End","state":"Calif."},"type":"Feature","geometry":{"type":"Point","coordinates":[-118.12965,33.888014]}},{"properties":{"city":"Fontana","name":"Desman Carter","geo_score":0.679,"year":"FR","id":"a63fjt1m90fo","geo_precision":"city","position":"Defensive Back","state":"Calif."},"type":"Feature","geometry":{"type":"Point","coordinates":[-90.813449,36.000627]}},{"properties":{"city":"Modesto","name":"Devin Combs","geo_score":0.714,"year":"SO","id":"a63fjt4ngtj5","geo_precision":"city","position":"Quarterback","state":"Calif."},"type":"Feature","geometry":{"type":"Point","coordinates":[-86.548332,39.269769]}},{"properties":{"city":"Tustin","name":"Dominic Coulter","geo_score":0.633,"year":"FR","id":"a63fjsy4cnmk","geo_precision":"city","position":"Wide Receiver","state":"Calif."},"type":"Feature","geometry":{"type":"Point","coordinates":[-122.770062,43.698178]}},{"properties":{"city":"Folsom","name":"Burton De Koning","geo_score":0.714,"year":"FR","id":"a63fjt2us9u9","geo_precision":"city","position":"Linebacker","state":"Calif."},"type":"Feature","geometry":{"type":"Point","coordinates":[-84.82855,34.382869]}},{"properties":{"city":"Orange","name":"Lorenzo Devers","geo_score":0.714,"year":"FR","id":"a63fjt645144","geo_precision":"city","position":"Linebacker","state":"Calif."},"type":"Feature","geometry":{"type":"Point","coordinates":[-117.853112,33.787795]}},{"properties":{"city":"Las Vegas","name":"Colin Ditsworth","geo_score":0.714,"year":"FR","id":"a63fjsqzv6b7","geo_precision":"city","position":"Kicker","state":"Nev."},"type":"Feature","geometry":{"type":"Point","coordinates":[-115.137223,36.174971]}},{"properties":{"city":"Magalia","name":"Jordan Dobrich","geo_score":0.643,"year":"FR","id":"a63fjt51zqdb","geo_precision":"city","position":"Linebacker","state":"Calif."},"type":"Feature","geometry":{"type":"Point","coordinates":[-158.151944,21.584167]}},{"properties":{"city":"San Diego","name":"Chance Early","geo_score":0.714,"year":"FR","id":"a63fjt5febph","geo_precision":"city","position":"Wide Receiver","state":"Calif."},"type":"Feature","geometry":{"type":"Point","coordinates":[-117.157255,32.715329]}},{"properties":{"city":"Pago Pago","name":"Willie Faataualofa","geo_score":0.786,"year":"RS SR","id":"a63fjsqeg5se","geo_precision":"city","position":"Defensive Line","state":"American Samoa"},"type":"Feature","geometry":{"type":"Point","coordinates":[-170.605278,-14.275]}},{"properties":{"city":"Brea","name":"Cody Fajardo","geo_score":0.686,"year":"RS FR","id":"a63fjsxd3e2d","geo_precision":"city","position":"Quarterback","state":"Calif."},"type":"Feature","geometry":{"type":"Point","coordinates":[-91.700682,33.339284]}},{"properties":{"city":"Elk Grove","name":"Evan Favors","geo_score":0.625,"year":"RS FR","id":"a63fjt5fnxle","geo_precision":"city","position":"Defensive Back","state":"Calif."},"type":"Feature","geometry":{"type":"Point","coordinates":[-100.924045,39.959725]}},{"properties":{"city":"Esparto","name":"Sam Foster","geo_score":0.714,"year":"SO","id":"a63fjsu7cv5s","geo_precision":"city","position":"Linebacker","state":"Calif."},"type":"Feature","geometry":{"type":"Point","coordinates":[-122.100884,38.779509]}},{"properties":{"city":"Olivehurst","name":"Isaiah Frey","geo_score":0.714,"year":"SR","id":"a63fjt3g2wsq","geo_precision":"city","position":"Defensive Back","state":"Calif."},"type":"Feature","geometry":{"type":"Point","coordinates":[-121.391149,39.214767]}},{"properties":{"city":"Placentia","name":"Scott Frisbie","geo_score":0.714,"year":"SR","id":"a63fjsvaa7sj","geo_precision":"city","position":"Offensive Line","state":"Calif."},"type":"Feature","geometry":{"type":"Point","coordinates":[-117.870336,33.872237]}},{"properties":{"city":"Modesto","name":"Matt Galas","geo_score":0.714,"year":"RS FR","id":"a63fjt1kbmse","geo_precision":"city","position":"Offensive Line","state":"Calif."},"type":"Feature","geometry":{"type":"Point","coordinates":[-86.548332,39.269769]}},{"properties":{"city":"Los Angeles","name":"Charles Garrett","geo_score":0.714,"year":"RS FR","id":"a63fjszyo4rn","geo_precision":"city","position":"Defensive Back","state":"Calif."},"type":"Feature","geometry":{"type":"Point","coordinates":[-118.243685,34.052234]}},{"properties":{"city":"Long Beach","name":"Ryan Goforth","geo_score":0.714,"year":"FR","id":"a63fjt0omd20","geo_precision":"city","position":"Linebacker","state":"Calif."},"type":"Feature","geometry":{"type":"Point","coordinates":[-118.189235,33.766962]}},{"properties":{"city":"Tulare","name":"Jeremiah Green","geo_score":0.595,"year":"JR","id":"a63fjswctwty","geo_precision":"city","position":"Linebacker","state":"Calif."},"type":"Feature","geometry":{"type":"Point","coordinates":[-112.443504,34.823077]}},{"properties":{"city":"Danville","name":"Brandon Grinstead","geo_score":0.714,"year":"RS FR","id":"a63fjsssc5z0","geo_precision":"city","position":"Offensive Line","state":"Calif."},"type":"Feature","geometry":{"type":"Point","coordinates":[-79.395023,36.585972]}},{"properties":{"city":"Valencia","name":"Nick Hale","geo_score":0.714,"year":"JR","id":"a63fjt0qpdn3","geo_precision":"city","position":"Running Back","state":"Calif."},"type":"Feature","geometry":{"type":"Point","coordinates":[-112.584054,33.379486]}},{"properties":{"city":"Scottsdale","name":"Steve Haley","geo_score":0.714,"year":"SR","id":"a63fjsrcq6gf","geo_precision":"city","position":"Offensive Line","state":"Ariz."},"type":"Feature","geometry":{"type":"Point","coordinates":[-111.899033,33.50921]}},{"properties":{"city":"Fair Oaks","name":"Lawrence Hall","geo_score":0.607,"year":"FR","id":"a63fjsrsnt5w","geo_precision":"city","position":"Running Back","state":"Calif."},"type":"Feature","geometry":{"type":"Point","coordinates":[-110.29508,31.556762]}},{"properties":{"city":"Los Angeles","name":"Jordan Hanson","geo_score":0.714,"year":"FR","id":"a63fjt3ctpb4","geo_precision":"city","position":"Defensive Line","state":"Calif."},"type":"Feature","geometry":{"type":"Point","coordinates":[-118.243685,34.052234]}},{"properties":{"city":"Newport Beach","name":"Allen Hardison","geo_score":0.595,"year":"JR","id":"a63fjsu4aizp","geo_precision":"city","position":"Kicker","state":"Calif."},"type":"Feature","geometry":{"type":"Point","coordinates":[-87.861397,31.971263]}},{"properties":{"city":"Vacaville","name":"Brock Hekking","geo_score":0.671,"year":"RS FR","id":"a63fjsqcok4v","geo_precision":"city","position":"Defensive End","state":"Calif."},"type":"Feature","geometry":{"type":"Point","coordinates":[-77.475542,39.385935]}},{"properties":{"city":"Simi Valley","name":"Randy Horton","geo_score":0.614,"year":"SO","id":"a63fjsudgepd","geo_precision":"city","position":"Tight End","state":"Calif."},"type":"Feature","geometry":{"type":"Point","coordinates":[-92.820441,33.699554]}},{"properties":{"city":"Exeter","name":"Tyler Houk","geo_score":0.714,"year":"SO","id":"a63fjt0fgpbt","geo_precision":"city","position":"Defensive End","state":"Calif."},"type":"Feature","geometry":{"type":"Point","coordinates":[-72.264247,41.619821]}},{"properties":{"city":"Las Vegas","name":"Joseph Huber","geo_score":0.714,"year":"SO","id":"a63fjsq0uqvz","geo_precision":"city","position":"Wide Receiver","state":"Nev."},"type":"Feature","geometry":{"type":"Point","coordinates":[-115.137223,36.174971]}},{"properties":{"city":"Tain Harte","name":"Jake Hurst","geo_score":0.619,"year":"SR","id":"a63fjsrbwpyk","geo_precision":"city","position":"Punter","state":"Calif."},"type":"Feature","geometry":{"type":"Point","coordinates":[-91.714867,36.323677]}},{"properties":{"city":"Los Angeles","name":"Malik James","geo_score":0.714,"year":"JR","id":"a63fjt298th8","geo_precision":"city","position":"Defensive Back","state":"Calif."},"type":"Feature","geometry":{"type":"Point","coordinates":[-118.243685,34.052234]}},{"properties":{"city":"Reno","name":"David Jamieson","geo_score":0.714,"year":"SO","id":"a63fjsqrbb2b","geo_precision":"city","position":"Defensive Line","state":"Nev."},"type":"Feature","geometry":{"type":"Point","coordinates":[-119.813803,39.529633]}},{"properties":{"city":"Lake Tahoe","name":"Stephen Jeffers","geo_score":0.603,"year":"SO","id":"a63fjsz8w2l5","geo_precision":"city","position":"Tight End","state":"Calif."},"type":"Feature","geometry":{"type":"Point","coordinates":[-85.214934,31.965715]}},{"properties":{"city":"Visalia","name":"Stefphon Jefferson","geo_score":0.714,"year":"SO","id":"a63fjsxmm4l2","geo_precision":"city","position":"Running Back","state":"Calif."},"type":"Feature","geometry":{"type":"Point","coordinates":[-119.292059,36.330228]}},{"properties":{"city":"Fairfield","name":"James-Michael Johnson","geo_score":0.643,"year":"SR","id":"a63fjsyp3gem","geo_precision":"city","position":"Linebacker","state":"Calif."},"type":"Feature","geometry":{"type":"Point","coordinates":[-86.942493,33.453442]}},{"properties":{"city":"Los Angeles","name":"Marlon Johnson","geo_score":0.714,"year":"JR","id":"a63fjsto73ov","geo_precision":"city","position":"Defensive Back","state":"Calif."},"type":"Feature","geometry":{"type":"Point","coordinates":[-118.243685,34.052234]}},{"properties":{"city":"San Leandro","name":"Lenny Jones","geo_score":0.614,"year":"FR","id":"a63fjsr4h9ok","geo_precision":"city","position":"Defensive End","state":"Calif."},"type":"Feature","geometry":{"type":"Point","coordinates":[-92.372932,35.190361]}},{"properties":{"city":"Bakersfield","name":"Bryson Keeton","geo_score":0.714,"year":"FR","id":"a63fjt2u3rwe","geo_precision":"city","position":"Defensive Back","state":"Calif."},"type":"Feature","geometry":{"type":"Point","coordinates":[-119.018713,35.373292]}},{"properties":{"city":"Groton","name":"Tony Knight","geo_score":0.619,"year":"FR","id":"a63fjt5d1tro","geo_precision":"city","position":"Running Back","state":"Mass."},"type":"Feature","geometry":{"type":"Point","coordinates":[-88.183363,33.15679]}},{"properties":{"city":"Roseville","name":"Tyler Lantrip","geo_score":0.714,"year":"SR","id":"a63fjswzc85l","geo_precision":"city","position":"Quarterback","state":"Calif."},"type":"Feature","geometry":{"type":"Point","coordinates":[-93.775474,35.382587]}},{"properties":{"city":"Duvall","name":"Gabe Lee","geo_score":0.714,"year":"RS FR","id":"a63fjt54wx71","geo_precision":"city","position":"Defensive Back","state":"Wash."},"type":"Feature","geometry":{"type":"Point","coordinates":[-86.241895,31.27628]}},{"properties":{"city":"Danville","name":"Corbin Louks","geo_score":0.714,"year":"SR","id":"a63fjt1p4nyl","geo_precision":"city","position":"Wide Receiver","state":"Calif."},"type":"Feature","geometry":{"type":"Point","coordinates":[-79.395023,36.585972]}},{"properties":{"city":"Highland","name":"Orie Lupear","geo_score":0.714,"year":"SO","id":"a63fjt5pqlcm","geo_precision":"city","position":"Defensive Line","state":"Calif."},"type":"Feature","geometry":{"type":"Point","coordinates":[-85.825519,33.355668]}},{"properties":{"city":"Reno","name":"Nathan Lytle","geo_score":0.714,"year":"RS FR","id":"a63fjt5kjqjf","geo_precision":"city","position":"Running Back","state":"Nev."},"type":"Feature","geometry":{"type":"Point","coordinates":[-119.813803,39.529633]}},{"properties":{"city":"Danville","name":"Zack Madonick","geo_score":0.714,"year":"SR","id":"a63fjsr43mjh","geo_precision":"city","position":"Defensive Line","state":"Calif."},"type":"Feature","geometry":{"type":"Point","coordinates":[-79.395023,36.585972]}},{"properties":{"city":"Loomis","name":"Mason Magleby","geo_score":0.714,"year":"SO","id":"a63fjszoeyr7","geo_precision":"city","position":"Quarterback","state":"Calif."},"type":"Feature","geometry":{"type":"Point","coordinates":[-84.666124,43.793638]}},{"properties":{"city":"Fresno","name":"Lampford Mark","geo_score":0.714,"year":"SR","id":"a63fjt3llcm9","geo_precision":"city","position":"Running Back","state":"Calif."},"type":"Feature","geometry":{"type":"Point","coordinates":[-119.772366,36.747727]}},{"properties":{"city":"North Las Vegas","name":"Brandon M. Marshall","geo_score":0.659,"year":"SR","id":"a63fjt0qgyuc","geo_precision":"city","position":"Linebacker","state":"Nev."},"type":"Feature","geometry":{"type":"Point","coordinates":[-115.137223,36.174971]}},{"properties":{"city":"Reno","name":"Anthony Martinez","geo_score":0.714,"year":"SO","id":"a63fjt4s6pkc","geo_precision":"city","position":"Kicker","state":"Nev."},"type":"Feature","geometry":{"type":"Point","coordinates":[-119.813803,39.529633]}},{"properties":{"city":"Santa Ana","name":"Rishard Matthews","geo_score":0.625,"year":"SR","id":"a63fjsreqdim","geo_precision":"city","position":"Wide Receiver","state":"Calif."},"type":"Feature","geometry":{"type":"Point","coordinates":[-111.85254,40.569992]}},{"properties":{"city":"Waterford","name":"Marcus McIlwain","geo_score":0.603,"year":"JR","id":"a63fjt5qtule","geo_precision":"city","position":"Linebacker","state":"Calif."},"type":"Feature","geometry":{"type":"Point","coordinates":[-158.441111,59.069167]}},{"properties":{"city":"Los Angeles","name":"Jonathan McNeal","geo_score":0.714,"year":"SO","id":"a63fjswy78xw","geo_precision":"city","position":"Linebacker","state":"Calif."},"type":"Feature","geometry":{"type":"Point","coordinates":[-118.243685,34.052234]}},{"properties":{"city":"San Ramon","name":"Jeff Meads","geo_score":0.625,"year":"SR","id":"a63fjsuickpc","geo_precision":"city","position":"Offensive Line","state":"Calif."},"type":"Feature","geometry":{"type":"Point","coordinates":[-86.730005,39.327268]}},{"properties":{"city":"Santa Monica","name":"Mike Mitchell","geo_score":0.61,"year":"RS FR","id":"a63fjstrx4yj","geo_precision":"city","position":"Offensive Line","state":"Calif."},"type":"Feature","geometry":{"type":"Point","coordinates":[-111.85254,40.569992]}},{"properties":{"city":"Fresno","name":"Jordan Mudge","geo_score":0.714,"year":"SR","id":"a63fjstncbmy","geo_precision":"city","position":"Offensive Line","state":"Calif."},"type":"Feature","geometry":{"type":"Point","coordinates":[-119.772366,36.747727]}},{"properties":{"city":"Minden","name":"Jeff Nady","geo_score":0.653,"year":"JR","id":"a63fjt4b4q4m","geo_precision":"city","position":"Offensive Line","state":"Nev."},"type":"Feature","geometry":{"type":"Point","coordinates":[-94.069091,36.287298]}},{"properties":{"city":"Reno","name":"Nick Palko","geo_score":0.714,"year":"FR","id":"a63fjsxqsxqm","geo_precision":"city","position":"Wide Receiver","state":"Nev."},"type":"Feature","geometry":{"type":"Point","coordinates":[-119.813803,39.529633]}},{"properties":{"city":"Clovis","name":"Kyle Papendorf","geo_score":0.667,"year":"RS FR","id":"a63fjsywdyjb","geo_precision":"city","position":"Offensive Line","state":"Calif."},"type":"Feature","geometry":{"type":"Point","coordinates":[-93.0452,42.472758]}},{"properties":{"city":"La Habra","name":"Jake Peppard","geo_score":0.612,"year":"JR","id":"a63fjt3i6ql6","geo_precision":"city","position":"Defensive End","state":"Calif."},"type":"Feature","geometry":{"type":"Point","coordinates":[-122.851489,45.491784]}},{"properties":{"city":"Wheatland","name":"Alex Pinto","geo_score":0.615,"year":"JR","id":"a63fjsyews1y","geo_precision":"city","position":"Offensive Line","state":"Calif."},"type":"Feature","geometry":{"type":"Point","coordinates":[-118.60592,34.168339]}},{"properties":{"city":"Moreno Valley","name":"Avery Poates","geo_score":0.607,"year":"RS FR","id":"a63fjsz2nz3i","geo_precision":"city","position":"Offensive Line","state":"Calif."},"type":"Feature","geometry":{"type":"Point","coordinates":[-92.820441,33.699554]}},{"properties":{"city":"Newport Beach","name":"Clay Reinhardt","geo_score":0.595,"year":"FR","id":"a63fjsrv39pi","geo_precision":"city","position":"Wide Receiver","state":"Calif."},"type":"Feature","geometry":{"type":"Point","coordinates":[-87.861397,31.971263]}},{"properties":{"city":"Loomis","name":"Jack Reynoso","geo_score":0.714,"year":"SO","id":"a63fjt5f6113","geo_precision":"city","position":"Defensive Line","state":"Calif."},"type":"Feature","geometry":{"type":"Point","coordinates":[-84.666124,43.793638]}},{"properties":{"city":"San Bernardino","name":"DeAndre Roberts","geo_score":0.714,"year":"RS FR","id":"a63fjssjlqdf","geo_precision":"city","position":"Offensive Line","state":"Calif."},"type":"Feature","geometry":{"type":"Point","coordinates":[-117.289765,34.108345]}},{"properties":{"city":"Sparks","name":"Kyle Roberts","geo_score":0.714,"year":"RS FR","id":"a63fjsx5bzrd","geo_precision":"city","position":"Offensive Line","state":"Nev."},"type":"Feature","geometry":{"type":"Point","coordinates":[-108.817058,40.918017]}},{"properties":{"city":"Bozeman","name":"Tanner Roderick","geo_score":0.694,"year":"FR","id":"a63fjsqfjqde","geo_precision":"city","position":"Quarterback","state":"Mont."},"type":"Feature","geometry":{"type":"Point","coordinates":[-76.273704,38.74955]}},{"properties":{"city":"Antioch","name":"Albert Rosette","geo_score":0.714,"year":"JR","id":"a63fjszqbx8w","geo_precision":"city","position":"Defensive End","state":"Calif."},"type":"Feature","geometry":{"type":"Point","coordinates":[-85.889115,31.759048]}},{"properties":{"city":"Yucaipa","name":"Brett Roy","geo_score":0.714,"year":"SR","id":"a63fjt11bcjd","geo_precision":"city","position":"Defensive Line","state":"Calif."},"type":"Feature","geometry":{"type":"Point","coordinates":[-116.971138,34.06226]}},{"properties":{"city":"Long Beach","name":"Tray Session","geo_score":0.714,"year":"SR","id":"a63fjsydcei1","geo_precision":"city","position":"Wide Receiver","state":"Calif."},"type":"Feature","geometry":{"type":"Point","coordinates":[-118.189235,33.766962]}},{"properties":{"city":"Los Angeles","name":"Erik Stewart","geo_score":0.714,"year":"JR","id":"a63fjt40ttwu","geo_precision":"city","position":"Tight End","state":"Calif."},"type":"Feature","geometry":{"type":"Point","coordinates":[-118.243685,34.052234]}},{"properties":{"city":"Modesto","name":"Zach Sudfeld","geo_score":0.714,"year":"SR","id":"a63fjt1kgwt1","geo_precision":"city","position":"Tight End","state":"Calif."},"type":"Feature","geometry":{"type":"Point","coordinates":[-86.548332,39.269769]}},{"properties":{"city":"San Ramon","name":"Trevor Taft","geo_score":0.625,"year":"FR","id":"a63fjsqmspjt","geo_precision":"city","position":"Linebacker","state":"Calif."},"type":"Feature","geometry":{"type":"Point","coordinates":[-86.730005,39.327268]}},{"properties":{"city":"Reno","name":"Connor Talbott","geo_score":0.714,"year":"FR","id":"a63fjsu3d8rm","geo_precision":"city","position":"Offensive Line","state":"Nev."},"type":"Feature","geometry":{"type":"Point","coordinates":[-119.813803,39.529633]}},{"properties":{"city":"Oskaloosa","name":"Chase Tenpenny","geo_score":0.714,"year":"JR","id":"a63fjssmzep7","geo_precision":"city","position":"Punter","state":"Kan."},"type":"Feature","geometry":{"type":"Point","coordinates":[-88.64894,38.759769]}},{"properties":{"city":"Winnemucca","name":"Will Thacker","geo_score":0.629,"year":"FR","id":"a63fjt0y6sqv","geo_precision":"city","position":"Defensive Line","state":"Nev."},"type":"Feature","geometry":{"type":"Point","coordinates":[-84.064946,41.626996]}},{"properties":{"city":"Shafter","name":"Tyler Thompson","geo_score":0.714,"year":"JR","id":"a63fjsq7nnny","geo_precision":"city","position":"Defensive Back","state":"Calif."},"type":"Feature","geometry":{"type":"Point","coordinates":[-89.185071,39.013656]}},{"properties":{"city":"El cajon","name":"Sebastian Tretola","geo_score":0.612,"year":"FR","id":"a63fjt2cevb7","geo_precision":"city","position":"Offensive Line","state":"Calif."},"type":"Feature","geometry":{"type":"Point","coordinates":[-92.896003,35.902299]}},{"properties":{"city":"Del Mar","name":"Parker Vail","geo_score":0.595,"year":"RS FR","id":"a63fjssgw3qv","geo_precision":"city","position":"Wide Receiver","state":"Calif."},"type":"Feature","geometry":{"type":"Point","coordinates":[-86.345808,32.933734]}},{"properties":{"city":"Stockton","name":"L.J. Washington","geo_score":0.651,"year":"SO","id":"a63fjsy80qgj","geo_precision":"city","position":"Wide Receiver","state":"Calif."},"type":"Feature","geometry":{"type":"Point","coordinates":[-86.027191,33.422887]}},{"properties":{"city":"Reno","name":"Duke Williams","geo_score":0.714,"year":"JR","id":"a63fjt3zcmmp","geo_precision":"city","position":"Defensive Back","state":"Nev."},"type":"Feature","geometry":{"type":"Point","coordinates":[-119.813803,39.529633]}},{"properties":{"city":"Los Angeles","name":"Brandon Wimberly","geo_score":0.714,"year":"JR","id":"a63fjsxi5c2f","geo_precision":"city","position":"Wide Receiver","state":"Calif."},"type":"Feature","geometry":{"type":"Point","coordinates":[-118.243685,34.052234]}},{"properties":{"city":"Rialto","name":"Khalid Wooten","geo_score":0.714,"year":"JR","id":"a63fjss499ym","geo_precision":"city","position":"Defensive Back","state":"Calif."},"type":"Feature","geometry":{"type":"Point","coordinates":[-84.451887,39.325613]}},{"properties":{"city":"Fresno","name":"Rykeem Yates","geo_score":0.714,"year":"FR","id":"a63fjt1om7fn","geo_precision":"city","position":"Defensive Line","state":"Calif."},"type":"Feature","geometry":{"type":"Point","coordinates":[-119.772366,36.747727]}},{"properties":{"city":"Las Vegas","name":"Logan Yunker","geo_score":0.714,"year":"FR","id":"a63fjsttj7yk","geo_precision":"city","position":"Punter","state":"Nev."},"type":"Feature","geometry":{"type":"Point","coordinates":[-115.137223,36.174971]}}],"is_temporal":false,"author":{"url":"","metadata":"","contact_name":"","contact_address":"","source":"","contact_phone":""},"source":"","pagination":{"sort":null,"start":0,"total":99,"limit":1000000},"state":"complete","tags":"football,nevada,pack,rgj,wac,wolf","published":"2011-09-19T16:00:00Z","id":157090}