{"type":"FeatureCollection","data_type":"Dataset","url_type":null,"permissions":[{"permissions":{"download":true,"view":true},"group_id":"everyone"}],"classification":null,"title":"latino population in MA","count":31,"stream_id":157489,"contributor":{"url":"http://geocommons.com/users/33149","name":"haverhill01835"},"data_attributes":null,"calculation_params":null,"icon_link":null,"link":"http://geocommons.com/overlays/157489.json","extent":[-72.7693,41.8198,-70.8538,42.7926],"geometry_types":["point"],"unique_name":null,"name":"latino population in MA","feature_count":31,"description":"","next_feature":null,"is_raster":false,"short_classification":"Y","stats":{"latino population":{"max":59.7,"mean":13.0870967741935,"variance":182.393827956989,"stdev":13.5053259108023,"min":1.8,"median":8.8}},"features":[{"properties":{"city":"Attleboro","geo_score":0.857,"latino population":4.3,"id":"a68w4xbi59n5","geo_precision":"city","state":"MA"},"type":"Feature","geometry":{"type":"Point","coordinates":[-71.302297,41.938976]}},{"properties":{"city":"Beverly","geo_score":0.857,"latino population":1.8,"id":"a68w4xhjl5si","geo_precision":"city","state":"MA"},"type":"Feature","geometry":{"type":"Point","coordinates":[-70.853843,42.565145]}},{"properties":{"city":"Boston","geo_score":0.857,"latino population":14.4,"id":"a68w4xnzmoao","geo_precision":"city","state":"MA"},"type":"Feature","geometry":{"type":"Point","coordinates":[-71.059773,42.358431]}},{"properties":{"city":"Brockton","geo_score":0.857,"latino population":8.0,"id":"a68w4xndov0x","geo_precision":"city","state":"MA"},"type":"Feature","geometry":{"type":"Point","coordinates":[-71.018379,42.083434]}},{"properties":{"city":"Cambridge","geo_score":0.813,"latino population":7.4,"id":"a68w4xbzd2dg","geo_precision":"city","state":"MA"},"type":"Feature","geometry":{"type":"Point","coordinates":[-71.103663,42.358431]}},{"properties":{"city":"Chelsea","geo_score":0.857,"latino population":48.4,"id":"a68w4xjafjaz","geo_precision":"city","state":"MA"},"type":"Feature","geometry":{"type":"Point","coordinates":[-71.038894,42.378197]}},{"properties":{"city":"Chicopee","geo_score":0.857,"latino population":8.8,"id":"a68w4x9wctbh","geo_precision":"city","state":"MA"},"type":"Feature","geometry":{"type":"Point","coordinates":[-72.607867,42.148704]}},{"properties":{"city":"Everett","geo_score":0.857,"latino population":9.5,"id":"a68w4xka7doz","geo_precision":"city","state":"MA"},"type":"Feature","geometry":{"type":"Point","coordinates":[-71.051183,42.407396]}},{"properties":{"city":"Fall River","geo_score":0.857,"latino population":3.3,"id":"a68w4xhpnlac","geo_precision":"city","state":"MA"},"type":"Feature","geometry":{"type":"Point","coordinates":[-71.165971,41.819766]}},{"properties":{"city":"Fitchburg","geo_score":0.743,"latino population":15.0,"id":"a68w4x8hw17o","geo_precision":"city","state":"MA"},"type":"Feature","geometry":{"type":"Point","coordinates":[-71.247831,42.065377]}},{"properties":{"city":"Haverhill","geo_score":0.857,"latino population":8.8,"id":"a68w4xi3jx5j","geo_precision":"city","state":"MA"},"type":"Feature","geometry":{"type":"Point","coordinates":[-71.072501,42.792639]}},{"properties":{"city":"Holyoke","geo_score":0.857,"latino population":41.4,"id":"a68w4xggbrvj","geo_precision":"city","state":"MA"},"type":"Feature","geometry":{"type":"Point","coordinates":[-72.64207,42.198291]}},{"properties":{"city":"Lawrence","geo_score":0.857,"latino population":59.7,"id":"a68w4xnt4sdf","geo_precision":"city","state":"MA"},"type":"Feature","geometry":{"type":"Point","coordinates":[-71.161052,42.70734]}},{"properties":{"city":"Leominster","geo_score":0.857,"latino population":11.0,"id":"a68w4xhax3oz","geo_precision":"city","state":"MA"},"type":"Feature","geometry":{"type":"Point","coordinates":[-71.837509,42.471316]}},{"properties":{"city":"Lowell","geo_score":0.857,"latino population":14.0,"id":"a68w4x931wue","geo_precision":"city","state":"MA"},"type":"Feature","geometry":{"type":"Point","coordinates":[-71.459405,42.446396]}},{"properties":{"city":"Lynn","geo_score":0.857,"latino population":18.4,"id":"a68w4xhlkknz","geo_precision":"city","state":"MA"},"type":"Feature","geometry":{"type":"Point","coordinates":[-70.946743,42.461246]}},{"properties":{"city":"Malden","geo_score":0.857,"latino population":4.8,"id":"a68w4x9m26rz","geo_precision":"city","state":"MA"},"type":"Feature","geometry":{"type":"Point","coordinates":[-71.085396,42.436545]}},{"properties":{"city":"Marlborough","geo_score":0.818,"latino population":6.1,"id":"a68w4xm7xffb","geo_precision":"city","state":"MA"},"type":"Feature","geometry":{"type":"Point","coordinates":[-70.97311,42.716759]}},{"properties":{"city":"Methuen","geo_score":0.857,"latino population":9.6,"id":"a68w4xam546k","geo_precision":"city","state":"MA"},"type":"Feature","geometry":{"type":"Point","coordinates":[-71.186915,42.73184]}},{"properties":{"city":"New Bedford","geo_score":0.755,"latino population":10.2,"id":"a68w4xo6ls54","geo_precision":"city","state":"MA"},"type":"Feature","geometry":{"type":"Point","coordinates":[-71.270891,42.516205]}},{"properties":{"city":"Northhampton","geo_score":0.845,"latino population":5.2,"id":"a68w4xas7d6z","geo_precision":"city","state":"MA"},"type":"Feature","geometry":{"type":"Point","coordinates":[-72.76927,42.415154]}},{"properties":{"city":"Peabody","geo_score":0.857,"latino population":3.4,"id":"a68w4xi4qq4c","geo_precision":"city","state":"MA"},"type":"Feature","geometry":{"type":"Point","coordinates":[-70.973646,42.536996]}},{"properties":{"city":"Revere","geo_score":0.857,"latino population":9.4,"id":"a68w4xa63316","geo_precision":"city","state":"MA"},"type":"Feature","geometry":{"type":"Point","coordinates":[-71.020494,42.366303]}},{"properties":{"city":"Salem","geo_score":0.857,"latino population":11.2,"id":"a68w4x92inys","geo_precision":"city","state":"MA"},"type":"Feature","geometry":{"type":"Point","coordinates":[-70.873647,42.642845]}},{"properties":{"city":"Somerville","geo_score":0.857,"latino population":8.8,"id":"a68w4xa7nkdl","geo_precision":"city","state":"MA"},"type":"Feature","geometry":{"type":"Point","coordinates":[-71.098896,42.38092]}},{"properties":{"city":"Springfield","geo_score":0.857,"latino population":27.2,"id":"a68w4xm53pa7","geo_precision":"city","state":"MA"},"type":"Feature","geometry":{"type":"Point","coordinates":[-72.589811,42.101483]}},{"properties":{"city":"Taunton","geo_score":0.857,"latino population":3.9,"id":"a68w4xlsnvrj","geo_precision":"city","state":"MA"},"type":"Feature","geometry":{"type":"Point","coordinates":[-71.092827,41.858851]}},{"properties":{"city":"Waltham","geo_score":0.857,"latino population":8.5,"id":"a68w4xhyku8q","geo_precision":"city","state":"MA"},"type":"Feature","geometry":{"type":"Point","coordinates":[-71.2398,42.388938]}},{"properties":{"city":"Westfield","geo_score":0.81,"latino population":5.0,"id":"a68w4xex2mjk","geo_precision":"city","state":"MA"},"type":"Feature","geometry":{"type":"Point","coordinates":[-71.135602,41.886212]}},{"properties":{"city":"Woburn","geo_score":0.857,"latino population":3.1,"id":"a68w4xh1gg6g","geo_precision":"city","state":"MA"},"type":"Feature","geometry":{"type":"Point","coordinates":[-71.157271,42.488595]}},{"properties":{"city":"Worcester","geo_score":0.857,"latino population":15.1,"id":"a68w4xgyup7t","geo_precision":"city","state":"MA"},"type":"Feature","geometry":{"type":"Point","coordinates":[-71.802293,42.262593]}}],"is_temporal":false,"author":{"url":"","metadata":"","contact_name":"","contact_address":"","source":"","contact_phone":""},"source":"","pagination":{"sort":null,"start":0,"total":31,"limit":1000000},"state":"complete","tags":"","published":"2014-08-13T07:54:06-04:00","id":157489}