{"type":"FeatureCollection","data_type":"Dataset","url_type":null,"permissions":[{"permissions":{"download":true,"view":true},"group_id":"everyone"}],"classification":null,"title":"Los Angeles LEED certified buildings","count":99,"stream_id":15790,"contributor":{"url":"http://geocommons.com/users/8388","name":"pamcakes1"},"data_attributes":null,"calculation_params":null,"icon_link":null,"link":"http://geocommons.com/overlays/15790.json","extent":[-118.591,33.7355,-117.699,34.4486],"geometry_types":["point"],"unique_name":null,"name":"Los Angeles LEED certified buildings","feature_count":99,"description":"All certified leed buildings in Southern California","next_feature":null,"is_raster":false,"short_classification":"Y","stats":{"latitude":{"max":34.44862742,"mean":34.0485781088776,"variance":0.0131129845074762,"stdev":0.114511940458086,"min":33.735473,"median":34.05094821},"longitude":{"max":-117.6986282,"mean":-118.292036041837,"variance":0.0417748469697209,"stdev":0.204388959999607,"min":-118.590791,"median":-118.3400717}},"features":[{"properties":{"city":"","rating":"","zip":"","latitude":"","project":"","description":"","longitude":"","id":"a62ljzffjbuv","address":"","state":""},"type":"Feature","geometry":null},{"properties":{"city":"Santa Monica","rating":"Gold","zip":90404.0,"latitude":34.0273375,"project":"20th Street Offices","description":"<a href=\"http://www.flickr.com/photos/genwithag/3884816435/\" title=\"3920thstreetoffice by genwithaG215, on Flickr\"><img src=\"http://farm4.static.flickr.com/3554/3884816435_20aed496b3_o.jpg\" width=\"255\" height=\"266\" alt=\"3920thstreetoffice\"></a>","longitude":-118.4779176,"id":"a62ljze1v6vq","address":"1507 20th St","state":"CA"},"type":"Feature","geometry":{"type":"Point","coordinates":[-118.4779176,34.0273375]}},{"properties":{"city":"Pasadena","rating":"Gold","zip":91103.0,"latitude":34.15313611,"project":"45 EUREKA STREET","description":"<a href=\"http://www.flickr.com/photos/genwithag/3487362664/\" title=\"45 Eureka by genwithaG215, on Flickr\"><img src=\"http://farm4.static.flickr.com/3654/3487362664_487bc730ba_o.jpg\" width=\"600\" height=\"471\" alt=\"45 Eureka\"></a>","longitude":-118.1512341,"id":"a62ljzgmw6h8","address":"45 Eureka St","state":"CA"},"type":"Feature","geometry":{"type":"Point","coordinates":[-118.1512341,34.15313611]}},{"properties":{"city":"Los Angeles","rating":"Silver","zip":90036.0,"latitude":34.06216041,"project":"5055 Wilshire","description":"","longitude":-118.3400717,"id":"a62ljzchi6uq","address":"5055 Wilshire Blvd","state":"CA"},"type":"Feature","geometry":{"type":"Point","coordinates":[-118.3400717,34.06216041]}},{"properties":{"city":"Los Angeles","rating":"Silver","zip":90036.0,"latitude":34.06151991,"project":"5600 Wilshire","description":"<a href=\"http://www.flickr.com/photos/genwithag/3890510305/\" title=\"2797753794_7a20c0080e_b by genwithaG215, on Flickr\"><img src=\"http://farm4.static.flickr.com/3438/3890510305_3f61559f9a_o.jpg\" width=\"1024\" height=\"768\" alt=\"2797753794_7a20c0080e_b\"></a>","longitude":-118.3512962,"id":"a62ljziw31qq","address":"5600 Wilshire Blvd","state":"CA"},"type":"Feature","geometry":{"type":"Point","coordinates":[-118.3512962,34.06151991]}},{"properties":{"city":"Beverly Hills","rating":"Certified","zip":90210.0,"latitude":34.06764125,"project":"9595 Wilshire Blvd.","description":"<a href=\"http://www.flickr.com/photos/genwithag/3884816547/\" title=\"439595wilshire by genwithaG215, on Flickr\"><img src=\"http://farm3.static.flickr.com/2550/3884816547_f9f86bb5af_o.jpg\" width=\"432\" height=\"500\" alt=\"439595wilshire\"></a>","longitude":-118.4026242,"id":"a62ljzbbhgcy","address":"9595 Wilshire Blvd","state":"CA"},"type":"Feature","geometry":{"type":"Point","coordinates":[-118.4026242,34.06764125]}},{"properties":{"city":"Los Angeles","rating":"Gold","zip":90015.0,"latitude":34.038993,"project":"AT&amp;T Center Los Angeles","description":"<a href=\"http://www.flickr.com/photos/genwithag/3486547943/\" title=\"attcenter by genwithaG215, on Flickr\"><img src=\"http://farm4.static.flickr.com/3590/3486547943_3e2ba7232f_o.jpg\" width=\"864\" height=\"576\" alt=\"attcenter\"></a>","longitude":-118.265161,"id":"a62ljzbju0cr","address":"1149 South Hill","state":"CA"},"type":"Feature","geometry":{"type":"Point","coordinates":[-118.265161,34.038993]}},{"properties":{"city":"Santa Monica","rating":"Silver","zip":90404.0,"latitude":34.026959,"project":"Allsteel and Gunlocke Showroom","description":"<a href=\"http://www.flickr.com/photos/genwithag/3885613388/\" title=\"52allsteelchicago1 by genwithaG215, on Flickr\"><img src=\"http://farm3.static.flickr.com/2655/3885613388_dec01c46fb_o.jpg\" width=\"470\" height=\"364\" alt=\"52allsteelchicago1\"></a>","longitude":-118.474329,"id":"a62ljzd5kz7y","address":"1620 26th Stree","state":"CA"},"type":"Feature","geometry":{"type":"Point","coordinates":[-118.474329,34.026959]}},{"properties":{"city":"Pasadena","rating":"Certified","zip":91105.0,"latitude":34.12925384,"project":"Art Center College of Design South Campus","description":"<a href=\"http://www.flickr.com/photos/genwithag/3885612870/\" title=\"25ARTCENTERCOLLEGEOFDESIGN by genwithaG215, on Flickr\"><img src=\"http://farm3.static.flickr.com/2518/3885612870_48ceb2c63b_o.jpg\" width=\"500\" height=\"344\" alt=\"25ARTCENTERCOLLEGEOFDESIGN\"></a>","longitude":-118.1486138,"id":"a62ljzdiv94a","address":"950 S. RAYMOND AVENUE","state":"CA"},"type":"Feature","geometry":{"type":"Point","coordinates":[-118.1486138,34.12925384]}},{"properties":{"city":"Los Angeles","rating":"Platinum","zip":90031.0,"latitude":34.07871,"project":"Audubon Center at Debs Park","description":"<a href=\"http://www.flickr.com/photos/genwithag/3884815841/\" title=\"8aduboncenter by genwithaG215, on Flickr\"><img src=\"http://farm4.static.flickr.com/3445/3884815841_c4b790874b_o.jpg\" width=\"450\" height=\"310\" alt=\"8aduboncenter\"></a>","longitude":-118.216105,"id":"a62ljzdv0oyc","address":"4700 North Griffin Avenue","state":"CA"},"type":"Feature","geometry":{"type":"Point","coordinates":[-118.216105,34.07871]}},{"properties":{"city":"Carson","rating":"Gold","zip":90745.0,"latitude":33.80831414,"project":"BP Carson One","description":"<a href=\"http://www.flickr.com/photos/genwithag/3487363036/\" title=\"bpcarson by genwithaG215, on Flickr\"><img src=\"http://farm4.static.flickr.com/3184/3487363036_36c548dc11_o.jpg\" width=\"500\" height=\"333\" alt=\"bpcarson\"></a>","longitude":-118.2359974,"id":"a62ljzh6e3hs","address":"1801 E Sepulveda Blvd","state":"CA"},"type":"Feature","geometry":{"type":"Point","coordinates":[-118.2359974,33.80831414]}},{"properties":{"city":"City Of Industry","rating":"Silver","zip":91746.0,"latitude":34.02882691,"project":"Bentley Prince Street","description":"<a href=\"http://www.flickr.com/photos/genwithag/3491789382/\" title=\"Bentley Prince Street by genwithaG215, on Flickr\"><img src=\"http://farm4.static.flickr.com/3407/3491789382_96d7b18a07_b.jpg\" width=\"1024\" height=\"682\" alt=\"Bentley Prince Street\"></a>","longitude":-117.979643,"id":"a62ljzjgxsug","address":"14641 Don Julian Rd","state":"CA"},"type":"Feature","geometry":{"type":"Point","coordinates":[-117.979643,34.02882691]}},{"properties":{"city":"Claremont","rating":"Silver","zip":91711.0,"latitude":34.110009,"project":"Biology Building","description":"<a href=\"http://www.flickr.com/photos/genwithag/3884815883/\" title=\"10biobuilding by genwithaG215, on Flickr\"><img src=\"http://farm4.static.flickr.com/3523/3884815883_a065e74bb5_o.jpg\" width=\"597\" height=\"396\" alt=\"10biobuilding\"></a>","longitude":-117.719734,"id":"a62ljzchasde","address":"175 W. Sixth St","state":"CA"},"type":"Feature","geometry":{"type":"Point","coordinates":[-117.719734,34.110009]}},{"properties":{"city":"Los Angeles","rating":"Certified","zip":90017.0,"latitude":34.05011674,"project":"Bovis West Office","description":"<a href=\"http://www.flickr.com/photos/genwithag/3884816721/\" title=\"55Bovis by genwithaG215, on Flickr\"><img src=\"http://farm3.static.flickr.com/2528/3884816721_5aee806946_o.jpg\" width=\"436\" height=\"327\" alt=\"55Bovis\"></a>","longitude":-118.2579311,"id":"a62ljzm9jn7l","address":"800 West 6th Street","state":"CA"},"type":"Feature","geometry":{"type":"Point","coordinates":[-118.2579311,34.05011674]}},{"properties":{"city":"Los Angeles","rating":"Certified","zip":90033.0,"latitude":34.04263272,"project":"Boyle Heights Youth Technology &amp; Recreation","description":"<a href=\"http://www.flickr.com/photos/genwithag/3885612772/\" title=\"21boyleheightstechcenter by genwithaG215, on Flickr\"><img src=\"http://farm3.static.flickr.com/2586/3885612772_4929f58df5_o.jpg\" width=\"752\" height=\"500\" alt=\"21boyleheightstechcenter\"></a>","longitude":-118.2223913,"id":"a62ljzd2jutr","address":"1600 East 4th Street","state":"CA"},"type":"Feature","geometry":{"type":"Point","coordinates":[-118.2223913,34.04263272]}},{"properties":{"city":"Los Angeles","rating":"Gold","zip":90017.0,"latitude":34.05094821,"project":"Brookfield Properties Regional Office","description":"<a href=\"http://www.flickr.com/photos/genwithag/3884816465/\" title=\"41brookfieldprop by genwithaG215, on Flickr\"><img src=\"http://farm3.static.flickr.com/2432/3884816465_54145553ce_o.jpg\" width=\"500\" height=\"375\" alt=\"41brookfieldprop\"></a>","longitude":-118.2585943,"id":"a62ljzhsp1pd","address":"601 S. Figueroa Street, 22nd Floor","state":"CA"},"type":"Feature","geometry":{"type":"Point","coordinates":[-118.2585943,34.05094821]}},{"properties":{"city":"Los Angeles","rating":"Silver","zip":90012.0,"latitude":34.05213934,"project":"CalTrans District 7 Headquarters Building","description":"<a href=\"http://www.flickr.com/photos/genwithag/3885612508/\" title=\"7caltran by genwithaG215, on Flickr\"><img src=\"http://farm4.static.flickr.com/3468/3885612508_d9ae8d3611_o.jpg\" width=\"380\" height=\"285\" alt=\"7caltran\"></a>","longitude":-118.2434503,"id":"a62ljzlhyzdl","address":"100 S Main St","state":"CA"},"type":"Feature","geometry":{"type":"Point","coordinates":[-118.2434503,34.05213934]}},{"properties":{"city":"Beverly Hills","rating":"Platinum","zip":90064.0,"latitude":34.03457,"project":"Center for Community Forestry","description":"<a href=\"http://www.flickr.com/photos/genwithag/3885612414/\" title=\"3centerforcommunityforestryr by genwithaG215, on Flickr\"><img src=\"http://farm3.static.flickr.com/2588/3885612414_22189d01f0_o.jpg\" width=\"800\" height=\"525\" alt=\"3centerforcommunityforestryr\"></a>","longitude":-118.42843,"id":"a62ljzmusckk","address":"12601 Mulholland Dr","state":"CA"},"type":"Feature","geometry":{"type":"Point","coordinates":[-118.42843,34.03457]}},{"properties":{"city":"San Pedro","rating":"Certified","zip":90731.0,"latitude":33.735473,"project":"City of Los Angeles Fire Station 36","description":"<a href=\"http://www.flickr.com/photos/genwithag/3885612884/\" title=\"26firestation36 by genwithaG215, on Flickr\"><img src=\"http://farm3.static.flickr.com/2458/3885612884_f3bf37127c_o.jpg\" width=\"492\" height=\"362\" alt=\"26firestation36\"></a>","longitude":-118.2923942,"id":"a62ljzno4tpv","address":"1005 North Gaffey Street","state":"CA"},"type":"Feature","geometry":{"type":"Point","coordinates":[-118.2923942,33.735473]}},{"properties":{"city":"Los Angeles","rating":"Certified","zip":90034.0,"latitude":34.02311243,"project":"City of Los Angeles Fire Station 43","description":"<a href=\"http://www.flickr.com/photos/genwithag/3884816143/\" title=\"22firestation43 by genwithaG215, on Flickr\"><img src=\"http://farm4.static.flickr.com/3426/3884816143_d9360c5123_o.jpg\" width=\"720\" height=\"372\" alt=\"22firestation43\"></a>","longitude":-118.4055325,"id":"a62ljzfg4vc3","address":"3690 Motor Avenue","state":"CA"},"type":"Feature","geometry":{"type":"Point","coordinates":[-118.4055325,34.02311243]}},{"properties":{"city":"Playa del Rey","rating":"Certified","zip":90045.0,"latitude":33.955205,"project":"City of Los Angeles Fire Station 5","description":"<a href=\"http://www.flickr.com/photos/genwithag/3884816157/\" title=\"23firestation5 by genwithaG215, on Flickr\"><img src=\"http://farm3.static.flickr.com/2439/3884816157_73ff6b60c8_o.jpg\" width=\"500\" height=\"325\" alt=\"23firestation5\"></a>","longitude":-118.4043188,"id":"a62ljzlvllja","address":"8900 South Emerson Avenue","state":"CA"},"type":"Feature","geometry":{"type":"Point","coordinates":[-118.4043188,33.955205]}},{"properties":{"city":"Mar Vista","rating":"Certified","zip":90066.0,"latitude":34.00622036,"project":"City of Los Angeles Fire Station 62","description":"","longitude":-118.4282907,"id":"a62ljzgoakie","address":"11970 Venice Boulevard","state":"CA"},"type":"Feature","geometry":{"type":"Point","coordinates":[-118.4282907,34.00622036]}},{"properties":{"city":"Arleta","rating":"Silver","zip":91402.0,"latitude":34.21341686,"project":"City of Los Angeles Fire Station 81","description":"<a href=\"http://www.flickr.com/photos/genwithag/3884816181/\" title=\"24firestation81 by genwithaG215, on Flickr\"><img src=\"http://farm4.static.flickr.com/3482/3884816181_9f9c4420bb_o.jpg\" width=\"1000\" height=\"727\" alt=\"24firestation81\"></a>","longitude":-118.4491823,"id":"a62ljza5imjr","address":"14355 Arminta Street","state":"CA"},"type":"Feature","geometry":{"type":"Point","coordinates":[-118.4491823,34.21341686]}},{"properties":{"city":"Encino","rating":"Certified","zip":91316.0,"latitude":34.160725,"project":"City of Los Angeles Fire Station 83","description":"<a href=\"http://www.flickr.com/photos/genwithag/3885612604/\" title=\"Los Angeles Fire Station 83 by genwithaG215, on Flickr\"><img src=\"http://farm4.static.flickr.com/3526/3885612604_abf8e1c016_o.jpg\" width=\"425\" height=\"320\" alt=\"Los Angeles Fire Station 83\"></a>","longitude":-118.5010258,"id":"a62ljzcpl8kz","address":"4960 Balboa Boulevard","state":"CA"},"type":"Feature","geometry":{"type":"Point","coordinates":[-118.5010258,34.160725]}},{"properties":{"city":"Woodland Hills","rating":"Certified","zip":91367.0,"latitude":34.17351485,"project":"City of Los Angeles Fire Station 84","description":"","longitude":-118.590791,"id":"a62ljzg1pxme","address":"21050 Burbank Boulevard","state":"CA"},"type":"Feature","geometry":{"type":"Point","coordinates":[-118.590791,34.17351485]}},{"properties":{"city":"Claremont","rating":"Silver","zip":91711.0,"latitude":34.11335597,"project":"Claremont Medical Plaza","description":"","longitude":-117.6986282,"id":"a62ljzcwhoo3","address":"1601 Monte Vista Avenue","state":"CA"},"type":"Feature","geometry":{"type":"Point","coordinates":[-117.6986282,34.11335597]}},{"properties":{"city":"Santa Monica","rating":"Gold","zip":90401.0,"latitude":34.01444634,"project":"Colorado Court","description":"<a href=\"http://www.flickr.com/photos/genwithag/3885612440/\" title=\"4coloradocourt1 by genwithaG215, on Flickr\"><img src=\"http://farm3.static.flickr.com/2506/3885612440_4b832201cd_o.jpg\" width=\"540\" height=\"344\" alt=\"4coloradocourt1\"></a>","longitude":-118.4906058,"id":"a62ljzhck3j4","address":"502 Colorado Ave","state":"CA"},"type":"Feature","geometry":{"type":"Point","coordinates":[-118.4906058,34.01444634]}},{"properties":{"city":"Pasadena","rating":"Gold","zip":91101.0,"latitude":34.1427089,"project":"Corporate Center Pasadena","description":"<a href=\"http://www.flickr.com/photos/genwithag/3885613060/\" title=\"37corporatecenterpasadena by genwithaG215, on Flickr\"><img src=\"http://farm3.static.flickr.com/2445/3885613060_814f9ef9cb_o.jpg\" width=\"427\" height=\"341\" alt=\"37corporatecenterpasadena\"></a>","longitude":-118.1325878,"id":"a62ljzhrk3ob","address":"201 South Lake Avenue","state":"CA"},"type":"Feature","geometry":{"type":"Point","coordinates":[-118.1325878,34.1427089]}},{"properties":{"city":"Pasadena","rating":"Gold","zip":91107.0,"latitude":34.16829649,"project":"Earthlink","description":"","longitude":-118.0885584,"id":"a62ljzbqbowe","address":"2947 Bradley Dr.","state":"CA"},"type":"Feature","geometry":{"type":"Point","coordinates":[-118.0885584,34.16829649]}},{"properties":{"city":"Los Angeles","rating":"Gold","zip":90015.0,"latitude":34.03370909,"project":"Elleven South","description":"<a href=\"http://www.flickr.com/photos/genwithag/3487363422/\" title=\"Elleven by genwithaG215, on Flickr\"><img src=\"http://farm4.static.flickr.com/3618/3487363422_ac5f819be1_b.jpg\" width=\"1024\" height=\"683\" alt=\"Elleven\"></a>","longitude":-118.5030105,"id":"a62ljzfoh24y","address":"408 W. 11th St","state":"CA"},"type":"Feature","geometry":{"type":"Point","coordinates":[-118.5030105,34.03370909]}},{"properties":{"city":"Burbank","rating":"Gold","zip":91504.0,"latitude":34.1916163,"project":"Empire Center Office Building","description":"<a href=\"http://www.flickr.com/photos/genwithag/3885613576/\" title=\"73BurbankEmpireCenter by genwithaG215, on Flickr\"><img src=\"http://farm4.static.flickr.com/3508/3885613576_7017ebdd28_o.jpg\" width=\"286\" height=\"351\" alt=\"73BurbankEmpireCenter\"></a>","longitude":-118.33703,"id":"a62ljzgw3q5s","address":"2400 West Empire Blvd","state":"CA"},"type":"Feature","geometry":{"type":"Point","coordinates":[-118.33703,34.1916163]}},{"properties":{"city":"Downey","rating":"Certified","zip":90241.0,"latitude":33.9329433,"project":"Energy Resource Center","description":"<a href=\"http://www.flickr.com/photos/genwithag/3890410799/\" title=\"projectscale.cgi by genwithaG215, on Flickr\"><img src=\"http://farm3.static.flickr.com/2577/3890410799_93470893fe_o.jpg\" width=\"350\" height=\"233\" alt=\"projectscale.cgi\"></a>","longitude":-118.1188415,"id":"a62ljzqdp5v7","address":"9240 Firestone Blvd","state":"CA"},"type":"Feature","geometry":{"type":"Point","coordinates":[-118.1188415,33.9329433]}},{"properties":{"city":"Sun Valley","rating":"Certified","zip":91352.0,"latitude":34.23650663,"project":"Fire Station No. 77","description":"<a href=\"http://www.flickr.com/photos/genwithag/3884815971/\" title=\"13firestation77 by genwithaG215, on Flickr\"><img src=\"http://farm4.static.flickr.com/3458/3884815971_95db756459_o.jpg\" width=\"425\" height=\"320\" alt=\"13firestation77\"></a>","longitude":-118.3671493,"id":"a62ljzpt58sg","address":"9224 Sunland Boulevard","state":"CA"},"type":"Feature","geometry":{"type":"Point","coordinates":[-118.3671493,34.23650663]}},{"properties":{"city":"North Hollywood","rating":"Certified","zip":91605.0,"latitude":34.19908958,"project":"Fire Station No. 89","description":"","longitude":-118.3966032,"id":"a62ljzmzkjt0","address":"7063 Laurel Canyon Boulevard","state":"CA"},"type":"Feature","geometry":{"type":"Point","coordinates":[-118.3966032,34.19908958]}},{"properties":{"city":"Los Angeles","rating":"Certified","zip":90064.0,"latitude":34.05183662,"project":"Fox Studios Building 104","description":"<a href=\"http://www.flickr.com/photos/genwithag/3884816699/\" title=\"54foxstudios by genwithaG215, on Flickr\"><img src=\"http://farm3.static.flickr.com/2525/3884816699_723503d522_o.jpg\" width=\"500\" height=\"333\" alt=\"54foxstudios\"></a>","longitude":-118.4125839,"id":"a62ljzl6ue3v","address":"10201 W Pico Blvd","state":"CA"},"type":"Feature","geometry":{"type":"Point","coordinates":[-118.4125839,34.05183662]}},{"properties":{"city":"Los Angeles","rating":"Silver","zip":90071.0,"latitude":34.04972365,"project":"Gerding Edlen LA TI","description":"","longitude":-118.2556528,"id":"a62ljza4xlnp","address":"550 S Hope St","state":"CA"},"type":"Feature","geometry":{"type":"Point","coordinates":[-118.2556528,34.04972365]}},{"properties":{"city":"Burbank","rating":"Platinum","zip":91505.0,"latitude":34.195956,"project":"Hangar 25","description":"<a href=\"http://www.flickr.com/photos/genwithag/3885613406/\" title=\"53hangar25 by genwithaG215, on Flickr\"><img src=\"http://farm3.static.flickr.com/2550/3885613406_008ac0d786_o.jpg\" width=\"550\" height=\"352\" alt=\"53hangar25\"></a>","longitude":-118.3490022,"id":"a62ljzf9c11q","address":"2627 N Hollywood Way","state":"CA"},"type":"Feature","geometry":{"type":"Point","coordinates":[-118.3490022,34.195956]}},{"properties":{"city":"San Pedro","rating":"Certified","zip":90731.0,"latitude":33.75442784,"project":"Harbor Animal Facility","description":"<a href=\"http://www.flickr.com/photos/genwithag/3884816045/\" title=\"16harboranimal by genwithaG215, on Flickr\"><img src=\"http://farm3.static.flickr.com/2602/3884816045_5698d0a890_o.jpg\" width=\"547\" height=\"400\" alt=\"16harboranimal\"></a>","longitude":-118.293009,"id":"a62ljzb4gwzn","address":"735 W Battery St","state":"CA"},"type":"Feature","geometry":{"type":"Point","coordinates":[-118.293009,33.75442784]}},{"properties":{"city":"Los Angeles","rating":"Certified","zip":90710.0,"latitude":33.80691705,"project":"Harbor Gateway - Harbor City Branch, Los Angeles","description":"<a href=\"http://www.flickr.com/photos/genwithag/3885612944/\" title=\"31harborgateway by genwithaG215, on Flickr\"><img src=\"http://farm3.static.flickr.com/2462/3885612944_5bc5a580f4_o.jpg\" width=\"300\" height=\"150\" alt=\"31harborgateway\"></a>","longitude":-118.307008,"id":"a62ljzbuak98","address":"24000 Western Ave","state":"CA"},"type":"Feature","geometry":{"type":"Point","coordinates":[-118.307008,33.80691705]}},{"properties":{"city":"Los Angeles","rating":"Silver","zip":90017.0,"latitude":34.05094821,"project":"Harley Ellis Devereaux Office","description":"<a href=\"http://www.flickr.com/photos/genwithag/3884816591/\" title=\"46harveyoffice by genwithaG215, on Flickr\"><img src=\"http://farm4.static.flickr.com/3490/3884816591_85f7a8344d_o.jpg\" width=\"591\" height=\"375\" alt=\"46harveyoffice\"></a>","longitude":-118.2585943,"id":"a62ljzarvm6y","address":"601 S Figueroa St","state":"CA"},"type":"Feature","geometry":{"type":"Point","coordinates":[-118.2585943,34.05094821]}},{"properties":{"city":"Claremont","rating":"Certified","zip":91711.0,"latitude":34.110009,"project":"Harvey Mudd College Sontag Residence Hall","description":"<a href=\"http://www.flickr.com/photos/genwithag/3884816081/\" title=\"19harveymuddSontag by genwithaG215, on Flickr\"><img src=\"http://farm3.static.flickr.com/2494/3884816081_9b4e04b217_o.jpg\" width=\"448\" height=\"299\" alt=\"19harveymuddSontag\"></a>","longitude":-117.719734,"id":"a62ljzle6xz9","address":"301 Platt Blvd","state":"CA"},"type":"Feature","geometry":{"type":"Point","coordinates":[-117.719734,34.110009]}},{"properties":{"city":"Los Angeles","rating":"Certified","zip":90035.0,"latitude":34.0591005,"project":"Helios House","description":"<a href=\"http://www.flickr.com/photos/genwithag/3884816659/\" title=\"54helios_house_big by genwithaG215, on Flickr\"><img src=\"http://farm4.static.flickr.com/3431/3884816659_84a371fab5_o.jpg\" width=\"500\" height=\"498\" alt=\"54helios_house_big\"></a>","longitude":-118.3832837,"id":"a62ljzizhb96","address":"8770 W Olympic Blvd","state":"CA"},"type":"Feature","geometry":{"type":"Point","coordinates":[-118.3832837,34.0591005]}},{"properties":{"city":"Los Angeles","rating":"Gold","zip":90016.0,"latitude":34.01973519,"project":"Herman Miller Inc.","description":"","longitude":-118.3785553,"id":"a62ljznvtv75","address":"3641 Holdrege Ave","state":"CA"},"type":"Feature","geometry":{"type":"Point","coordinates":[-118.3785553,34.01973519]}},{"properties":{"city":"Claremont","rating":"Silver","zip":91711.0,"latitude":34.110009,"project":"Hoch-Shanahan Dining Commons, Harvey Mudd","description":"<a href=\"http://www.flickr.com/photos/genwithag/3884816353/\" title=\"36Hoch Shanahan2 by genwithaG215, on Flickr\"><img src=\"http://farm3.static.flickr.com/2436/3884816353_55d2b2cb60_o.jpg\" width=\"448\" height=\"299\" alt=\"36Hoch Shanahan2\"></a>","longitude":-117.719734,"id":"a62ljzdwrzb4","address":"301 Platt Blvd","state":"CA"},"type":"Feature","geometry":{"type":"Point","coordinates":[-117.719734,34.110009]}},{"properties":{"city":"Claremont","rating":"Certified","zip":91711.0,"latitude":34.110009,"project":"Jaquez","description":"","longitude":-117.719734,"id":"a62ljzmm7kvk","address":"175 N. Indian Hills Blvd., Ste. 230","state":"CA"},"type":"Feature","geometry":{"type":"Point","coordinates":[-117.719734,34.110009]}},{"properties":{"city":"Los Angeles","rating":"Certified","zip":90071.0,"latitude":34.05227848,"project":"LA Latham &amp; Watkins","description":"<a href=\"http://www.flickr.com/photos/genwithag/3885613342/\" title=\"48harveymiller by genwithaG215, on Flickr\"><img src=\"http://farm3.static.flickr.com/2556/3885613342_8d499d3c72_o.jpg\" width=\"416\" height=\"323\" alt=\"48harveymiller\"></a>","longitude":-118.2527899,"id":"a62ljzn1f27j","address":"355 S Grand Ave","state":"CA"},"type":"Feature","geometry":{"type":"Point","coordinates":[-118.2527899,34.05227848]}},{"properties":{"city":"Valley Glen","rating":"Certified","zip":91401.0,"latitude":34.175723,"project":"LA Valley College Maintenance &amp; Operations","description":"<a href=\"http://www.flickr.com/photos/genwithag/3884816237/\" title=\"29lavc by genwithaG215, on Flickr\"><img src=\"http://farm3.static.flickr.com/2660/3884816237_05a3eab6f7_o.jpg\" width=\"600\" height=\"334\" alt=\"29lavc\"></a>","longitude":-118.4225238,"id":"a62ljzcaot2z","address":"5800 Fulton Ave","state":"CA"},"type":"Feature","geometry":{"type":"Point","coordinates":[-118.4225238,34.175723]}},{"properties":{"city":"Los Angeles","rating":"Certified","zip":90029.0,"latitude":34.05616104,"project":"LACC MAINTENANCE &amp; OPERATION FACILITY","description":"<a href=\"http://www.flickr.com/photos/genwithag/3890386821/\" title=\"Valley M&amp;O Bdg by genwithaG215, on Flickr\"><img src=\"http://farm4.static.flickr.com/3468/3890386821_e0e9785c28_o.jpg\" width=\"600\" height=\"400\" alt=\"Valley M&amp;O Bdg\"></a>","longitude":-118.2919954,"id":"a62ljzdix7zu","address":"855 N. Vermont Avenue,","state":"CA"},"type":"Feature","geometry":{"type":"Point","coordinates":[-118.2919954,34.05616104]}},{"properties":{"city":"Los Angeles","rating":"Gold","zip":90017.0,"latitude":34.12442415,"project":"LAPD Rampart Replacement Station","description":"<a href=\"http://www.flickr.com/photos/genwithag/3885612960/\" title=\"32Rampart-Police-Station-web-2 by genwithaG215, on Flickr\"><img src=\"http://farm3.static.flickr.com/2621/3885612960_512500fc22_o.jpg\" width=\"500\" height=\"347\" alt=\"32Rampart-Police-Station-web-2\"></a>","longitude":-118.0192997,"id":"a62ljzl8u5w8","address":"1401 West 6th St.","state":"CA"},"type":"Feature","geometry":{"type":"Point","coordinates":[-118.0192997,34.12442415]}},{"properties":{"city":"Sylmar","rating":"Platinum","zip":91342.0,"latitude":34.27653142,"project":"Lake View Terrace Branch Library","description":"<a href=\"http://www.flickr.com/photos/genwithag/3885612396/\" title=\"2lakeviewterrancelibi by genwithaG215, on Flickr\"><img src=\"http://farm4.static.flickr.com/3486/3885612396_1c33488400_o.jpg\" width=\"300\" height=\"150\" alt=\"2lakeviewterrancelibi\"></a>","longitude":-118.3786781,"id":"a62ljzcy05ar","address":"12002 Osborne St","state":"CA"},"type":"Feature","geometry":{"type":"Point","coordinates":[-118.3786781,34.27653142]}},{"properties":{"city":"Santa Monica","rating":"Gold","zip":90006.0,"latitude":34.03011425,"project":"Lantana East","description":"<a href=\"http://www.flickr.com/photos/genwithag/3891218008/\" title=\"lantana-img02 by genwithaG215, on Flickr\"><img src=\"http://farm3.static.flickr.com/2610/3891218008_a0d580e59e_o.jpg\" width=\"600\" height=\"400\" alt=\"lantana-img02\"></a>","longitude":-118.46259,"id":"a62ljznv9t8b","address":"3000 West Olympic Boulevard","state":"CA"},"type":"Feature","geometry":{"type":"Point","coordinates":[-118.46259,34.03011425]}},{"properties":{"city":"Santa Monica","rating":"Gold","zip":90404.0,"latitude":34.02937267,"project":"Lantana South","description":"<a href=\"http://www.flickr.com/photos/genwithag/3891218850/\" title=\"lantana-img03 by genwithaG215, on Flickr\"><img src=\"http://farm3.static.flickr.com/2676/3891218850_e52c5af58e_o.jpg\" width=\"600\" height=\"400\" alt=\"lantana-img03\"></a>","longitude":-118.4595456,"id":"a62ljzarove0","address":"3131 Exposition Blvd","state":"CA"},"type":"Feature","geometry":{"type":"Point","coordinates":[-118.4595456,34.02937267]}},{"properties":{"city":"Los Angeles","rating":"Certified","zip":90045.0,"latitude":33.960041,"project":"Leavey 6, Loyola Marymount University","description":"<a href=\"http://www.flickr.com/photos/genwithag/3890405219/\" title=\"Leavey 6 318x198 by genwithaG215, on Flickr\"><img src=\"http://farm4.static.flickr.com/3449/3890405219_0327be3f63_o.jpg\" width=\"318\" height=\"198\" alt=\"Leavey 6 318x198\"></a>","longitude":-118.394908,"id":"a62ljzn7br3m","address":"1 Loyola Marymount Drive","state":"CA"},"type":"Feature","geometry":{"type":"Point","coordinates":[-118.394908,33.960041]}},{"properties":{"city":"Los Angeles","rating":"Certified","zip":90015.0,"latitude":34.04156775,"project":"Los Angeles Convention Center","description":"<a href=\"http://www.flickr.com/photos/genwithag/3884816673/\" title=\"57laconventionwinhec2007_la_01 by genwithaG215, on Flickr\"><img src=\"http://farm3.static.flickr.com/2525/3884816673_2aaf6a6524_o.jpg\" width=\"800\" height=\"600\" alt=\"57laconventionwinhec2007_la_01\"></a>","longitude":-118.2672787,"id":"a62ljzh7t6hs","address":"1201 S Figueroa St","state":"CA"},"type":"Feature","geometry":{"type":"Point","coordinates":[-118.2672787,34.04156775]}},{"properties":{"city":"Los Angeles","rating":"Silver","zip":90032.0,"latitude":34.06243761,"project":"Los Angeles Regional Crime Lab","description":"<a href=\"http://www.flickr.com/photos/genwithag/3884816263/\" title=\"30LACrimeLab by genwithaG215, on Flickr\"><img src=\"http://farm3.static.flickr.com/2464/3884816263_5c93c6be73_o.jpg\" width=\"283\" height=\"185\" alt=\"30LACrimeLab\"></a>","longitude":-118.1738228,"id":"a62ljzd3smuf","address":"1800 Paseo Rancho Castilla","state":"CA"},"type":"Feature","geometry":{"type":"Point","coordinates":[-118.1738228,34.06243761]}},{"properties":{"city":"Los Angeles","rating":"Silver","zip":90059.0,"latitude":33.92932347,"project":"Los Angeles South West College Child Development Center","description":"<a href=\"http://www.flickr.com/photos/genwithag/3885612898/\" title=\"27southwestjpg by genwithaG215, on Flickr\"><img src=\"http://farm4.static.flickr.com/3492/3885612898_51b598082e_o.jpg\" width=\"750\" height=\"409\" alt=\"27southwestjpg\"></a>","longitude":-118.2458512,"id":"a62ljzcrun0j","address":"1600 Imperial Hwy","state":"CA"},"type":"Feature","geometry":{"type":"Point","coordinates":[-118.2458512,33.92932347]}},{"properties":{"city":"Los Angeles","rating":"Gold","zip":90012.0,"latitude":34.05643742,"project":"Luma South","description":"<a href=\"http://www.flickr.com/photos/genwithag/3486548531/\" title=\"lumasouth by genwithaG215, on Flickr\"><img src=\"http://farm4.static.flickr.com/3386/3486548531_b32c1bbe7b_o.jpg\" width=\"375\" height=\"500\" alt=\"lumasouth\"></a>","longitude":-118.2498531,"id":"a62ljzd8ow3k","address":"100 South Hope Street","state":"CA"},"type":"Feature","geometry":{"type":"Point","coordinates":[-118.2498531,34.05643742]}},{"properties":{"city":"Los Angeles","rating":"Silver","zip":90067.0,"latitude":34.05712363,"project":"MGM Tower","description":"<a href=\"http://www.flickr.com/photos/genwithag/3885613320/\" title=\"47mgmtower by genwithaG215, on Flickr\"><img src=\"http://farm3.static.flickr.com/2427/3885613320_2398e31c42_o.jpg\" width=\"246\" height=\"320\" alt=\"47mgmtower\"></a>","longitude":-118.4174245,"id":"a62ljzfa5k3s","address":"10250 Constellation Blvd","state":"CA"},"type":"Feature","geometry":{"type":"Point","coordinates":[-118.4174245,34.05712363]}},{"properties":{"city":"Long Beach","rating":"Silver","zip":90813.0,"latitude":33.78311637,"project":"Mark Twain/MacArthur Park Branch Library","description":"<a href=\"http://www.flickr.com/photos/genwithag/3885612980/\" title=\"33marktwain by genwithaG215, on Flickr\"><img src=\"http://farm3.static.flickr.com/2649/3885612980_59060e343b_o.jpg\" width=\"250\" height=\"250\" alt=\"33marktwain\"></a>","longitude":-118.2106693,"id":"a62ljzb6h78o","address":"1401 E Anaheim Street","state":"CA"},"type":"Feature","geometry":{"type":"Point","coordinates":[-118.2106693,33.78311637]}},{"properties":{"city":"Beverly Hills","rating":"Gold","zip":90210.0,"latitude":34.06401498,"project":"Montage Hotel Beverly Hills","description":"<a href=\"http://www.flickr.com/photos/genwithag/3884816585/\" title=\"45montagebeverly by genwithaG215, on Flickr\"><img src=\"http://farm3.static.flickr.com/2561/3884816585_8677473088_o.jpg\" width=\"426\" height=\"312\" alt=\"45montagebeverly\"></a>","longitude":-118.3972391,"id":"a62ljzk2o05x","address":"225 North Canon Drive","state":"CA"},"type":"Feature","geometry":{"type":"Point","coordinates":[-118.3972391,34.06401498]}},{"properties":{"city":"Pasadena","rating":"Gold","zip":91103.0,"latitude":34.16271366,"project":"Mothers' Club","description":"<a href=\"http://www.flickr.com/photos/genwithag/3885613364/\" title=\"50mothersclub by genwithaG215, on Flickr\"><img src=\"http://farm3.static.flickr.com/2466/3885613364_7067a40056_o.jpg\" width=\"800\" height=\"533\" alt=\"50mothersclub\"></a>","longitude":-118.150187,"id":"a62ljzmv970i","address":"980 N Fair Oaks Ave","state":"CA"},"type":"Feature","geometry":{"type":"Point","coordinates":[-118.150187,34.16271366]}},{"properties":{"city":"Los Angeles","rating":"Silver","zip":90014.0,"latitude":34.0487243,"project":"NBBJ LA Office T.I.","description":"<a href=\"http://www.flickr.com/photos/genwithag/3885613554/\" title=\"70nbjjti by genwithaG215, on Flickr\"><img src=\"http://farm4.static.flickr.com/3439/3885613554_898a772151_o.jpg\" width=\"519\" height=\"344\" alt=\"70nbjjti\"></a>","longitude":-118.254419,"id":"a62ljzn5wpm1","address":"523 W 6th St","state":"CA"},"type":"Feature","geometry":{"type":"Point","coordinates":[-118.254419,34.0487243]}},{"properties":{"city":"Santa Monica","rating":"Platinum","zip":90401.0,"latitude":34.01567302,"project":"NRDC Southern California Office","description":"<a href=\"http://www.flickr.com/photos/genwithag/3884815705/\" title=\"1nrdc by genwithaG215, on Flickr\"><img src=\"http://farm3.static.flickr.com/2515/3884815705_6f18fd1d04_o.jpg\" width=\"420\" height=\"315\" alt=\"1nrdc\"></a>","longitude":-118.4985072,"id":"a62ljzo6bqsp","address":"1314 2nd St","state":"CA"},"type":"Feature","geometry":{"type":"Point","coordinates":[-118.4985072,34.01567302]}},{"properties":{"city":"Los Angeles","rating":"Silver","zip":90066.0,"latitude":33.97724778,"project":"New Arup LA Office","description":"","longitude":-118.4185592,"id":"a62ljzhhelou","address":"12777 West Jefferson Boulevard","state":"CA"},"type":"Feature","geometry":{"type":"Point","coordinates":[-118.4185592,33.97724778]}},{"properties":{"city":"Los Angeles","rating":"Silver","zip":90031.0,"latitude":34.07871,"project":"North Central Animal Services Center","description":"<a href=\"http://www.flickr.com/photos/genwithag/3884815859/\" title=\"9northcentral by genwithaG215, on Flickr\"><img src=\"http://farm3.static.flickr.com/2502/3884815859_b4cec624ee_o.jpg\" width=\"550\" height=\"345\" alt=\"9northcentral\"></a>","longitude":-118.216105,"id":"a62ljzh0bxcr","address":"3201 Lacy St","state":"CA"},"type":"Feature","geometry":{"type":"Point","coordinates":[-118.216105,34.07871]}},{"properties":{"city":"Los Angeles","rating":"Silver","zip":90067.0,"latitude":34.06270884,"project":"Northrop Grumman Plaza","description":"<a href=\"http://www.flickr.com/photos/genwithag/3885613262/\" title=\"44northropgrumman by genwithaG215, on Flickr\"><img src=\"http://farm3.static.flickr.com/2613/3885613262_6c2ba27357_o.jpg\" width=\"400\" height=\"335\" alt=\"44northropgrumman\"></a>","longitude":-118.4150801,"id":"a62ljzjbhqh7","address":"1800 Century Park East","state":"CA"},"type":"Feature","geometry":{"type":"Point","coordinates":[-118.4150801,34.06270884]}},{"properties":{"city":"Los Angeles","rating":"Silver","zip":90006.0,"latitude":34.050453,"project":"Olympic Area Police Station","description":"","longitude":-118.2915178,"id":"a62ljze3reid","address":"1130 S. Vermont","state":"CA"},"type":"Feature","geometry":{"type":"Point","coordinates":[-118.2915178,34.050453]}},{"properties":{"city":"Los Angeles","rating":"Silver","zip":90064.0,"latitude":34.03588942,"project":"POM Wonderful/Fiji Water","description":"","longitude":-118.4431549,"id":"a62ljza3dald","address":"11444 W Olympic Blvd","state":"CA"},"type":"Feature","geometry":{"type":"Point","coordinates":[-118.4431549,34.03588942]}},{"properties":{"city":"Pasadena","rating":"Gold","zip":91109.0,"latitude":34.147707,"project":"Pasadena City Hall","description":"<a href=\"http://www.flickr.com/photos/genwithag/3891255426/\" title=\"pasadena-cityhall_resized1 by genwithaG215, on Flickr\"><img src=\"http://farm4.static.flickr.com/3424/3891255426_ba558b3e67_o.jpg\" width=\"1280\" height=\"853\" alt=\"pasadena-cityhall_resized1\"></a>","longitude":-118.1443942,"id":"a62ljzeyq59a","address":"101 North Garfield Ave","state":"CA"},"type":"Feature","geometry":{"type":"Point","coordinates":[-118.1443942,34.147707]}},{"properties":{"city":"Claremont","rating":"Gold","zip":91711.0,"latitude":34.08510958,"project":"Pitzer College: Residential Life Project","description":"<a href=\"http://www.flickr.com/photos/genwithag/3891254552/\" title=\"34400-SHonCamp_CrimsonHall by genwithaG215, on Flickr\"><img src=\"http://farm3.static.flickr.com/2460/3891254552_486b3bc8bc_o.jpg\" width=\"450\" height=\"136\" alt=\"34400-SHonCamp_CrimsonHall\"></a>","longitude":-117.7145871,"id":"a62ljzggoh25","address":"550 N College Ave","state":"CA"},"type":"Feature","geometry":{"type":"Point","coordinates":[-117.7145871,34.08510958]}},{"properties":{"city":"Los Angeles","rating":"Certified","zip":90094.0,"latitude":33.9736195,"project":"Playa Vista Fire Station No. 67","description":"<a href=\"http://www.flickr.com/photos/genwithag/3885613030/\" title=\"35firestationplaya by genwithaG215, on Flickr\"><img src=\"http://farm3.static.flickr.com/2590/3885613030_48bc367a4f_o.jpg\" width=\"500\" height=\"375\" alt=\"35firestationplaya\"></a>","longitude":-118.4284234,"id":"a62ljzdiyzxc","address":"5451 Playa Vista Drive","state":"CA"},"type":"Feature","geometry":{"type":"Point","coordinates":[-118.4284234,33.9736195]}},{"properties":{"city":"Los Angeles","rating":"Certified","zip":90094.0,"latitude":34.086159,"project":"Playa Vista-Tishman Speyer Marketing Office","description":"<a href=\"http://www.flickr.com/photos/genwithag/3885613216/\" title=\"42tishmanmarketing by genwithaG215, on Flickr\"><img src=\"http://farm3.static.flickr.com/2440/3885613216_7c215e024f_o.jpg\" width=\"460\" height=\"352\" alt=\"42tishmanmarketing\"></a>","longitude":-118.375984,"id":"a62ljzj051ba","address":"5600 Campus Center Drive","state":"CA"},"type":"Feature","geometry":{"type":"Point","coordinates":[-118.375984,34.086159]}},{"properties":{"city":"Claremont","rating":"Gold","zip":91711.0,"latitude":34.08957209,"project":"Pomona College - Lincoln and Edmunds","description":"<a href=\"http://www.flickr.com/photos/genwithag/3891255216/\" title=\"pomona2 by genwithaG215, on Flickr\"><img src=\"http://farm3.static.flickr.com/2506/3891255216_76acef806f_o.jpg\" width=\"600\" height=\"322\" alt=\"pomona2\"></a>","longitude":-117.7151729,"id":"a62ljzgiqte6","address":"333 N College Way","state":"CA"},"type":"Feature","geometry":{"type":"Point","coordinates":[-117.7151729,34.08957209]}},{"properties":{"city":"Long Beach","rating":"Silver","zip":90802.0,"latitude":33.755936,"project":"Port Of Long Beach Security Command and Control Center","description":"","longitude":-118.2024879,"id":"a62ljzbkj2zp","address":"925 Harbor Plaza","state":"CA"},"type":"Feature","geometry":{"type":"Point","coordinates":[-118.2024879,33.755936]}},{"properties":{"city":"Santa Monica","rating":"Gold","zip":90401.0,"latitude":34.00966178,"project":"RAND Corporate Headquarters","description":"<a href=\"http://www.flickr.com/photos/genwithag/3885612698/\" title=\"18rand by genwithaG215, on Flickr\"><img src=\"http://farm4.static.flickr.com/3520/3885612698_f1456304a3_o.jpg\" width=\"350\" height=\"269\" alt=\"18rand\"></a>","longitude":-118.4909463,"id":"a62ljznli7tb","address":"1776 Main St","state":"CA"},"type":"Feature","geometry":{"type":"Point","coordinates":[-118.4909463,34.00966178]}},{"properties":{"city":"Monterey Park","rating":"Gold","zip":91754.0,"latitude":34.04336022,"project":"SEMPRA ENERGY- MONTEREY PARK","description":"<a href=\"http://www.flickr.com/photos/genwithag/3486548687/\" title=\"sempraenergy by genwithaG215, on Flickr\"><img src=\"http://farm4.static.flickr.com/3550/3486548687_0cbf94f3b9_o.jpg\" width=\"520\" height=\"775\" alt=\"sempraenergy\"></a>","longitude":-118.1411303,"id":"a62ljzlgx4ns","address":"1801 S Atlantic Blvd","state":"CA"},"type":"Feature","geometry":{"type":"Point","coordinates":[-118.1411303,34.04336022]}},{"properties":{"city":"Santa Monica","rating":"Silver","zip":90405.0,"latitude":34.01893846,"project":"SMC North","description":"<a href=\"http://www.flickr.com/photos/genwithag/3885612726/\" title=\"20smcnorth by genwithaG215, on Flickr\"><img src=\"http://farm3.static.flickr.com/2573/3885612726_0e9d5aeefd_o.jpg\" width=\"450\" height=\"300\" alt=\"20smcnorth\"></a>","longitude":-118.4703535,"id":"a62ljzpht8kr","address":"1900 Pico Blvd","state":"CA"},"type":"Feature","geometry":{"type":"Point","coordinates":[-118.4703535,34.01893846]}},{"properties":{"city":"Santa Monica","rating":"Silver","zip":90405.0,"latitude":34.01893846,"project":"SMC South","description":"<a href=\"http://www.flickr.com/photos/genwithag/3891300160/\" title=\"smc by genwithaG215, on Flickr\"><img src=\"http://farm3.static.flickr.com/2568/3891300160_edff6cf61c_o.jpg\" width=\"560\" height=\"336\" alt=\"smc\"></a>","longitude":-118.4703535,"id":"a62ljzgs7g6e","address":"1900 Pico Blvd","state":"CA"},"type":"Feature","geometry":{"type":"Point","coordinates":[-118.4703535,34.01893846]}},{"properties":{"city":"Culver City","rating":"Gold","zip":90230.0,"latitude":33.98801214,"project":"SYMANTEC OFFICE BUILDING","description":"<a href=\"http://www.flickr.com/photos/genwithag/3486548751/\" title=\"symantec by genwithaG215, on Flickr\"><img src=\"http://farm4.static.flickr.com/3548/3486548751_4a2b18db6f_o.jpg\" width=\"530\" height=\"354\" alt=\"symantec\"></a>","longitude":-118.3877585,"id":"a62ljzbml6bq","address":"900 Corporate Pointe","state":"CA"},"type":"Feature","geometry":{"type":"Point","coordinates":[-118.3877585,33.98801214]}},{"properties":{"city":"Santa Clarita","rating":"Gold","zip":91355.0,"latitude":34.44862742,"project":"Santa Clarita Transit Maintenance Facilities","description":"<a href=\"http://www.flickr.com/photos/genwithag/3885612680/\" title=\"17santaclaritatransit by genwithaG215, on Flickr\"><img src=\"http://farm3.static.flickr.com/2574/3885612680_48f0e24b4a_o.jpg\" width=\"530\" height=\"353\" alt=\"17santaclaritatransit\"></a>","longitude":-118.5795398,"id":"a62ljzjdfpvr","address":"28250 Constellation Road","state":"CA"},"type":"Feature","geometry":{"type":"Point","coordinates":[-118.5795398,34.44862742]}},{"properties":{"city":"Santa Monica","rating":"Gold","zip":90401.0,"latitude":34.01808438,"project":"Santa Monica Main Library","description":"<a href=\"http://www.flickr.com/photos/genwithag/3884816221/\" title=\"28smlibrary by genwithaG215, on Flickr\"><img src=\"http://farm4.static.flickr.com/3485/3884816221_5c3a144fc2_o.jpg\" width=\"500\" height=\"365\" alt=\"28smlibrary\"></a>","longitude":-118.4931639,"id":"a62ljzapo8xa","address":"601 Santa Monica Boulevard","state":"CA"},"type":"Feature","geometry":{"type":"Point","coordinates":[-118.4931639,34.01808438]}},{"properties":{"city":"Santa Monica","rating":"Certified","zip":90401.0,"latitude":34.00883013,"project":"Santa Monica Mixed-Use Facility","description":"<a href=\"http://www.flickr.com/photos/genwithag/3891255558/\" title=\"leedgarage1 by genwithaG215, on Flickr\"><img src=\"http://farm4.static.flickr.com/3470/3891255558_9d406bc6d5_o.jpg\" width=\"537\" height=\"377\" alt=\"leedgarage1\"></a>","longitude":-118.4899483,"id":"a62ljzkzfc23","address":"1855 Main St","state":"CA"},"type":"Feature","geometry":{"type":"Point","coordinates":[-118.4899483,34.00883013]}},{"properties":{"city":"Santa Monica","rating":"Silver","zip":90407.0,"latitude":34.022059,"project":"Santa Monica Public Safety Facility","description":"<a href=\"http://www.flickr.com/photos/genwithag/3885612586/\" title=\"11smpublic_safety by genwithaG215, on Flickr\"><img src=\"http://farm4.static.flickr.com/3522/3885612586_b87e8c1c69_o.jpg\" width=\"845\" height=\"480\" alt=\"11smpublic_safety\"></a>","longitude":-118.481336,"id":"a62ljzc9xgc5","address":"4th and Olympic","state":"CA"},"type":"Feature","geometry":{"type":"Point","coordinates":[-118.481336,34.022059]}},{"properties":{"city":"Hawthorne","rating":"Silver","zip":90250.0,"latitude":33.91591486,"project":"Sempra Energy - Yukon Base Facility","description":"<a href=\"http://www.flickr.com/photos/genwithag/3486548687/\" title=\"sempraenergy by genwithaG215, on Flickr\"><img src=\"http://farm4.static.flickr.com/3550/3486548687_0cbf94f3b9_o.jpg\" width=\"520\" height=\"775\" alt=\"sempraenergy\"></a>","longitude":-118.3337696,"id":"a62ljzew7vof","address":"3440 West El Segundo Blvd.","state":"CA"},"type":"Feature","geometry":{"type":"Point","coordinates":[-118.3337696,33.91591486]}},{"properties":{"city":"Torrance","rating":"Gold","zip":90509.0,"latitude":33.85820722,"project":"South Campus Office Development","description":"<a href=\"http://www.flickr.com/photos/genwithag/3486548785/\" title=\"Toyota-1 by genwithaG215, on Flickr\"><img src=\"http://farm4.static.flickr.com/3538/3486548785_e921c479be_o.jpg\" width=\"600\" height=\"400\" alt=\"Toyota-1\"></a>","longitude":-118.3090964,"id":"a62ljzpdsq6n","address":"19001 S Western Ave","state":"CA"},"type":"Feature","geometry":{"type":"Point","coordinates":[-118.3090964,33.85820722]}},{"properties":{"city":"Los Angeles","rating":"Silver","zip":90014.0,"latitude":34.0487243,"project":"Steinberg Architects Office Space","description":"","longitude":-118.254419,"id":"a62ljzhmso82","address":"523 W 6th St","state":"CA"},"type":"Feature","geometry":{"type":"Point","coordinates":[-118.254419,34.0487243]}},{"properties":{"city":"Sun Valley","rating":"Gold","zip":91352.0,"latitude":34.214654,"project":"Sun Valley Branch Library","description":"<a href=\"http://www.flickr.com/photos/genwithag/3884815801/\" title=\"5Sun_Valley_Ext by genwithaG215, on Flickr\"><img src=\"http://farm3.static.flickr.com/2481/3884815801_3fd4596586_b.jpg\" width=\"1024\" height=\"767\" alt=\"5Sun_Valley_Ext\"></a>","longitude":-118.3703032,"id":"a62ljzf194d7","address":"7935 Vineland Ave","state":"CA"},"type":"Feature","geometry":{"type":"Point","coordinates":[-118.3703032,34.214654]}},{"properties":{"city":"Los Angeles","rating":"Certified","zip":90017.0,"latitude":34.04558044,"project":"TCA Office / 801 Grand","description":"","longitude":-118.2587317,"id":"a62ljzkp2uim","address":"801 S Grand Ave","state":"CA"},"type":"Feature","geometry":{"type":"Point","coordinates":[-118.2587317,34.04558044]}},{"properties":{"city":"Santa Monica","rating":"Silver","zip":90404.0,"latitude":34.03041987,"project":"The Ambrose","description":"<a href=\"http://www.flickr.com/photos/genwithag/3885613456/\" title=\"56the-ambrose by genwithaG215, on Flickr\"><img src=\"http://farm3.static.flickr.com/2477/3885613456_f96569a9e7_o.jpg\" width=\"550\" height=\"412\" alt=\"56the-ambrose\"></a>","longitude":-118.4815194,"id":"a62ljzbkp8o9","address":"1255 20th St","state":"CA"},"type":"Feature","geometry":{"type":"Point","coordinates":[-118.4815194,34.03041987]}},{"properties":{"city":"Downey","rating":"Gold","zip":90241.0,"latitude":33.9329433,"project":"The Gas Company - Downey Base","description":"<a href=\"http://www.flickr.com/photos/genwithag/3487363498/\" title=\"gascompany by genwithaG215, on Flickr\"><img src=\"http://farm4.static.flickr.com/3576/3487363498_9de631eb9b_o.jpg\" width=\"400\" height=\"533\" alt=\"gascompany\"></a>","longitude":-118.1188415,"id":"a62ljzmyi44o","address":"9240 Firestone Blvd","state":"CA"},"type":"Feature","geometry":{"type":"Point","coordinates":[-118.1188415,33.9329433]}},{"properties":{"city":"Los Angeles","rating":"Certified","zip":90049.0,"latitude":34.0748575,"project":"The Getty Center","description":"<a href=\"http://www.flickr.com/photos/genwithag/3885613004/\" title=\"34Getty3 by genwithaG215, on Flickr\"><img src=\"http://farm4.static.flickr.com/3436/3885613004_2e7c868eea_o.jpg\" width=\"600\" height=\"288\" alt=\"34Getty3\"></a>","longitude":-118.4700955,"id":"a62ljzkzfkor","address":"1200 Getty Center Drive","state":"CA"},"type":"Feature","geometry":{"type":"Point","coordinates":[-118.4700955,34.0748575]}},{"properties":{"city":"Pasadena","rating":"Silver","zip":91107.0,"latitude":34.1477366,"project":"Tricom","description":"<a href=\"http://www.flickr.com/photos/genwithag/3487364464/\" title=\"Trimcom Pasadena by genwithaG215, on Flickr\"><img src=\"http://farm4.static.flickr.com/3311/3487364464_063782d8cc_b.jpg\" width=\"796\" height=\"1024\" alt=\"Trimcom Pasadena\"></a>","longitude":-118.0922473,"id":"a62ljzfnvrn5","address":"2812 E. Walnut","state":"CA"},"type":"Feature","geometry":{"type":"Point","coordinates":[-118.0922473,34.1477366]}},{"properties":{"city":"Los Angeles","rating":"Silver","zip":90025.0,"latitude":34.07802008,"project":"UCLA LaKretz Hall","description":"<a href=\"http://www.flickr.com/photos/genwithag/3884816025/\" title=\"15lakretz by genwithaG215, on Flickr\"><img src=\"http://farm4.static.flickr.com/3534/3884816025_af9b626f35_o.jpg\" width=\"1024\" height=\"609\" alt=\"15lakretz\"></a>","longitude":-118.4394133,"id":"a62ljzk4jurt","address":"405 Hilgard Ave","state":"CA"},"type":"Feature","geometry":{"type":"Point","coordinates":[-118.4394133,34.07802008]}},{"properties":{"city":"Los Angeles","rating":"Silver","zip":90095.0,"latitude":34.07289438,"project":"UCLA Public Affairs Building","description":"<a href=\"http://www.flickr.com/photos/genwithag/3890303221/\" title=\"pub-affairs-bldg-prv by genwithaG215, on Flickr\"><img src=\"http://farm4.static.flickr.com/3527/3890303221_b68296a1de_o.jpg\" width=\"250\" height=\"375\" alt=\"pub-affairs-bldg-prv\"></a>","longitude":-118.43984,"id":"a62ljzf29fp1","address":"337 Charles E. Young Drive, East","state":"CA"},"type":"Feature","geometry":{"type":"Point","coordinates":[-118.43984,34.07289438]}},{"properties":{"city":"Granada Hills","rating":"Certified","zip":91344.0,"latitude":34.28540713,"project":"Valley Bomb Squad Facility","description":"<a href=\"http://www.flickr.com/photos/genwithag/3884816751/\" title=\"60bombsquad by genwithaG215, on Flickr\"><img src=\"http://farm3.static.flickr.com/2533/3884816751_aa8b25a418_o.jpg\" width=\"640\" height=\"457\" alt=\"60bombsquad\"></a>","longitude":-118.4697083,"id":"a62ljzjudcpy","address":"12001 Blucher Ave","state":"CA"},"type":"Feature","geometry":{"type":"Point","coordinates":[-118.4697083,34.28540713]}},{"properties":{"city":"Santa Monica","rating":"Silver","zip":90404.0,"latitude":34.02204854,"project":"Virginia Avenue Park","description":"<a href=\"http://www.flickr.com/photos/genwithag/3884815815/\" title=\"6Virginia_Ave_Park4 by genwithaG215, on Flickr\"><img src=\"http://farm4.static.flickr.com/3439/3884815815_49a3b9ef1b_o.jpg\" width=\"666\" height=\"500\" alt=\"6Virginia_Ave_Park4\"></a>","longitude":-118.468544,"id":"a62ljzi5ka4z","address":"2200 Virginia Ave","state":"CA"},"type":"Feature","geometry":{"type":"Point","coordinates":[-118.468544,34.02204854]}},{"properties":{"city":"Long Beach","rating":"Platinum","zip":90802.0,"latitude":33.76323596,"project":"Watershed Exhibit &amp; Classroom","description":"<a href=\"http://www.flickr.com/photos/genwithag/3890463859/\" title=\"AquariumExhibit2Large by genwithaG215, on Flickr\"><img src=\"http://farm3.static.flickr.com/2669/3890463859_4c9884b4aa_o.jpg\" width=\"800\" height=\"469\" alt=\"AquariumExhibit2Large\"></a>","longitude":-118.1970954,"id":"a62ljzljd2j9","address":"100 Aquarium Way","state":"CA"},"type":"Feature","geometry":{"type":"Point","coordinates":[-118.1970954,33.76323596]}},{"properties":{"city":"Los Angeles","rating":"Gold","zip":90067.0,"latitude":34.06101483,"project":"Watt Plaza","description":"<a href=\"http://www.flickr.com/photos/genwithag/3884816397/\" title=\"38wattplazajpg by genwithaG215, on Flickr\"><img src=\"http://farm3.static.flickr.com/2492/3884816397_ce423d1370_o.jpg\" width=\"588\" height=\"735\" alt=\"38wattplazajpg\"></a>","longitude":-118.4149303,"id":"a62ljzp9j42o","address":"1875 Century Park","state":"CA"},"type":"Feature","geometry":{"type":"Point","coordinates":[-118.4149303,34.06101483]}},{"properties":{"city":"El Segundo","rating":"Certified","zip":90245.0,"latitude":33.921313,"project":"Whole Foods Market PCH Store","description":"","longitude":-118.408433,"id":"a62ljzc9edyk","address":"760 S Sepulveda Blvd","state":"CA"},"type":"Feature","geometry":{"type":"Point","coordinates":[-118.408433,33.921313]}}],"is_temporal":false,"author":{"url":"","metadata":"","contact_name":"","contact_address":"","source":"","contact_phone":""},"source":"","pagination":{"sort":null,"start":0,"total":99,"limit":1000000},"state":"complete","tags":"angeles,buildings,green,leed,los,usgbc","published":"2009-09-05T12:00:00Z","id":15790}