{"type":"FeatureCollection","data_type":"Dataset","url_type":null,"permissions":[{"permissions":{"download":true,"view":true},"group_id":"everyone"}],"classification":null,"title":"Bike Store Sample","count":499,"stream_id":15872,"contributor":{"url":"http://geocommons.com/users/7156","name":"kate"},"data_attributes":null,"calculation_params":null,"icon_link":null,"link":"http://geocommons.com/overlays/15872.json","extent":[-157.951,21.3856,-68.2066,62.2804],"geometry_types":["point"],"unique_name":null,"name":"Bike Store Sample","feature_count":499,"description":"Sample of Bike Stores in the US","next_feature":null,"is_raster":false,"short_classification":"Y","stats":{"geo_score":{"max":1.0,"mean":0.928711422845691,"variance":0.0124609928612245,"stdev":0.111628817342228,"min":0.454,"median":1.0}},"features":[{"properties":{"city":"Alpharetta, GA  30004","shop":"A B Peachtree Bicycle Center","geo_score":0.937,"phone":"1-770-410-1928","full_address":"11770 Haynes Bridge Road Alpharetta, GA  30004","id":"a673hclpbv4j","geo_precision":"range","comment":null,"address":"11770 Haynes Bridge Road"},"type":"Feature","geometry":{"type":"Point","coordinates":[-84.293515,34.069725]}},{"properties":{"city":"Bend, OR  97701","shop":"A Northwest Adventure Tours &amp; Cyclery","geo_score":1.0,"phone":"1-541-385-6599","full_address":"1346 Northwest Galveston Avenue Bend, OR  97701","id":"a673hcl5r5fe","geo_precision":"range","comment":null,"address":"1346 Northwest Galveston Avenue"},"type":"Feature","geometry":{"type":"Point","coordinates":[-121.330955,44.056625]}},{"properties":{"city":"Ann Arbor, MI  48103","shop":"A W Bicycle Repair &amp; Maintenance","geo_score":1.0,"phone":"1-734-662-8605","full_address":"2104 Winewood Avenue Ann Arbor, MI  48103","id":"a673hcnzgse1","geo_precision":"range","comment":null,"address":"2104 Winewood Avenue"},"type":"Feature","geometry":{"type":"Point","coordinates":[-83.775482,42.277395]}},{"properties":{"city":"Mesa, AZ  85206","shop":"A-1 Bike Center","geo_score":1.0,"phone":"1-480-641-0819","full_address":"3638 East Southern Avenue Mesa, AZ  85206","id":"a673hcgirlkt","geo_precision":"range","comment":null,"address":"3638 East Southern Avenue"},"type":"Feature","geometry":{"type":"Point","coordinates":[-111.752824,33.393717]}},{"properties":{"city":"Flagstaff, AZ  86001","shop":"Absolute Bikes","geo_score":1.0,"phone":"1-928-779-5969","full_address":"18 North San Francisco Street Flagstaff, AZ  86001","id":"a673hcc4ws70","geo_precision":"range","comment":null,"address":"18 North San Francisco Street"},"type":"Feature","geometry":{"type":"Point","coordinates":[-111.648001,35.197328]}},{"properties":{"city":"Sedona, AZ  86351","shop":"Absolute Bikes","geo_score":0.867,"phone":"1-928-284-1242","full_address":"6101 Highway 179 Sedona, AZ  86351","id":"a673hcjsyhaq","geo_precision":"range","comment":null,"address":"6101 Highway 179"},"type":"Feature","geometry":{"type":"Point","coordinates":[-111.76384,34.773088]}},{"properties":{"city":"Phoenix, AZ  85019","shop":"Access Bicycle Components Inc","geo_score":0.805,"phone":"1-602-278-5506","full_address":"3838 North 36th Avenue Suite B Phoenix, AZ  85019","id":"a673hcdj0s8w","geo_precision":"range","comment":null,"address":"3838 North 36th Avenue Suite B"},"type":"Feature","geometry":{"type":"Point","coordinates":[-112.136896,33.492907]}},{"properties":{"city":"Bethlehem, PA  18018","shop":"Action Wheels","geo_score":1.0,"phone":"1-484-821-0050","full_address":"530 West Broad Street Bethlehem, PA  18018","id":"a673hcozp876","geo_precision":"range","comment":null,"address":"530 West Broad Street"},"type":"Feature","geometry":{"type":"Point","coordinates":[-75.389941,40.622479]}},{"properties":{"city":"Bethlehem, PA  18018","shop":"Action Wheels","geo_score":1.0,"phone":"1-610-866-1113","full_address":"530 West Broad Street Bethlehem, PA  18018","id":"a673hcpn8c0c","geo_precision":"range","comment":null,"address":"530 West Broad Street"},"type":"Feature","geometry":{"type":"Point","coordinates":[-75.389941,40.622479]}},{"properties":{"city":"Belvidere, IL  61008","shop":"Activity Sports &amp; Cycles","geo_score":1.0,"phone":"1-815-544-6350","full_address":"1103 Roosevelt Street Belvidere, IL  61008","id":"a673hcf2nzb0","geo_precision":"range","comment":null,"address":"1103 Roosevelt Street"},"type":"Feature","geometry":{"type":"Point","coordinates":[-88.856446,42.26398]}},{"properties":{"city":"Ada, MI  49301","shop":"Ada Bike Shop","geo_score":1.0,"phone":"1-616-682-2453","full_address":"597 Ada Drive Southeast Ada, MI  49301","id":"a673hcf2e41p","geo_precision":"range","comment":null,"address":"597 Ada Drive Southeast"},"type":"Feature","geometry":{"type":"Point","coordinates":[-85.488332,42.954442]}},{"properties":{"city":"Anaheim, CA  92806","shop":"Adrenaline Bike Shop","geo_score":0.89,"phone":"1-714-630-8233","full_address":"1035 North Armando Street Suite Q Anaheim, CA  92806","id":"a673hcgtx36d","geo_precision":"range","comment":null,"address":"1035 North Armando Street Suite Q"},"type":"Feature","geometry":{"type":"Point","coordinates":[-117.861018,33.848456]}},{"properties":{"city":"Aurora, CO  80015","shop":"Adventure Cycling","geo_score":0.878,"phone":"1-303-699-2514","full_address":"4361 South Parker Road Aurora, CO  80015","id":"a673hcbkuurh","geo_precision":"range","comment":null,"address":"4361 South Parker Road"},"type":"Feature","geometry":{"type":"Point","coordinates":[-104.828951,39.637578]}},{"properties":{"city":"Agoura Hills, CA  91301","shop":"Agoura Cycles","geo_score":1.0,"phone":"1-818-991-6333","full_address":"29041 Thousand Oaks Boulevard Agoura Hills, CA  91301","id":"a673hcarrggk","geo_precision":"range","comment":null,"address":"29041 Thousand Oaks Boulevard"},"type":"Feature","geometry":{"type":"Point","coordinates":[-118.757754,34.154128]}},{"properties":{"city":"Scottsdale, AZ  85260","shop":"Airpark Bicycle Center","geo_score":1.0,"phone":"1-480-596-6633","full_address":"8666 East Shea Boulevard Scottsdale, AZ  85260","id":"a673hcpuahxs","geo_precision":"range","comment":null,"address":"8666 East Shea Boulevard"},"type":"Feature","geometry":{"type":"Point","coordinates":[-111.893257,33.582066]}},{"properties":{"city":"Aspen, CO  81611","shop":"Ajax Bike &amp; Sports","geo_score":1.0,"phone":"1-970-925-7662","full_address":"635 East Hyman Avenue Aspen, CO  81611","id":"a673hcmo98eg","geo_precision":"range","comment":null,"address":"635 East Hyman Avenue"},"type":"Feature","geometry":{"type":"Point","coordinates":[-106.817019,39.188494]}},{"properties":{"city":"Basalt, CO  81621","shop":"Ajax Bike &amp; Sports","geo_score":1.0,"phone":"1-970-927-3760","full_address":"132 Midland Avenue Basalt, CO  81621","id":"a673hceeyf92","geo_precision":"range","comment":null,"address":"132 Midland Avenue"},"type":"Feature","geometry":{"type":"Point","coordinates":[-107.035058,39.369012]}},{"properties":{"city":"Tucson, AZ  85713","shop":"Ajo Bikes","geo_score":0.844,"phone":"1-520-294-1434","full_address":"1301 East Ajo Way Suite 117 Tucson, AZ  85713","id":"a673hcdvyg6i","geo_precision":"range","comment":null,"address":"1301 East Ajo Way Suite 117"},"type":"Feature","geometry":{"type":"Point","coordinates":[-110.952451,32.177901]}},{"properties":{"city":"Amityville, NY  11701","shop":"Al's Cycle Center","geo_score":1.0,"phone":"1-631-789-2270","full_address":"256 Broadway Amityville, NY  11701","id":"a673hcc9e5lr","geo_precision":"range","comment":null,"address":"256 Broadway"},"type":"Feature","geometry":{"type":"Point","coordinates":[-73.416935,40.680853]}},{"properties":{"city":"Alamo, CA  94507","shop":"Alamo Bicycles","geo_score":1.0,"phone":"1-925-837-8444","full_address":"1483 Danville Boulevard Alamo, CA  94507","id":"a673hclsw94a","geo_precision":"range","comment":null,"address":"1483 Danville Boulevard"},"type":"Feature","geometry":{"type":"Point","coordinates":[-122.030004,37.846406]}},{"properties":{"city":"Alamosa, CO  81101","shop":"Alamosa Cycles","geo_score":0.883,"phone":"1-719-589-6772","full_address":"512 3rd Street Alamosa, CO  81101","id":"a673hcotzlyg","geo_precision":"range","comment":null,"address":"512 3rd Street"},"type":"Feature","geometry":{"type":"Point","coordinates":[-105.863985,37.470381]}},{"properties":{"city":"Bedminster, NJ  07921","shop":"Alan's Bicycle Shop","geo_score":0.952,"phone":"1-908-234-2821","full_address":"US Highway 202 North Bedminster, NJ  07921","id":"a673hcomlr88","geo_precision":"street","comment":null,"address":"US Highway 202 North"},"type":"Feature","geometry":{"type":"Point","coordinates":[-74.645586,40.679241]}},{"properties":{"city":"Albuquerque, NM  87120","shop":"Albuquerque Bicycle Center","geo_score":1.0,"phone":"1-505-831-5739","full_address":"3330 Coors Boulevard Northwest Albuquerque, NM  87120","id":"a673hcpt4hs3","geo_precision":"range","comment":null,"address":"3330 Coors Boulevard Northwest"},"type":"Feature","geometry":{"type":"Point","coordinates":[-106.701652,35.120648]}},{"properties":{"city":"Albuquerque, NM  87110","shop":"Albuquerque Bicycle Center","geo_score":1.0,"phone":"1-505-888-3730","full_address":"2641 San Mateo Boulevard Northeast Albuquerque, NM  87110","id":"a673hcezr9ts","geo_precision":"range","comment":null,"address":"2641 San Mateo Boulevard Northeast"},"type":"Feature","geometry":{"type":"Point","coordinates":[-106.586332,35.109916]}},{"properties":{"city":"Albuquerque, NM  87112","shop":"Albuquerque Bicycle Center","geo_score":1.0,"phone":"1-505-292-5262","full_address":"1570 Juan Tabo Boulevard Northeast Albuquerque, NM  87112","id":"a673hcfvievn","geo_precision":"range","comment":null,"address":"1570 Juan Tabo Boulevard Northeast"},"type":"Feature","geometry":{"type":"Point","coordinates":[-106.515359,35.097868]}},{"properties":{"city":"Alhambra, CA  91801","shop":"Alhambra Cyclesport","geo_score":1.0,"phone":"1-626-284-7475","full_address":"1024 East Main Street Alhambra, CA  91801","id":"a673hclqh5ks","geo_precision":"range","comment":null,"address":"1024 East Main Street"},"type":"Feature","geometry":{"type":"Point","coordinates":[-118.116203,34.100271]}},{"properties":{"city":"Payson, AZ  85541","shop":"All Bikes","geo_score":0.786,"phone":"1-928-474-2526","full_address":"Highway 87 Payson, AZ  85541","id":"a673hcltzavr","geo_precision":"street","comment":null,"address":"Highway 87"},"type":"Feature","geometry":{"type":"Point","coordinates":[-111.323008,34.240652]}},{"properties":{"city":"Adams, NY  13605","shop":"All Pro Cycle Shop","geo_score":0.795,"phone":"1-315-783-5116","full_address":"19 Main Beloff's Dept Store Adams, NY  13605","id":"a673hchk3odi","geo_precision":"range","comment":null,"address":"19 Main Beloff's Dept Store"},"type":"Feature","geometry":{"type":"Point","coordinates":[-76.024463,43.808099]}},{"properties":{"city":"Alpine, CA  91901","shop":"Alpine Bike Shop","geo_score":1.0,"phone":"1-619-445-7129","full_address":"2612 Alpine Boulevard Alpine, CA  91901","id":"a673hcn4c7so","geo_precision":"range","comment":null,"address":"2612 Alpine Boulevard"},"type":"Feature","geometry":{"type":"Point","coordinates":[-116.758288,32.834863]}},{"properties":{"city":"Mesa, AZ  85201","shop":"Alter Ego Bike Merchant","geo_score":1.0,"phone":"1-480-464-5480","full_address":"160 West Main Street Mesa, AZ  85201","id":"a673hcd6qk1v","geo_precision":"range","comment":null,"address":"160 West Main Street"},"type":"Feature","geometry":{"type":"Point","coordinates":[-111.835406,33.415113]}},{"properties":{"city":"Gilbert, AZ  85233","shop":"American Bicycle Association","geo_score":1.0,"phone":"1-480-961-1903","full_address":"1645 West Sunrise Boulevard Gilbert, AZ  85233","id":"a673hcbd59c6","geo_precision":"range","comment":null,"address":"1645 West Sunrise Boulevard"},"type":"Feature","geometry":{"type":"Point","coordinates":[-111.825598,33.355261]}},{"properties":{"city":"Baldwin Park, CA  91706","shop":"American Cycle Systems","geo_score":1.0,"phone":"1-626-960-1470","full_address":"15004 Arrow Highway Baldwin Park, CA  91706","id":"a673hcf5nkyk","geo_precision":"range","comment":null,"address":"15004 Arrow Highway"},"type":"Feature","geometry":{"type":"Point","coordinates":[-117.951855,34.106977]}},{"properties":{"city":"Anaheim, CA  92807","shop":"Anaheim Hills Bike Shop","geo_score":0.53,"phone":"1-714-779-7521","full_address":"5548 East La Palma Avenue Anaheim, CA  92807","id":"a673hcnqusxm","geo_precision":"street","comment":null,"address":"5548 East La Palma Avenue"},"type":"Feature","geometry":{"type":"Point","coordinates":[-117.805831,33.791795]}},{"properties":{"city":"Augusta, GA  30901","shop":"Andy Jordans Bicycle Warehouse","geo_score":0.902,"phone":"1-706-724-6777","full_address":"527 13th Street Augusta, GA  30901","id":"a673hcg1gpl7","geo_precision":"range","comment":null,"address":"527 13th Street"},"type":"Feature","geometry":{"type":"Point","coordinates":[-81.976935,33.475475]}},{"properties":{"city":"Antioch, IL  60002","shop":"Antioch Schwinn Cyclery","geo_score":1.0,"phone":"1-847-395-6500","full_address":"890 Main Street Antioch, IL  60002","id":"a673hcmjhvqd","geo_precision":"range","comment":null,"address":"890 Main Street"},"type":"Feature","geometry":{"type":"Point","coordinates":[-88.096418,42.479126]}},{"properties":{"city":"Appleton, WI  54911","shop":"Appleton Bicycle &amp; Fitness","geo_score":1.0,"phone":"1-920-733-2595","full_address":"121 S State Street Appleton, WI  54911","id":"a673hcez9x6z","geo_precision":"range","comment":null,"address":"121 S State Street"},"type":"Feature","geometry":{"type":"Point","coordinates":[-88.41372,44.261582]}},{"properties":{"city":"Aptos, CA  95003","shop":"Aptos Bike Trail","geo_score":1.0,"phone":"1-877-406-3965","full_address":"7556 Soquel Drive Aptos, CA  95003","id":"a673hcahujwj","geo_precision":"range","comment":null,"address":"7556 Soquel Drive"},"type":"Feature","geometry":{"type":"Point","coordinates":[-121.908791,36.980374]}},{"properties":{"city":"Aptos, CA  95003","shop":"Aptos Bike Trail","geo_score":1.0,"phone":"1-831-688-8650","full_address":"7556 Soquel Drive Aptos, CA  95003","id":"a673hciv295n","geo_precision":"range","comment":null,"address":"7556 Soquel Drive"},"type":"Feature","geometry":{"type":"Point","coordinates":[-121.908791,36.980374]}},{"properties":{"city":"Ardmore, OK  73401","shop":"Ardmore Cycle Shop","geo_score":1.0,"phone":"1-580-223-3245","full_address":"117 North Washington Street Ardmore, OK  73401","id":"a673hcotzdv1","geo_precision":"range","comment":null,"address":"117 North Washington Street"},"type":"Feature","geometry":{"type":"Point","coordinates":[-97.127534,34.174351]}},{"properties":{"city":"Tucson, AZ  85716","shop":"Arizona Bicycle Experts","geo_score":0.902,"phone":"1-520-881-2279","full_address":"2520 East 6th Street Tucson, AZ  85716","id":"a673hci0qn7b","geo_precision":"range","comment":null,"address":"2520 East 6th Street"},"type":"Feature","geometry":{"type":"Point","coordinates":[-110.934999,32.227894]}},{"properties":{"city":"Tempe, AZ  85281","shop":"Arizona Bicycle Wholesale","geo_score":1.0,"phone":"1-480-968-4997","full_address":"615 South Farmer Avenue Tempe, AZ  85281","id":"a673hcn0n6nl","geo_precision":"range","comment":null,"address":"615 South Farmer Avenue"},"type":"Feature","geometry":{"type":"Point","coordinates":[-111.94428,33.42417]}},{"properties":{"city":"Little Rock, AR  72211","shop":"Arkansas Cycling &amp; Fitness","geo_score":0.678,"phone":"1-501-221-2453","full_address":"400 North Bowman Road Suite 31 Little Rock, AR  72211","id":"a673hcgn845e","geo_precision":"street","comment":"Browse this online bicycle shop website for bicycle sales, service information, and accessories.","address":"400 North Bowman Road Suite 31"},"type":"Feature","geometry":{"type":"Point","coordinates":[-92.405975,34.755592]}},{"properties":{"city":"Sherwood, AR  72120","shop":"Arkansas Cycling &amp; Fitness","geo_score":1.0,"phone":"1-501-834-5787","full_address":"3010 East Kiehl Avenue Sherwood, AR  72120","id":"a673hccuunu1","geo_precision":"range","comment":"Visit this Little Rock-North Little Rock area bicycle dealer for bicycles and bicycle repairs.","address":"3010 East Kiehl Avenue"},"type":"Feature","geometry":{"type":"Point","coordinates":[-92.201985,34.832429]}},{"properties":{"city":"Berwyn, IL  60402","shop":"Art's Cycling &amp; Fitness","geo_score":1.0,"phone":"1-708-788-0943","full_address":"6212 Cermak Road Berwyn, IL  60402","id":"a673hcn86iqp","geo_precision":"range","comment":null,"address":"6212 Cermak Road"},"type":"Feature","geometry":{"type":"Point","coordinates":[-87.779158,41.850829]}},{"properties":{"city":"Arvada, CO  80003","shop":"Arvada Bike CO","geo_score":1.0,"phone":"1-303-420-3854","full_address":"6595 Wadsworth Boulevard Arvada, CO  80003","id":"a673hcc5laxr","geo_precision":"range","comment":null,"address":"6595 Wadsworth Boulevard"},"type":"Feature","geometry":{"type":"Point","coordinates":[-105.081398,39.816393]}},{"properties":{"city":"Asbury Park, NJ  07712","shop":"Asbury Park Pedaler","geo_score":1.0,"phone":"1-732-869-9888","full_address":"800 Boardwalk Asbury Park, NJ  07712","id":"a673hcnn964k","geo_precision":"range","comment":null,"address":"800 Boardwalk"},"type":"Feature","geometry":{"type":"Point","coordinates":[-74.00105,40.218408]}},{"properties":{"city":"Ashland, KY  41101","shop":"Ashland Bicycle &amp; Extreme Sports","geo_score":1.0,"phone":"1-606-325-0482","full_address":"2126 Winchester Avenue Ashland, KY  41101","id":"a673hce50gpa","geo_precision":"range","comment":null,"address":"2126 Winchester Avenue"},"type":"Feature","geometry":{"type":"Point","coordinates":[-82.633564,38.475591]}},{"properties":{"city":"Ashland, OR  97520","shop":"Ashland Street Bicycles","geo_score":1.0,"phone":"1-541-482-3440","full_address":"1632 Ashland Street Ashland, OR  97520","id":"a673hcbhmidb","geo_precision":"range","comment":null,"address":"1632 Ashland Street"},"type":"Feature","geometry":{"type":"Point","coordinates":[-122.6876,42.185442]}},{"properties":{"city":"Aspen, CO  81611","shop":"Aspen VELO Bicycles","geo_score":0.854,"phone":"1-970-925-1495","full_address":"465 North Mill Street Suite 19 Aspen, CO  81611","id":"a673hckz5x2h","geo_precision":"range","comment":null,"address":"465 North Mill Street Suite 19"},"type":"Feature","geometry":{"type":"Point","coordinates":[-106.818307,39.192962]}},{"properties":{"city":"Athens, OH  45701","shop":"Athens Bicycle","geo_score":1.0,"phone":"1-740-594-9944","full_address":"14 West Stimson Avenue Athens, OH  45701","id":"a673hcbkduoe","geo_precision":"range","comment":null,"address":"14 West Stimson Avenue"},"type":"Feature","geometry":{"type":"Point","coordinates":[-82.093901,39.33239]}},{"properties":{"city":"Atlanta, GA  30306","shop":"Atlanta Bicycle Campaign","geo_score":1.0,"phone":"1-404-881-1112","full_address":"743 Virginia Avenue Northeast Atlanta, GA  30306","id":"a673hcjghtqn","geo_precision":"range","comment":null,"address":"743 Virginia Avenue Northeast"},"type":"Feature","geometry":{"type":"Point","coordinates":[-84.363182,33.781773]}},{"properties":{"city":"Atlanta, GA  30324","shop":"Atlanta Cycling Inc","geo_score":0.878,"phone":"1-404-873-2451","full_address":"1544 Piedmont Avenue Northeast Atlanta, GA  30324","id":"a673hcfkumj0","geo_precision":"range","comment":null,"address":"1544 Piedmont Avenue Northeast"},"type":"Feature","geometry":{"type":"Point","coordinates":[-84.382147,33.761078]}},{"properties":{"city":"Atlanta, GA  30306","shop":"Atlanta Pro Bicycles","geo_score":1.0,"phone":"1-404-874-1214","full_address":"632 N Highland Avenue NE Atlanta, GA  30306","id":"a673hcndqtgs","geo_precision":"range","comment":null,"address":"632 N Highland Avenue NE"},"type":"Feature","geometry":{"type":"Point","coordinates":[-84.352514,33.771664]}},{"properties":{"city":"Atlantic Highlands, NJ  07716","shop":"Atlantic Cyclery","geo_score":0.902,"phone":"1-732-291-2664","full_address":"188 1st Avenue Atlantic Highlands, NJ  07716","id":"a673hcl5mk6f","geo_precision":"range","comment":null,"address":"188 1st Avenue"},"type":"Feature","geometry":{"type":"Point","coordinates":[-74.039735,40.409843]}},{"properties":{"city":"Auburn, CA  95603","shop":"Auburn Bike Works","geo_score":1.0,"phone":"1-530-885-3861","full_address":"350 Grass Valley Highway Auburn, CA  95603","id":"a673hcc2ihqn","geo_precision":"range","comment":null,"address":"350 Grass Valley Highway"},"type":"Feature","geometry":{"type":"Point","coordinates":[-121.076144,38.903062]}},{"properties":{"city":"Austin, TX  78704","shop":"Austin Tri-Cyclist Inc","geo_score":1.0,"phone":"1-512-494-9252","full_address":"923 Barton Springs Road Austin, TX  78704","id":"a673hcmffa87","geo_precision":"range","comment":null,"address":"923 Barton Springs Road"},"type":"Feature","geometry":{"type":"Point","coordinates":[-97.753694,30.259669]}},{"properties":{"city":"Avilla, IN  46710","shop":"Avilla Bicycle Service","geo_score":0.554,"phone":"1-260-897-2107","full_address":"125 Grade Street Avilla, IN  46710","id":"a673hcfomwl3","geo_precision":"street","comment":null,"address":"125 Grade Street"},"type":"Feature","geometry":{"type":"Point","coordinates":[-85.342892,41.333282]}},{"properties":{"city":"Avoca, PA  18641","shop":"B &amp; B Bike","geo_score":1.0,"phone":"1-570-457-5525","full_address":"753 Main Street Avoca, PA  18641","id":"a673hcj1a1ya","geo_precision":"range","comment":null,"address":"753 Main Street"},"type":"Feature","geometry":{"type":"Point","coordinates":[-75.7413,41.338705]}},{"properties":{"city":"Alliance, OH  44601","shop":"B &amp; B Bike Shop","geo_score":1.0,"phone":"1-330-823-9284","full_address":"2030 Cherry Avenue Alliance, OH  44601","id":"a673hcq7nwye","geo_precision":"range","comment":null,"address":"2030 Cherry Avenue"},"type":"Feature","geometry":{"type":"Point","coordinates":[-81.10473,40.901433]}},{"properties":{"city":"Bainbridge Island, WA  98110","shop":"B I Cycle Shop","geo_score":1.0,"phone":"1-206-842-6413","full_address":"162 Bjune Drive Southeast Bainbridge Island, WA  98110","id":"a673hci68a2s","geo_precision":"range","comment":null,"address":"162 Bjune Drive Southeast"},"type":"Feature","geometry":{"type":"Point","coordinates":[-122.519861,47.62402]}},{"properties":{"city":"Gadsden, AL  35904","shop":"Baker Bicycle CO","geo_score":1.0,"phone":"1-256-549-1200","full_address":"2217 West Meighan Boulevard Gadsden, AL  35904","id":"a673hcbnpu8q","geo_precision":"range","comment":null,"address":"2217 West Meighan Boulevard"},"type":"Feature","geometry":{"type":"Point","coordinates":[-86.036602,34.023847]}},{"properties":{"city":"Baytown, TX  77521","shop":"Bay Area Schwinn Cycling &amp; Fitness","geo_score":1.0,"phone":"1-281-427-4702","full_address":"3626 Garth Road Baytown, TX  77521","id":"a673hcpznhn7","geo_precision":"range","comment":null,"address":"3626 Garth Road"},"type":"Feature","geometry":{"type":"Point","coordinates":[-94.977374,29.761619]}},{"properties":{"city":"Ashland, WI  54806","shop":"Bay City Cycles","geo_score":1.0,"phone":"1-715-682-2091","full_address":"412 Main Street West Ashland, WI  54806","id":"a673hcejpap8","geo_precision":"range","comment":null,"address":"412 Main Street West"},"type":"Feature","geometry":{"type":"Point","coordinates":[-90.887043,46.589764]}},{"properties":{"city":"Bay City, MI  48706","shop":"Bay Vac &amp; Pedal","geo_score":0.805,"phone":"1-989-892-7516","full_address":"3031 Salzburg Avenue Bay City, MI  48706","id":"a673hcgn5e67","geo_precision":"street","comment":null,"address":"3031 Salzburg Avenue"},"type":"Feature","geometry":{"type":"Point","coordinates":[-83.915759,43.580344]}},{"properties":{"city":"Beachwood, NJ  08722","shop":"Beachwood Bicycles","geo_score":0.837,"phone":"1-732-349-2333","full_address":"101 Atlantic City Boulevard Beachwood, NJ  08722","id":"a673hcpigljz","geo_precision":"street","comment":null,"address":"101 Atlantic City Boulevard"},"type":"Feature","geometry":{"type":"Point","coordinates":[-74.193519,39.942806]}},{"properties":{"city":"Ashland, OR  97520","shop":"Bear Creek Bicycle","geo_score":0.87,"phone":"1-541-488-4270","full_address":"1988 Highway 99 North Ashland, OR  97520","id":"a673hcm65wff","geo_precision":"range","comment":null,"address":"1988 Highway 99 North"},"type":"Feature","geometry":{"type":"Point","coordinates":[-122.602569,42.11677]}},{"properties":{"city":"Big Bear Lake, CA  92315","shop":"Bear Valley Bikes","geo_score":0.902,"phone":"1-909-866-8000","full_address":"40298 Big Bear Boulevard Big Bear Lake, CA  92315","id":"a673hcjeek2o","geo_precision":"range","comment":null,"address":"40298 Big Bear Boulevard"},"type":"Feature","geometry":{"type":"Point","coordinates":[-116.922838,34.238582]}},{"properties":{"city":"Bell, CA  90201","shop":"Bell Bike Shop","geo_score":1.0,"phone":"1-323-773-1179","full_address":"4037 Gage Avenue Bell, CA  90201","id":"a673hcht4oig","geo_precision":"range","comment":null,"address":"4037 Gage Avenue"},"type":"Feature","geometry":{"type":"Point","coordinates":[-118.195094,33.978866]}},{"properties":{"city":"Bend, OR  97701","shop":"Bend Cyclery","geo_score":0.806,"phone":"1-541-385-5256","full_address":"1009 Northwest Galveston Avenue Bend, OR  97701","id":"a673hcibahx1","geo_precision":"street","comment":null,"address":"1009 Northwest Galveston Avenue"},"type":"Feature","geometry":{"type":"Point","coordinates":[-121.328814,44.056616]}},{"properties":{"city":"Bennett, NC  27208","shop":"Bennett Bicycle &amp; Variety Shop","geo_score":0.811,"phone":"1-336-581-4188","full_address":"3828 Chatham Street Bennett, NC  27208","id":"a673hcoo9hkh","geo_precision":"street","comment":null,"address":"3828 Chatham Street"},"type":"Feature","geometry":{"type":"Point","coordinates":[-79.543748,35.565186]}},{"properties":{"city":"Berkeley, CA  94709","shop":"Berkeley Electric Cycle CO","geo_score":0.619,"phone":"1-510-843-6390","full_address":"1700 Mlk J Berkeley, CA  94709","id":"a673hclisk1f","geo_precision":"zip","comment":null,"address":"1700 Mlk J"},"type":"Feature","geometry":{"type":"Point","coordinates":[-122.26553,37.879825]}},{"properties":{"city":"Berlin, CT  06037","shop":"Berlin Bicycle &amp; Repair Shop","geo_score":0.805,"phone":"1-860-828-1132","full_address":"855 Mill Street Berlin, CT  06037","id":"a673hcmz5die","geo_precision":"street","comment":null,"address":"855 Mill Street"},"type":"Feature","geometry":{"type":"Point","coordinates":[-72.743107,41.625144]}},{"properties":{"city":"Bethel, CT  06801","shop":"Bethel Cycle &amp; Fitness","geo_score":1.0,"phone":"1-203-792-4640","full_address":"120 Greenwood Avenue Bethel, CT  06801","id":"a673hcp3k9sb","geo_precision":"range","comment":null,"address":"120 Greenwood Avenue"},"type":"Feature","geometry":{"type":"Point","coordinates":[-73.411618,41.371231]}},{"properties":{"city":"Bethlehem, PA  18018","shop":"Bethlehem Bicycle Cooperative","geo_score":0.863,"phone":"1-610-954-5744","full_address":"60 West Broad Street Suite 97 Bethlehem, PA  18018","id":"a673hcca7134","geo_precision":"range","comment":null,"address":"60 West Broad Street Suite 97"},"type":"Feature","geometry":{"type":"Point","coordinates":[-75.381162,40.622347]}},{"properties":{"city":"Tucson, AZ  85705","shop":"Bicas Bicycle Inter Community Art &amp; Salvage","geo_score":0.902,"phone":"1-520-628-7950","full_address":"44 West 6th Street Tucson, AZ  85705","id":"a673hca1gimg","geo_precision":"range","comment":null,"address":"44 West 6th Street"},"type":"Feature","geometry":{"type":"Point","coordinates":[-110.972052,32.227693]}},{"properties":{"city":"Allston, MA  02134","shop":"Bicycle Bills","geo_score":1.0,"phone":"1-617-783-5636","full_address":"253 North Harvard Street Allston, MA  02134","id":"a673hcbpobfn","geo_precision":"range","comment":null,"address":"253 North Harvard Street"},"type":"Feature","geometry":{"type":"Point","coordinates":[-71.129681,42.360978]}},{"properties":{"city":"Beachwood, OH  44122","shop":"Bicycle Boulevard","geo_score":1.0,"phone":"1-216-751-2583","full_address":"20132 Chagrin Boulevard Beachwood, OH  44122","id":"a673hcoso45p","geo_precision":"range","comment":null,"address":"20132 Chagrin Boulevard"},"type":"Feature","geometry":{"type":"Point","coordinates":[-81.537886,41.464547]}},{"properties":{"city":"Augusta, ME  04330","shop":"Bicycle Coalition of Maine","geo_score":1.0,"phone":"1-207-623-4511","full_address":"341 Water Street Augusta, ME  04330","id":"a673hckt87ir","geo_precision":"range","comment":null,"address":"341 Water Street"},"type":"Feature","geometry":{"type":"Point","coordinates":[-69.774755,44.313711]}},{"properties":{"city":"Youngtown, AZ  85363","shop":"Bicycle Corral","geo_score":1.0,"phone":"1-623-933-9012","full_address":"11127 West Arizona Avenue Youngtown, AZ  85363","id":"a673hccjtzgb","geo_precision":"range","comment":null,"address":"11127 West Arizona Avenue"},"type":"Feature","geometry":{"type":"Point","coordinates":[-112.298772,33.592891]}},{"properties":{"city":"Anderson, IN  46013","shop":"Bicycle Depot","geo_score":1.0,"phone":"1-765-644-0230","full_address":"5107 Columbus Avenue Anderson, IN  46013","id":"a673hcbx2ujq","geo_precision":"range","comment":null,"address":"5107 Columbus Avenue"},"type":"Feature","geometry":{"type":"Point","coordinates":[-85.667016,40.063443]}},{"properties":{"city":"Amarillo, TX  79109","shop":"Bicycle Depot","geo_score":0.89,"phone":"1-806-359-3826","full_address":"3409 South Georgia Street Suite 6 Amarillo, TX  79109","id":"a673hcpyl860","geo_precision":"range","comment":null,"address":"3409 South Georgia Street Suite 6"},"type":"Feature","geometry":{"type":"Point","coordinates":[-101.866088,35.176983]}},{"properties":{"city":"Benton, AR  72015","shop":"Bicycle Doctor","geo_score":0.875,"phone":"1-501-860-6721","full_address":"423 South East Street Benton, AR  72015","id":"a673hca66roz","geo_precision":"range","comment":"This Little Rock-North Little Rock area bicycle shop features bicycle sales and repairs.","address":"423 South East Street"},"type":"Feature","geometry":{"type":"Point","coordinates":[-92.585753,34.560038]}},{"properties":{"city":"Atlanta, GA  30305","shop":"Bicycle Link","geo_score":1.0,"phone":"1-404-233-4103","full_address":"210 Pharr Rd Ne Atlanta, GA  30305","id":"a673hcdbqtln","geo_precision":"range","comment":null,"address":"210 Pharr Rd Ne"},"type":"Feature","geometry":{"type":"Point","coordinates":[-84.380721,33.837086]}},{"properties":{"city":"Alfred Station, NY  14803","shop":"Bicycle Man LLC Trek Bicycles","geo_score":0.68,"phone":"1-607-587-8835","full_address":"570 Main Alfred Station, NY  14803","id":"a673hcafslfi","geo_precision":"street","comment":null,"address":"570 Main"},"type":"Feature","geometry":{"type":"Point","coordinates":[-77.743978,42.313525]}},{"properties":{"city":"Ambler, PA  19002","shop":"Bicycle Mc Farland David","geo_score":1.0,"phone":"1-215-646-2843","full_address":"15 North Main Street Ambler, PA  19002","id":"a673hcivc2tt","geo_precision":"range","comment":null,"address":"15 North Main Street"},"type":"Feature","geometry":{"type":"Point","coordinates":[-75.224141,40.154125]}},{"properties":{"city":"Scottsdale, AZ  85260","shop":"Bicycle Ranch","geo_score":0.958,"phone":"1-480-614-8300","full_address":"15454 North Frank Lloyd Wright B Scottsdale, AZ  85260","id":"a673hce494p8","geo_precision":"range","comment":null,"address":"15454 North Frank Lloyd Wright B"},"type":"Feature","geometry":{"type":"Point","coordinates":[-111.878665,33.625539]}},{"properties":{"city":"Aspen, CO  81611","shop":"Bicycle Service Center","geo_score":1.0,"phone":"1-970-309-0339","full_address":"611 Rio Grande Place Aspen, CO  81611","id":"a673hcfjppp7","geo_precision":"range","comment":null,"address":"611 Rio Grande Place"},"type":"Feature","geometry":{"type":"Point","coordinates":[-106.816119,39.191469]}},{"properties":{"city":"Auburn, WA  98001","shop":"Bicycle Services Unlimited","geo_score":0.84,"phone":"1-253-735-7317","full_address":"3040 B Street Northwest Suite 6 Auburn, WA  98001","id":"a673hchlmae8","geo_precision":"range","comment":null,"address":"3040 B Street Northwest Suite 6"},"type":"Feature","geometry":{"type":"Point","coordinates":[-122.232276,47.33416]}},{"properties":{"city":"Baton Rouge, LA  70802","shop":"Bicycle Shop","geo_score":1.0,"phone":"1-225-344-5624","full_address":"3315 Highland Road Baton Rouge, LA  70802","id":"a673hcmsu8h7","geo_precision":"range","comment":null,"address":"3315 Highland Road"},"type":"Feature","geometry":{"type":"Point","coordinates":[-91.176545,30.418103]}},{"properties":{"city":"El Dorado, AR  71730","shop":"Bicycle Shop","geo_score":1.0,"phone":"1-870-862-1024","full_address":"815 West Main Street El Dorado, AR  71730","id":"a673hcn534j8","geo_precision":"range","comment":"0","address":"815 West Main Street"},"type":"Feature","geometry":{"type":"Point","coordinates":[-92.673128,33.211924]}},{"properties":{"city":"Scottsdale, AZ  85260","shop":"Bicycle Showcase","geo_score":0.902,"phone":"1-480-998-2776","full_address":"7229 East Shea Boulevard Scottsdale, AZ  85260","id":"a673hcchfg4j","geo_precision":"range","comment":null,"address":"7229 East Shea Boulevard"},"type":"Feature","geometry":{"type":"Point","coordinates":[-111.925297,33.58216]}},{"properties":{"city":"Austin, TX  78704","shop":"Bicycle Sport Shop","geo_score":1.0,"phone":"1-512-477-3472","full_address":"517 South Lamar Boulevard Austin, TX  78704","id":"a673hcho2wgn","geo_precision":"range","comment":null,"address":"517 South Lamar Boulevard"},"type":"Feature","geometry":{"type":"Point","coordinates":[-97.75856,30.260741]}},{"properties":{"city":"Atlantic, IA  50022","shop":"Bicycle Store","geo_score":1.0,"phone":"1-712-243-3300","full_address":"200 Chestnut Street Atlantic, IA  50022","id":"a673hchdw3fk","geo_precision":"range","comment":null,"address":"200 Chestnut Street"},"type":"Feature","geometry":{"type":"Point","coordinates":[-95.012982,41.408998]}},{"properties":{"city":"Arlington, TX  76010","shop":"Bicycle Tech","geo_score":0.862,"phone":"1-817-633-4799","full_address":"179 South Watson Road Suite 410 Arlington, TX  76010","id":"a673hcf3ngp6","geo_precision":"range","comment":null,"address":"179 South Watson Road Suite 410"},"type":"Feature","geometry":{"type":"Point","coordinates":[-97.06181,32.736913]}},{"properties":{"city":"Aurora, CO  80014","shop":"Bicycle Village","geo_score":1.0,"phone":"1-303-750-1064","full_address":"2802 South Havana Street Aurora, CO  80014","id":"a673hcbyg7lw","geo_precision":"range","comment":null,"address":"2802 South Havana Street"},"type":"Feature","geometry":{"type":"Point","coordinates":[-104.866182,39.665546]}},{"properties":{"city":"Scottsdale, AZ  85251","shop":"Bicycle Warehouse CO","geo_score":1.0,"phone":"1-480-949-7106","full_address":"4408 North Miller Road Scottsdale, AZ  85251","id":"a673hck1nlow","geo_precision":"range","comment":null,"address":"4408 North Miller Road"},"type":"Feature","geometry":{"type":"Point","coordinates":[-111.917473,33.49979]}},{"properties":{"city":"Tempe, AZ  85282","shop":"Bicycle Wheelers","geo_score":1.0,"phone":"1-480-968-8011","full_address":"2010 South Rural Road Tempe, AZ  85282","id":"a673hcee7fvo","geo_precision":"range","comment":null,"address":"2010 South Rural Road"},"type":"Feature","geometry":{"type":"Point","coordinates":[-111.926277,33.407373]}},{"properties":{"city":"Belleville, IL  62226","shop":"Bicycle World","geo_score":1.0,"phone":"1-618-234-0041","full_address":"4516 West Main Street Belleville, IL  62226","id":"a673hca3k0gc","geo_precision":"range","comment":null,"address":"4516 West Main Street"},"type":"Feature","geometry":{"type":"Point","coordinates":[-90.023285,38.54048]}},{"properties":{"city":"Amherst, MA  01002","shop":"Bicycle World Too Inc","geo_score":1.0,"phone":"1-413-253-7722","full_address":"63 North Pleasant Street Amherst, MA  01002","id":"a673hcablrnd","geo_precision":"range","comment":null,"address":"63 North Pleasant Street"},"type":"Feature","geometry":{"type":"Point","coordinates":[-72.51988,42.376941]}},{"properties":{"city":"Berkeley, CA  94704","shop":"Bicycle-Friendly Berkeley Coalition Inc-Bike STA","geo_score":1.0,"phone":"1-510-548-7433","full_address":"2160 Shattuck Avenue Berkeley, CA  94704","id":"a673hcmmr76p","geo_precision":"range","comment":null,"address":"2160 Shattuck Avenue"},"type":"Feature","geometry":{"type":"Point","coordinates":[-122.267994,37.870013]}},{"properties":{"city":"Berkeley, CA  94702","shop":"Bicycle-Friendly Berkeley Coalition Inc-Main OFC","geo_score":1.0,"phone":"1-510-549-7433","full_address":"1336 Channing Way Berkeley, CA  94702","id":"a673hcczwe4a","geo_precision":"range","comment":null,"address":"1336 Channing Way"},"type":"Feature","geometry":{"type":"Point","coordinates":[-122.284615,37.863595]}},{"properties":{"city":"Fort Smith, AR  72901","shop":"Bicycles Etc","geo_score":1.0,"phone":"1-479-783-4981","full_address":"1500 Grand Avenue Fort Smith, AR  72901","id":"a673hcmy4go0","geo_precision":"range","comment":"0","address":"1500 Grand Avenue"},"type":"Feature","geometry":{"type":"Point","coordinates":[-94.412538,35.386322]}},{"properties":{"city":"Aurora, IL  60504","shop":"Bicycles Etc","geo_score":0.691,"phone":"1-630-585-9240","full_address":"567 South Route 59 Aurora, IL  60504","id":"a673hcfxyx2a","geo_precision":"street","comment":null,"address":"567 South Route 59"},"type":"Feature","geometry":{"type":"Point","coordinates":[-88.205726,41.77812]}},{"properties":{"city":"Huntsville, AL  35802","shop":"Bicycles Etc Inc","geo_score":0.912,"phone":"1-256-881-6947","full_address":"8100 Memorial Parkway Southwest Suite A Huntsville, AL  35802","id":"a673hcejrxab","geo_precision":"range","comment":"This full service bicycle shop features bike sales and rentals, as well as repairs.","address":"8100 Memorial Parkway Southwest Suite A"},"type":"Feature","geometry":{"type":"Point","coordinates":[-86.570394,34.66005]}},{"properties":{"city":"Mobile, AL  36609","shop":"Bicycles of Mobile","geo_score":0.808,"phone":"1-251-666-3700","full_address":"4258 Cottage Hill Road Mobile, AL  36609","id":"a673hcnk89no","geo_precision":"street","comment":"Browse this online bicycle shop website for bicycle sales, service information, and accessories.","address":"4258 Cottage Hill Road"},"type":"Feature","geometry":{"type":"Point","coordinates":[-88.153455,30.650644]}},{"properties":{"city":"Anaconda, MT  59711","shop":"Bicycles of Svens Anaconda","geo_score":0.688,"phone":"1-406-563-7988","full_address":"3rd and Hickory Anaconda, MT  59711","id":"a673hcf5v8tm","geo_precision":"intersection","comment":null,"address":"3rd and Hickory"},"type":"Feature","geometry":{"type":"Point","coordinates":[-112.954778,46.12854]}},{"properties":{"city":"Big Pine Key, FL  33043","shop":"Big Pine Bicycle Center","geo_score":0.854,"phone":"1-305-872-0130","full_address":"31 County Road Big Pine Key, FL  33043","id":"a673hcj8l0mt","geo_precision":"range","comment":null,"address":"31 County Road"},"type":"Feature","geometry":{"type":"Point","coordinates":[-81.349555,24.670454]}},{"properties":{"city":"Alexandria, VA  22314","shop":"Big Wheel Bikes","geo_score":0.902,"phone":"1-703-739-2300","full_address":"2 Prince Street Alexandria, VA  22314","id":"a673hcanqic3","geo_precision":"street","comment":null,"address":"2 Prince Street"},"type":"Feature","geometry":{"type":"Point","coordinates":[-77.03974,38.803014]}},{"properties":{"city":"Bethesda, MD  20814","shop":"Big Wheel Bikes","geo_score":1.0,"phone":"1-301-652-0192","full_address":"6917 Arlington Road Bethesda, MD  20814","id":"a673hcmwl209","geo_precision":"range","comment":null,"address":"6917 Arlington Road"},"type":"Feature","geometry":{"type":"Point","coordinates":[-77.098734,38.978228]}},{"properties":{"city":"Alexandria, MN  56308","shop":"Bike &amp; Fitness Company","geo_score":0.916,"phone":"1-320-762-8493","full_address":"805 1st Avenue East Alexandria, MN  56308","id":"a673hcoqxy5q","geo_precision":"range","comment":null,"address":"805 1st Avenue East"},"type":"Feature","geometry":{"type":"Point","coordinates":[-95.366334,45.891021]}},{"properties":{"city":"Searcy, AR  72143","shop":"Bike City","geo_score":1.0,"phone":"1-501-278-5515","full_address":"2212 West Beebe Capps Expressway Searcy, AR  72143","id":"a673hcdz73wl","geo_precision":"range","comment":"This full service bicycle shop features bike sales and rentals, as well as repairs.","address":"2212 West Beebe Capps Expressway"},"type":"Feature","geometry":{"type":"Point","coordinates":[-91.763919,35.247287]}},{"properties":{"city":"Albuquerque, NM  87106","shop":"Bike Cooperative Limited","geo_score":0.976,"phone":"1-505-265-5170","full_address":"3407 Central Avenue Northeast Albuquerque, NM  87106","id":"a673hcomoa77","geo_precision":"range","comment":null,"address":"3407 Central Avenue Northeast"},"type":"Feature","geometry":{"type":"Point","coordinates":[-106.606974,35.080102]}},{"properties":{"city":"Ankeny, IA  50021","shop":"Bike Country","geo_score":0.902,"phone":"1-515-964-5623","full_address":"825 East 1st Street Ankeny, IA  50021","id":"a673hcbjo8z5","geo_precision":"range","comment":null,"address":"825 East 1st Street"},"type":"Feature","geometry":{"type":"Point","coordinates":[-93.587898,41.731869]}},{"properties":{"city":"Annapolis, MD  21401","shop":"Bike Doctor","geo_score":0.89,"phone":"1-410-266-7383","full_address":"150 Jennifer Road Suite P Annapolis, MD  21401","id":"a673hcaa882n","geo_precision":"range","comment":null,"address":"150 Jennifer Road Suite P"},"type":"Feature","geometry":{"type":"Point","coordinates":[-76.536284,38.98901]}},{"properties":{"city":"Phoenix, AZ  85029","shop":"Bike Doctor","geo_score":1.0,"phone":"1-602-863-7790","full_address":"2149 West Wood Drive Phoenix, AZ  85029","id":"a673hcanet5z","geo_precision":"range","comment":null,"address":"2149 West Wood Drive"},"type":"Feature","geometry":{"type":"Point","coordinates":[-112.104721,33.604299]}},{"properties":{"city":"Scottsdale, AZ  85250","shop":"Bike Emporium","geo_score":1.0,"phone":"1-480-991-5430","full_address":"8433 East McDonald Drive Scottsdale, AZ  85250","id":"a673hca6wyu2","geo_precision":"range","comment":null,"address":"8433 East McDonald Drive"},"type":"Feature","geometry":{"type":"Point","coordinates":[-111.899513,33.52389]}},{"properties":{"city":"Beaverton, OR  97005","shop":"Bike Gallery","geo_score":1.0,"phone":"1-503-641-2580","full_address":"3645 Southwest Hall Boulevard Beaverton, OR  97005","id":"a673hcq6gq4s","geo_precision":"range","comment":null,"address":"3645 Southwest Hall Boulevard"},"type":"Feature","geometry":{"type":"Point","coordinates":[-122.807438,45.493545]}},{"properties":{"city":"Bethpage, NY  11714","shop":"Bike Junkie","geo_score":1.0,"phone":"1-516-932-7271","full_address":"272 Broadway Bethpage, NY  11714","id":"a673hcd9et29","geo_precision":"range","comment":null,"address":"272 Broadway"},"type":"Feature","geometry":{"type":"Point","coordinates":[-73.479707,40.7402]}},{"properties":{"city":"Amarillo, TX  79109","shop":"Bike Korner","geo_score":1.0,"phone":"1-806-355-9408","full_address":"2601 Patterson Drive Amarillo, TX  79109","id":"a673hcd8raa8","geo_precision":"range","comment":null,"address":"2601 Patterson Drive"},"type":"Feature","geometry":{"type":"Point","coordinates":[-101.872135,35.185525]}},{"properties":{"city":"Bethlehem, PA  18018","shop":"Bike Line","geo_score":1.0,"phone":"1-610-691-0943","full_address":"2112 Schoenersville Road Bethlehem, PA  18018","id":"a673hcmil8uq","geo_precision":"range","comment":null,"address":"2112 Schoenersville Road"},"type":"Feature","geometry":{"type":"Point","coordinates":[-75.399097,40.639648]}},{"properties":{"city":"Allentown, PA  18101","shop":"Bike Line","geo_score":0.581,"phone":"1-610-437-6100","full_address":"1728 Tilghman At Allentown, PA  18101","id":"a673hcobjrvr","geo_precision":"street","comment":null,"address":"1728 Tilghman At"},"type":"Feature","geometry":{"type":"Point","coordinates":[-75.478171,40.61134]}},{"properties":{"city":"Berwyn, PA  19312","shop":"Bike Line","geo_score":1.0,"phone":"1-610-647-8023","full_address":"414 SWedesford Road Berwyn, PA  19312","id":"a673hcjpa2jy","geo_precision":"range","comment":null,"address":"414 SWedesford Road"},"type":"Feature","geometry":{"type":"Point","coordinates":[-75.447471,40.069197]}},{"properties":{"city":"Birmingham, AL  35242","shop":"Bike Link","geo_score":0.733,"phone":"1-205-991-3335","full_address":"5263 Highway 280 Birmingham, AL  35242","id":"a673hcpjxa7o","geo_precision":"street","comment":"This full service bicycle shop features bike sales and rentals, as well as repairs.","address":"5263 Highway 280"},"type":"Feature","geometry":{"type":"Point","coordinates":[-86.664493,33.408549]}},{"properties":{"city":"Birmingham, AL  35244","shop":"Bike Link","geo_score":0.454,"phone":"1-205-985-0001","full_address":"2766 John Hawkins Parkway Birmingham, AL  35244","id":"a673hchkpr4n","geo_precision":"street","comment":"This full service bicycle shop features bike sales and rentals, as well as repairs.","address":"2766 John Hawkins Parkway"},"type":"Feature","geometry":{"type":"Point","coordinates":[-86.827309,33.570983]}},{"properties":{"city":"Tucson, AZ  85713","shop":"Bike Monk","geo_score":0.916,"phone":"1-520-325-9099","full_address":"2914 East 22nd Street Tucson, AZ  85713","id":"a673hc9z1vt1","geo_precision":"range","comment":null,"address":"2914 East 22nd Street"},"type":"Feature","geometry":{"type":"Point","coordinates":[-110.930097,32.206873]}},{"properties":{"city":"Beaverton, OR  97005","shop":"Bike N' Hike","geo_score":0.962,"phone":"1-503-646-6363","full_address":"10120 Southwest Beaverton Hillsdale Beaverton, OR  97005","id":"a673hcigsp3q","geo_precision":"range","comment":null,"address":"10120 Southwest Beaverton Hillsdale"},"type":"Feature","geometry":{"type":"Point","coordinates":[-122.781498,45.486527]}},{"properties":{"city":"Albany, OR  97321","shop":"Bike N' Hike Centers","geo_score":0.916,"phone":"1-541-928-2143","full_address":"424 1st Avenue West Albany, OR  97321","id":"a673hcbynk4p","geo_precision":"range","comment":null,"address":"424 1st Avenue West"},"type":"Feature","geometry":{"type":"Point","coordinates":[-123.109028,44.636963]}},{"properties":{"city":"American Fork, UT  84003","shop":"Bike Peddler","geo_score":1.0,"phone":"1-801-756-5014","full_address":"24 East Main Street American Fork, UT  84003","id":"a673hcdldlee","geo_precision":"range","comment":null,"address":"24 East Main Street"},"type":"Feature","geometry":{"type":"Point","coordinates":[-111.798085,40.376782]}},{"properties":{"city":"Arlington Heights, IL  60004","shop":"Bike Pros","geo_score":1.0,"phone":"1-847-398-1650","full_address":"1313 North Rand Road Arlington Heights, IL  60004","id":"a673hcom42og","geo_precision":"range","comment":null,"address":"1313 North Rand Road"},"type":"Feature","geometry":{"type":"Point","coordinates":[-87.998715,42.12499]}},{"properties":{"city":"Auburn, AL  36830","shop":"Bike Shop","geo_score":1.0,"phone":"1-334-821-6066","full_address":"147 North College Street Auburn, AL  36830","id":"a673hccm4rap","geo_precision":"range","comment":null,"address":"147 North College Street"},"type":"Feature","geometry":{"type":"Point","coordinates":[-85.481749,32.608356]}},{"properties":{"city":"Acworth, GA  30101","shop":"Bike Shop","geo_score":0.844,"phone":"1-770-974-5935","full_address":"3330 Cobb Parkway North North Acworth, GA  30101","id":"a673hcp9m7ec","geo_precision":"street","comment":null,"address":"3330 Cobb Parkway North North"},"type":"Feature","geometry":{"type":"Point","coordinates":[-84.679531,34.035179]}},{"properties":{"city":"Aiea, HI  96701","shop":"Bike Shop","geo_score":1.0,"phone":"1-808-487-3615","full_address":"98-019 Kamehameha Highway Aiea, HI  96701","id":"a673hcfma8a5","geo_precision":"range","comment":null,"address":"98-019 Kamehameha Highway"},"type":"Feature","geometry":{"type":"Point","coordinates":[-157.950951,21.385606]}},{"properties":{"city":"Altoona, IA  50009","shop":"Bike Source","geo_score":0.916,"phone":"1-515-967-4414","full_address":"307 8th Street Southwest Altoona, IA  50009","id":"a673hcpi0bke","geo_precision":"range","comment":null,"address":"307 8th Street Southwest"},"type":"Feature","geometry":{"type":"Point","coordinates":[-93.467081,41.644088]}},{"properties":{"city":"Glendale, AZ  85304","shop":"Bike Sport","geo_score":0.927,"phone":"1-623-979-3474","full_address":"12035 North 59th Avenue Glendale, AZ  85304","id":"a673hcpie6k3","geo_precision":"range","comment":null,"address":"12035 North 59th Avenue"},"type":"Feature","geometry":{"type":"Point","coordinates":[-112.18599,33.594878]}},{"properties":{"city":"Aptos, CA  95003","shop":"Bike Station Aptos","geo_score":1.0,"phone":"1-831-688-4169","full_address":"8061 Aptos Street Aptos, CA  95003","id":"a673hcc2w3uu","geo_precision":"range","comment":null,"address":"8061 Aptos Street"},"type":"Feature","geometry":{"type":"Point","coordinates":[-121.900076,36.977024]}},{"properties":{"city":"Astoria, NY  11103","shop":"Bike Stop","geo_score":0.916,"phone":"1-718-278-2453","full_address":"37-19 28 Avenue Astoria, NY  11103","id":"a673hcop87r8","geo_precision":"range","comment":null,"address":"37-19 28 Avenue"},"type":"Feature","geometry":{"type":"Point","coordinates":[-73.915187,40.766162]}},{"properties":{"city":"Arlington, MA  02476","shop":"Bike Stop","geo_score":1.0,"phone":"1-781-646-7867","full_address":"43 Dudley Street Arlington, MA  02476","id":"a673hcqc4uob","geo_precision":"range","comment":null,"address":"43 Dudley Street"},"type":"Feature","geometry":{"type":"Point","coordinates":[-71.166469,42.420912]}},{"properties":{"city":"Auburn, WA  98002","shop":"Bike Tech","geo_score":1.0,"phone":"1-253-833-4910","full_address":"798 Auburn Way North Auburn, WA  98002","id":"a673hcdtpd1x","geo_precision":"range","comment":null,"address":"798 Auburn Way North"},"type":"Feature","geometry":{"type":"Point","coordinates":[-122.224154,47.314937]}},{"properties":{"city":"Anderson, IN  46016","shop":"Bike Time Bicycle Shop","geo_score":1.0,"phone":"1-765-622-9673","full_address":"1658 Ohio Avenue Anderson, IN  46016","id":"a673hcg767we","geo_precision":"range","comment":null,"address":"1658 Ohio Avenue"},"type":"Feature","geometry":{"type":"Point","coordinates":[-85.669128,40.09967]}},{"properties":{"city":"Bethlehem, PA  18020","shop":"Bike USA","geo_score":1.0,"phone":"1-610-868-7652","full_address":"2811 Brodhead Road Bethlehem, PA  18020","id":"a673hchu62vb","geo_precision":"range","comment":null,"address":"2811 Brodhead Road"},"type":"Feature","geometry":{"type":"Point","coordinates":[-75.350548,40.680226]}},{"properties":{"city":"Abilene, TX  79605","shop":"Bike World","geo_score":0.902,"phone":"1-325-677-8721","full_address":"3317 South 1st Street Abilene, TX  79605","id":"a673hcb1k5ux","geo_precision":"range","comment":null,"address":"3317 South 1st Street"},"type":"Feature","geometry":{"type":"Point","coordinates":[-99.764187,32.450872]}},{"properties":{"city":"Atlantic City, NJ  08401","shop":"Bike World","geo_score":1.0,"phone":"1-609-345-0077","full_address":"1738 Atlantic Avenue Atlantic City, NJ  08401","id":"a673hchjmx48","geo_precision":"range","comment":null,"address":"1738 Atlantic Avenue"},"type":"Feature","geometry":{"type":"Point","coordinates":[-74.43214,39.360446]}},{"properties":{"city":"Albuquerque, NM  87106","shop":"Bike World - UNM","geo_score":1.0,"phone":"1-505-247-8033","full_address":"1820 Central Avenue Southeast Albuquerque, NM  87106","id":"a673hcfgwh8n","geo_precision":"range","comment":null,"address":"1820 Central Avenue Southeast"},"type":"Feature","geometry":{"type":"Point","coordinates":[-106.626613,35.081378]}},{"properties":{"city":"Albuquerque, NM  87120","shop":"Bike World - West Side","geo_score":1.0,"phone":"1-505-792-1300","full_address":"6624 Caminito Coors Northwest Albuquerque, NM  87120","id":"a673hcf68bw9","geo_precision":"range","comment":null,"address":"6624 Caminito Coors Northwest"},"type":"Feature","geometry":{"type":"Point","coordinates":[-106.67378,35.172429]}},{"properties":{"city":"Alpine, TX  79830","shop":"Bikeman","geo_score":1.0,"phone":"1-432-837-5050","full_address":"602 West Holland Avenue Alpine, TX  79830","id":"a673hcburfcm","geo_precision":"range","comment":null,"address":"602 West Holland Avenue"},"type":"Feature","geometry":{"type":"Point","coordinates":[-103.666361,30.356138]}},{"properties":{"city":"Peoria, AZ  85345","shop":"Bikers Edge Cycle &amp; Fitness","geo_score":0.927,"phone":"1-623-486-8565","full_address":"10545 North 83rd Avenue Peoria, AZ  85345","id":"a673hck17xsn","geo_precision":"range","comment":null,"address":"10545 North 83rd Avenue"},"type":"Feature","geometry":{"type":"Point","coordinates":[-112.237401,33.580715]}},{"properties":{"city":"Astoria, OR  97103","shop":"Bikes &amp; Beyond","geo_score":1.0,"phone":"1-503-325-2961","full_address":"1089 Marine Drive Astoria, OR  97103","id":"a673hci85atr","geo_precision":"range","comment":null,"address":"1089 Marine Drive"},"type":"Feature","geometry":{"type":"Point","coordinates":[-123.832094,46.189726]}},{"properties":{"city":"Alamogordo, NM  88310","shop":"Bikes &amp; Boards","geo_score":1.0,"phone":"1-505-437-2885","full_address":"914 South Florida Avenue Alamogordo, NM  88310","id":"a673hcnm8f4f","geo_precision":"range","comment":null,"address":"914 South Florida Avenue"},"type":"Feature","geometry":{"type":"Point","coordinates":[-105.952292,32.879856]}},{"properties":{"city":"Antioch, CA  94509","shop":"Bikes 4 Life","geo_score":1.0,"phone":"1-925-754-8025","full_address":"1344 Sunset Drive Antioch, CA  94509","id":"a673hcd72c48","geo_precision":"range","comment":null,"address":"1344 Sunset Drive"},"type":"Feature","geometry":{"type":"Point","coordinates":[-121.793816,37.998031]}},{"properties":{"city":"Bardstown, KY  40004","shop":"Bikes N Bargains","geo_score":1.0,"phone":"1-502-348-4096","full_address":"1440 East John Rowan Boulevard Bardstown, KY  40004","id":"a673hcj3sp2b","geo_precision":"range","comment":null,"address":"1440 East John Rowan Boulevard"},"type":"Feature","geometry":{"type":"Point","coordinates":[-85.449939,37.823259]}},{"properties":{"city":"Barrington, IL  60010","shop":"Bikes Plus","geo_score":0.842,"phone":"1-847-382-9200","full_address":"203 West Northwest Highway Barrington, IL  60010","id":"a673hcf8u1wg","geo_precision":"range","comment":null,"address":"203 West Northwest Highway"},"type":"Feature","geometry":{"type":"Point","coordinates":[-88.138501,42.161488]}},{"properties":{"city":"Florence, AL  35630","shop":"Bikes Plus Tri Shop","geo_score":1.0,"phone":"1-256-760-9202","full_address":"2801 West Mall Drive Florence, AL  35630","id":"a673hcg8g3ar","geo_precision":"range","comment":null,"address":"2801 West Mall Drive"},"type":"Feature","geometry":{"type":"Point","coordinates":[-87.640648,34.838654]}},{"properties":{"city":"Arnold, MO  63010","shop":"Bikes Unlimited","geo_score":1.0,"phone":"1-636-464-2453","full_address":"4023 Jeffco Boulevard Arnold, MO  63010","id":"a673hcgamcds","geo_precision":"range","comment":null,"address":"4023 Jeffco Boulevard"},"type":"Feature","geometry":{"type":"Point","coordinates":[-90.37841,38.406169]}},{"properties":{"city":"Prescott, AZ  86301","shop":"Bikesmith Cycle &amp; Fitness","geo_score":0.902,"phone":"1-928-445-0280","full_address":"723 North Montezuma Street Suite A Prescott, AZ  86301","id":"a673hclfv8ld","geo_precision":"range","comment":null,"address":"723 North Montezuma Street Suite A"},"type":"Feature","geometry":{"type":"Point","coordinates":[-112.469752,34.553537]}},{"properties":{"city":"Scottsdale, AZ  85257","shop":"Bikestar Inc","geo_score":0.947,"phone":"1-604-685-0114","full_address":"7607 East McDowell Scottsdale, AZ  85257","id":"a673hcdsz95q","geo_precision":"range","comment":null,"address":"7607 East McDowell"},"type":"Feature","geometry":{"type":"Point","coordinates":[-111.917378,33.465765]}},{"properties":{"city":"Abilene, TX  79602","shop":"Biketown","geo_score":0.902,"phone":"1-325-677-2453","full_address":"1433 South 1st Street Abilene, TX  79602","id":"a673hcdnyi6j","geo_precision":"range","comment":null,"address":"1433 South 1st Street"},"type":"Feature","geometry":{"type":"Point","coordinates":[-99.738992,32.448934]}},{"properties":{"city":"Ames, IA  50010","shop":"Bikeworld","geo_score":0.902,"phone":"1-515-232-3669","full_address":"126 South 3rd Street Ames, IA  50010","id":"a673hcjlh01r","geo_precision":"range","comment":null,"address":"126 South 3rd Street"},"type":"Feature","geometry":{"type":"Point","coordinates":[-93.610531,42.020147]}},{"properties":{"city":"Birmingham, AL  35213","shop":"Birmingham Bicycle Company","geo_score":1.0,"phone":"1-205-870-8330","full_address":"1103 Dunston Avenue Birmingham, AL  35213","id":"a673hcduxunx","geo_precision":"range","comment":"This popular bike shop offers bicycle sales, rentals, and repairs.","address":"1103 Dunston Avenue"},"type":"Feature","geometry":{"type":"Point","coordinates":[-86.736938,33.515148]}},{"properties":{"city":"Akron, OH  44319","shop":"Bisesi's Bicycle &amp; Fitness","geo_score":1.0,"phone":"1-330-882-6727","full_address":"5164 South Main Street Akron, OH  44319","id":"a673hchrw3fy","geo_precision":"range","comment":null,"address":"5164 South Main Street"},"type":"Feature","geometry":{"type":"Point","coordinates":[-81.533885,40.949492]}},{"properties":{"city":"Bel Air, MD  21014","shop":"Black Cat Bicycle Company","geo_score":1.0,"phone":"1-410-588-5808","full_address":"116 South Main Street Bel Air, MD  21014","id":"a673hcooepw9","geo_precision":"range","comment":null,"address":"116 South Main Street"},"type":"Feature","geometry":{"type":"Point","coordinates":[-76.348334,39.535512]}},{"properties":{"city":"Scottsdale, AZ  85257","shop":"Bob's Bike Shop","geo_score":0.902,"phone":"1-480-946-9461","full_address":"1608 North Miller Road Scottsdale, AZ  85257","id":"a673hcad11bv","geo_precision":"street","comment":null,"address":"1608 North Miller Road"},"type":"Feature","geometry":{"type":"Point","coordinates":[-111.917532,33.466355]}},{"properties":{"city":"Phoenix, AZ  85040","shop":"Bob's Lock &amp; Cycle","geo_score":1.0,"phone":"1-602-276-6111","full_address":"5621 South Central Avenue Phoenix, AZ  85040","id":"a673hcktf3lu","geo_precision":"range","comment":null,"address":"5621 South Central Avenue"},"type":"Feature","geometry":{"type":"Point","coordinates":[-112.073315,33.395452]}},{"properties":{"city":"Aiken, SC  29803","shop":"Boxwood Bicycle Polo Company","geo_score":1.0,"phone":"1-803-648-4993","full_address":"305 Magnolia Lake Court Aiken, SC  29803","id":"a673hccb0dzv","geo_precision":"range","comment":null,"address":"305 Magnolia Lake Court"},"type":"Feature","geometry":{"type":"Point","coordinates":[-81.743304,33.501383]}},{"properties":{"city":"Tucson, AZ  85710","shop":"Broadway Bicycles","geo_score":1.0,"phone":"1-520-296-7819","full_address":"140 South Sarnoff Drive Tucson, AZ  85710","id":"a673hcp9y1uu","geo_precision":"range","comment":null,"address":"140 South Sarnoff Drive"},"type":"Feature","geometry":{"type":"Point","coordinates":[-110.815361,32.220179]}},{"properties":{"city":"Avalon, CA  90704","shop":"Brown's Bikes","geo_score":0.705,"phone":"1-310-510-0986","full_address":"107 Pebbly Beach Road Avalon, CA  90704","id":"a673hca3ghmz","geo_precision":"street","comment":null,"address":"107 Pebbly Beach Road"},"type":"Feature","geometry":{"type":"Point","coordinates":[-118.313306,33.334511]}},{"properties":{"city":"Belleville, MI  48111","shop":"Buck's Bike Shop","geo_score":1.0,"phone":"1-734-461-0226","full_address":"48900 Willow Road Belleville, MI  48111","id":"a673hcmh8r3w","geo_precision":"range","comment":null,"address":"48900 Willow Road"},"type":"Feature","geometry":{"type":"Point","coordinates":[-83.513347,42.115016]}},{"properties":{"city":"Austin, TX  78759","shop":"Buck's Bikes Superstore - Austin","geo_score":1.0,"phone":"1-512-250-9550","full_address":"12530 Research Boulevard Austin, TX  78759","id":"a673hccrxldz","geo_precision":"range","comment":null,"address":"12530 Research Boulevard"},"type":"Feature","geometry":{"type":"Point","coordinates":[-97.760424,30.429416]}},{"properties":{"city":"Aurora, CO  80013","shop":"Buckley Bicycles","geo_score":1.0,"phone":"1-303-750-1671","full_address":"16701 East Iliff Avenue Aurora, CO  80013","id":"a673hcklrbgm","geo_precision":"range","comment":null,"address":"16701 East Iliff Avenue"},"type":"Feature","geometry":{"type":"Point","coordinates":[-104.7932,39.673668]}},{"properties":{"city":"Phoenix, AZ  85044","shop":"Cactus Bike","geo_score":0.894,"phone":"1-480-940-7433","full_address":"9830 South 51st Street Suite A128 Phoenix, AZ  85044","id":"a673hclezv6o","geo_precision":"range","comment":null,"address":"9830 South 51st Street Suite A128"},"type":"Feature","geometry":{"type":"Point","coordinates":[-111.974814,33.358192]}},{"properties":{"city":"Chandler, AZ  85248","shop":"Cactus Bike","geo_score":0.805,"phone":"1-480-782-5483","full_address":"1940 South Alma School Road Chandler, AZ  85248","id":"a673hcngqpn5","geo_precision":"street","comment":null,"address":"1940 South Alma School Road"},"type":"Feature","geometry":{"type":"Point","coordinates":[-111.858445,33.261823]}},{"properties":{"city":"Mobile, AL  36608","shop":"Cadence 120 Bicycle Works Inc","geo_score":1.0,"phone":"1-251-344-7435","full_address":"5558 Old Shell Road Mobile, AL  36608","id":"a673hck9dfss","geo_precision":"range","comment":"Browse this online bicycle shop website for bicycle sales, service information, and accessories.","address":"5558 Old Shell Road"},"type":"Feature","geometry":{"type":"Point","coordinates":[-88.172059,30.689495]}},{"properties":{"city":"Birmingham, AL  35243","shop":"Cahaba Cycles - Cahaba Heights","geo_score":0.68,"phone":"1-205-967-2003","full_address":"3120 Cahaba Heights Villa Birmingham, AL  35243","id":"a673hcovef18","geo_precision":"street","comment":"This popular bike shop offers bicycle sales, rentals, and repairs.","address":"3120 Cahaba Heights Villa"},"type":"Feature","geometry":{"type":"Point","coordinates":[-86.745387,33.454723]}},{"properties":{"city":"Pelham, AL  35124","shop":"Cahaba Cycles - Oak Mountain","geo_score":1.0,"phone":"1-205-987-4043","full_address":"2271 Pelham Parkway Pelham, AL  35124","id":"a673hcjobpfm","geo_precision":"range","comment":"Call this Birmingham-Hoover area bicycle retailer to learn about their bike sale, rental, and repair offerings.","address":"2271 Pelham Parkway"},"type":"Feature","geometry":{"type":"Point","coordinates":[-86.792286,33.330363]}},{"properties":{"city":"Alamo, CA  94507","shop":"California Bike &amp; Snowboard","geo_score":1.0,"phone":"1-925-743-1249","full_address":"1469 Danville Boulevard Alamo, CA  94507","id":"a673hcn3k08h","geo_precision":"range","comment":null,"address":"1469 Danville Boulevard"},"type":"Feature","geometry":{"type":"Point","coordinates":[-122.029974,37.846362]}},{"properties":{"city":"Belmont, CA  94002","shop":"California Sports &amp; Cyclery","geo_score":0.927,"phone":"1-650-593-8806","full_address":"1464 El Camino Real Belmont, CA  94002","id":"a673hcm62z6c","geo_precision":"range","comment":null,"address":"1464 El Camino Real"},"type":"Feature","geometry":{"type":"Point","coordinates":[-122.271486,37.516611]}},{"properties":{"city":"Auburn, CA  95603","shop":"Cambria Bicycle Emporium","geo_score":1.0,"phone":"1-530-823-2900","full_address":"483 Grass Valley Highway Auburn, CA  95603","id":"a673hcbk23hi","geo_precision":"range","comment":null,"address":"483 Grass Valley Highway"},"type":"Feature","geometry":{"type":"Point","coordinates":[-121.076899,38.907853]}},{"properties":{"city":"Albuquerque, NM  87106","shop":"Campus Bicycle","geo_score":1.0,"phone":"1-505-268-6547","full_address":"106 Vassar Drive Southeast Albuquerque, NM  87106","id":"a673hcc07qpz","geo_precision":"range","comment":null,"address":"106 Vassar Drive Southeast"},"type":"Feature","geometry":{"type":"Point","coordinates":[-106.614528,35.080869]}},{"properties":{"city":"Ann Arbor, MI  48104","shop":"Campus Student Bike Shop","geo_score":1.0,"phone":"1-734-327-6949","full_address":"336 Maynard Street Ann Arbor, MI  48104","id":"a673hcp36i5m","geo_precision":"range","comment":null,"address":"336 Maynard Street"},"type":"Feature","geometry":{"type":"Point","coordinates":[-83.742008,42.278923]}},{"properties":{"city":"Baton Rouge, LA  70810","shop":"Capitol Cyclery and Fitness","geo_score":1.0,"phone":"1-225-766-4004","full_address":"5778 Essen Lane Baton Rouge, LA  70810","id":"a673hccvr1fa","geo_precision":"range","comment":null,"address":"5778 Essen Lane"},"type":"Feature","geometry":{"type":"Point","coordinates":[-91.109036,30.395823]}},{"properties":{"city":"Baton Rouge, LA  70817","shop":"Capitol Cyclery and Fitness","geo_score":1.0,"phone":"1-225-756-3578","full_address":"5542 Jones Creek Road Baton Rouge, LA  70817","id":"a673hcknu4i1","geo_precision":"range","comment":null,"address":"5542 Jones Creek Road"},"type":"Feature","geometry":{"type":"Point","coordinates":[-91.016653,30.403166]}},{"properties":{"city":"Baton Rouge, LA  70806","shop":"Capitol Cyclery and Fitness","geo_score":1.0,"phone":"1-225-927-1997","full_address":"8434 Florida Boulevard Baton Rouge, LA  70806","id":"a673hcq12iim","geo_precision":"range","comment":null,"address":"8434 Florida Boulevard"},"type":"Feature","geometry":{"type":"Point","coordinates":[-91.099058,30.452419]}},{"properties":{"city":"Akron, OH  44308","shop":"Car Gear","geo_score":1.0,"phone":"1-330-376-5120","full_address":"110 North Main Street Akron, OH  44308","id":"a673hci524pt","geo_precision":"range","comment":null,"address":"110 North Main Street"},"type":"Feature","geometry":{"type":"Point","coordinates":[-81.51554,41.088237]}},{"properties":{"city":"Cave Creek, AZ  85327","shop":"Carefree Bike Adventures","geo_score":0.78,"phone":"1-480-595-5358","full_address":"6033 East Cave Creek Road Cave Creek, AZ  85327","id":"a673hcadapeb","geo_precision":"street","comment":null,"address":"6033 East Cave Creek Road"},"type":"Feature","geometry":{"type":"Point","coordinates":[-111.975342,33.78043]}},{"properties":{"city":"Carefree, AZ  85377","shop":"Carefree Tennis and Bike Ranch","geo_score":1.0,"phone":"1-480-488-7106","full_address":"37220 North Mule Train Road Carefree, AZ  85377","id":"a673hchbzjn1","geo_precision":"range","comment":null,"address":"37220 North Mule Train Road"},"type":"Feature","geometry":{"type":"Point","coordinates":[-111.908556,33.822971]}},{"properties":{"city":"Asheville, NC  28806","shop":"Carolina FATZ Mountain Bike Center","geo_score":0.811,"phone":"1-828-665-7744","full_address":"1266 Brevard Road Asheville, NC  28806","id":"a673hcbbydtt","geo_precision":"street","comment":null,"address":"1266 Brevard Road"},"type":"Feature","geometry":{"type":"Point","coordinates":[-82.60536,35.518353]}},{"properties":{"city":"Bend, OR  97701","shop":"Century Cycles","geo_score":0.807,"phone":"1-541-389-4224","full_address":"1135 Northwest Galveston Avenue Bend, OR  97701","id":"a673hcod24mr","geo_precision":"street","comment":null,"address":"1135 Northwest Galveston Avenue"},"type":"Feature","geometry":{"type":"Point","coordinates":[-121.328814,44.056616]}},{"properties":{"city":"Augusta, GA  30907","shop":"Chain Reaction Cycling &amp; Fitness","geo_score":1.0,"phone":"1-706-855-2024","full_address":"3920 Roberts Road Augusta, GA  30907","id":"a673hcolbczi","geo_precision":"range","comment":null,"address":"3920 Roberts Road"},"type":"Feature","geometry":{"type":"Point","coordinates":[-82.098993,33.51115]}},{"properties":{"city":"Big Bear Lake, CA  92315","shop":"Chains Required Bike Shop","geo_score":0.947,"phone":"1-909-878-3268","full_address":"41869 Big Bear Bl Big Bear Lake, CA  92315","id":"a673hcaefnce","geo_precision":"range","comment":null,"address":"41869 Big Bear Bl"},"type":"Feature","geometry":{"type":"Point","coordinates":[-116.888992,34.243356]}},{"properties":{"city":"Little Rock, AR  72227","shop":"Chainwheel Inc","geo_score":1.0,"phone":"1-501-224-7651","full_address":"10300 North Rodney Parham Road Little Rock, AR  72227","id":"a673hcjr9nqk","geo_precision":"range","comment":"Browse this online bicycle shop website for bicycle sales, service information, and accessories.","address":"10300 North Rodney Parham Road"},"type":"Feature","geometry":{"type":"Point","coordinates":[-92.388008,34.766919]}},{"properties":{"city":"Fort Smith, AR  72903","shop":"Champion Cycling &amp; Fitness","geo_score":1.0,"phone":"1-479-484-7500","full_address":"8824 Rogers Avenue Fort Smith, AR  72903","id":"a673hcpdu04j","geo_precision":"range","comment":"Browse this online bicycle shop website for bicycle sales, service information, and accessories.","address":"8824 Rogers Avenue"},"type":"Feature","geometry":{"type":"Point","coordinates":[-94.335451,35.346068]}},{"properties":{"city":"Bend, OR  97701","shop":"Chrome Pony Bike &amp; Ski","geo_score":0.61,"phone":"1-541-593-2728","full_address":"1 West Mall Bend, OR  97701","id":"a673hcek4yta","geo_precision":"street","comment":null,"address":"1 West Mall"},"type":"Feature","geometry":{"type":"Point","coordinates":[-121.485969,44.038906]}},{"properties":{"city":"Amsterdam, NY  12010","shop":"City-Cycle","geo_score":0.878,"phone":"1-518-842-2220","full_address":"19 Northern Boulevard Amsterdam, NY  12010","id":"a673hceuxfog","geo_precision":"range","comment":null,"address":"19 Northern Boulevard"},"type":"Feature","geometry":{"type":"Point","coordinates":[-74.171103,42.953534]}},{"properties":{"city":"Austin, TX  78705","shop":"Clown Dog Bikes","geo_score":1.0,"phone":"1-512-477-4221","full_address":"2821 San Jacinto Boulevard Austin, TX  78705","id":"a673hcc7gded","geo_precision":"range","comment":null,"address":"2821 San Jacinto Boulevard"},"type":"Feature","geometry":{"type":"Point","coordinates":[-97.73449,30.29025]}},{"properties":{"city":"Augusta, GA  30901","shop":"Clyde Dunaway Bicycles","geo_score":0.902,"phone":"1-706-722-4208","full_address":"215 12th Street Augusta, GA  30901","id":"a673hcfiuxtg","geo_precision":"range","comment":null,"address":"215 12th Street"},"type":"Feature","geometry":{"type":"Point","coordinates":[-81.972702,33.477691]}},{"properties":{"city":"Arroyo Grande, CA  93420","shop":"Coast Cycling Specialties","geo_score":0.89,"phone":"1-805-489-5074","full_address":"107 Bridge Street Arroyo Grande, CA  93420","id":"a673hc9xqz5l","geo_precision":"range","comment":null,"address":"107 Bridge Street"},"type":"Feature","geometry":{"type":"Point","coordinates":[-120.579022,35.123064]}},{"properties":{"city":"Alpena, MI  49707","shop":"Cobblestone Schwinn Cyclery","geo_score":1.0,"phone":"1-989-356-1238","full_address":"225 West Chisholm Street Alpena, MI  49707","id":"a673hcdcljdc","geo_precision":"range","comment":null,"address":"225 West Chisholm Street"},"type":"Feature","geometry":{"type":"Point","coordinates":[-83.43474,45.063479]}},{"properties":{"city":"Barbourville, KY  40906","shop":"Coffey's Bicycle Sales","geo_score":0.849,"phone":"1-606-546-8622","full_address":"Cumberland Gap Parkway Barbourville, KY  40906","id":"a673hcj1c5ln","geo_precision":"street","comment":null,"address":"Cumberland Gap Parkway"},"type":"Feature","geometry":{"type":"Point","coordinates":[-83.881633,36.863891]}},{"properties":{"city":"Avon, CO  81620","shop":"Colorado Bike Service","geo_score":0.894,"phone":"1-970-949-4641","full_address":"41149 US Highway 6 and 24 Avon, CO  81620","id":"a673hce2bdu9","geo_precision":"range","comment":null,"address":"41149 US Highway 6 and 24"},"type":"Feature","geometry":{"type":"Point","coordinates":[-106.469669,39.62109]}},{"properties":{"city":"Berlin, MD  21811","shop":"Continental Cycles Inc","geo_score":0.605,"phone":"1-410-208-1313","full_address":"11022 Nicholas Lane Berlin, MD  21811","id":"a673hcfprb6q","geo_precision":"zip","comment":null,"address":"11022 Nicholas Lane"},"type":"Feature","geometry":{"type":"Point","coordinates":[-75.320901,38.310447]}},{"properties":{"city":"Conway, AR  72032","shop":"Conway Scooter Shop","geo_score":1.0,"phone":"1-501-513-9213","full_address":"1520 Old Morrilton Highway Conway, AR  72032","id":"a673hccjr5nz","geo_precision":"range","comment":"This Little Rock-North Little Rock area bicycle shop features bicycle sales and repairs.","address":"1520 Old Morrilton Highway"},"type":"Feature","geometry":{"type":"Point","coordinates":[-92.444611,35.111658]}},{"properties":{"city":"Arroyo Grande, CA  93420","shop":"Cook BROS Racing","geo_score":1.0,"phone":"1-805-343-2700","full_address":"1983 Willow Road Arroyo Grande, CA  93420","id":"a673hcgii07p","geo_precision":"range","comment":null,"address":"1983 Willow Road"},"type":"Feature","geometry":{"type":"Point","coordinates":[-120.567765,35.047311]}},{"properties":{"city":"Flagstaff, AZ  86001","shop":"Cosmic Cycles","geo_score":1.0,"phone":"1-928-779-1092","full_address":"901 North Beaver Street Flagstaff, AZ  86001","id":"a673hcgf9ry3","geo_precision":"range","comment":null,"address":"901 North Beaver Street"},"type":"Feature","geometry":{"type":"Point","coordinates":[-111.646371,35.206205]}},{"properties":{"city":"Barre, MA  01005","shop":"Country Bike &amp; Sports","geo_score":1.0,"phone":"1-978-355-2219","full_address":"12 Exchange Street Barre, MA  01005","id":"a673hco3jijb","geo_precision":"range","comment":null,"address":"12 Exchange Street"},"type":"Feature","geometry":{"type":"Point","coordinates":[-72.104632,42.422912]}},{"properties":{"city":"Berlin, NH  03570","shop":"Crooker Cycle Sports","geo_score":0.902,"phone":"1-603-752-3632","full_address":"240 Glen Avenue Berlin, NH  03570","id":"a673hcf7nowz","geo_precision":"street","comment":null,"address":"240 Glen Avenue"},"type":"Feature","geometry":{"type":"Point","coordinates":[-71.186726,44.460488]}},{"properties":{"city":"Albuquerque, NM  87110","shop":"Cycle Cave Inc","geo_score":1.0,"phone":"1-505-884-6607","full_address":"5716 Menaul Boulevard Northeast Albuquerque, NM  87110","id":"a673hch003j2","geo_precision":"range","comment":null,"address":"5716 Menaul Boulevard Northeast"},"type":"Feature","geometry":{"type":"Point","coordinates":[-106.580723,35.109104]}},{"properties":{"city":"Alameda, CA  94501","shop":"Cycle City","geo_score":1.0,"phone":"1-510-521-2872","full_address":"1433 High Street Alameda, CA  94501","id":"a673hcq7xudl","geo_precision":"range","comment":null,"address":"1433 High Street"},"type":"Feature","geometry":{"type":"Point","coordinates":[-122.231543,37.758596]}},{"properties":{"city":"Tucson, AZ  85705","shop":"Cycle Gear","geo_score":1.0,"phone":"1-520-882-8111","full_address":"2 West Grant Road Tucson, AZ  85705","id":"a673hccx7jbk","geo_precision":"range","comment":null,"address":"2 West Grant Road"},"type":"Feature","geometry":{"type":"Point","coordinates":[-110.97192,32.25032]}},{"properties":{"city":"Show Low, AZ  85901","shop":"Cycle Mania","geo_score":0.902,"phone":"1-928-537-8812","full_address":"100 North White Mountain Road Suite 101 Show Low, AZ  85901","id":"a673hcin3rhi","geo_precision":"range","comment":null,"address":"100 North White Mountain Road Suite 101"},"type":"Feature","geometry":{"type":"Point","coordinates":[-110.028636,34.25072]}},{"properties":{"city":"Athens, OH  45701","shop":"Cycle Path","geo_score":1.0,"phone":"1-740-593-8482","full_address":"104 West Union Street Athens, OH  45701","id":"a673hci1rymz","geo_precision":"range","comment":null,"address":"104 West Union Street"},"type":"Feature","geometry":{"type":"Point","coordinates":[-82.105525,39.329264]}},{"properties":{"city":"Safford, AZ  85546","shop":"Cycle Path","geo_score":0.916,"phone":"1-928-428-4666","full_address":"726 South 6th Avenue Safford, AZ  85546","id":"a673hcdhfmss","geo_precision":"range","comment":null,"address":"726 South 6th Avenue"},"type":"Feature","geometry":{"type":"Point","coordinates":[-109.713752,32.832023]}},{"properties":{"city":"Barstow, CA  92311","shop":"Cycle Pros","geo_score":1.0,"phone":"1-760-255-1816","full_address":"820 East Williams Street Barstow, CA  92311","id":"a673hcbcc7wb","geo_precision":"range","comment":null,"address":"820 East Williams Street"},"type":"Feature","geometry":{"type":"Point","coordinates":[-117.016851,34.89759]}},{"properties":{"city":"Glendale, AZ  85308","shop":"Cycle Spectrum","geo_score":1.0,"phone":"1-623-362-4100","full_address":"6030 West Behrend Drive Glendale, AZ  85308","id":"a673hceg606v","geo_precision":"range","comment":null,"address":"6030 West Behrend Drive"},"type":"Feature","geometry":{"type":"Point","coordinates":[-112.190199,33.665371]}},{"properties":{"city":"Mesa, AZ  85206","shop":"Cycle Spectrum","geo_score":0.854,"phone":"1-480-981-8901","full_address":"1545 South Power Road Suite 104 Mesa, AZ  85206","id":"a673hcdx7238","geo_precision":"range","comment":null,"address":"1545 South Power Road Suite 104"},"type":"Feature","geometry":{"type":"Point","coordinates":[-111.684791,33.387439]}},{"properties":{"city":"Phoenix, AZ  85044","shop":"Cycle Spectrum","geo_score":0.854,"phone":"1-480-598-3373","full_address":"4405 East Ray Road Suite 5 Phoenix, AZ  85044","id":"a673hcj6ksdl","geo_precision":"range","comment":null,"address":"4405 East Ray Road Suite 5"},"type":"Feature","geometry":{"type":"Point","coordinates":[-111.988517,33.320274]}},{"properties":{"city":"Gilbert, AZ  85233","shop":"Cycle Spectrum","geo_score":0.682,"phone":"1-480-892-0770","full_address":"1275 East Baseline Road Suite 108 Gilbert, AZ  85233","id":"a673hcjs1blz","geo_precision":"range","comment":null,"address":"1275 East Baseline Road Suite 108"},"type":"Feature","geometry":{"type":"Point","coordinates":[-111.918277,33.378347]}},{"properties":{"city":"Tucson, AZ  85711","shop":"Cycle Spectrum Bike Shop","geo_score":1.0,"phone":"1-520-790-9394","full_address":"6177 East Broadway Boulevard Tucson, AZ  85711","id":"a673hck1v79c","geo_precision":"range","comment":null,"address":"6177 East Broadway Boulevard"},"type":"Feature","geometry":{"type":"Point","coordinates":[-110.862572,32.221546]}},{"properties":{"city":"Ashland, OR  97520","shop":"Cycle Sport","geo_score":1.0,"phone":"1-541-488-0581","full_address":"191 Oak Street Ashland, OR  97520","id":"a673hcbzglq1","geo_precision":"range","comment":null,"address":"191 Oak Street"},"type":"Feature","geometry":{"type":"Point","coordinates":[-122.713832,42.198473]}},{"properties":{"city":"Lake Havasu City, AZ  86403","shop":"Cycle Therapy","geo_score":1.0,"phone":"1-928-855-3553","full_address":"2144 McCulloch Boulevard North Lake Havasu City, AZ  86403","id":"a673hcjjkxw9","geo_precision":"range","comment":null,"address":"2144 McCulloch Boulevard North"},"type":"Feature","geometry":{"type":"Point","coordinates":[-114.326261,34.47486]}},{"properties":{"city":"Bullhead City, AZ  86442","shop":"Cycle Therapy","geo_score":0.879,"phone":"1-928-763-3553","full_address":"1710 East Lakeside Drive Suite 8 Bullhead City, AZ  86442","id":"a673hcbksw3d","geo_precision":"range","comment":null,"address":"1710 East Lakeside Drive Suite 8"},"type":"Feature","geometry":{"type":"Point","coordinates":[-114.612963,35.109648]}},{"properties":{"city":"Bishopville, SC  29010","shop":"Cycletown","geo_score":1.0,"phone":"1-803-484-4686","full_address":"114 E Church Street Bishopville, SC  29010","id":"a673hc9yztkb","geo_precision":"range","comment":null,"address":"114 E Church Street"},"type":"Feature","geometry":{"type":"Point","coordinates":[-80.248359,34.217965]}},{"properties":{"city":"Atlanta, GA  30342","shop":"Cycleworks","geo_score":0.947,"phone":"1-404-255-2121","full_address":"4969 Roswell Road Northeast Atlanta, GA  30342","id":"a673hcabap5h","geo_precision":"range","comment":null,"address":"4969 Roswell Road Northeast"},"type":"Feature","geometry":{"type":"Point","coordinates":[-84.381367,33.890584]}},{"properties":{"city":"Albany, GA  31707","shop":"Cycleworld","geo_score":0.875,"phone":"1-229-431-0908","full_address":"2401 Dawson Road Suite B Albany, GA  31707","id":"a673hcfb9ytx","geo_precision":"range","comment":null,"address":"2401 Dawson Road Suite B"},"type":"Feature","geometry":{"type":"Point","coordinates":[-84.206932,31.605933]}},{"properties":{"city":"Artesia, CA  90701","shop":"Cycling Concepts","geo_score":0.833,"phone":"1-562-865-9571","full_address":"12148 South Street Artesia, CA  90701","id":"a673hccvmaxj","geo_precision":"range","comment":null,"address":"12148 South Street"},"type":"Feature","geometry":{"type":"Point","coordinates":[-118.073574,33.858514]}},{"properties":{"city":"Berkley, MI  48072","shop":"D &amp; D Bicycles","geo_score":0.464,"phone":"1-248-547-0770","full_address":"4141 12 Mile Road Berkley, MI  48072","id":"a673hcja4r40","geo_precision":"street","comment":null,"address":"4141 12 Mile Road"},"type":"Feature","geometry":{"type":"Point","coordinates":[-82.527599,42.622415]}},{"properties":{"city":"Mesa, AZ  85215","shop":"DNA Cycles","geo_score":0.878,"phone":"1-480-924-2453","full_address":"2031 North Power Road Mesa, AZ  85215","id":"a673hcgjbkq4","geo_precision":"range","comment":null,"address":"2031 North Power Road"},"type":"Feature","geometry":{"type":"Point","coordinates":[-111.684086,33.455168]}},{"properties":{"city":"Billings, MT  59105","shop":"DVS Bikes","geo_score":0.854,"phone":"1-406-256-3900","full_address":"520 Wicks Lane Suite 12 Billings, MT  59105","id":"a673hcmko5yc","geo_precision":"range","comment":null,"address":"520 Wicks Lane Suite 12"},"type":"Feature","geometry":{"type":"Point","coordinates":[-108.47337,45.827324]}},{"properties":{"city":"Berwyn, IL  60402","shop":"Dan's Bike Shop","geo_score":1.0,"phone":"1-708-484-5000","full_address":"6715 Roosevelt Road Berwyn, IL  60402","id":"a673hcdd9gna","geo_precision":"range","comment":null,"address":"6715 Roosevelt Road"},"type":"Feature","geometry":{"type":"Point","coordinates":[-87.79201,41.865184]}},{"properties":{"city":"Altamonte Springs, FL  32714","shop":"David's World Cycle","geo_score":0.973,"phone":"1-407-772-2223","full_address":"150 South State Road 434 Altamonte Springs, FL  32714","id":"a673hcktiqcn","geo_precision":"range","comment":null,"address":"150 South State Road 434"},"type":"Feature","geometry":{"type":"Point","coordinates":[-81.419089,28.667313]}},{"properties":{"city":"Alma, MI  48801","shop":"Dennis Bicycle Shop","geo_score":1.0,"phone":"1-989-463-5331","full_address":"4725 West Monroe Road Alma, MI  48801","id":"a673hcep6bn1","geo_precision":"range","comment":null,"address":"4725 West Monroe Road"},"type":"Feature","geometry":{"type":"Point","coordinates":[-84.700895,43.408127]}},{"properties":{"city":"Bartonville, IL  61607","shop":"Denton's Cycle &amp; Fitness Center","geo_score":1.0,"phone":"1-309-697-5948","full_address":"5907 South Adams Street Bartonville, IL  61607","id":"a673hcbjoht6","geo_precision":"range","comment":null,"address":"5907 South Adams Street"},"type":"Feature","geometry":{"type":"Point","coordinates":[-89.651997,40.651645]}},{"properties":{"city":"Atlanta, GA  30303","shop":"Deuce Skatepark &amp; Professional Shop","geo_score":0.611,"phone":"1-770-985-9900","full_address":"2100 McGee Road Atlanta, GA  30303","id":"a673hcb46nh1","geo_precision":"zip","comment":null,"address":"2100 McGee Road"},"type":"Feature","geometry":{"type":"Point","coordinates":[-84.392026,33.752456]}},{"properties":{"city":"Baker City, OR  97814","shop":"Dick's Bikes &amp; Repairs","geo_score":1.0,"phone":"1-541-523-7632","full_address":"2815 E Street Baker City, OR  97814","id":"a673hcbpk8tl","geo_precision":"range","comment":null,"address":"2815 E Street"},"type":"Feature","geometry":{"type":"Point","coordinates":[-117.839959,44.786244]}},{"properties":{"city":"Prescott Valley, AZ  86314","shop":"Dirt Works Bike Shop","geo_score":0.908,"phone":"1-928-775-4860","full_address":"8561 East Florentine Road Suite B Prescott Valley, AZ  86314","id":"a673hcj6kfvp","geo_precision":"range","comment":null,"address":"8561 East Florentine Road Suite B"},"type":"Feature","geometry":{"type":"Point","coordinates":[-112.315497,34.586945]}},{"properties":{"city":"Austin, TX  78757","shop":"Discovery Cycle","geo_score":0.877,"phone":"1-512-452-4225","full_address":"2700 West Anderson Lane Suite 212 Austin, TX  78757","id":"a673hcnc00mr","geo_precision":"range","comment":null,"address":"2700 West Anderson Lane Suite 212"},"type":"Feature","geometry":{"type":"Point","coordinates":[-97.736243,30.35879]}},{"properties":{"city":"Austin, TX  78705","shop":"Discovery Cycle","geo_score":0.916,"phone":"1-512-472-4447","full_address":"702 West 24th Street Austin, TX  78705","id":"a673hcn576ll","geo_precision":"range","comment":null,"address":"702 West 24th Street"},"type":"Feature","geometry":{"type":"Point","coordinates":[-97.7447,30.287938]}},{"properties":{"city":"Tempe, AZ  85281","shop":"Domenic's Cycling","geo_score":1.0,"phone":"1-480-967-7700","full_address":"1004 South Mill Avenue Tempe, AZ  85281","id":"a673hcosul22","geo_precision":"range","comment":null,"address":"1004 South Mill Avenue"},"type":"Feature","geometry":{"type":"Point","coordinates":[-111.939939,33.419011]}},{"properties":{"city":"Dothan, AL  36303","shop":"Dothan Cycle &amp; Fitness","geo_score":0.908,"phone":"1-334-792-8826","full_address":"3201 Montgomery Highway Suite 6 Dothan, AL  36303","id":"a673hcm77gum","geo_precision":"range","comment":null,"address":"3201 Montgomery Highway Suite 6"},"type":"Feature","geometry":{"type":"Point","coordinates":[-85.428609,31.252727]}},{"properties":{"city":"Albany, NY  12208","shop":"Down Tube Cycle Shop","geo_score":0.89,"phone":"1-518-434-1711","full_address":"466 Madison Avenue Suite 1 Albany, NY  12208","id":"a673hcjcnxwf","geo_precision":"range","comment":null,"address":"466 Madison Avenue Suite 1"},"type":"Feature","geometry":{"type":"Point","coordinates":[-73.768886,42.653095]}},{"properties":{"city":"Birmingham, AL  35211","shop":"Dr Joe's Bike MD &amp; Lawnmower Repair Shop","geo_score":1.0,"phone":"1-205-780-1950","full_address":"1001 Tuscaloosa Avenue Southwest Birmingham, AL  35211","id":"a673hcfvhqvz","geo_precision":"range","comment":"This popular bike shop offers bicycle sales, rentals, and repairs.","address":"1001 Tuscaloosa Avenue Southwest"},"type":"Feature","geometry":{"type":"Point","coordinates":[-86.848754,33.496102]}},{"properties":{"city":"Battle Creek, MI  49017","shop":"E-Bike World of Battle Creek","geo_score":1.0,"phone":"1-269-441-2453","full_address":"23047 M 78 Battle Creek, MI  49017","id":"a673hcdiw00u","geo_precision":"range","comment":null,"address":"23047 M 78"},"type":"Feature","geometry":{"type":"Point","coordinates":[-85.123798,42.405921]}},{"properties":{"city":"Mobile, AL  36602","shop":"Eastern Shore Cycles","geo_score":0.805,"phone":"1-251-626-0079","full_address":"6845 US Highway 90 Mobile, AL  36602","id":"a673hclei7gp","geo_precision":"street","comment":null,"address":"6845 US Highway 90"},"type":"Feature","geometry":{"type":"Point","coordinates":[-88.053635,30.686256]}},{"properties":{"city":"Alton, IL  62002","shop":"Eddie's Bicycle Shop","geo_score":1.0,"phone":"1-618-465-6755","full_address":"3320 Fernwood Avenue Alton, IL  62002","id":"a673hco3o5u0","geo_precision":"range","comment":null,"address":"3320 Fernwood Avenue"},"type":"Feature","geometry":{"type":"Point","coordinates":[-90.136692,38.897543]}},{"properties":{"city":"Akron, OH  44333","shop":"Eddy's Bike Shop","geo_score":1.0,"phone":"1-330-666-2453","full_address":"3991 Medina Road Akron, OH  44333","id":"a673hclezlf4","geo_precision":"range","comment":null,"address":"3991 Medina Road"},"type":"Feature","geometry":{"type":"Point","coordinates":[-81.642885,41.135911]}},{"properties":{"city":"Bayonne, NJ  07002","shop":"Eddy's Cycle City Inc","geo_score":1.0,"phone":"1-201-339-3722","full_address":"635 Broadway Bayonne, NJ  07002","id":"a673hcgbxi75","geo_precision":"range","comment":null,"address":"635 Broadway"},"type":"Feature","geometry":{"type":"Point","coordinates":[-74.114196,40.668797]}},{"properties":{"city":"Tempe, AZ  85281","shop":"Ehrdardt's Schwinn Bike","geo_score":1.0,"phone":"1-480-967-2137","full_address":"111 West University Drive Tempe, AZ  85281","id":"a673hcm8kf0i","geo_precision":"range","comment":null,"address":"111 West University Drive"},"type":"Feature","geometry":{"type":"Point","coordinates":[-111.941339,33.421945]}},{"properties":{"city":"Bethesda, MD  20817","shop":"Electric Bicycle CO","geo_score":1.0,"phone":"1-301-365-5616","full_address":"9218 Town Gate Lane Bethesda, MD  20817","id":"a673hcacpza9","geo_precision":"range","comment":null,"address":"9218 Town Gate Lane"},"type":"Feature","geometry":{"type":"Point","coordinates":[-77.191011,38.986661]}},{"properties":{"city":"Austin, TX  78704","shop":"Electric Bike Tours of Austin","geo_score":1.0,"phone":"1-512-444-8687","full_address":"1122 South Lamar Boulevard Austin, TX  78704","id":"a673hcg52ck8","geo_precision":"range","comment":null,"address":"1122 South Lamar Boulevard"},"type":"Feature","geometry":{"type":"Point","coordinates":[-97.761845,30.255358]}},{"properties":{"city":"Apple Valley, CA  92308","shop":"Eliminator Bmx Racing Team","geo_score":1.0,"phone":"1-626-253-8921","full_address":"12384 Snapping Turtle Road Apple Valley, CA  92308","id":"a673hcq5iq4f","geo_precision":"range","comment":null,"address":"12384 Snapping Turtle Road"},"type":"Feature","geometry":{"type":"Point","coordinates":[-117.211495,34.47617]}},{"properties":{"city":"Bethany, MO  64424","shop":"Ellis Auto &amp; Cycle","geo_score":0.916,"phone":"1-660-425-6118","full_address":"304 South 16th Street Bethany, MO  64424","id":"a673hcgujm7y","geo_precision":"range","comment":null,"address":"304 South 16th Street"},"type":"Feature","geometry":{"type":"Point","coordinates":[-94.034686,40.267375]}},{"properties":{"city":"Anderson, SC  29624","shop":"Ellis Bicycle Shop Inc","geo_score":0.927,"phone":"1-864-224-0321","full_address":"615 East River Street Anderson, SC  29624","id":"a673hcaymbc7","geo_precision":"range","comment":null,"address":"615 East River Street"},"type":"Feature","geometry":{"type":"Point","coordinates":[-82.641469,34.498937]}},{"properties":{"city":"Anderson, SC  29624","shop":"Ellis Bicycle Shop Inc","geo_score":0.927,"phone":"1-864-225-8900","full_address":"615 East River Street Anderson, SC  29624","id":"a673hcng1enc","geo_precision":"range","comment":null,"address":"615 East River Street"},"type":"Feature","geometry":{"type":"Point","coordinates":[-82.641469,34.498937]}},{"properties":{"city":"Belleville, IL  62226","shop":"Endre's Schwinn Cycling &amp; Fitness","geo_score":1.0,"phone":"1-618-233-0378","full_address":"3625 West Main Street Belleville, IL  62226","id":"a673hcfbyb58","geo_precision":"range","comment":null,"address":"3625 West Main Street"},"type":"Feature","geometry":{"type":"Point","coordinates":[-90.016363,38.533896]}},{"properties":{"city":"Bedford, TX  76021","shop":"Ericson's Bicycles Inc","geo_score":0.883,"phone":"1-817-268-6572","full_address":"510 Harwood Road Suite I Bedford, TX  76021","id":"a673hcjl7sqi","geo_precision":"range","comment":null,"address":"510 Harwood Road Suite I"},"type":"Feature","geometry":{"type":"Point","coordinates":[-97.162166,32.852428]}},{"properties":{"city":"Goodyear, AZ  85338","shop":"Evergreen Bike &amp; Lawn Equipment","geo_score":0.877,"phone":"1-623-932-0060","full_address":"880 East Van Buren Street Suite 102 Goodyear, AZ  85338","id":"a673hcgywzhe","geo_precision":"range","comment":null,"address":"880 East Van Buren Street Suite 102"},"type":"Feature","geometry":{"type":"Point","coordinates":[-112.343617,33.449869]}},{"properties":{"city":"Phoenix, AZ  85053","shop":"Excellent Bikes","geo_score":0.835,"phone":"1-602-548-0567","full_address":"2814 West Bell Road Suite 1475 Phoenix, AZ  85053","id":"a673hcnjmh71","geo_precision":"range","comment":null,"address":"2814 West Bell Road Suite 1475"},"type":"Feature","geometry":{"type":"Point","coordinates":[-112.12024,33.639825]}},{"properties":{"city":"Tucson, AZ  85719","shop":"Fair Wheel Bikes","geo_score":0.902,"phone":"1-520-884-9018","full_address":"1110 East 6th Street Tucson, AZ  85719","id":"a673hcqdy3s8","geo_precision":"range","comment":null,"address":"1110 East 6th Street"},"type":"Feature","geometry":{"type":"Point","coordinates":[-110.95467,32.227773]}},{"properties":{"city":"Bellingham, WA  98225","shop":"Fairhaven Bike &amp; Mountain Sports","geo_score":0.902,"phone":"1-360-733-4433","full_address":"1103 11th Street Bellingham, WA  98225","id":"a673hce0sjhr","geo_precision":"range","comment":null,"address":"1103 11th Street"},"type":"Feature","geometry":{"type":"Point","coordinates":[-122.503391,48.722404]}},{"properties":{"city":"Bellingham, WA  98226","shop":"Fanatik Bike Co.","geo_score":0.805,"phone":"1-360-756-0504","full_address":"2025 James Street Bellingham, WA  98226","id":"a673hcal45mw","geo_precision":"street","comment":null,"address":"2025 James Street"},"type":"Feature","geometry":{"type":"Point","coordinates":[-122.4648,48.745728]}},{"properties":{"city":"Albuquerque, NM  87107","shop":"Fat Tire Cycles Inc","geo_score":0.897,"phone":"1-505-345-9005","full_address":"421 Montano Road Northeast Suite B Albuquerque, NM  87107","id":"a673hcgvcmgc","geo_precision":"range","comment":null,"address":"421 Montano Road Northeast Suite B"},"type":"Feature","geometry":{"type":"Point","coordinates":[-106.626873,35.136407]}},{"properties":{"city":"Fayetteville, AR  72701","shop":"Fayetteville Bicycle Company Inc","geo_score":1.0,"phone":"1-479-582-2001","full_address":"418 North College Avenue Fayetteville, AR  72701","id":"a673hcnbeiv6","geo_precision":"range","comment":"0","address":"418 North College Avenue"},"type":"Feature","geometry":{"type":"Point","coordinates":[-94.157733,36.068788]}},{"properties":{"city":"Aberdeen, WA  98520","shop":"Fixit Shop","geo_score":1.0,"phone":"1-360-533-3141","full_address":"125 East Heron Street Aberdeen, WA  98520","id":"a673hcjdpnrl","geo_precision":"range","comment":null,"address":"125 East Heron Street"},"type":"Feature","geometry":{"type":"Point","coordinates":[-123.816867,46.973588]}},{"properties":{"city":"Flagstaff, AZ  86004","shop":"Flagstaff Bicycle &amp; Fitness","geo_score":0.695,"phone":"1-928-526-2780","full_address":"2404 East Route 66 Flagstaff, AZ  86004","id":"a673hckz9t93","geo_precision":"street","comment":null,"address":"2404 East Route 66"},"type":"Feature","geometry":{"type":"Point","coordinates":[-111.251803,35.1535]}},{"properties":{"city":"Cave Creek, AZ  85331","shop":"Flat Tire Bike Shop","geo_score":1.0,"phone":"1-480-488-5261","full_address":"6149 East Cave Creek Road Cave Creek, AZ  85331","id":"a673hcfrkxtu","geo_precision":"range","comment":null,"address":"6149 East Cave Creek Road"},"type":"Feature","geometry":{"type":"Point","coordinates":[-111.949462,33.832718]}},{"properties":{"city":"Altamonte Springs, FL  32714","shop":"Florida Bike &amp; Mower Sales-Service","geo_score":1.0,"phone":"1-407-869-1717","full_address":"1185 West State Road 436 Altamonte Springs, FL  32714","id":"a673hckvksz7","geo_precision":"range","comment":null,"address":"1185 West State Road 436"},"type":"Feature","geometry":{"type":"Point","coordinates":[-81.430843,28.666756]}},{"properties":{"city":"Arvada, CO  80004","shop":"Foothills Cycling","geo_score":0.927,"phone":"1-303-420-0815","full_address":"11651 West 64th Avenue Arvada, CO  80004","id":"a673hcqcsn9u","geo_precision":"range","comment":null,"address":"11651 West 64th Avenue"},"type":"Feature","geometry":{"type":"Point","coordinates":[-105.12876,39.812754]}},{"properties":{"city":"Augusta, MO  63332","shop":"Frazier Brothers Cycle Shop","geo_score":0.61,"phone":"1-636-482-4600","full_address":"5533 Water Street Augusta, MO  63332","id":"a673hcd0feus","geo_precision":"street","comment":null,"address":"5533 Water Street"},"type":"Feature","geometry":{"type":"Point","coordinates":[-90.49574,38.779509]}},{"properties":{"city":"Bay Shore, NY  11706","shop":"Frenchy's Bike Shop","geo_score":1.0,"phone":"1-631-665-6310","full_address":"1983 Union Boulevard Bay Shore, NY  11706","id":"a673hcltl9l2","geo_precision":"range","comment":null,"address":"1983 Union Boulevard"},"type":"Feature","geometry":{"type":"Point","coordinates":[-73.241693,40.727738]}},{"properties":{"city":"Oxford, AL  36203","shop":"Fun Wheels Inc","geo_score":0.854,"phone":"1-256-831-9507","full_address":"1209 Snow Street Suite E Oxford, AL  36203","id":"a673hcmmeda5","geo_precision":"range","comment":null,"address":"1209 Snow Street Suite E"},"type":"Feature","geometry":{"type":"Point","coordinates":[-85.816208,33.615024]}},{"properties":{"city":"Jonesboro, AR  72401","shop":"Gearhead Outfitters","geo_score":1.0,"phone":"1-870-910-5569","full_address":"230 South Main Street Jonesboro, AR  72401","id":"a673hccfgbhj","geo_precision":"range","comment":"Browse this online bicycle shop website for bicycle sales, service information, and accessories.","address":"230 South Main Street"},"type":"Feature","geometry":{"type":"Point","coordinates":[-90.704891,35.841547]}},{"properties":{"city":"Belmar, NJ  07719","shop":"Glendola Bicycle","geo_score":1.0,"phone":"1-732-681-5264","full_address":"2709 Belmar Boulevard Belmar, NJ  07719","id":"a673hcoegmjb","geo_precision":"range","comment":null,"address":"2709 Belmar Boulevard"},"type":"Feature","geometry":{"type":"Point","coordinates":[-74.065632,40.178379]}},{"properties":{"city":"Gilbert, AZ  85234","shop":"Global Bikes","geo_score":0.932,"phone":"1-480-892-1315","full_address":"835 N Gilbert Rd # 111 Gilbert, AZ  85234","id":"a673hcmd1hh9","geo_precision":"range","comment":null,"address":"835 N Gilbert Rd # 111"},"type":"Feature","geometry":{"type":"Point","coordinates":[-111.789853,33.365702]}},{"properties":{"city":"Arcata, CA  95521","shop":"Glover Bicycle Construction &amp; Repair","geo_score":0.902,"phone":"1-707-826-2118","full_address":"860 11th Street Arcata, CA  95521","id":"a673hcps3p7u","geo_precision":"range","comment":null,"address":"860 11th Street"},"type":"Feature","geometry":{"type":"Point","coordinates":[-124.086684,40.870753]}},{"properties":{"city":"Peoria, AZ  85381","shop":"Golden Spoke Cyclery","geo_score":1.0,"phone":"1-623-931-8910","full_address":"7558 West Thunderbird Road Peoria, AZ  85381","id":"a673hcif9xfo","geo_precision":"range","comment":null,"address":"7558 West Thunderbird Road"},"type":"Feature","geometry":{"type":"Point","coordinates":[-112.221096,33.610319]}},{"properties":{"city":"Ann Arbor, MI  48103","shop":"Great Lakes Cycling &amp; Fitness","geo_score":1.0,"phone":"1-734-668-6484","full_address":"2107 West Stadium Boulevard Ann Arbor, MI  48103","id":"a673hcbwso0y","geo_precision":"range","comment":null,"address":"2107 West Stadium Boulevard"},"type":"Feature","geometry":{"type":"Point","coordinates":[-83.776026,42.273121]}},{"properties":{"city":"Amboy, IL  61310","shop":"Green River Cyclery","geo_score":1.0,"phone":"1-815-857-4901","full_address":"245 East Main Street Amboy, IL  61310","id":"a673hcosi805","geo_precision":"range","comment":null,"address":"245 East Main Street"},"type":"Feature","geometry":{"type":"Point","coordinates":[-89.330167,41.713783]}},{"properties":{"city":"Green Valley, AZ  85614","shop":"Green Valley Bike &amp; Hike","geo_score":1.0,"phone":"1-520-393-7433","full_address":"125 West Calle De Las Tiendas Green Valley, AZ  85614","id":"a673hcmwtur5","geo_precision":"range","comment":null,"address":"125 West Calle De Las Tiendas"},"type":"Feature","geometry":{"type":"Point","coordinates":[-110.989279,31.898759]}},{"properties":{"city":"Bellevue, WA  98004","shop":"Greenlake Cycle Inc Gregg's","geo_score":1.0,"phone":"1-425-462-1900","full_address":"121 106th Avenue Northeast Bellevue, WA  98004","id":"a673hcoopjnf","geo_precision":"range","comment":null,"address":"121 106th Avenue Northeast"},"type":"Feature","geometry":{"type":"Point","coordinates":[-122.198805,47.610508]}},{"properties":{"city":"Alto, GA  30510","shop":"Habersham Bicycles","geo_score":0.752,"phone":"1-706-894-2453","full_address":"152 Anderson Circle Alto, GA  30510","id":"a673hcivmuh0","geo_precision":"range","comment":null,"address":"152 Anderson Circle"},"type":"Feature","geometry":{"type":"Point","coordinates":[-84.375289,34.816028]}},{"properties":{"city":"Austin, TX  78729","shop":"Hammerhead Bikes Inc","geo_score":0.844,"phone":"1-512-331-2002","full_address":"12307 Roxie Drive Suite 102 Austin, TX  78729","id":"a673hcn5tovg","geo_precision":"range","comment":null,"address":"12307 Roxie Drive Suite 102"},"type":"Feature","geometry":{"type":"Point","coordinates":[-97.78116,30.44584]}},{"properties":{"city":"Amherst, MA  01002","shop":"Hampshire Bicycle Exchange","geo_score":1.0,"phone":"1-413-549-6575","full_address":"65 University Drive Amherst, MA  01002","id":"a673hcdukjt0","geo_precision":"range","comment":null,"address":"65 University Drive"},"type":"Feature","geometry":{"type":"Point","coordinates":[-72.531831,42.381173]}},{"properties":{"city":"Asheville, NC  28801","shop":"Hearn's Cycling &amp; Fitness Inc","geo_score":1.0,"phone":"1-828-253-4800","full_address":"34 Broadway Street Asheville, NC  28801","id":"a673hclxsjs8","geo_precision":"range","comment":null,"address":"34 Broadway Street"},"type":"Feature","geometry":{"type":"Point","coordinates":[-82.55214,35.596363]}},{"properties":{"city":"Arcadia, CA  91006","shop":"Helens Professional Bikes of Arcadia","geo_score":1.0,"phone":"1-626-447-3181","full_address":"142 East Huntington Drive Arcadia, CA  91006","id":"a673hcgrk5si","geo_precision":"range","comment":null,"address":"142 East Huntington Drive"},"type":"Feature","geometry":{"type":"Point","coordinates":[-118.027246,34.140104]}},{"properties":{"city":"Prescott, AZ  86301","shop":"High Gear Bicycles","geo_score":1.0,"phone":"1-928-445-0636","full_address":"237 North Mount Vernon Avenue Prescott, AZ  86301","id":"a673hclae6de","geo_precision":"range","comment":null,"address":"237 North Mount Vernon Avenue"},"type":"Feature","geometry":{"type":"Point","coordinates":[-112.463227,34.544348]}},{"properties":{"city":"Abingdon, VA  24210","shop":"Highland Bike Rental","geo_score":1.0,"phone":"1-276-628-9672","full_address":"302 Green Spring Road Abingdon, VA  24210","id":"a673hcggf1i5","geo_precision":"range","comment":null,"address":"302 Green Spring Road"},"type":"Feature","geometry":{"type":"Point","coordinates":[-81.971358,36.709067]}},{"properties":{"city":"Russellville, AR  72801","shop":"Highlander Cycling &amp; Outdoors","geo_score":1.0,"phone":"1-479-967-4699","full_address":"1001 North Arkansas Avenue Russellville, AR  72801","id":"a673hcnoq4pq","geo_precision":"range","comment":"0","address":"1001 North Arkansas Avenue"},"type":"Feature","geometry":{"type":"Point","coordinates":[-93.133428,35.287385]}},{"properties":{"city":"Aptos, CA  95003","shop":"Hike A Bike","geo_score":1.0,"phone":"1-831-688-5411","full_address":"621 Loma Prieta Drive Aptos, CA  95003","id":"a673hcnemz69","geo_precision":"range","comment":null,"address":"621 Loma Prieta Drive"},"type":"Feature","geometry":{"type":"Point","coordinates":[-121.878068,36.968848]}},{"properties":{"city":"Amarillo, TX  79109","shop":"Hill's Sport Shop","geo_score":0.806,"phone":"1-806-355-7224","full_address":"4021 Mockingbird Lane Amarillo, TX  79109","id":"a673hccojaud","geo_precision":"street","comment":null,"address":"4021 Mockingbird Lane"},"type":"Feature","geometry":{"type":"Point","coordinates":[-101.879292,35.182853]}},{"properties":{"city":"Bemidji, MN  56601","shop":"Home Place Bike and Ski Shop","geo_score":1.0,"phone":"1-218-751-3456","full_address":"524 Paul Bunyan Drive Southeast Bemidji, MN  56601","id":"a673hcg5q1ff","geo_precision":"range","comment":null,"address":"524 Paul Bunyan Drive Southeast"},"type":"Feature","geometry":{"type":"Point","coordinates":[-94.860693,47.454133]}},{"properties":{"city":"Birmingham, AL  35209","shop":"Homewood Cycle and Fitness","geo_score":0.916,"phone":"1-205-879-3244","full_address":"2834 18th Street South Birmingham, AL  35209","id":"a673hck96e54","geo_precision":"range","comment":"This popular bike shop offers bicycle sales, rentals, and repairs.","address":"2834 18th Street South"},"type":"Feature","geometry":{"type":"Point","coordinates":[-86.791746,33.479947]}},{"properties":{"city":"Bellingham, WA  98225","shop":"Hub Community Bicycle Cooperative","geo_score":1.0,"phone":"1-360-255-2072","full_address":"903 North State Street Bellingham, WA  98225","id":"a673hcouueq5","geo_precision":"range","comment":null,"address":"903 North State Street"},"type":"Feature","geometry":{"type":"Point","coordinates":[-122.483064,48.744404]}},{"properties":{"city":"Bellbrook, OH  45305","shop":"International Professional Bike Shop","geo_score":1.0,"phone":"1-937-848-8466","full_address":"15 West Franklin Street Bellbrook, OH  45305","id":"a673hcl82qkn","geo_precision":"range","comment":null,"address":"15 West Franklin Street"},"type":"Feature","geometry":{"type":"Point","coordinates":[-84.071134,39.636044]}},{"properties":{"city":"Atlanta, GA  30306","shop":"Intown Bicycles","geo_score":1.0,"phone":"1-404-872-1736","full_address":"1035 Monroe Drive Northeast Atlanta, GA  30306","id":"a673hcage7mu","geo_precision":"range","comment":null,"address":"1035 Monroe Drive Northeast"},"type":"Feature","geometry":{"type":"Point","coordinates":[-84.36832,33.782952]}},{"properties":{"city":"Arroyo Grande, CA  93420","shop":"Ira's Bike Shop","geo_score":0.89,"phone":"1-805-489-2621","full_address":"107 Bridge Street Arroyo Grande, CA  93420","id":"a673hcphqtm1","geo_precision":"range","comment":null,"address":"107 Bridge Street"},"type":"Feature","geometry":{"type":"Point","coordinates":[-120.579022,35.123064]}},{"properties":{"city":"Prescott, AZ  86301","shop":"Iron Clad Bicycles","geo_score":0.619,"phone":"1-928-776-1755","full_address":"White Spar Prescott, AZ  86301","id":"a673hcfq2aj9","geo_precision":"street","comment":null,"address":"White Spar"},"type":"Feature","geometry":{"type":"Point","coordinates":[-112.501357,34.643606]}},{"properties":{"city":"Bell Gardens, CA  90201","shop":"J &amp; M Bike Shop","geo_score":1.0,"phone":"1-562-927-1613","full_address":"6305 Florence Avenue Bell Gardens, CA  90201","id":"a673hcgykmpk","geo_precision":"range","comment":null,"address":"6305 Florence Avenue"},"type":"Feature","geometry":{"type":"Point","coordinates":[-118.152686,33.966157]}},{"properties":{"city":"Sherwood, AR  72120","shop":"J &amp; P Bike Shop","geo_score":0.867,"phone":"1-501-835-4814","full_address":"7910 Highway 107 Sherwood, AR  72120","id":"a673hcbu7l65","geo_precision":"range","comment":"This Little Rock-North Little Rock area bicycle shop features bicycle sales and repairs.","address":"7910 Highway 107"},"type":"Feature","geometry":{"type":"Point","coordinates":[-92.231321,34.8265]}},{"properties":{"city":"Alpine, TX  79830","shop":"J.R. Carri Company Bike Seat","geo_score":0.805,"phone":"1-915-837-2633","full_address":"405 North 8th Alpine, TX  79830","id":"a673hcjxbz2i","geo_precision":"range","comment":null,"address":"405 North 8th"},"type":"Feature","geometry":{"type":"Point","coordinates":[-103.665412,30.359352]}},{"properties":{"city":"Austin, TX  78704","shop":"Jack and Adams Bicycle's","geo_score":1.0,"phone":"1-512-472-5646","full_address":"1800 Barton Springs Road Austin, TX  78704","id":"a673hcpfawiw","geo_precision":"range","comment":null,"address":"1800 Barton Springs Road"},"type":"Feature","geometry":{"type":"Point","coordinates":[-97.763669,30.263807]}},{"properties":{"city":"Bellingham, WA  98229","shop":"Jack's Bicycle Center","geo_score":0.912,"phone":"1-360-733-1955","full_address":"1907 Iowa Street Bellingham, WA  98229","id":"a673hceofmin","geo_precision":"range","comment":null,"address":"1907 Iowa Street"},"type":"Feature","geometry":{"type":"Point","coordinates":[-122.449343,48.75644]}},{"properties":{"city":"Bay City, MI  48706","shop":"Jack's Bicycle Shop","geo_score":1.0,"phone":"1-989-684-1735","full_address":"304 Patterson Avenue Bay City, MI  48706","id":"a673hclwn0hq","geo_precision":"range","comment":null,"address":"304 Patterson Avenue"},"type":"Feature","geometry":{"type":"Point","coordinates":[-83.874666,43.616649]}},{"properties":{"city":"Allen Park, MI  48101","shop":"Jack's Cyclery","geo_score":1.0,"phone":"1-313-382-1990","full_address":"6641 Park Avenue Allen Park, MI  48101","id":"a673hce2zuap","geo_precision":"range","comment":null,"address":"6641 Park Avenue"},"type":"Feature","geometry":{"type":"Point","coordinates":[-83.207461,42.257485]}},{"properties":{"city":"Bethel Park, PA  15102","shop":"Joe's Bike Shop","geo_score":1.0,"phone":"1-412-835-5355","full_address":"2858 South Park Road Bethel Park, PA  15102","id":"a673hcj12usr","geo_precision":"range","comment":null,"address":"2858 South Park Road"},"type":"Feature","geometry":{"type":"Point","coordinates":[-80.038609,40.328286]}},{"properties":{"city":"Selma, AL  36701","shop":"Joes Bike Shop","geo_score":0.811,"phone":"1-334-872-2249","full_address":"530 Jeff Davis Avenue Selma, AL  36701","id":"a673hcpi0oew","geo_precision":"street","comment":null,"address":"530 Jeff Davis Avenue"},"type":"Feature","geometry":{"type":"Point","coordinates":[-87.034571,32.415453]}},{"properties":{"city":"Antioch, CA  94509","shop":"John's Bicycles","geo_score":0.916,"phone":"1-925-757-0321","full_address":"1139 East 18th Street Antioch, CA  94509","id":"a673hcbepa1o","geo_precision":"range","comment":null,"address":"1139 East 18th Street"},"type":"Feature","geometry":{"type":"Point","coordinates":[-121.786597,38.004027]}},{"properties":{"city":"Yuma, AZ  85364","shop":"Johnny Yuma's Bicycles","geo_score":0.916,"phone":"1-928-373-0700","full_address":"1198 South 4th Avenue Yuma, AZ  85364","id":"a673hcfdzjsl","geo_precision":"range","comment":null,"address":"1198 South 4th Avenue"},"type":"Feature","geometry":{"type":"Point","coordinates":[-114.62466,32.705771]}},{"properties":{"city":"Mesa, AZ  85205","shop":"Junction Bicycle Sales &amp; Service Inc","geo_score":1.0,"phone":"1-480-985-1333","full_address":"6134 East Main Street Mesa, AZ  85205","id":"a673hcm4er7r","geo_precision":"range","comment":null,"address":"6134 East Main Street"},"type":"Feature","geometry":{"type":"Point","coordinates":[-111.698991,33.41563]}},{"properties":{"city":"Mesa, AZ  85201","shop":"Junction Bicycle Sales &amp; Service Inc","geo_score":0.683,"phone":"1-480-380-0811","full_address":"10839 East Apache Trail Mesa, AZ  85201","id":"a673hcnmaebm","geo_precision":"range","comment":null,"address":"10839 East Apache Trail"},"type":"Feature","geometry":{"type":"Point","coordinates":[-111.597275,33.415098]}},{"properties":{"city":"Phoenix, AZ  85016","shop":"Junction Bicycle Sales &amp; Service Inc","geo_score":0.916,"phone":"1-602-954-0650","full_address":"3033 North 24th Street Phoenix, AZ  85016","id":"a673hchfqthc","geo_precision":"range","comment":null,"address":"3033 North 24th Street"},"type":"Feature","geometry":{"type":"Point","coordinates":[-112.030181,33.483232]}},{"properties":{"city":"Birmingham, MI  48009","shop":"K L M Bike &amp; Fitness","geo_score":1.0,"phone":"1-248-645-2453","full_address":"33502 Woodward Avenue Birmingham, MI  48009","id":"a673hcerb3f9","geo_precision":"range","comment":null,"address":"33502 Woodward Avenue"},"type":"Feature","geometry":{"type":"Point","coordinates":[-83.203785,42.535912]}},{"properties":{"city":"Birmingham, MI  48009","shop":"K L M Bike &amp; Fitness","geo_score":1.0,"phone":"1-248-626-7791","full_address":"33502 Woodward Avenue Birmingham, MI  48009","id":"a673hcguo3ab","geo_precision":"range","comment":null,"address":"33502 Woodward Avenue"},"type":"Feature","geometry":{"type":"Point","coordinates":[-83.203785,42.535912]}},{"properties":{"city":"Auburn Hills, MI  48321","shop":"K L M Bike &amp; Fitness","geo_score":0.805,"phone":"1-248-299-0456","full_address":"2680 South Rochester Road Auburn Hills, MI  48321","id":"a673hcbs6kkz","geo_precision":"range","comment":null,"address":"2680 South Rochester Road"},"type":"Feature","geometry":{"type":"Point","coordinates":[-83.132001,42.641331]}},{"properties":{"city":"Atascadero, CA  93422","shop":"K-Man Cyclery","geo_score":0.927,"phone":"1-805-461-8735","full_address":"8641 El Camino Real Atascadero, CA  93422","id":"a673hcblmyn3","geo_precision":"range","comment":null,"address":"8641 El Camino Real"},"type":"Feature","geometry":{"type":"Point","coordinates":[-120.653868,35.472853]}},{"properties":{"city":"Tempe, AZ  85281","shop":"KORE Bike Industries","geo_score":0.878,"phone":"1-480-966-5673","full_address":"1126 North Scottsdale Road Tempe, AZ  85281","id":"a673hcc15dh8","geo_precision":"range","comment":null,"address":"1126 North Scottsdale Road"},"type":"Feature","geometry":{"type":"Point","coordinates":[-111.926345,33.441002]}},{"properties":{"city":"Bellport, NY  11713","shop":"KREB Cycle","geo_score":1.0,"phone":"1-631-286-1829","full_address":"10 Bell Street Bellport, NY  11713","id":"a673hca5bzqx","geo_precision":"range","comment":null,"address":"10 Bell Street"},"type":"Feature","geometry":{"type":"Point","coordinates":[-72.937644,40.756919]}},{"properties":{"city":"Berkeley, CA  94705","shop":"Karim Cycle-Berkeley","geo_score":1.0,"phone":"1-510-841-2181","full_address":"2800 Telegraph Avenue Berkeley, CA  94705","id":"a673hcmg78l5","geo_precision":"range","comment":null,"address":"2800 Telegraph Avenue"},"type":"Feature","geometry":{"type":"Point","coordinates":[-122.259268,37.859534]}},{"properties":{"city":"Bethlehem, PA  18017","shop":"Kessler's Bicycle Center","geo_score":0.611,"phone":"1-717-632-9157","full_address":"129 Baltimore Street Bethlehem, PA  18017","id":"a673hcauqx8i","geo_precision":"zip","comment":null,"address":"129 Baltimore Street"},"type":"Feature","geometry":{"type":"Point","coordinates":[-75.39027,40.662211]}},{"properties":{"city":"Beaumont, TX  77706","shop":"Kickstand Bike Shop","geo_score":1.0,"phone":"1-409-860-5532","full_address":"8350 Phelan Boulevard Beaumont, TX  77706","id":"a673hchubrgo","geo_precision":"range","comment":null,"address":"8350 Phelan Boulevard"},"type":"Feature","geometry":{"type":"Point","coordinates":[-94.188986,30.076531]}},{"properties":{"city":"Beaverton, OR  97005","shop":"Kissler's Cyclery","geo_score":0.962,"phone":"1-503-644-5008","full_address":"10030 Southwest Beaverton Hillsdale Beaverton, OR  97005","id":"a673hclv0n89","geo_precision":"range","comment":null,"address":"10030 Southwest Beaverton Hillsdale"},"type":"Feature","geometry":{"type":"Point","coordinates":[-122.780348,45.486527]}},{"properties":{"city":"Albany, NY  12205","shop":"Klarsfeld's Cyclery &amp; Fitness","geo_score":1.0,"phone":"1-518-459-3272","full_address":"1370 Central Avenue Albany, NY  12205","id":"a673hccoyg2h","geo_precision":"range","comment":null,"address":"1370 Central Avenue"},"type":"Feature","geometry":{"type":"Point","coordinates":[-73.817504,42.704146]}},{"properties":{"city":"Mobile, AL  36609","shop":"Klein and Trek Bicycles of Mobile","geo_score":0.808,"phone":"1-251-666-3783","full_address":"4258 Cottage Hill Road Mobile, AL  36609","id":"a673hcpr1g7m","geo_precision":"street","comment":null,"address":"4258 Cottage Hill Road"},"type":"Feature","geometry":{"type":"Point","coordinates":[-88.153455,30.650644]}},{"properties":{"city":"Bellingham, WA  98225","shop":"Kulshan Cycles","geo_score":1.0,"phone":"1-360-733-6440","full_address":"100 East Chestnut Street Bellingham, WA  98225","id":"a673hcbp519a","geo_precision":"range","comment":null,"address":"100 East Chestnut Street"},"type":"Feature","geometry":{"type":"Point","coordinates":[-122.480677,48.748734]}},{"properties":{"city":"Benson, AZ  85602","shop":"L &amp; B Bicycles","geo_score":0.902,"phone":"1-520-586-7766","full_address":"264 East 4th Street Benson, AZ  85602","id":"a673hcdfq1fd","geo_precision":"range","comment":null,"address":"264 East 4th Street"},"type":"Feature","geometry":{"type":"Point","coordinates":[-110.295133,31.967997]}},{"properties":{"city":"Bell Gardens, CA  90201","shop":"LA Route Bike Shop","geo_score":1.0,"phone":"1-323-771-1815","full_address":"6612 Eastern Avenue Bell Gardens, CA  90201","id":"a673hcmlx4kv","geo_precision":"range","comment":null,"address":"6612 Eastern Avenue"},"type":"Feature","geometry":{"type":"Point","coordinates":[-118.163897,33.973252]}},{"properties":{"city":"Tempe, AZ  85282","shop":"Landis Cyclery","geo_score":1.0,"phone":"1-480-839-9383","full_address":"2180 East Southern Avenue Tempe, AZ  85282","id":"a673hce601p1","geo_precision":"range","comment":null,"address":"2180 East Southern Avenue"},"type":"Feature","geometry":{"type":"Point","coordinates":[-111.892975,33.392979]}},{"properties":{"city":"Paradise Valley, AZ  85253","shop":"Landis Cyclery","geo_score":0.61,"phone":"1-480-948-9280","full_address":"10417 North Scottsdale Road Paradise Valley, AZ  85253","id":"a673hcen7cvz","geo_precision":"street","comment":null,"address":"10417 North Scottsdale Road"},"type":"Feature","geometry":{"type":"Point","coordinates":[-111.926672,33.489139]}},{"properties":{"city":"Tempe, AZ  85284","shop":"Landis Cyclery","geo_score":0.74,"phone":"1-480-730-1081","full_address":"1006 East Warner Road Suite 106 Tempe, AZ  85284","id":"a673hcmfsz6z","geo_precision":"range","comment":null,"address":"1006 East Warner Road Suite 106"},"type":"Feature","geometry":{"type":"Point","coordinates":[-111.926084,33.334669]}},{"properties":{"city":"Phoenix, AZ  85013","shop":"Landis Cyclery","geo_score":1.0,"phone":"1-602-264-5681","full_address":"712 West Indian School Road Phoenix, AZ  85013","id":"a673hci43qdv","geo_precision":"range","comment":null,"address":"712 West Indian School Road"},"type":"Feature","geometry":{"type":"Point","coordinates":[-112.083543,33.494899]}},{"properties":{"city":"Berkeley, CA  94705","shop":"Left Coast Cyclery","geo_score":1.0,"phone":"1-510-204-8550","full_address":"2928 Domingo Avenue Berkeley, CA  94705","id":"a673hchqjs6q","geo_precision":"range","comment":null,"address":"2928 Domingo Avenue"},"type":"Feature","geometry":{"type":"Point","coordinates":[-122.243935,37.858752]}},{"properties":{"city":"Basking Ridge, NJ  07920","shop":"Liberty Cycle","geo_score":1.0,"phone":"1-908-630-0110","full_address":"107 North Maple Avenue Basking Ridge, NJ  07920","id":"a673hcepci7s","geo_precision":"range","comment":null,"address":"107 North Maple Avenue"},"type":"Feature","geometry":{"type":"Point","coordinates":[-74.5444,40.713465]}},{"properties":{"city":"Beaumont, CA  92223","shop":"Love's Sporting Goods &amp; Bicycle Shop","geo_score":0.902,"phone":"1-951-845-1552","full_address":"226 East 6th Street Beaumont, CA  92223","id":"a673hc9yegys","geo_precision":"range","comment":null,"address":"226 East 6th Street"},"type":"Feature","geometry":{"type":"Point","coordinates":[-116.979609,33.929387]}},{"properties":{"city":"Beaumont, CA  92223","shop":"Love's Sporting Goods &amp; Bicycle Shop","geo_score":0.902,"phone":"1-909-845-1552","full_address":"226 East 6th Street Beaumont, CA  92223","id":"a673hcbkok72","geo_precision":"range","comment":null,"address":"226 East 6th Street"},"type":"Feature","geometry":{"type":"Point","coordinates":[-116.979609,33.929387]}},{"properties":{"city":"Beaufort, SC  29907","shop":"Low Country Bicycles Inc","geo_score":1.0,"phone":"1-843-524-9585","full_address":"102 Sea Island Parkway Beaufort, SC  29907","id":"a673hco6wd5h","geo_precision":"range","comment":null,"address":"102 Sea Island Parkway"},"type":"Feature","geometry":{"type":"Point","coordinates":[-80.655389,32.416338]}},{"properties":{"city":"Armstrong, IA  50514","shop":"Lubenow Bike Shop","geo_score":0.771,"phone":"1-712-868-3844","full_address":"JCT Highway 9 and Highway 15 Armstrong, IA  50514","id":"a673hcftrko7","geo_precision":"street","comment":null,"address":"JCT Highway 9 and Highway 15"},"type":"Feature","geometry":{"type":"Point","coordinates":[-94.48162,43.392756]}},{"properties":{"city":"Sierra Vista, AZ  85635","shop":"M &amp; M Cycling","geo_score":0.902,"phone":"1-520-458-1316","full_address":"1301 East Fry Boulevard Sierra Vista, AZ  85635","id":"a673hcaru1sl","geo_precision":"range","comment":null,"address":"1301 East Fry Boulevard"},"type":"Feature","geometry":{"type":"Point","coordinates":[-110.284618,31.556827]}},{"properties":{"city":"Bennington, VT  05201","shop":"Maclaren Cycle Works","geo_score":1.0,"phone":"1-802-447-4800","full_address":"334 Pleasant Street Bennington, VT  05201","id":"a673hchqm0p5","geo_precision":"range","comment":null,"address":"334 Pleasant Street"},"type":"Feature","geometry":{"type":"Point","coordinates":[-73.189109,42.879092]}},{"properties":{"city":"Madison, AL  35758","shop":"Madison Cycles","geo_score":0.897,"phone":"1-256-461-6331","full_address":"8760 Madison Boulevard Suite J Madison, AL  35758","id":"a673hcoc0hy9","geo_precision":"range","comment":"This Huntsville area bicycle shop features bicycle sales and repairs.","address":"8760 Madison Boulevard Suite J"},"type":"Feature","geometry":{"type":"Point","coordinates":[-86.74555,34.679168]}},{"properties":{"city":"Madison, AL  35758","shop":"Madison Cycles","geo_score":0.897,"phone":"1-256-461-9963","full_address":"8760 Madison Boulevard Suite J Madison, AL  35758","id":"a673hcgeasji","geo_precision":"range","comment":"This retailer serves the local Huntsville area cycling community, offering bicycle sales, rentals, and repairs.","address":"8760 Madison Boulevard Suite J"},"type":"Feature","geometry":{"type":"Point","coordinates":[-86.74555,34.679168]}},{"properties":{"city":"Bar Harbor, ME  04609","shop":"Maine Cost Bicycle Tours","geo_score":0.813,"phone":"1-207-288-0050","full_address":"48 Cottage Bar Harbor, ME  04609","id":"a673hca9kshl","geo_precision":"range","comment":null,"address":"48 Cottage"},"type":"Feature","geometry":{"type":"Point","coordinates":[-68.206554,44.389506]}},{"properties":{"city":"Payson, AZ  85541","shop":"Manzanita Cyclery","geo_score":1.0,"phone":"1-928-474-0744","full_address":"307 South Beeline Highway Payson, AZ  85541","id":"a673hcfvzjcj","geo_precision":"range","comment":null,"address":"307 South Beeline Highway"},"type":"Feature","geometry":{"type":"Point","coordinates":[-111.323075,34.237792]}},{"properties":{"city":"Albert Lea, MN  56007","shop":"Martin's Cycling &amp; Fitness","geo_score":1.0,"phone":"1-507-377-3704","full_address":"1137 South Broadway Avenue Albert Lea, MN  56007","id":"a673hcdn8qzi","geo_precision":"range","comment":null,"address":"1137 South Broadway Avenue"},"type":"Feature","geometry":{"type":"Point","coordinates":[-93.368669,43.638209]}},{"properties":{"city":"Augusta, GA  30907","shop":"Martinez Bicycle Company","geo_score":1.0,"phone":"1-706-863-6862","full_address":"138 Davis Road Augusta, GA  30907","id":"a673hcl3pvo7","geo_precision":"range","comment":null,"address":"138 Davis Road"},"type":"Feature","geometry":{"type":"Point","coordinates":[-82.08437,33.509994]}},{"properties":{"city":"Avon Lake, OH  44012","shop":"Marty's Cycle Center","geo_score":1.0,"phone":"1-440-933-4204","full_address":"32087 Electric Boulevard Avon Lake, OH  44012","id":"a673hcm6uj6l","geo_precision":"range","comment":null,"address":"32087 Electric Boulevard"},"type":"Feature","geometry":{"type":"Point","coordinates":[-81.989194,41.509386]}},{"properties":{"city":"Auburn, NY  13021","shop":"Mike's","geo_score":0.751,"phone":"1-315-253-0585","full_address":"360 Grant Avenue Road Auburn, NY  13021","id":"a673hcajkfz3","geo_precision":"street","comment":null,"address":"360 Grant Avenue Road"},"type":"Feature","geometry":{"type":"Point","coordinates":[-76.534714,42.970017]}},{"properties":{"city":"Berlin, WI  54923","shop":"Mike's Bike Shop","geo_score":1.0,"phone":"1-920-361-3565","full_address":"117 East Huron Street Berlin, WI  54923","id":"a673hcdof598","geo_precision":"range","comment":null,"address":"117 East Huron Street"},"type":"Feature","geometry":{"type":"Point","coordinates":[-88.946325,43.968373]}},{"properties":{"city":"Berkeley, CA  94704","shop":"Mike's Bikes","geo_score":1.0,"phone":"1-510-549-8350","full_address":"2133 University Avenue Berkeley, CA  94704","id":"a673hcpo6g0a","geo_precision":"range","comment":null,"address":"2133 University Avenue"},"type":"Feature","geometry":{"type":"Point","coordinates":[-122.267346,37.872258]}},{"properties":{"city":"Angleton, TX  77515","shop":"Mike's Bikes","geo_score":1.0,"phone":"1-979-849-6172","full_address":"1401 North Velasco Street Angleton, TX  77515","id":"a673hcip77zv","geo_precision":"range","comment":null,"address":"1401 North Velasco Street"},"type":"Feature","geometry":{"type":"Point","coordinates":[-95.433279,29.187894]}},{"properties":{"city":"Mesa, AZ  85205","shop":"Mike's Bikes LLC","geo_score":1.0,"phone":"1-480-807-2944","full_address":"5761 East Brown Road Mesa, AZ  85205","id":"a673hcetd0qx","geo_precision":"range","comment":null,"address":"5761 East Brown Road"},"type":"Feature","geometry":{"type":"Point","coordinates":[-111.706388,33.437367]}},{"properties":{"city":"Atlantic Highlands, NJ  07716","shop":"Mikes Bikes","geo_score":1.0,"phone":"1-732-291-8822","full_address":"62 Avenue D Atlantic Highlands, NJ  07716","id":"a673hckqkxat","geo_precision":"range","comment":null,"address":"62 Avenue D"},"type":"Feature","geometry":{"type":"Point","coordinates":[-74.047044,40.414569]}},{"properties":{"city":"Alameda, CA  94501","shop":"Mikkelsen Bicycle Frame Repairs Painting &amp; Brazons","geo_score":0.976,"phone":"1-510-521-9727","full_address":"451 West Atlantic Avenue Alameda, CA  94501","id":"a673hcjbpv5f","geo_precision":"range","comment":null,"address":"451 West Atlantic Avenue"},"type":"Feature","geometry":{"type":"Point","coordinates":[-122.283847,37.779968]}},{"properties":{"city":"Berkeley Heights, NJ  07922","shop":"Millburn Bicycle Shop Inc","geo_score":1.0,"phone":"1-908-665-1838","full_address":"10 Summit Avenue Berkeley Heights, NJ  07922","id":"a673hcluqc1m","geo_precision":"range","comment":null,"address":"10 Summit Avenue"},"type":"Feature","geometry":{"type":"Point","coordinates":[-74.443526,40.687803]}},{"properties":{"city":"Berkeley, CA  94704","shop":"Missing Link Bicycle Cooperative","geo_score":1.0,"phone":"1-510-843-7471","full_address":"1988 Shattuck Avenue Berkeley, CA  94704","id":"a673hccckegw","geo_precision":"range","comment":null,"address":"1988 Shattuck Avenue"},"type":"Feature","geometry":{"type":"Point","coordinates":[-122.268497,37.872273]}},{"properties":{"city":"Berkeley, CA  94704","shop":"Missing Link Bicycle Cooperative","geo_score":1.0,"phone":"1-510-848-5322","full_address":"1988 Shattuck Avenue Berkeley, CA  94704","id":"a673hcnh27mc","geo_precision":"range","comment":null,"address":"1988 Shattuck Avenue"},"type":"Feature","geometry":{"type":"Point","coordinates":[-122.268497,37.872273]}},{"properties":{"city":"Bellevue, WA  98004","shop":"Montlake Bicycle Shop","geo_score":1.0,"phone":"1-425-462-8823","full_address":"20 103rd Avenue Northeast Bellevue, WA  98004","id":"a673hcef9c2a","geo_precision":"range","comment":null,"address":"20 103rd Avenue Northeast"},"type":"Feature","geometry":{"type":"Point","coordinates":[-122.202833,47.610351]}},{"properties":{"city":"Albany, OR  97321","shop":"Morgan's Bicycle &amp; Lock","geo_score":0.916,"phone":"1-541-928-7526","full_address":"135 1st Avenue East Albany, OR  97321","id":"a673hcpr5kkl","geo_precision":"range","comment":null,"address":"135 1st Avenue East"},"type":"Feature","geometry":{"type":"Point","coordinates":[-123.104536,44.637474]}},{"properties":{"city":"Baltimore, MD  21209","shop":"Mount Washington Bike Shop","geo_score":1.0,"phone":"1-410-323-2788","full_address":"5813 Falls Road Baltimore, MD  21209","id":"a673hcfmgiii","geo_precision":"range","comment":null,"address":"5813 Falls Road"},"type":"Feature","geometry":{"type":"Point","coordinates":[-76.647935,39.366812]}},{"properties":{"city":"Sedona, AZ  86336","shop":"Mountain Bike Heaven","geo_score":1.0,"phone":"1-928-282-1312","full_address":"1695 West Highway 89A Sedona, AZ  86336","id":"a673hca4857o","geo_precision":"range","comment":null,"address":"1695 West Highway 89A"},"type":"Feature","geometry":{"type":"Point","coordinates":[-111.789473,34.863424]}},{"properties":{"city":"Angels Camp, CA  95222","shop":"Mountain Pedaler","geo_score":0.723,"phone":"1-209-736-0771","full_address":"352 South Main Angels Camp, CA  95222","id":"a673hcedzrcj","geo_precision":"street","comment":null,"address":"352 South Main"},"type":"Feature","geometry":{"type":"Point","coordinates":[-120.550527,38.07731]}},{"properties":{"city":"Yuma, AZ  85367","shop":"Mr B'S Bicycles","geo_score":1.0,"phone":"1-928-342-2957","full_address":"11242 South Foothills Boulevard Yuma, AZ  85367","id":"a673hcd2a6sn","geo_precision":"range","comment":null,"address":"11242 South Foothills Boulevard"},"type":"Feature","geometry":{"type":"Point","coordinates":[-114.409766,32.667775]}},{"properties":{"city":"Yuma, AZ  85364","shop":"Mr B'S Bicycles","geo_score":1.0,"phone":"1-928-343-7801","full_address":"1701 South Avenue B Yuma, AZ  85364","id":"a673hch2pbmv","geo_precision":"range","comment":null,"address":"1701 South Avenue B"},"type":"Feature","geometry":{"type":"Point","coordinates":[-114.650462,32.69695]}},{"properties":{"city":"Yuma, AZ  85364","shop":"Mr B'S Bicycles","geo_score":0.916,"phone":"1-928-783-2916","full_address":"1870 South 4th Avenue Yuma, AZ  85364","id":"a673hcmmnsi7","geo_precision":"range","comment":null,"address":"1870 South 4th Avenue"},"type":"Feature","geometry":{"type":"Point","coordinates":[-114.624639,32.693565]}},{"properties":{"city":"Aptos, CA  95003","shop":"Mr E'S Cyclery","geo_score":1.0,"phone":"1-831-662-2973","full_address":"8059 Aptos Street Aptos, CA  95003","id":"a673hcacmv62","geo_precision":"range","comment":null,"address":"8059 Aptos Street"},"type":"Feature","geometry":{"type":"Point","coordinates":[-121.898658,36.976047]}},{"properties":{"city":"Baltic, OH  43804","shop":"N B Bike Shop","geo_score":1.0,"phone":"1-330-897-7111","full_address":"33946 State Route 643 Baltic, OH  43804","id":"a673hcdmbkhn","geo_precision":"range","comment":null,"address":"33946 State Route 643"},"type":"Feature","geometry":{"type":"Point","coordinates":[-81.76357,40.445093]}},{"properties":{"city":"Albany, NY  12208","shop":"NY Bicycling Coalition","geo_score":1.0,"phone":"1-518-436-0889","full_address":"5 New Scotland Avenue Albany, NY  12208","id":"a673hcp4p1zi","geo_precision":"range","comment":null,"address":"5 New Scotland Avenue"},"type":"Feature","geometry":{"type":"Point","coordinates":[-73.772302,42.654651]}},{"properties":{"city":"Beverly, MA  01915","shop":"National Bike Shop","geo_score":1.0,"phone":"1-978-922-8215","full_address":"393 Cabot Street Beverly, MA  01915","id":"a673hccqymzb","geo_precision":"range","comment":null,"address":"393 Cabot Street"},"type":"Feature","geometry":{"type":"Point","coordinates":[-70.881207,42.558282]}},{"properties":{"city":"Austin, TX  78757","shop":"Nelo's Professional Cycles","geo_score":0.897,"phone":"1-512-338-0505","full_address":"3010 West Anderson Lane Suite H Austin, TX  78757","id":"a673hco79sxg","geo_precision":"range","comment":null,"address":"3010 West Anderson Lane Suite H"},"type":"Feature","geometry":{"type":"Point","coordinates":[-97.739523,30.360479]}},{"properties":{"city":"Annapolis, MD  21401","shop":"Net Pedallers","geo_score":1.0,"phone":"1-410-263-2344","full_address":"42 Randall Street Annapolis, MD  21401","id":"a673hceqt1vu","geo_precision":"range","comment":null,"address":"42 Randall Street"},"type":"Feature","geometry":{"type":"Point","coordinates":[-76.486445,38.978385]}},{"properties":{"city":"Albuquerque, NM  87112","shop":"Northeast Cyclery Bike City","geo_score":1.0,"phone":"1-505-293-2888","full_address":"1130 Juan Tabo Boulevard Northeast Albuquerque, NM  87112","id":"a673hcf6kavj","geo_precision":"range","comment":null,"address":"1130 Juan Tabo Boulevard Northeast"},"type":"Feature","geometry":{"type":"Point","coordinates":[-106.515194,35.092089]}},{"properties":{"city":"Albuquerque, NM  87110","shop":"Northeast Cyclery Bike City","geo_score":1.0,"phone":"1-505-299-1210","full_address":"8305 Menaul Boulevard Northeast Albuquerque, NM  87110","id":"a673hcbcc81n","geo_precision":"range","comment":null,"address":"8305 Menaul Boulevard Northeast"},"type":"Feature","geometry":{"type":"Point","coordinates":[-106.552082,35.109222]}},{"properties":{"city":"Albuquerque, NM  87111","shop":"Northeast Cyclery Bike City","geo_score":1.0,"phone":"1-505-293-9684","full_address":"11200 Montgomery Boulevard Northeast Albuquerque, NM  87111","id":"a673hcd7vujz","geo_precision":"range","comment":null,"address":"11200 Montgomery Boulevard Northeast"},"type":"Feature","geometry":{"type":"Point","coordinates":[-106.515681,35.13066]}},{"properties":{"city":"Tucson, AZ  85705","shop":"Ordinary Bike Shop","geo_score":0.902,"phone":"1-520-622-6488","full_address":"311 East 7th Street Tucson, AZ  85705","id":"a673hcjjspue","geo_precision":"range","comment":null,"address":"311 East 7th Street"},"type":"Feature","geometry":{"type":"Point","coordinates":[-110.966797,32.226424]}},{"properties":{"city":"Atlanta, GA  30307","shop":"Outback Bikes","geo_score":1.0,"phone":"1-404-688-4878","full_address":"1125 Euclid Avenue Northeast Atlanta, GA  30307","id":"a673hckw8v6y","geo_precision":"range","comment":null,"address":"1125 Euclid Avenue Northeast"},"type":"Feature","geometry":{"type":"Point","coordinates":[-84.349553,33.765177]}},{"properties":{"city":"Austin, TX  78705","shop":"Ozone Bike Dept.","geo_score":0.897,"phone":"1-512-302-1164","full_address":"3202 Guadalupe Street Suite C Austin, TX  78705","id":"a673hcobfp7y","geo_precision":"range","comment":null,"address":"3202 Guadalupe Street Suite C"},"type":"Feature","geometry":{"type":"Point","coordinates":[-97.740419,30.299104]}},{"properties":{"city":"Phoenix, AZ  85032","shop":"Paradise Valley Bicycle","geo_score":0.854,"phone":"1-602-788-0808","full_address":"4727 East Bell Road Suite 15 Phoenix, AZ  85032","id":"a673hcd2sehe","geo_precision":"range","comment":null,"address":"4727 East Bell Road Suite 15"},"type":"Feature","geometry":{"type":"Point","coordinates":[-111.979238,33.640581]}},{"properties":{"city":"Mesa, AZ  85205","shop":"Paragon Cycling","geo_score":0.889,"phone":"1-480-830-1620","full_address":"1249 North Greenfield Road Suite 104 Mesa, AZ  85205","id":"a673hca8x280","geo_precision":"range","comment":null,"address":"1249 North Greenfield Road Suite 104"},"type":"Feature","geometry":{"type":"Point","coordinates":[-111.736349,33.437959]}},{"properties":{"city":"Anchorage, AK  99515","shop":"Paramount Cycles","geo_score":1.0,"phone":"1-907-336-2453","full_address":"1320 Huffman Park Drive Anchorage, AK  99515","id":"a673hccaojuy","geo_precision":"range","comment":null,"address":"1320 Huffman Park Drive"},"type":"Feature","geometry":{"type":"Point","coordinates":[-149.859398,61.110161]}},{"properties":{"city":"Hot Springs National, AR  71901","shop":"Parkside Cycle","geo_score":0.982,"phone":"1-501-623-6188","full_address":"719 Whittington Avenue Hot Springs National, AR  71901","id":"a673hcbancyx","geo_precision":"range","comment":"This Hot Springs area bicycle shop features bicycle sales and repairs.","address":"719 Whittington Avenue"},"type":"Feature","geometry":{"type":"Point","coordinates":[-93.07095,34.515286]}},{"properties":{"city":"Alden, NY  14004","shop":"Paul's Bike &amp; Sports Center","geo_score":1.0,"phone":"1-716-937-6668","full_address":"13185 Broadway Alden, NY  14004","id":"a673hca7ln3x","geo_precision":"range","comment":null,"address":"13185 Broadway"},"type":"Feature","geometry":{"type":"Point","coordinates":[-78.497564,42.899974]}},{"properties":{"city":"Atlanta, GA  30305","shop":"Peachtree Bicycle Center","geo_score":0.955,"phone":"1-404-262-9853","full_address":"2837 Peachtree Road Northeast Atlanta, GA  30305","id":"a673hcpylp3f","geo_precision":"range","comment":null,"address":"2837 Peachtree Road Northeast"},"type":"Feature","geometry":{"type":"Point","coordinates":[-84.384773,33.832184]}},{"properties":{"city":"Baton Rouge, LA  70810","shop":"Pedal Play","geo_score":0.707,"phone":"1-225-761-9286","full_address":"13726 Perkins Road Suite A Baton Rouge, LA  70810","id":"a673hch8zqkm","geo_precision":"street","comment":null,"address":"13726 Perkins Road Suite A"},"type":"Feature","geometry":{"type":"Point","coordinates":[-91.027666,30.347973]}},{"properties":{"city":"Barboursville, WV  25504","shop":"Pedal Power Inc","geo_score":0.622,"phone":"1-304-736-4902","full_address":"Route 60 Cyrus Creek Road Barboursville, WV  25504","id":"a673hck3ax6a","geo_precision":"street","comment":null,"address":"Route 60 Cyrus Creek Road"},"type":"Feature","geometry":{"type":"Point","coordinates":[-82.262155,38.413204]}},{"properties":{"city":"Aurora, CO  80010","shop":"Pedal Pushers Cyclery","geo_score":0.537,"phone":"1-303-365-2453","full_address":"200 Quebec Aurora, CO  80010","id":"a673hcny3jc1","geo_precision":"street","comment":null,"address":"200 Quebec"},"type":"Feature","geometry":{"type":"Point","coordinates":[-104.903182,39.834002]}},{"properties":{"city":"Ashburn, VA  20147","shop":"Pedal Shop","geo_score":1.0,"phone":"1-703-724-0188","full_address":"20630 Ashburn Road Ashburn, VA  20147","id":"a673hcfw1xew","geo_precision":"range","comment":null,"address":"20630 Ashburn Road"},"type":"Feature","geometry":{"type":"Point","coordinates":[-77.484327,39.050297]}},{"properties":{"city":"Athens, OH  45701","shop":"Pedaler &amp; the Packer","geo_score":1.0,"phone":"1-740-592-4630","full_address":"432 Richland Avenue Athens, OH  45701","id":"a673hckg79d6","geo_precision":"range","comment":null,"address":"432 Richland Avenue"},"type":"Feature","geometry":{"type":"Point","coordinates":[-82.103776,39.31322]}},{"properties":{"city":"Amarillo, TX  79124","shop":"Peddle Paddle Inc","geo_score":1.0,"phone":"1-806-373-9402","full_address":"4212 Hester Drive Amarillo, TX  79124","id":"a673hcb1xklt","geo_precision":"range","comment":null,"address":"4212 Hester Drive"},"type":"Feature","geometry":{"type":"Point","coordinates":[-101.885173,35.239086]}},{"properties":{"city":"Alexandria, VA  22301","shop":"Performance Bicycle","geo_score":0.488,"phone":"1-703-820-6112","full_address":"5817 Leesburg Pike Alexandria, VA  22301","id":"a673hcdrhnqm","geo_precision":"street","comment":null,"address":"5817 Leesburg Pike"},"type":"Feature","geometry":{"type":"Point","coordinates":[-77.117323,38.845774]}},{"properties":{"city":"Beaverton, OR  97005","shop":"Performance Bicycle","geo_score":1.0,"phone":"1-503-644-3246","full_address":"3830 Southwest Hall Boulevard Beaverton, OR  97005","id":"a673hcnezvw5","geo_precision":"range","comment":null,"address":"3830 Southwest Hall Boulevard"},"type":"Feature","geometry":{"type":"Point","coordinates":[-122.806461,45.492581]}},{"properties":{"city":"Ambler, PA  19002","shop":"Performance Bicycle","geo_score":1.0,"phone":"1-215-654-9088","full_address":"1210 North Bethlehem Pike Ambler, PA  19002","id":"a673hcfl94k0","geo_precision":"range","comment":null,"address":"1210 North Bethlehem Pike"},"type":"Feature","geometry":{"type":"Point","coordinates":[-75.224151,40.193313]}},{"properties":{"city":"Scottsdale, AZ  85260","shop":"Performance Bicycle","geo_score":1.0,"phone":"1-480-348-1875","full_address":"14747 North Northsight Boulevard Scottsdale, AZ  85260","id":"a673hcp6gz3c","geo_precision":"range","comment":null,"address":"14747 North Northsight Boulevard"},"type":"Feature","geometry":{"type":"Point","coordinates":[-111.897712,33.619757]}},{"properties":{"city":"Tucson, AZ  85710","shop":"Performance Bicycle","geo_score":1.0,"phone":"1-520-296-4715","full_address":"7204 East Broadway Boulevard Tucson, AZ  85710","id":"a673hcmo4ea8","geo_precision":"range","comment":null,"address":"7204 East Broadway Boulevard"},"type":"Feature","geometry":{"type":"Point","coordinates":[-110.83916,32.221024]}},{"properties":{"city":"Petersburg, AK  99833","shop":"Petersburg Cyclery","geo_score":0.914,"phone":"1-907-772-3929","full_address":"PO Box 773 Petersburg, AK  99833","id":"a673hcdk8c63","geo_precision":"zip","comment":null,"address":"PO Box 773"},"type":"Feature","geometry":{"type":"Point","coordinates":[-132.93195,56.767056]}},{"properties":{"city":"Tucson, AZ  85712","shop":"Pima Street Bicycle","geo_score":1.0,"phone":"1-520-326-4044","full_address":"5247 East Pima Street Tucson, AZ  85712","id":"a673hcfn6wux","geo_precision":"range","comment":null,"address":"5247 East Pima Street"},"type":"Feature","geometry":{"type":"Point","coordinates":[-110.880945,32.243431]}},{"properties":{"city":"Apple Creek, OH  44606","shop":"Pooh Bear Sportfishing","geo_score":1.0,"phone":"1-888-698-2381","full_address":"733 East Main Street Apple Creek, OH  44606","id":"a673hcm5guyn","geo_precision":"range","comment":null,"address":"733 East Main Street"},"type":"Feature","geometry":{"type":"Point","coordinates":[-81.827592,40.742498]}},{"properties":{"city":"Algonquin, IL  60102","shop":"Prairie Trail Bike Shop","geo_score":0.629,"phone":"1-847-658-1154","full_address":"315 Railroad Street Suite 1 Algonquin, IL  60102","id":"a673hcft3892","geo_precision":"street","comment":null,"address":"315 Railroad Street Suite 1"},"type":"Feature","geometry":{"type":"Point","coordinates":[-88.260876,42.187578]}},{"properties":{"city":"Arlington, MA  02476","shop":"Quadcycles","geo_score":1.0,"phone":"1-781-648-5222","full_address":"1346 Massachusetts Avenue Arlington, MA  02476","id":"a673hcpzf7sv","geo_precision":"range","comment":null,"address":"1346 Massachusetts Avenue"},"type":"Feature","geometry":{"type":"Point","coordinates":[-71.183464,42.424387]}},{"properties":{"city":"Tucson, AZ  85719","shop":"R &amp; R Bicycle","geo_score":1.0,"phone":"1-520-795-1099","full_address":"2830 North Campbell Avenue Tucson, AZ  85719","id":"a673hcc5yhzr","geo_precision":"range","comment":null,"address":"2830 North Campbell Avenue"},"type":"Feature","geometry":{"type":"Point","coordinates":[-110.943832,32.258117]}},{"properties":{"city":"Tucson, AZ  85719","shop":"R &amp; R Bicycle","geo_score":1.0,"phone":"1-520-323-0490","full_address":"1058 North Campbell Avenue Tucson, AZ  85719","id":"a673hcl1stid","geo_precision":"range","comment":null,"address":"1058 North Campbell Avenue"},"type":"Feature","geometry":{"type":"Point","coordinates":[-110.943952,32.234957]}},{"properties":{"city":"Anchorage, AK  99508","shop":"R T R Bicycles","geo_score":0.927,"phone":"1-907-563-2054","full_address":"3110 East 42nd Avenue Anchorage, AK  99508","id":"a673hcq399zk","geo_precision":"range","comment":null,"address":"3110 East 42nd Avenue"},"type":"Feature","geometry":{"type":"Point","coordinates":[-149.823167,61.182636]}},{"properties":{"city":"Barberton, OH  44203","shop":"R-D Bike Shop","geo_score":0.902,"phone":"1-330-848-2453","full_address":"128 1/2 2nd Street Northwest Barberton, OH  44203","id":"a673hcpu4vl8","geo_precision":"range","comment":null,"address":"128 1/2 2nd Street Northwest"},"type":"Feature","geometry":{"type":"Point","coordinates":[-81.628098,41.009121]}},{"properties":{"city":"Berkeley, CA  94702","shop":"RE Cycles Bike Shop","geo_score":1.0,"phone":"1-510-665-1889","full_address":"3120 Sacramento Street Berkeley, CA  94702","id":"a673hcfazr8e","geo_precision":"range","comment":null,"address":"3120 Sacramento Street"},"type":"Feature","geometry":{"type":"Point","coordinates":[-122.27858,37.85091]}},{"properties":{"city":"Tempe, AZ  85281","shop":"Rage Cycles","geo_score":0.806,"phone":"1-480-968-8116","full_address":"2724 North Scottsdale Road Tempe, AZ  85281","id":"a673hcakp1fk","geo_precision":"street","comment":null,"address":"2724 North Scottsdale Road"},"type":"Feature","geometry":{"type":"Point","coordinates":[-111.926369,33.456688]}},{"properties":{"city":"Auburn, ME  04210","shop":"Rainbow Bicycle &amp; Fitness","geo_score":1.0,"phone":"1-207-784-7576","full_address":"1225 Center Street Auburn, ME  04210","id":"a673hcq4z1al","geo_precision":"range","comment":null,"address":"1225 Center Street"},"type":"Feature","geometry":{"type":"Point","coordinates":[-70.226822,44.142999]}},{"properties":{"city":"Anoka, MN  55303","shop":"Ramsey Bicycle","geo_score":0.833,"phone":"1-763-323-6666","full_address":"6825 Highway 10 Northwest Anoka, MN  55303","id":"a673hcayw0gm","geo_precision":"range","comment":null,"address":"6825 Highway 10 Northwest"},"type":"Feature","geometry":{"type":"Point","coordinates":[-93.440813,45.224061]}},{"properties":{"city":"Arcata, CA  95521","shop":"Revolution Bicycle Repair","geo_score":1.0,"phone":"1-707-822-2562","full_address":"1360 G Street Arcata, CA  95521","id":"a673hcmfs85j","geo_precision":"range","comment":null,"address":"1360 G Street"},"type":"Feature","geometry":{"type":"Point","coordinates":[-124.084422,40.872463]}},{"properties":{"city":"Arlington, VA  22201","shop":"Revolution Cycles","geo_score":1.0,"phone":"1-703-312-0007","full_address":"2731 North Wilson Boulevard Arlington, VA  22201","id":"a673hcmmazem","geo_precision":"range","comment":null,"address":"2731 North Wilson Boulevard"},"type":"Feature","geometry":{"type":"Point","coordinates":[-77.090997,38.889505]}},{"properties":{"city":"Atchison, KS  66002","shop":"Reynolds' Bicycle","geo_score":1.0,"phone":"1-913-367-0636","full_address":"701 Commercial Street Atchison, KS  66002","id":"a673hcllxxcl","geo_precision":"range","comment":null,"address":"701 Commercial Street"},"type":"Feature","geometry":{"type":"Point","coordinates":[-95.121786,39.561884]}},{"properties":{"city":"Alameda, CA  94501","shop":"Rideable Antique Bicycle Replicas Inc","geo_score":1.0,"phone":"1-510-769-0980","full_address":"2329 Eagle Avenue Alameda, CA  94501","id":"a673hcef54de","geo_precision":"range","comment":null,"address":"2329 Eagle Avenue"},"type":"Feature","geometry":{"type":"Point","coordinates":[-122.240223,37.76952]}},{"properties":{"city":"Williams, AZ  86046","shop":"Rim To Rim Cyclery","geo_score":0.791,"phone":"1-928-635-1117","full_address":"326 W Route 66 Williams, AZ  86046","id":"a673hcpd4kkc","geo_precision":"range","comment":null,"address":"326 W Route 66"},"type":"Feature","geometry":{"type":"Point","coordinates":[-112.184821,35.251684]}},{"properties":{"city":"Beaver Falls, PA  15010","shop":"Rini's Bicycle Shop","geo_score":0.916,"phone":"1-724-847-0203","full_address":"419 18th Avenue Beaver Falls, PA  15010","id":"a673hcd2vko5","geo_precision":"range","comment":null,"address":"419 18th Avenue"},"type":"Feature","geometry":{"type":"Point","coordinates":[-80.331794,40.744436]}},{"properties":{"city":"Austin, TX  78704","shop":"River City Cycles","geo_score":0.805,"phone":"1-512-444-0805","full_address":"3216 South Congress Avenue Austin, TX  78704","id":"a673hccwhu5z","geo_precision":"street","comment":null,"address":"3216 South Congress Avenue"},"type":"Feature","geometry":{"type":"Point","coordinates":[-97.748652,30.252273]}},{"properties":{"city":"Baytown, TX  77521","shop":"Road Runner Bicycle Tours","geo_score":0.941,"phone":"1-281-837-9745","full_address":"3603 Kingsway Baytown, TX  77521","id":"a673hcpkokqu","geo_precision":"range","comment":null,"address":"3603 Kingsway"},"type":"Feature","geometry":{"type":"Point","coordinates":[-94.924496,29.769692]}},{"properties":{"city":"Glendale, AZ  85310","shop":"Roadrunner Bike Center","geo_score":0.908,"phone":"1-623-537-0647","full_address":"6740 West Deer Valley Road Suite D108 Glendale, AZ  85310","id":"a673hcdc1znc","geo_precision":"range","comment":null,"address":"6740 West Deer Valley Road Suite D108"},"type":"Feature","geometry":{"type":"Point","coordinates":[-112.203784,33.681855]}},{"properties":{"city":"Lincoln, AR  72744","shop":"Rockies Cycles","geo_score":0.659,"phone":"1-479-824-5909","full_address":"10617 West Highway 62 Lincoln, AR  72744","id":"a673hcmf4m5w","geo_precision":"street","comment":"This Fayetteville-Rogers area bicycle shop features bicycle sales and repairs.","address":"10617 West Highway 62"},"type":"Feature","geometry":{"type":"Point","coordinates":[-94.370667,35.957936]}},{"properties":{"city":"Casa Grande, AZ  85222","shop":"Round Trip Bike Shop","geo_score":0.908,"phone":"1-520-836-0799","full_address":"1148 East Florence Boulevard Suite 4 Casa Grande, AZ  85222","id":"a673hcg7zhml","geo_precision":"range","comment":null,"address":"1148 East Florence Boulevard Suite 4"},"type":"Feature","geometry":{"type":"Point","coordinates":[-111.737886,32.879562]}},{"properties":{"city":"Bedford, OH  44146","shop":"Royal Cycle","geo_score":1.0,"phone":"1-440-439-6170","full_address":"694 Broadway Avenue Bedford, OH  44146","id":"a673hck4c3ve","geo_precision":"range","comment":null,"address":"694 Broadway Avenue"},"type":"Feature","geometry":{"type":"Point","coordinates":[-81.534967,41.391049]}},{"properties":{"city":"Austin, MN  55912","shop":"Rydjor Bike Shop","geo_score":0.916,"phone":"1-507-433-7571","full_address":"219 North Main Street Austin, MN  55912","id":"a673hchsbrxs","geo_precision":"range","comment":null,"address":"219 North Main Street"},"type":"Feature","geometry":{"type":"Point","coordinates":[-92.974862,43.665502]}},{"properties":{"city":"Tucson, AZ  85715","shop":"Sabino Cycles","geo_score":1.0,"phone":"1-520-885-3666","full_address":"7131 East Tanque Verde Road Tucson, AZ  85715","id":"a673hcdgei7a","geo_precision":"range","comment":null,"address":"7131 East Tanque Verde Road"},"type":"Feature","geometry":{"type":"Point","coordinates":[-110.84006,32.250771]}},{"properties":{"city":"Alamo, TX  78516","shop":"Sandoval Bicycle &amp; Accessories","geo_score":1.0,"phone":"1-956-787-7172","full_address":"504 North Alamo Road Alamo, TX  78516","id":"a673hckthy3h","geo_precision":"range","comment":null,"address":"504 North Alamo Road"},"type":"Feature","geometry":{"type":"Point","coordinates":[-98.122308,26.188948]}},{"properties":{"city":"Avon Park, FL  33825","shop":"Sandy's Bicycle Shop","geo_score":0.963,"phone":"1-863-453-2200","full_address":"118 US Highway 27 South Avon Park, FL  33825","id":"a673hce7gov8","geo_precision":"range","comment":null,"address":"118 US Highway 27 South"},"type":"Feature","geometry":{"type":"Point","coordinates":[-81.514441,27.596985]}},{"properties":{"city":"Jacksonville, AL  36265","shop":"Scott's Bikes &amp; Repair","geo_score":1.0,"phone":"1-256-435-2453","full_address":"101 Ladiga Street Southeast Jacksonville, AL  36265","id":"a673hckfoupg","geo_precision":"range","comment":"Visit this Anniston-Oxford area bicycle dealer for bicycles and bicycle repairs.","address":"101 Ladiga Street Southeast"},"type":"Feature","geometry":{"type":"Point","coordinates":[-85.761273,33.813277]}},{"properties":{"city":"Sedona, AZ  86351","shop":"Sedona Bike &amp; Bean","geo_score":0.867,"phone":"1-928-284-0210","full_address":"6020 Highway 179 Sedona, AZ  86351","id":"a673hcketi84","geo_precision":"range","comment":null,"address":"6020 Highway 179"},"type":"Feature","geometry":{"type":"Point","coordinates":[-111.763324,34.774984]}},{"properties":{"city":"Bascom, OH  44809","shop":"Sendelbach Bicycle &amp; Tool Sharpening","geo_score":0.767,"phone":"1-419-937-2375","full_address":"737 North High Street Bascom, OH  44809","id":"a673hconbydz","geo_precision":"street","comment":null,"address":"737 North High Street"},"type":"Feature","geometry":{"type":"Point","coordinates":[-83.280052,41.132933]}},{"properties":{"city":"Seward, AK  99664","shop":"Seward Bike Shop","geo_score":0.806,"phone":"1-907-224-2448","full_address":"411 Port Avenue Seward, AK  99664","id":"a673hcpo75ir","geo_precision":"street","comment":null,"address":"411 Port Avenue"},"type":"Feature","geometry":{"type":"Point","coordinates":[-149.436176,60.121662]}},{"properties":{"city":"Bethesda, MD  20814","shop":"Simply Bikes","geo_score":1.0,"phone":"1-301-214-7891","full_address":"10219 Old Georgetown Road Bethesda, MD  20814","id":"a673hcb1ddx2","geo_precision":"range","comment":null,"address":"10219 Old Georgetown Road"},"type":"Feature","geometry":{"type":"Point","coordinates":[-77.123571,39.022557]}},{"properties":{"city":"Flagstaff, AZ  86001","shop":"Single Tack Bikes","geo_score":0.971,"phone":"1-928-773-1862","full_address":"575 West Riordan Road Flagstaff, AZ  86001","id":"a673hcd3sxev","geo_precision":"range","comment":null,"address":"575 West Riordan Road"},"type":"Feature","geometry":{"type":"Point","coordinates":[-111.659982,35.189761]}},{"properties":{"city":"Atlanta, GA  30309","shop":"Skate Escape Bike Shop","geo_score":0.807,"phone":"1-404-892-1292","full_address":"1086 Piedmont Avenue Northeast Atlanta, GA  30309","id":"a673hcepy90y","geo_precision":"street","comment":null,"address":"1086 Piedmont Avenue Northeast"},"type":"Feature","geometry":{"type":"Point","coordinates":[-84.382211,33.758369]}},{"properties":{"city":"Auburn, ME  04210","shop":"Ski &amp; Bike Service Center","geo_score":0.927,"phone":"1-207-784-0103","full_address":"9 North River Road Auburn, ME  04210","id":"a673hcel3g56","geo_precision":"range","comment":null,"address":"9 North River Road"},"type":"Feature","geometry":{"type":"Point","coordinates":[-70.225432,44.106001]}},{"properties":{"city":"Ames, IA  50010","shop":"Skunk River Cycles","geo_score":1.0,"phone":"1-515-232-0322","full_address":"308 Main Street Ames, IA  50010","id":"a673hcqdhi3k","geo_precision":"range","comment":null,"address":"308 Main Street"},"type":"Feature","geometry":{"type":"Point","coordinates":[-93.61382,42.02512]}},{"properties":{"city":"Phoenix, AZ  85012","shop":"Slippery Pig Bicycles","geo_score":1.0,"phone":"1-602-263-5143","full_address":"5036 North Central Avenue Phoenix, AZ  85012","id":"a673hcfv4qnp","geo_precision":"range","comment":null,"address":"5036 North Central Avenue"},"type":"Feature","geometry":{"type":"Point","coordinates":[-112.07374,33.510148]}},{"properties":{"city":"Bakersfield, CA  93305","shop":"Snider's Cyclery","geo_score":1.0,"phone":"1-661-324-4759","full_address":"2700 Union Avenue Bakersfield, CA  93305","id":"a673hca1anag","geo_precision":"range","comment":null,"address":"2700 Union Avenue"},"type":"Feature","geometry":{"type":"Point","coordinates":[-119.002868,35.383955]}},{"properties":{"city":"Bakersfield, CA  93309","shop":"Snider's Cyclery","geo_score":1.0,"phone":"1-661-833-2700","full_address":"2700 New Stine Road Bakersfield, CA  93309","id":"a673hcna98ai","geo_precision":"range","comment":null,"address":"2700 New Stine Road"},"type":"Feature","geometry":{"type":"Point","coordinates":[-119.057677,35.330994]}},{"properties":{"city":"Haines, AK  99827","shop":"Sockeye Cycle","geo_score":0.813,"phone":"1-907-766-2869","full_address":"24 Portage Street Haines, AK  99827","id":"a673hcpd9sf4","geo_precision":"street","comment":null,"address":"24 Portage Street"},"type":"Feature","geometry":{"type":"Point","coordinates":[-135.439131,59.228289]}},{"properties":{"city":"Berkeley, CA  94707","shop":"Solano Avenue Cyclery","geo_score":1.0,"phone":"1-510-524-1094","full_address":"1554 Solano Avenue Berkeley, CA  94707","id":"a673hch5w5u2","geo_precision":"range","comment":null,"address":"1554 Solano Avenue"},"type":"Feature","geometry":{"type":"Point","coordinates":[-122.285551,37.891014]}},{"properties":{"city":"Austin, TX  78704","shop":"Southside Bicycle Shop","geo_score":0.902,"phone":"1-512-916-4422","full_address":"2210 S 1st St # A Austin, TX  78704","id":"a673hcplj0mu","geo_precision":"range","comment":null,"address":"2210 S 1st St # A"},"type":"Feature","geometry":{"type":"Point","coordinates":[-97.757745,30.244346]}},{"properties":{"city":"Albuquerque, NM  87110","shop":"Southwest Bicycle Wholesale Parts &amp; Supplies","geo_score":1.0,"phone":"1-505-275-5970","full_address":"2306 Wisconsin Street Northeast Albuquerque, NM  87110","id":"a673hcbpivv9","geo_precision":"range","comment":null,"address":"2306 Wisconsin Street Northeast"},"type":"Feature","geometry":{"type":"Point","coordinates":[-106.552123,35.109332]}},{"properties":{"city":"Peoria, AZ  85382","shop":"Southwest Bicycles","geo_score":0.65,"phone":"1-623-412-3150","full_address":"8155 West Bell Road Suite 116 Peoria, AZ  85382","id":"a673hcn142lz","geo_precision":"street","comment":null,"address":"8155 West Bell Road Suite 116"},"type":"Feature","geometry":{"type":"Point","coordinates":[-112.236032,33.638169]}},{"properties":{"city":"Albuquerque, NM  87123","shop":"Southwest Recumbent Bike Sales","geo_score":1.0,"phone":"1-505-332-4177","full_address":"11224 Herman Roser Avenue Southeast Albuquerque, NM  87123","id":"a673hcoz08k2","geo_precision":"range","comment":null,"address":"11224 Herman Roser Avenue Southeast"},"type":"Feature","geometry":{"type":"Point","coordinates":[-106.521157,35.061614]}},{"properties":{"city":"Bartlett, IL  60103","shop":"Spin Doctor Cyclewerks","geo_score":1.0,"phone":"1-630-289-7360","full_address":"140 South Hickory Avenue Bartlett, IL  60103","id":"a673hceopc5g","geo_precision":"range","comment":null,"address":"140 South Hickory Avenue"},"type":"Feature","geometry":{"type":"Point","coordinates":[-88.187181,41.994308]}},{"properties":{"city":"Billings, MT  59102","shop":"Spoke Shop","geo_score":1.0,"phone":"1-406-656-8342","full_address":"1910 Broadwater Avenue Billings, MT  59102","id":"a673hcah5dok","geo_precision":"range","comment":null,"address":"1910 Broadwater Avenue"},"type":"Feature","geometry":{"type":"Point","coordinates":[-108.564452,45.776931]}},{"properties":{"city":"Springdale, AR  72764","shop":"Springdale Bicycle","geo_score":1.0,"phone":"1-479-751-5318","full_address":"212 East Emma Avenue Springdale, AR  72764","id":"a673hci037io","geo_precision":"range","comment":"This Fayetteville-Rogers area bicycle shop features bicycle sales and repairs.","address":"212 East Emma Avenue"},"type":"Feature","geometry":{"type":"Point","coordinates":[-94.129533,36.18505]}},{"properties":{"city":"Banning, CA  92220","shop":"Stark Cyclering &amp; Hobbies","geo_score":0.935,"phone":"1-951-849-8282","full_address":"1125 West Ramsey Banning, CA  92220","id":"a673hcdgtds0","geo_precision":"range","comment":null,"address":"1125 West Ramsey"},"type":"Feature","geometry":{"type":"Point","coordinates":[-116.888892,33.925432]}},{"properties":{"city":"Belen, NM  87002","shop":"Steve's Bicycle Repair","geo_score":0.927,"phone":"1-505-864-4027","full_address":"1132 East River Road Belen, NM  87002","id":"a673hcf9sy33","geo_precision":"range","comment":null,"address":"1132 East River Road"},"type":"Feature","geometry":{"type":"Point","coordinates":[-106.74989,34.65503]}},{"properties":{"city":"Altadena, CA  91001","shop":"Steve's Bike Shop","geo_score":0.808,"phone":"1-626-798-8703","full_address":"2387 Lake Avenue Altadena, CA  91001","id":"a673hcjw8iq0","geo_precision":"street","comment":null,"address":"2387 Lake Avenue"},"type":"Feature","geometry":{"type":"Point","coordinates":[-118.131394,34.187837]}},{"properties":{"city":"Alameda, CA  94501","shop":"Stone's Cyclery","geo_score":1.0,"phone":"1-510-523-3264","full_address":"2320 Santa Clara Avenue Alameda, CA  94501","id":"a673hcnfn4qh","geo_precision":"range","comment":null,"address":"2320 Santa Clara Avenue"},"type":"Feature","geometry":{"type":"Point","coordinates":[-122.24305,37.765788]}},{"properties":{"city":"Phoenix, AZ  85014","shop":"Sun Cyclery Schwinn","geo_score":0.902,"phone":"1-602-279-1905","full_address":"5833 North 7th Street Phoenix, AZ  85014","id":"a673hcdv30l7","geo_precision":"range","comment":null,"address":"5833 North 7th Street"},"type":"Feature","geometry":{"type":"Point","coordinates":[-112.064988,33.522503]}},{"properties":{"city":"Agoura Hills, CA  91301","shop":"Sundance Cycles","geo_score":1.0,"phone":"1-818-991-9103","full_address":"5019 Kanan Road Agoura Hills, CA  91301","id":"a673hcl8lip4","geo_precision":"range","comment":null,"address":"5019 Kanan Road"},"type":"Feature","geometry":{"type":"Point","coordinates":[-118.76167,34.143803]}},{"properties":{"city":"Talkeetna, AK  99676","shop":"Sunshine Alaska Bicycle Tours","geo_score":0.911,"phone":"1-907-351-8275","full_address":"PO Box 782 Talkeetna, AK  99676","id":"a673hcq96gj0","geo_precision":"zip","comment":null,"address":"PO Box 782"},"type":"Feature","geometry":{"type":"Point","coordinates":[-149.715167,62.280436]}},{"properties":{"city":"Atascadero, CA  93422","shop":"Sunstorm Cyclery","geo_score":0.902,"phone":"1-805-466-6430","full_address":"6905 El Camino Real # 4 Atascadero, CA  93422","id":"a673hcgvcg8v","geo_precision":"range","comment":null,"address":"6905 El Camino Real # 4"},"type":"Feature","geometry":{"type":"Point","coordinates":[-120.666905,35.487592]}},{"properties":{"city":"Bay City, MI  48706","shop":"Surf Skate &amp; Wheel","geo_score":1.0,"phone":"1-989-686-8088","full_address":"3778 Wilder Road Bay City, MI  48706","id":"a673hcj2vpt4","geo_precision":"range","comment":null,"address":"3778 Wilder Road"},"type":"Feature","geometry":{"type":"Point","coordinates":[-83.903783,43.623734]}},{"properties":{"city":"Eagar, AZ  85925","shop":"Sweat Shop","geo_score":0.902,"phone":"1-928-333-2950","full_address":"74 North Main Street Eagar, AZ  85925","id":"a673hcp9bl7w","geo_precision":"range","comment":null,"address":"74 North Main Street"},"type":"Feature","geometry":{"type":"Point","coordinates":[-109.287731,34.130142]}},{"properties":{"city":"Andover, OH  44003","shop":"Sypherd Cycles East","geo_score":1.0,"phone":"1-440-293-5546","full_address":"146 Oak Street Andover, OH  44003","id":"a673hcld56vx","geo_precision":"range","comment":null,"address":"146 Oak Street"},"type":"Feature","geometry":{"type":"Point","coordinates":[-80.575157,41.609522]}},{"properties":{"city":"Austin, TX  78756","shop":"TS Custom Bikes &amp; Service","geo_score":1.0,"phone":"1-512-275-0693","full_address":"4214 Medical Parkway Austin, TX  78756","id":"a673hck0fvp1","geo_precision":"range","comment":null,"address":"4214 Medical Parkway"},"type":"Feature","geometry":{"type":"Point","coordinates":[-97.742562,30.311354]}},{"properties":{"city":"Battle Creek, MI  49017","shop":"Team Active Cycling &amp; Fitness","geo_score":0.805,"phone":"1-269-962-7688","full_address":"22 Michigan Avenue West Battle Creek, MI  49017","id":"a673hcp90xdr","geo_precision":"street","comment":null,"address":"22 Michigan Avenue West"},"type":"Feature","geometry":{"type":"Point","coordinates":[-85.211056,42.332293]}},{"properties":{"city":"Big Bear Lake, CA  92315","shop":"Team Big Bear Mountain Bike Ce","geo_score":0.62,"phone":"1-909-866-4565","full_address":"880 Summit Boulevard Big Bear Lake, CA  92315","id":"a673hcpi1nlq","geo_precision":"street","comment":null,"address":"880 Summit Boulevard"},"type":"Feature","geometry":{"type":"Point","coordinates":[-116.906046,34.240632]}},{"properties":{"city":"Alma, MI  48801","shop":"Terry's Cycle &amp; Sports","geo_score":1.0,"phone":"1-989-463-5260","full_address":"317 North State Street Alma, MI  48801","id":"a673hch5ppxy","geo_precision":"range","comment":null,"address":"317 North State Street"},"type":"Feature","geometry":{"type":"Point","coordinates":[-84.661847,43.377883]}},{"properties":{"city":"Bethel, CT  06801","shop":"The Bicycle Goodie Shop Inc","geo_score":1.0,"phone":"1-203-778-5431","full_address":"71 Stony Hill Road Bethel, CT  06801","id":"a673hckkrlkq","geo_precision":"range","comment":null,"address":"71 Stony Hill Road"},"type":"Feature","geometry":{"type":"Point","coordinates":[-73.382873,41.414858]}},{"properties":{"city":"Harrison, AR  72601","shop":"The Bicycle Outfitter","geo_score":1.0,"phone":"1-870-741-6833","full_address":"112 North Walnut Street Harrison, AR  72601","id":"a673hcduz5mz","geo_precision":"range","comment":"0","address":"112 North Walnut Street"},"type":"Feature","geometry":{"type":"Point","coordinates":[-93.1061,36.22985]}},{"properties":{"city":"Anchorage, AK  99503","shop":"The Bicycle Shop","geo_score":1.0,"phone":"1-907-272-5219","full_address":"1035 West Northern Lights Boulevard Anchorage, AK  99503","id":"a673hcbrecgk","geo_precision":"range","comment":null,"address":"1035 West Northern Lights Boulevard"},"type":"Feature","geometry":{"type":"Point","coordinates":[-149.902809,61.195298]}},{"properties":{"city":"Billings, MT  59102","shop":"The Bike Shop","geo_score":1.0,"phone":"1-406-652-1202","full_address":"1934 Grand Avenue Billings, MT  59102","id":"a673hcgo4qok","geo_precision":"range","comment":null,"address":"1934 Grand Avenue"},"type":"Feature","geometry":{"type":"Point","coordinates":[-108.565009,45.784059]}},{"properties":{"city":"Baldwinsville, NY  13027","shop":"The Bikery","geo_score":1.0,"phone":"1-315-638-2161","full_address":"7556 Van Buren Road Baldwinsville, NY  13027","id":"a673hcbg2bg8","geo_precision":"range","comment":null,"address":"7556 Van Buren Road"},"type":"Feature","geometry":{"type":"Point","coordinates":[-76.32163,43.135678]}},{"properties":{"city":"Amenia, NY  12501","shop":"The Corner Bicycle Shop","geo_score":0.84,"phone":"1-845-373-4731","full_address":"3330 Route 343 Amenia, NY  12501","id":"a673hck83kid","geo_precision":"range","comment":null,"address":"3330 Route 343"},"type":"Feature","geometry":{"type":"Point","coordinates":[-73.558285,41.846321]}},{"properties":{"city":"Casa Grande, AZ  85222","shop":"The Cycle Center","geo_score":1.0,"phone":"1-520-836-8739","full_address":"14660 West Jimmie Kerr Boulevard Casa Grande, AZ  85222","id":"a673hcik3cj6","geo_precision":"range","comment":null,"address":"14660 West Jimmie Kerr Boulevard"},"type":"Feature","geometry":{"type":"Point","coordinates":[-111.726166,32.858224]}},{"properties":{"city":"Fayetteville, AR  72701","shop":"The Highroller Cyclery Inc","geo_score":1.0,"phone":"1-479-442-9311","full_address":"322 West Spring Street Fayetteville, AR  72701","id":"a673hcdhl6c7","geo_precision":"range","comment":"0","address":"322 West Spring Street"},"type":"Feature","geometry":{"type":"Point","coordinates":[-94.163162,36.06474]}},{"properties":{"city":"Athens, GA  30605","shop":"The Hub Bicycles","geo_score":1.0,"phone":"1-706-355-3989","full_address":"1245 South Milledge Avenue Athens, GA  30605","id":"a673hca6h3zj","geo_precision":"range","comment":null,"address":"1245 South Milledge Avenue"},"type":"Feature","geometry":{"type":"Point","coordinates":[-83.386456,33.938916]}},{"properties":{"city":"Ballwin, MO  63011","shop":"The Touring Cyclist - Manchester Store, Sales &amp; Service","geo_score":1.0,"phone":"1-636-394-6477","full_address":"14367 Manchester Road Ballwin, MO  63011","id":"a673hcacqvqc","geo_precision":"range","comment":null,"address":"14367 Manchester Road"},"type":"Feature","geometry":{"type":"Point","coordinates":[-90.512899,38.592911]}},{"properties":{"city":"Bend, OR  97701","shop":"The Village Bike Shop and Skis","geo_score":0.786,"phone":"1-541-593-2453","full_address":"Sunriver Village Mal Bend, OR  97701","id":"a673hcd7xc3n","geo_precision":"street","comment":null,"address":"Sunriver Village Mal"},"type":"Feature","geometry":{"type":"Point","coordinates":[-121.281121,44.079164]}},{"properties":{"city":"Augusta, MO  63332","shop":"Touring Cyclist","geo_score":0.61,"phone":"1-636-482-4038","full_address":"5533 Water Street Augusta, MO  63332","id":"a673hcny4v5r","geo_precision":"street","comment":null,"address":"5533 Water Street"},"type":"Feature","geometry":{"type":"Point","coordinates":[-90.49574,38.779509]}},{"properties":{"city":"Ames, IA  50010","shop":"Transition Cyclery","geo_score":0.902,"phone":"1-515-232-9593","full_address":"929 North 4th Street Ames, IA  50010","id":"a673hco4rq3r","geo_precision":"range","comment":null,"address":"929 North 4th Street"},"type":"Feature","geometry":{"type":"Point","coordinates":[-93.622435,42.024582]}},{"properties":{"city":"Mobile, AL  36609","shop":"Trek Bicycles of Mobile","geo_score":0.808,"phone":"1-251-666-3780","full_address":"4258 Cottage Hill Road Mobile, AL  36609","id":"a673hcd204pe","geo_precision":"street","comment":null,"address":"4258 Cottage Hill Road"},"type":"Feature","geometry":{"type":"Point","coordinates":[-88.153455,30.650644]}},{"properties":{"city":"Ardmore, OK  73401","shop":"Tribal Bikes &amp; Boards","geo_score":1.0,"phone":"1-580-226-2888","full_address":"2 West Main Street Ardmore, OK  73401","id":"a673hcegnqwo","geo_precision":"range","comment":null,"address":"2 West Main Street"},"type":"Feature","geometry":{"type":"Point","coordinates":[-97.128367,34.172546]}},{"properties":{"city":"Tucson, AZ  85718","shop":"Tucson Bicycles","geo_score":1.0,"phone":"1-520-577-7374","full_address":"4743 East Sunrise Drive Tucson, AZ  85718","id":"a673hcivg8dj","geo_precision":"range","comment":null,"address":"4743 East Sunrise Drive"},"type":"Feature","geometry":{"type":"Point","coordinates":[-110.891529,32.308371]}},{"properties":{"city":"Tucson, AZ  85741","shop":"Tucson Cycle &amp; Ski","geo_score":1.0,"phone":"1-520-572-5920","full_address":"4375 West Ina Road Tucson, AZ  85741","id":"a673hcb7gfrq","geo_precision":"range","comment":null,"address":"4375 West Ina Road"},"type":"Feature","geometry":{"type":"Point","coordinates":[-111.05855,32.337587]}},{"properties":{"city":"Baton Rouge, LA  70808","shop":"Tuffys World Class Bicycles","geo_score":1.0,"phone":"1-225-766-2453","full_address":"257 Lee Drive Baton Rouge, LA  70808","id":"a673hck4szzr","geo_precision":"range","comment":null,"address":"257 Lee Drive"},"type":"Feature","geometry":{"type":"Point","coordinates":[-91.158094,30.395669]}},{"properties":{"city":"Albuquerque, NM  87106","shop":"Two Wheel Drive","geo_score":1.0,"phone":"1-505-243-8443","full_address":"1706 Central Avenue Southeast Albuquerque, NM  87106","id":"a673hcakcoec","geo_precision":"range","comment":null,"address":"1706 Central Avenue Southeast"},"type":"Feature","geometry":{"type":"Point","coordinates":[-106.62786,35.081522]}},{"properties":{"city":"Ann Arbor, MI  48104","shop":"Two Wheel Tango","geo_score":1.0,"phone":"1-734-769-8401","full_address":"323 East Hoover Avenue Ann Arbor, MI  48104","id":"a673hco00ohv","geo_precision":"range","comment":null,"address":"323 East Hoover Avenue"},"type":"Feature","geometry":{"type":"Point","coordinates":[-83.746044,42.269558]}},{"properties":{"city":"Austin, NV  89310","shop":"Tyrannosaurus RIX Mountain Bikes","geo_score":0.512,"phone":"1-775-964-1212","full_address":"1300 Main Austin, NV  89310","id":"a673hcq5psjr","geo_precision":"street","comment":null,"address":"1300 Main"},"type":"Feature","geometry":{"type":"Point","coordinates":[-115.007843,38.856725]}},{"properties":{"city":"Aspen, CO  81611","shop":"Ute City Cycles","geo_score":0.879,"phone":"1-970-920-3325","full_address":"555 East Durant Avenue Suite 2E Aspen, CO  81611","id":"a673hcdd1bwz","geo_precision":"range","comment":null,"address":"555 East Durant Avenue Suite 2E"},"type":"Feature","geometry":{"type":"Point","coordinates":[-106.81851,39.187147]}},{"properties":{"city":"Phoenix, AZ  85022","shop":"Valley Cyclery","geo_score":0.935,"phone":"1-602-942-3733","full_address":"751 East Bell Road # 10 Phoenix, AZ  85022","id":"a673hckxv8ie","geo_precision":"range","comment":null,"address":"751 East Bell Road # 10"},"type":"Feature","geometry":{"type":"Point","coordinates":[-112.06459,33.640296]}},{"properties":{"city":"Berkeley, CA  94709","shop":"Velo-Sport Bicycles - Clothing-Upstairs","geo_score":0.619,"phone":"1-510-849-2329","full_address":"1650 Mlk J Berkeley, CA  94709","id":"a673hce5fsks","geo_precision":"zip","comment":null,"address":"1650 Mlk J"},"type":"Feature","geometry":{"type":"Point","coordinates":[-122.26553,37.879825]}},{"properties":{"city":"Berkeley, CA  94709","shop":"Velo-Sport Bicycles - Service &amp; Repair","geo_score":0.619,"phone":"1-510-849-0497","full_address":"1650 Mlk J Berkeley, CA  94709","id":"a673hcnm9buw","geo_precision":"zip","comment":null,"address":"1650 Mlk J"},"type":"Feature","geometry":{"type":"Point","coordinates":[-122.26553,37.879825]}},{"properties":{"city":"Atlanta, GA  30303","shop":"Village Bikes Inc","geo_score":0.526,"phone":"1-678-476-1925","full_address":"5361 Manor Drive Atlanta, GA  30303","id":"a673hciaticq","geo_precision":"street","comment":null,"address":"5361 Manor Drive"},"type":"Feature","geometry":{"type":"Point","coordinates":[-84.514618,33.735195]}},{"properties":{"city":"Alexandria, VA  22309","shop":"Village Skis &amp; Bikes","geo_score":1.0,"phone":"1-703-690-4756","full_address":"5111 Old Mill Road Alexandria, VA  22309","id":"a673hciktfo3","geo_precision":"range","comment":null,"address":"5111 Old Mill Road"},"type":"Feature","geometry":{"type":"Point","coordinates":[-77.122725,38.71674]}},{"properties":{"city":"Abingdon, VA  24210","shop":"Virginia Creeper Trail Bike Shop","geo_score":1.0,"phone":"1-276-676-2552","full_address":"201 Pecan Street Southeast Abingdon, VA  24210","id":"a673hcgimkfy","geo_precision":"range","comment":null,"address":"201 Pecan Street Southeast"},"type":"Feature","geometry":{"type":"Point","coordinates":[-81.971254,36.710378]}},{"properties":{"city":"Austin, TX  78705","shop":"Waterloo Cycles","geo_score":1.0,"phone":"1-512-472-9253","full_address":"2815 Fruth Street Austin, TX  78705","id":"a673hcag4jzz","geo_precision":"range","comment":null,"address":"2815 Fruth Street"},"type":"Feature","geometry":{"type":"Point","coordinates":[-97.74223,30.294411]}},{"properties":{"city":"Bend, OR  97702","shop":"Webcyclery","geo_score":1.0,"phone":"1-541-318-6188","full_address":"550 Southwest Industrial Way Bend, OR  97702","id":"a673hcf0a0ny","geo_precision":"range","comment":null,"address":"550 Southwest Industrial Way"},"type":"Feature","geometry":{"type":"Point","coordinates":[-121.316391,44.050221]}},{"properties":{"city":"Appleton, WI  54914","shop":"Wheel &amp; Sprocket","geo_score":1.0,"phone":"1-920-997-9300","full_address":"603 North Westhill Boulevard Appleton, WI  54914","id":"a673hcn9nsv3","geo_precision":"range","comment":null,"address":"603 North Westhill Boulevard"},"type":"Feature","geometry":{"type":"Point","coordinates":[-88.461057,44.266041]}},{"properties":{"city":"Baldwin Park, CA  91706","shop":"Wheel Fun Rentals","geo_score":0.878,"phone":"1-626-334-6555","full_address":"15501 Arrow Highway Baldwin Park, CA  91706","id":"a673hcn8f9zb","geo_precision":"range","comment":null,"address":"15501 Arrow Highway"},"type":"Feature","geometry":{"type":"Point","coordinates":[-117.942934,34.107065]}},{"properties":{"city":"Alexandria, VA  22314","shop":"Wheel Nuts","geo_score":1.0,"phone":"1-703-548-5116","full_address":"302 Montgomery Street Alexandria, VA  22314","id":"a673hcf00p16","geo_precision":"range","comment":null,"address":"302 Montgomery Street"},"type":"Feature","geometry":{"type":"Point","coordinates":[-77.040605,38.813602]}},{"properties":{"city":"Albany, NY  12205","shop":"Wheel World Family Bikes","geo_score":1.0,"phone":"1-518-459-7463","full_address":"281 Sand Creek Road Albany, NY  12205","id":"a673hccmzcvj","geo_precision":"range","comment":null,"address":"281 Sand Creek Road"},"type":"Feature","geometry":{"type":"Point","coordinates":[-73.797217,42.702406]}},{"properties":{"city":"Scottsdale, AZ  85260","shop":"Wheels N Gear","geo_score":0.721,"phone":"1-480-945-2881","full_address":"16631 North 91st Street Scottsdale, AZ  85260","id":"a673hckdzyt0","geo_precision":"street","comment":null,"address":"16631 North 91st Street"},"type":"Feature","geometry":{"type":"Point","coordinates":[-111.883618,33.625476]}},{"properties":{"city":"Bath, NY  14810","shop":"Wheels Unlimited","geo_score":1.0,"phone":"1-607-776-6609","full_address":"20 West Steuben Street Bath, NY  14810","id":"a673hci0ni0l","geo_precision":"range","comment":null,"address":"20 West Steuben Street"},"type":"Feature","geometry":{"type":"Point","coordinates":[-77.319454,42.333594]}},{"properties":{"city":"Ann Arbor, MI  48104","shop":"Wheels in Motion","geo_score":1.0,"phone":"1-734-971-2121","full_address":"3400 Washtenaw Avenue Ann Arbor, MI  48104","id":"a673hcqbj5nv","geo_precision":"range","comment":null,"address":"3400 Washtenaw Avenue"},"type":"Feature","geometry":{"type":"Point","coordinates":[-83.693199,42.256179]}},{"properties":{"city":"Benicia, CA  94510","shop":"Wheels in Motion Skate Shop","geo_score":0.883,"phone":"1-707-746-8856","full_address":"735 1st Street Benicia, CA  94510","id":"a673hcn9tl0r","geo_precision":"range","comment":null,"address":"735 1st Street"},"type":"Feature","geometry":{"type":"Point","coordinates":[-122.158415,38.050062]}},{"properties":{"city":"Belmont, MA  02478","shop":"Wheelworks Too","geo_score":1.0,"phone":"1-617-484-9247","full_address":"22 Church Street Belmont, MA  02478","id":"a673hcdtpy50","geo_precision":"range","comment":null,"address":"22 Church Street"},"type":"Feature","geometry":{"type":"Point","coordinates":[-71.189989,42.387407]}},{"properties":{"city":"Bedford, IN  47421","shop":"White River Cycling Inc","geo_score":0.61,"phone":"1-812-275-7195","full_address":"4030 Dixie Highway Bedford, IN  47421","id":"a673hcbvggp1","geo_precision":"street","comment":null,"address":"4030 Dixie Highway"},"type":"Feature","geometry":{"type":"Point","coordinates":[-86.486651,38.733222]}},{"properties":{"city":"Benton, IL  62812","shop":"Wiggs Bicycles","geo_score":1.0,"phone":"1-618-438-3006","full_address":"1103 North Main Street Benton, IL  62812","id":"a673hcaxgiy8","geo_precision":"range","comment":null,"address":"1103 North Main Street"},"type":"Feature","geometry":{"type":"Point","coordinates":[-88.920621,38.007656]}},{"properties":{"city":"Bethlehem, PA  18018","shop":"Worksman Bicycle Brake Corporation","geo_score":1.0,"phone":"1-610-758-9550","full_address":"1766 West Market Street Bethlehem, PA  18018","id":"a673hcn110s7","geo_precision":"range","comment":null,"address":"1766 West Market Street"},"type":"Feature","geometry":{"type":"Point","coordinates":[-75.406971,40.621302]}},{"properties":{"city":"Austin, TX  78723","shop":"Yellow Bike Project","geo_score":0.916,"phone":"1-512-457-9880","full_address":"2013 East 51st Street Austin, TX  78723","id":"a673hcjjmxm9","geo_precision":"range","comment":null,"address":"2013 East 51st Street"},"type":"Feature","geometry":{"type":"Point","coordinates":[-97.700565,30.304659]}},{"properties":{"city":"Austin, TX  78705","shop":"Yellow Bike Project The-Satellite Office","geo_score":1.0,"phone":"1-512-469-9247","full_address":"3101 Guadalupe Street Austin, TX  78705","id":"a673hcqbq67m","geo_precision":"range","comment":null,"address":"3101 Guadalupe Street"},"type":"Feature","geometry":{"type":"Point","coordinates":[-97.741198,30.297884]}},{"properties":{"city":"Sitka, AK  99835","shop":"Yellow Jersey Cycle Shop","geo_score":0.854,"phone":"1-907-747-6317","full_address":"329 Harbor Drive Suite 101 Sitka, AK  99835","id":"a673hcbfltyj","geo_precision":"range","comment":null,"address":"329 Harbor Drive Suite 101"},"type":"Feature","geometry":{"type":"Point","coordinates":[-135.332924,57.050254]}}],"is_temporal":false,"author":{"url":"","metadata":"","contact_name":"","contact_address":"","source":"","contact_phone":""},"source":"","pagination":{"sort":null,"start":0,"total":499,"limit":1000000},"state":"complete","tags":"bikes,cycling","published":"2014-08-10T20:55:47-04:00","id":15872}