{"type":"FeatureCollection","data_type":"Dataset","url_type":null,"permissions":[{"permissions":{"download":true,"view":true},"group_id":"everyone"}],"classification":null,"title":"FY10 FEE","count":200,"stream_id":160065,"contributor":{"url":"http://geocommons.com/users/31839","name":"santillo"},"data_attributes":null,"calculation_params":null,"icon_link":null,"link":"http://geocommons.com/overlays/160065.json","extent":[-158.093,21.3549,-70.3928,45.6385],"geometry_types":["point"],"unique_name":null,"name":"FY10 FEE","feature_count":200,"description":"","next_feature":null,"is_raster":false,"short_classification":"Y","stats":{"fy10 fee uniques":{"max":57,"mean":6.865,"variance":71.7254020100503,"stdev":8.46908507514538,"min":1,"median":4},"lat":{"max":45.638459,"mean":39.864010015,"variance":11.5440441945921,"stdev":3.397652747794,"min":21.354852,"median":40.758647},"long":{"max":-70.392784,"mean":-75.91817278,"variance":105.086048447818,"stdev":10.2511486404119,"min":-158.093144,"median":-73.50862}},"features":[{"properties":{"city":"Chandler","zip":"85224","fy10 fee uniques":1,"id":"a6m28ekb12oo","lat":33.323055,"long":-111.876593},"type":"Feature","geometry":{"type":"Point","coordinates":[-111.876593,33.323055]}},{"properties":{"city":"Grossmont","zip":"92020","fy10 fee uniques":1,"id":"a6m28e74ajqm","lat":32.790757,"long":-116.965979},"type":"Feature","geometry":{"type":"Point","coordinates":[-116.965979,32.790757]}},{"properties":{"city":"Palm Springs","zip":"92262","fy10 fee uniques":1,"id":"a6m28e8ii8d4","lat":33.836403,"long":-116.612073},"type":"Feature","geometry":{"type":"Point","coordinates":[-116.612073,33.836403]}},{"properties":{"city":"Willits","zip":"95490","fy10 fee uniques":1,"id":"a6m28ehbca8z","lat":39.50977,"long":-123.379962},"type":"Feature","geometry":{"type":"Point","coordinates":[-123.379962,39.50977]}},{"properties":{"city":"Holly Hill","zip":"32117","fy10 fee uniques":1,"id":"a6m28egd9kfv","lat":29.239665,"long":-81.065949},"type":"Feature","geometry":{"type":"Point","coordinates":[-81.065949,29.239665]}},{"properties":{"city":"Lady Lake","zip":"32159","fy10 fee uniques":1,"id":"a6m28ebujeuk","lat":28.931374,"long":-81.925389},"type":"Feature","geometry":{"type":"Point","coordinates":[-81.925389,28.931374]}},{"properties":{"city":"Deltona","zip":"32738","fy10 fee uniques":1,"id":"a6m28ejo451t","lat":28.906939,"long":-81.190289},"type":"Feature","geometry":{"type":"Point","coordinates":[-81.190289,28.906939]}},{"properties":{"city":"Kendale Lakes","zip":"33185","fy10 fee uniques":1,"id":"a6m28e989coo","lat":25.733464,"long":-80.459579},"type":"Feature","geometry":{"type":"Point","coordinates":[-80.459579,25.733464]}},{"properties":{"city":"Century Village","zip":"33417","fy10 fee uniques":1,"id":"a6m28ebzmodj","lat":26.714895,"long":-80.123811},"type":"Feature","geometry":{"type":"Point","coordinates":[-80.123811,26.714895]}},{"properties":{"city":"Boca Raton","zip":"33432","fy10 fee uniques":1,"id":"a6m28ebd709n","lat":26.344456,"long":-80.086451},"type":"Feature","geometry":{"type":"Point","coordinates":[-80.086451,26.344456]}},{"properties":{"city":"Sun City Center","zip":"33573","fy10 fee uniques":1,"id":"a6m28ecdfse4","lat":27.718099,"long":-82.360662},"type":"Feature","geometry":{"type":"Point","coordinates":[-82.360662,27.718099]}},{"properties":{"city":"Curlew","zip":"34684","fy10 fee uniques":1,"id":"a6m28e6ogt2p","lat":28.077771,"long":-82.731547},"type":"Feature","geometry":{"type":"Point","coordinates":[-82.731547,28.077771]}},{"properties":{"city":"River Park","zip":"34953","fy10 fee uniques":1,"id":"a6m28e8x2nx2","lat":27.252578,"long":-80.380278},"type":"Feature","geometry":{"type":"Point","coordinates":[-80.380278,27.252578]}},{"properties":{"city":"Makakilo City","zip":"96707","fy10 fee uniques":1,"id":"a6m28egjk7jx","lat":21.354852,"long":-158.093144},"type":"Feature","geometry":{"type":"Point","coordinates":[-158.093144,21.354852]}},{"properties":{"city":"Osterville","zip":"2655","fy10 fee uniques":1,"id":"a6m28ehae0fe","lat":41.630953,"long":-70.392784},"type":"Feature","geometry":{"type":"Point","coordinates":[-70.392784,41.630953]}},{"properties":{"city":"Detroit","zip":"48201","fy10 fee uniques":1,"id":"a6m28eivne1b","lat":42.343761,"long":-83.05954},"type":"Feature","geometry":{"type":"Point","coordinates":[-83.05954,42.343761]}},{"properties":{"city":"Marion","zip":"28752","fy10 fee uniques":1,"id":"a6m28eik4nex","lat":35.721868,"long":-82.036418},"type":"Feature","geometry":{"type":"Point","coordinates":[-82.036418,35.721868]}},{"properties":{"city":"Peterborough","zip":"3458","fy10 fee uniques":1,"id":"a6m28eai4yjp","lat":42.875294,"long":-71.942577},"type":"Feature","geometry":{"type":"Point","coordinates":[-71.942577,42.875294]}},{"properties":{"city":"Pomona","zip":"8205","fy10 fee uniques":1,"id":"a6m28egh45lq","lat":39.474342,"long":-74.422758},"type":"Feature","geometry":{"type":"Point","coordinates":[-74.422758,39.474342]}},{"properties":{"city":"Organ","zip":"88002","fy10 fee uniques":1,"id":"a6m28egk27m4","lat":32.283243,"long":-106.506616},"type":"Feature","geometry":{"type":"Point","coordinates":[-106.506616,32.283243]}},{"properties":{"city":"New York","zip":"10016","fy10 fee uniques":1,"id":"a6m28egx8dga","lat":40.745046,"long":-73.977768},"type":"Feature","geometry":{"type":"Point","coordinates":[-73.977768,40.745046]}},{"properties":{"city":"Weehawken","zip":"10022","fy10 fee uniques":1,"id":"a6m28efn8xbo","lat":40.758647,"long":-73.968399},"type":"Feature","geometry":{"type":"Point","coordinates":[-73.968399,40.758647]}},{"properties":{"city":"Edgewater","zip":"10039","fy10 fee uniques":1,"id":"a6m28ea7l6eo","lat":40.826862,"long":-73.937023},"type":"Feature","geometry":{"type":"Point","coordinates":[-73.937023,40.826862]}},{"properties":{"city":"Yonkers","zip":"10701","fy10 fee uniques":1,"id":"a6m28eb9ij7g","lat":40.950298,"long":-73.867283},"type":"Feature","geometry":{"type":"Point","coordinates":[-73.867283,40.950298]}},{"properties":{"city":"Floral Park","zip":"11001","fy10 fee uniques":6,"id":"a6m28efv9osu","lat":40.721926,"long":-73.706245},"type":"Feature","geometry":{"type":"Point","coordinates":[-73.706245,40.721926]}},{"properties":{"city":"Elmont","zip":"11003","fy10 fee uniques":10,"id":"a6m28e5ousny","lat":40.699963,"long":-73.706359},"type":"Feature","geometry":{"type":"Point","coordinates":[-73.706359,40.699963]}},{"properties":{"city":"Lake Success","zip":"11005","fy10 fee uniques":2,"id":"a6m28ea5qtg3","lat":40.757441,"long":-73.712857},"type":"Feature","geometry":{"type":"Point","coordinates":[-73.712857,40.757441]}},{"properties":{"city":"Franklin Square","zip":"11010","fy10 fee uniques":9,"id":"a6m28ebh5twi","lat":40.700088,"long":-73.675483},"type":"Feature","geometry":{"type":"Point","coordinates":[-73.675483,40.700088]}},{"properties":{"city":"Great Neck Plaza","zip":"11021","fy10 fee uniques":4,"id":"a6m28e952lff","lat":40.786515,"long":-73.728335},"type":"Feature","geometry":{"type":"Point","coordinates":[-73.728335,40.786515]}},{"properties":{"city":"Great Neck","zip":"11023","fy10 fee uniques":1,"id":"a6m28efqoloc","lat":40.799052,"long":-73.732041},"type":"Feature","geometry":{"type":"Point","coordinates":[-73.732041,40.799052]}},{"properties":{"city":"Kings Point","zip":"11024","fy10 fee uniques":1,"id":"a6m28ebsm2qu","lat":40.816523,"long":-73.742328},"type":"Feature","geometry":{"type":"Point","coordinates":[-73.742328,40.816523]}},{"properties":{"city":"Manhasset","zip":"11030","fy10 fee uniques":4,"id":"a6m28ehdfxk2","lat":40.793468,"long":-73.690973},"type":"Feature","geometry":{"type":"Point","coordinates":[-73.690973,40.793468]}},{"properties":{"city":"North New Hyde Park","zip":"11040","fy10 fee uniques":10,"id":"a6m28e8su3ad","lat":40.742648,"long":-73.682855},"type":"Feature","geometry":{"type":"Point","coordinates":[-73.682855,40.742648]}},{"properties":{"city":"Baxter Estates","zip":"11050","fy10 fee uniques":4,"id":"a6m28e5o053l","lat":40.838971,"long":-73.691796},"type":"Feature","geometry":{"type":"Point","coordinates":[-73.691796,40.838971]}},{"properties":{"city":"Guttenberg","zip":"11106","fy10 fee uniques":1,"id":"a6m28e765eu8","lat":40.761736,"long":-73.931492},"type":"Feature","geometry":{"type":"Point","coordinates":[-73.931492,40.761736]}},{"properties":{"city":"New York","zip":"11210","fy10 fee uniques":1,"id":"a6m28e693135","lat":40.62841,"long":-73.946284},"type":"Feature","geometry":{"type":"Point","coordinates":[-73.946284,40.62841]}},{"properties":{"city":"New York","zip":"11233","fy10 fee uniques":1,"id":"a6m28egisu34","lat":40.678207,"long":-73.919969},"type":"Feature","geometry":{"type":"Point","coordinates":[-73.919969,40.678207]}},{"properties":{"city":"New York","zip":"11237","fy10 fee uniques":1,"id":"a6m28e6rgq3n","lat":40.703901,"long":-73.920993},"type":"Feature","geometry":{"type":"Point","coordinates":[-73.920993,40.703901]}},{"properties":{"city":"Saddle Rock","zip":"11354","fy10 fee uniques":1,"id":"a6m28efn37h0","lat":40.768809,"long":-73.830025},"type":"Feature","geometry":{"type":"Point","coordinates":[-73.830025,40.768809]}},{"properties":{"city":"Saddle Rock","zip":"11358","fy10 fee uniques":2,"id":"a6m28ef71j1i","lat":40.760464,"long":-73.796447},"type":"Feature","geometry":{"type":"Point","coordinates":[-73.796447,40.760464]}},{"properties":{"city":"Bellerose","zip":"11366","fy10 fee uniques":1,"id":"a6m28e67r6he","lat":40.728117,"long":-73.788276},"type":"Feature","geometry":{"type":"Point","coordinates":[-73.788276,40.728117]}},{"properties":{"city":"Saddle Rock","zip":"11368","fy10 fee uniques":1,"id":"a6m28e8qg2ay","lat":40.750528,"long":-73.853067},"type":"Feature","geometry":{"type":"Point","coordinates":[-73.853067,40.750528]}},{"properties":{"city":"New York","zip":"11377","fy10 fee uniques":1,"id":"a6m28ec41q0v","lat":40.744447,"long":-73.905066},"type":"Feature","geometry":{"type":"Point","coordinates":[-73.905066,40.744447]}},{"properties":{"city":"New York","zip":"11378","fy10 fee uniques":1,"id":"a6m28eb68dnc","lat":40.724728,"long":-73.909808},"type":"Feature","geometry":{"type":"Point","coordinates":[-73.909808,40.724728]}},{"properties":{"city":"New York","zip":"11379","fy10 fee uniques":2,"id":"a6m28eck97fi","lat":40.720343,"long":-73.879299},"type":"Feature","geometry":{"type":"Point","coordinates":[-73.879299,40.720343]}},{"properties":{"city":"New York","zip":"11385","fy10 fee uniques":1,"id":"a6m28e76x4jp","lat":40.701113,"long":-73.890973},"type":"Feature","geometry":{"type":"Point","coordinates":[-73.890973,40.701113]}},{"properties":{"city":"Elmont","zip":"11411","fy10 fee uniques":1,"id":"a6m28e64psk4","lat":40.694168,"long":-73.736002},"type":"Feature","geometry":{"type":"Point","coordinates":[-73.736002,40.694168]}},{"properties":{"city":"Elmont","zip":"11412","fy10 fee uniques":4,"id":"a6m28ejk3b1x","lat":40.698192,"long":-73.759319},"type":"Feature","geometry":{"type":"Point","coordinates":[-73.759319,40.698192]}},{"properties":{"city":"South Valley Stream","zip":"11413","fy10 fee uniques":2,"id":"a6m28eij3nm4","lat":40.672849,"long":-73.750474},"type":"Feature","geometry":{"type":"Point","coordinates":[-73.750474,40.672849]}},{"properties":{"city":"Inwood","zip":"11414","fy10 fee uniques":2,"id":"a6m28edrlmco","lat":40.655889,"long":-73.846363},"type":"Feature","geometry":{"type":"Point","coordinates":[-73.846363,40.655889]}},{"properties":{"city":"Bellerose","zip":"11423","fy10 fee uniques":1,"id":"a6m28eicp0j0","lat":40.717224,"long":-73.769362},"type":"Feature","geometry":{"type":"Point","coordinates":[-73.769362,40.717224]}},{"properties":{"city":"Elmont","zip":"11425","fy10 fee uniques":2,"id":"a6m28ebrv9y9","lat":40.692286,"long":-73.770718},"type":"Feature","geometry":{"type":"Point","coordinates":[-73.770718,40.692286]}},{"properties":{"city":"Bellerose","zip":"11426","fy10 fee uniques":3,"id":"a6m28ecwqmp4","lat":40.736471,"long":-73.723532},"type":"Feature","geometry":{"type":"Point","coordinates":[-73.723532,40.736471]}},{"properties":{"city":"Bellerose","zip":"11427","fy10 fee uniques":2,"id":"a6m28eefqjgd","lat":40.72972,"long":-73.749091},"type":"Feature","geometry":{"type":"Point","coordinates":[-73.749091,40.72972]}},{"properties":{"city":"Bellerose","zip":"11428","fy10 fee uniques":2,"id":"a6m28effdyx7","lat":40.72131,"long":-73.741786},"type":"Feature","geometry":{"type":"Point","coordinates":[-73.741786,40.72131]}},{"properties":{"city":"South Valley Stream","zip":"11434","fy10 fee uniques":2,"id":"a6m28e81ka0a","lat":40.675117,"long":-73.77639},"type":"Feature","geometry":{"type":"Point","coordinates":[-73.77639,40.675117]}},{"properties":{"city":"Mineola","zip":"11501","fy10 fee uniques":4,"id":"a6m28einxks2","lat":40.746156,"long":-73.639047},"type":"Feature","geometry":{"type":"Point","coordinates":[-73.639047,40.746156]}},{"properties":{"city":"Searingtown","zip":"11507","fy10 fee uniques":1,"id":"a6m28eiuble4","lat":40.771292,"long":-73.653204},"type":"Feature","geometry":{"type":"Point","coordinates":[-73.653204,40.771292]}},{"properties":{"city":"Baldwin","zip":"11510","fy10 fee uniques":5,"id":"a6m28ej5c1fx","lat":40.652116,"long":-73.606797},"type":"Feature","geometry":{"type":"Point","coordinates":[-73.606797,40.652116]}},{"properties":{"city":"Carle Place","zip":"11514","fy10 fee uniques":2,"id":"a6m28ebjush2","lat":40.749216,"long":-73.612043},"type":"Feature","geometry":{"type":"Point","coordinates":[-73.612043,40.749216]}},{"properties":{"city":"East Rockaway","zip":"11518","fy10 fee uniques":1,"id":"a6m28e9v1zhx","lat":40.638105,"long":-73.666664},"type":"Feature","geometry":{"type":"Point","coordinates":[-73.666664,40.638105]}},{"properties":{"city":"Freeport","zip":"11520","fy10 fee uniques":17,"id":"a6m28ecjz78u","lat":40.636214,"long":-73.580138},"type":"Feature","geometry":{"type":"Point","coordinates":[-73.580138,40.636214]}},{"properties":{"city":"Garden City","zip":"11530","fy10 fee uniques":8,"id":"a6m28e7heeya","lat":40.72506,"long":-73.638801},"type":"Feature","geometry":{"type":"Point","coordinates":[-73.638801,40.72506]}},{"properties":{"city":"Glen Cove","zip":"11542","fy10 fee uniques":9,"id":"a6m28edp6cbg","lat":40.866614,"long":-73.630635},"type":"Feature","geometry":{"type":"Point","coordinates":[-73.630635,40.866614]}},{"properties":{"city":"Glen Head","zip":"11545","fy10 fee uniques":2,"id":"a6m28e60e72z","lat":40.82523,"long":-73.587507},"type":"Feature","geometry":{"type":"Point","coordinates":[-73.587507,40.82523]}},{"properties":{"city":"Greenvale","zip":"11548","fy10 fee uniques":1,"id":"a6m28eb4efxv","lat":40.815346,"long":-73.62304},"type":"Feature","geometry":{"type":"Point","coordinates":[-73.62304,40.815346]}},{"properties":{"city":"Hempstead","zip":"11550","fy10 fee uniques":12,"id":"a6m28eiipo29","lat":40.702622,"long":-73.619676},"type":"Feature","geometry":{"type":"Point","coordinates":[-73.619676,40.702622]}},{"properties":{"city":"West Hempstead","zip":"11552","fy10 fee uniques":10,"id":"a6m28e7o6ddr","lat":40.691879,"long":-73.651569},"type":"Feature","geometry":{"type":"Point","coordinates":[-73.651569,40.691879]}},{"properties":{"city":"Uniondale","zip":"11553","fy10 fee uniques":5,"id":"a6m28ehlahk4","lat":40.707539,"long":-73.593896},"type":"Feature","geometry":{"type":"Point","coordinates":[-73.593896,40.707539]}},{"properties":{"city":"East Meadow","zip":"11554","fy10 fee uniques":12,"id":"a6m28e7561ir","lat":40.715651,"long":-73.557869},"type":"Feature","geometry":{"type":"Point","coordinates":[-73.557869,40.715651]}},{"properties":{"city":"Hewlett","zip":"11557","fy10 fee uniques":1,"id":"a6m28ecf7j1o","lat":40.638229,"long":-73.692344},"type":"Feature","geometry":{"type":"Point","coordinates":[-73.692344,40.638229]}},{"properties":{"city":"Barnum Island","zip":"11558","fy10 fee uniques":6,"id":"a6m28ei1zaat","lat":40.610424,"long":-73.663942},"type":"Feature","geometry":{"type":"Point","coordinates":[-73.663942,40.610424]}},{"properties":{"city":"Long Beach","zip":"11561","fy10 fee uniques":9,"id":"a6m28e66bkrm","lat":40.603842,"long":-73.612524},"type":"Feature","geometry":{"type":"Point","coordinates":[-73.612524,40.603842]}},{"properties":{"city":"Lynbrook","zip":"11563","fy10 fee uniques":7,"id":"a6m28edpxsqd","lat":40.657567,"long":-73.673425},"type":"Feature","geometry":{"type":"Point","coordinates":[-73.673425,40.657567]}},{"properties":{"city":"Malverne","zip":"11565","fy10 fee uniques":5,"id":"a6m28eae1tjc","lat":40.67495,"long":-73.671919},"type":"Feature","geometry":{"type":"Point","coordinates":[-73.671919,40.67495]}},{"properties":{"city":"Merrick","zip":"11566","fy10 fee uniques":6,"id":"a6m28eg7liv1","lat":40.650064,"long":-73.549528},"type":"Feature","geometry":{"type":"Point","coordinates":[-73.549528,40.650064]}},{"properties":{"city":"Rockville Centre","zip":"11570","fy10 fee uniques":8,"id":"a6m28ek5pful","lat":40.666058,"long":-73.637775},"type":"Feature","geometry":{"type":"Point","coordinates":[-73.637775,40.666058]}},{"properties":{"city":"Oceanside","zip":"11572","fy10 fee uniques":11,"id":"a6m28ei16tiq","lat":40.632156,"long":-73.636817},"type":"Feature","geometry":{"type":"Point","coordinates":[-73.636817,40.632156]}},{"properties":{"city":"Roosevelt","zip":"11575","fy10 fee uniques":5,"id":"a6m28eg10taa","lat":40.680488,"long":-73.585172},"type":"Feature","geometry":{"type":"Point","coordinates":[-73.585172,40.680488]}},{"properties":{"city":"Roslyn","zip":"11576","fy10 fee uniques":1,"id":"a6m28e9c7xgp","lat":40.799496,"long":-73.655029},"type":"Feature","geometry":{"type":"Point","coordinates":[-73.655029,40.799496]}},{"properties":{"city":"Roslyn Heights","zip":"11577","fy10 fee uniques":1,"id":"a6m28ejx54h7","lat":40.788797,"long":-73.646544},"type":"Feature","geometry":{"type":"Point","coordinates":[-73.646544,40.788797]}},{"properties":{"city":"Valley Stream","zip":"11580","fy10 fee uniques":6,"id":"a6m28eko6s9w","lat":40.674601,"long":-73.704087},"type":"Feature","geometry":{"type":"Point","coordinates":[-73.704087,40.674601]}},{"properties":{"city":"South Valley Stream","zip":"11581","fy10 fee uniques":2,"id":"a6m28ed5b8vn","lat":40.65247,"long":-73.714594},"type":"Feature","geometry":{"type":"Point","coordinates":[-73.714594,40.65247]}},{"properties":{"city":"Westbury","zip":"11590","fy10 fee uniques":16,"id":"a6m28e6gyag9","lat":40.756713,"long":-73.576658},"type":"Feature","geometry":{"type":"Point","coordinates":[-73.576658,40.756713]}},{"properties":{"city":"Williston Park","zip":"11596","fy10 fee uniques":2,"id":"a6m28eb5ytij","lat":40.759697,"long":-73.642298},"type":"Feature","geometry":{"type":"Point","coordinates":[-73.642298,40.759697]}},{"properties":{"city":"Woodmere","zip":"11598","fy10 fee uniques":1,"id":"a6m28ek7t9am","lat":40.626007,"long":-73.705071},"type":"Feature","geometry":{"type":"Point","coordinates":[-73.705071,40.626007]}},{"properties":{"city":"Inwood","zip":"11694","fy10 fee uniques":1,"id":"a6m28ehivwzg","lat":40.58164,"long":-73.846823},"type":"Feature","geometry":{"type":"Point","coordinates":[-73.846823,40.58164]}},{"properties":{"city":"Amityville","zip":"11701","fy10 fee uniques":17,"id":"a6m28e9dot6h","lat":40.677956,"long":-73.410405},"type":"Feature","geometry":{"type":"Point","coordinates":[-73.410405,40.677956]}},{"properties":{"city":"Babylon","zip":"11702","fy10 fee uniques":12,"id":"a6m28ebdms9o","lat":40.639289,"long":-73.350924},"type":"Feature","geometry":{"type":"Point","coordinates":[-73.350924,40.639289]}},{"properties":{"city":"North Babylon","zip":"11703","fy10 fee uniques":17,"id":"a6m28ean6sst","lat":40.732882,"long":-73.325628},"type":"Feature","geometry":{"type":"Point","coordinates":[-73.325628,40.732882]}},{"properties":{"city":"West Babylon","zip":"11704","fy10 fee uniques":32,"id":"a6m28edlcv6j","lat":40.716349,"long":-73.356431},"type":"Feature","geometry":{"type":"Point","coordinates":[-73.356431,40.716349]}},{"properties":{"city":"Bayport","zip":"11705","fy10 fee uniques":3,"id":"a6m28ef4cnew","lat":40.745546,"long":-73.054231},"type":"Feature","geometry":{"type":"Point","coordinates":[-73.054231,40.745546]}},{"properties":{"city":"North Bay Shore","zip":"11706","fy10 fee uniques":57,"id":"a6m28eab69xp","lat":40.723804,"long":-73.260544},"type":"Feature","geometry":{"type":"Point","coordinates":[-73.260544,40.723804]}},{"properties":{"city":"Bayville","zip":"11709","fy10 fee uniques":3,"id":"a6m28eendtbk","lat":40.907764,"long":-73.560494},"type":"Feature","geometry":{"type":"Point","coordinates":[-73.560494,40.907764]}},{"properties":{"city":"Bellmore","zip":"11710","fy10 fee uniques":7,"id":"a6m28e9tmyeo","lat":40.652622,"long":-73.526724},"type":"Feature","geometry":{"type":"Point","coordinates":[-73.526724,40.652622]}},{"properties":{"city":"North Bellport","zip":"11713","fy10 fee uniques":5,"id":"a6m28eg04zdh","lat":40.748688,"long":-72.941618},"type":"Feature","geometry":{"type":"Point","coordinates":[-72.941618,40.748688]}},{"properties":{"city":"Bethpage","zip":"11714","fy10 fee uniques":14,"id":"a6m28eav5tg9","lat":40.742464,"long":-73.485868},"type":"Feature","geometry":{"type":"Point","coordinates":[-73.485868,40.742464]}},{"properties":{"city":"Blue Point","zip":"11715","fy10 fee uniques":4,"id":"a6m28e6ou0vx","lat":40.74975,"long":-73.035183},"type":"Feature","geometry":{"type":"Point","coordinates":[-73.035183,40.74975]}},{"properties":{"city":"Bohemia","zip":"11716","fy10 fee uniques":8,"id":"a6m28eeyrbqn","lat":40.771097,"long":-73.127526},"type":"Feature","geometry":{"type":"Point","coordinates":[-73.127526,40.771097]}},{"properties":{"city":"Brentwood","zip":"11717","fy10 fee uniques":28,"id":"a6m28eacnyhr","lat":40.78393,"long":-73.252411},"type":"Feature","geometry":{"type":"Point","coordinates":[-73.252411,40.78393]}},{"properties":{"city":"Brightwaters","zip":"11718","fy10 fee uniques":1,"id":"a6m28ekegbz9","lat":40.716736,"long":-73.265545},"type":"Feature","geometry":{"type":"Point","coordinates":[-73.265545,40.716736]}},{"properties":{"city":"Brookhaven","zip":"11719","fy10 fee uniques":8,"id":"a6m28efox1c4","lat":40.764539,"long":-72.911488},"type":"Feature","geometry":{"type":"Point","coordinates":[-72.911488,40.764539]}},{"properties":{"city":"Centereach","zip":"11720","fy10 fee uniques":15,"id":"a6m28e63eufy","lat":40.869243,"long":-73.081001},"type":"Feature","geometry":{"type":"Point","coordinates":[-73.081001,40.869243]}},{"properties":{"city":"Centerport","zip":"11721","fy10 fee uniques":4,"id":"a6m28ebtlnbb","lat":40.893332,"long":-73.37205},"type":"Feature","geometry":{"type":"Point","coordinates":[-73.37205,40.893332]}},{"properties":{"city":"Central Islip","zip":"11722","fy10 fee uniques":25,"id":"a6m28edn4ymr","lat":40.784331,"long":-73.193694},"type":"Feature","geometry":{"type":"Point","coordinates":[-73.193694,40.784331]}},{"properties":{"city":"Laurel Hollow","zip":"11724","fy10 fee uniques":1,"id":"a6m28e8ox42p","lat":40.862771,"long":-73.453027},"type":"Feature","geometry":{"type":"Point","coordinates":[-73.453027,40.862771]}},{"properties":{"city":"Commack","zip":"11725","fy10 fee uniques":17,"id":"a6m28ehiqsmb","lat":40.840519,"long":-73.280844},"type":"Feature","geometry":{"type":"Point","coordinates":[-73.280844,40.840519]}},{"properties":{"city":"Copiague","zip":"11726","fy10 fee uniques":8,"id":"a6m28ed8kqxr","lat":40.678359,"long":-73.39608},"type":"Feature","geometry":{"type":"Point","coordinates":[-73.39608,40.678359]}},{"properties":{"city":"Coram","zip":"11727","fy10 fee uniques":11,"id":"a6m28eiu2bg2","lat":40.878727,"long":-73.005555},"type":"Feature","geometry":{"type":"Point","coordinates":[-73.005555,40.878727]}},{"properties":{"city":"Deer Park","zip":"11729","fy10 fee uniques":18,"id":"a6m28e556rsa","lat":40.76254,"long":-73.321716},"type":"Feature","geometry":{"type":"Point","coordinates":[-73.321716,40.76254]}},{"properties":{"city":"East Islip","zip":"11730","fy10 fee uniques":7,"id":"a6m28e6crsk8","lat":40.721181,"long":-73.177454},"type":"Feature","geometry":{"type":"Point","coordinates":[-73.177454,40.721181]}},{"properties":{"city":"East Northport","zip":"11731","fy10 fee uniques":33,"id":"a6m28ehgjf5n","lat":40.861808,"long":-73.315812},"type":"Feature","geometry":{"type":"Point","coordinates":[-73.315812,40.861808]}},{"properties":{"city":"Setauket","zip":"11733","fy10 fee uniques":7,"id":"a6m28eg2z01d","lat":40.928079,"long":-73.116638},"type":"Feature","geometry":{"type":"Point","coordinates":[-73.116638,40.928079]}},{"properties":{"city":"Farmingdale","zip":"11735","fy10 fee uniques":14,"id":"a6m28edmhn33","lat":40.732135,"long":-73.429488},"type":"Feature","geometry":{"type":"Point","coordinates":[-73.429488,40.732135]}},{"properties":{"city":"Farmingville","zip":"11738","fy10 fee uniques":6,"id":"a6m28ef74buw","lat":40.842596,"long":-73.047511},"type":"Feature","geometry":{"type":"Point","coordinates":[-73.047511,40.842596]}},{"properties":{"city":"Greenlawn","zip":"11740","fy10 fee uniques":6,"id":"a6m28ea52de2","lat":40.865355,"long":-73.363167},"type":"Feature","geometry":{"type":"Point","coordinates":[-73.363167,40.865355]}},{"properties":{"city":"Holbrook","zip":"11741","fy10 fee uniques":16,"id":"a6m28ej9ac3d","lat":40.795019,"long":-73.070458},"type":"Feature","geometry":{"type":"Point","coordinates":[-73.070458,40.795019]}},{"properties":{"city":"Holtsville","zip":"11742","fy10 fee uniques":4,"id":"a6m28e5qlyye","lat":40.807598,"long":-73.041061},"type":"Feature","geometry":{"type":"Point","coordinates":[-73.041061,40.807598]}},{"properties":{"city":"Huntington","zip":"11743","fy10 fee uniques":17,"id":"a6m28e7kw3zz","lat":40.87486,"long":-73.422897},"type":"Feature","geometry":{"type":"Point","coordinates":[-73.422897,40.87486]}},{"properties":{"city":"South Huntington","zip":"11746","fy10 fee uniques":36,"id":"a6m28ehn0r7j","lat":40.814079,"long":-73.36007},"type":"Feature","geometry":{"type":"Point","coordinates":[-73.36007,40.814079]}},{"properties":{"city":"Melville","zip":"11747","fy10 fee uniques":8,"id":"a6m28ef104ti","lat":40.78366,"long":-73.408464},"type":"Feature","geometry":{"type":"Point","coordinates":[-73.408464,40.78366]}},{"properties":{"city":"Islandia","zip":"11749","fy10 fee uniques":4,"id":"a6m28e55zoiz","lat":40.805707,"long":-73.173117},"type":"Feature","geometry":{"type":"Point","coordinates":[-73.173117,40.805707]}},{"properties":{"city":"Islip","zip":"11751","fy10 fee uniques":15,"id":"a6m28ebmbpyo","lat":40.733245,"long":-73.21427},"type":"Feature","geometry":{"type":"Point","coordinates":[-73.21427,40.733245]}},{"properties":{"city":"North Great River","zip":"11752","fy10 fee uniques":6,"id":"a6m28e59vwzf","lat":40.759284,"long":-73.175781},"type":"Feature","geometry":{"type":"Point","coordinates":[-73.175781,40.759284]}},{"properties":{"city":"Jericho","zip":"11753","fy10 fee uniques":1,"id":"a6m28ei6irsn","lat":40.788801,"long":-73.540644},"type":"Feature","geometry":{"type":"Point","coordinates":[-73.540644,40.788801]}},{"properties":{"city":"Kings Park","zip":"11754","fy10 fee uniques":19,"id":"a6m28e64d4x7","lat":40.887816,"long":-73.249794},"type":"Feature","geometry":{"type":"Point","coordinates":[-73.249794,40.887816]}},{"properties":{"city":"Lake Grove","zip":"11755","fy10 fee uniques":6,"id":"a6m28eciz2f8","lat":40.858093,"long":-73.117184},"type":"Feature","geometry":{"type":"Point","coordinates":[-73.117184,40.858093]}},{"properties":{"city":"Levittown","zip":"11756","fy10 fee uniques":10,"id":"a6m28ekzjoxy","lat":40.725786,"long":-73.516824},"type":"Feature","geometry":{"type":"Point","coordinates":[-73.516824,40.725786]}},{"properties":{"city":"Lindenhurst","zip":"11757","fy10 fee uniques":28,"id":"a6m28e9rtjcw","lat":40.691362,"long":-73.372129},"type":"Feature","geometry":{"type":"Point","coordinates":[-73.372129,40.691362]}},{"properties":{"city":"Massapequa","zip":"11758","fy10 fee uniques":26,"id":"a6m28eb5u978","lat":40.605274,"long":-73.484543},"type":"Feature","geometry":{"type":"Point","coordinates":[-73.484543,40.605274]}},{"properties":{"city":"Massapequa Park","zip":"11762","fy10 fee uniques":10,"id":"a6m28ebnutux","lat":40.678502,"long":-73.445106},"type":"Feature","geometry":{"type":"Point","coordinates":[-73.445106,40.678502]}},{"properties":{"city":"Medford","zip":"11763","fy10 fee uniques":25,"id":"a6m28e9uq5ef","lat":40.824363,"long":-72.98138},"type":"Feature","geometry":{"type":"Point","coordinates":[-72.98138,40.824363]}},{"properties":{"city":"Miller Place","zip":"11764","fy10 fee uniques":5,"id":"a6m28ejafgzw","lat":40.939819,"long":-72.986478},"type":"Feature","geometry":{"type":"Point","coordinates":[-72.986478,40.939819]}},{"properties":{"city":"Mount Sinai","zip":"11766","fy10 fee uniques":5,"id":"a6m28ek65c1d","lat":40.946318,"long":-73.025708},"type":"Feature","geometry":{"type":"Point","coordinates":[-73.025708,40.946318]}},{"properties":{"city":"Nesconset","zip":"11767","fy10 fee uniques":3,"id":"a6m28eg2bj9e","lat":40.843792,"long":-73.14631},"type":"Feature","geometry":{"type":"Point","coordinates":[-73.14631,40.843792]}},{"properties":{"city":"Northport","zip":"11768","fy10 fee uniques":24,"id":"a6m28e7qswnh","lat":40.909267,"long":-73.333907},"type":"Feature","geometry":{"type":"Point","coordinates":[-73.333907,40.909267]}},{"properties":{"city":"Oakdale","zip":"11769","fy10 fee uniques":4,"id":"a6m28ej5xn0x","lat":40.731797,"long":-73.135301},"type":"Feature","geometry":{"type":"Point","coordinates":[-73.135301,40.731797]}},{"properties":{"city":"Ocean Beach","zip":"11770","fy10 fee uniques":1,"id":"a6m28efi76nb","lat":40.644875,"long":-73.160416},"type":"Feature","geometry":{"type":"Point","coordinates":[-73.160416,40.644875]}},{"properties":{"city":"Oyster Bay","zip":"11771","fy10 fee uniques":4,"id":"a6m28e7nv9rb","lat":40.875499,"long":-73.528134},"type":"Feature","geometry":{"type":"Point","coordinates":[-73.528134,40.875499]}},{"properties":{"city":"East Patchogue","zip":"11772","fy10 fee uniques":47,"id":"a6m28eg3aj78","lat":40.754816,"long":-72.999481},"type":"Feature","geometry":{"type":"Point","coordinates":[-72.999481,40.754816]}},{"properties":{"city":"Port Jefferson Station","zip":"11776","fy10 fee uniques":14,"id":"a6m28edbw7l9","lat":40.913637,"long":-73.045918},"type":"Feature","geometry":{"type":"Point","coordinates":[-73.045918,40.913637]}},{"properties":{"city":"Port Jefferson","zip":"11777","fy10 fee uniques":1,"id":"a6m28ehqx68p","lat":40.949796,"long":-73.059545},"type":"Feature","geometry":{"type":"Point","coordinates":[-73.059545,40.949796]}},{"properties":{"city":"Rocky Point","zip":"11778","fy10 fee uniques":11,"id":"a6m28egqhsq9","lat":40.93646,"long":-72.934676},"type":"Feature","geometry":{"type":"Point","coordinates":[-72.934676,40.93646]}},{"properties":{"city":"Ronkonkoma","zip":"11779","fy10 fee uniques":24,"id":"a6m28ejxyxfp","lat":40.815362,"long":-73.11056},"type":"Feature","geometry":{"type":"Point","coordinates":[-73.11056,40.815362]}},{"properties":{"city":"Saint James","zip":"11780","fy10 fee uniques":6,"id":"a6m28egi8b28","lat":40.893231,"long":-73.181228},"type":"Feature","geometry":{"type":"Point","coordinates":[-73.181228,40.893231]}},{"properties":{"city":"Sayville","zip":"11782","fy10 fee uniques":6,"id":"a6m28eb1a8bo","lat":40.697816,"long":-72.974106},"type":"Feature","geometry":{"type":"Point","coordinates":[-72.974106,40.697816]}},{"properties":{"city":"Massapequa","zip":"11783","fy10 fee uniques":16,"id":"a6m28ejznqzh","lat":40.652976,"long":-73.48774},"type":"Feature","geometry":{"type":"Point","coordinates":[-73.48774,40.652976]}},{"properties":{"city":"Selden","zip":"11784","fy10 fee uniques":19,"id":"a6m28ejpsdvj","lat":40.86573,"long":-73.035545},"type":"Feature","geometry":{"type":"Point","coordinates":[-73.035545,40.86573]}},{"properties":{"city":"East Shoreham","zip":"11786","fy10 fee uniques":2,"id":"a6m28ehhsk18","lat":40.946675,"long":-72.887132},"type":"Feature","geometry":{"type":"Point","coordinates":[-72.887132,40.946675]}},{"properties":{"city":"Smithtown","zip":"11787","fy10 fee uniques":22,"id":"a6m28eh9paav","lat":40.853492,"long":-73.207257},"type":"Feature","geometry":{"type":"Point","coordinates":[-73.207257,40.853492]}},{"properties":{"city":"Hauppauge","zip":"11788","fy10 fee uniques":7,"id":"a6m28e5rpvzs","lat":40.817801,"long":-73.210038},"type":"Feature","geometry":{"type":"Point","coordinates":[-73.210038,40.817801]}},{"properties":{"city":"Sound Beach","zip":"11789","fy10 fee uniques":5,"id":"a6m28el1y9on","lat":40.95713,"long":-72.97125},"type":"Feature","geometry":{"type":"Point","coordinates":[-72.97125,40.95713]}},{"properties":{"city":"Head of the Harbor","zip":"11790","fy10 fee uniques":5,"id":"a6m28efqwqp1","lat":40.904537,"long":-73.126626},"type":"Feature","geometry":{"type":"Point","coordinates":[-73.126626,40.904537]}},{"properties":{"city":"Syosset","zip":"11791","fy10 fee uniques":4,"id":"a6m28eg5okh0","lat":40.828342,"long":-73.503483},"type":"Feature","geometry":{"type":"Point","coordinates":[-73.503483,40.828342]}},{"properties":{"city":"Wading River","zip":"11792","fy10 fee uniques":1,"id":"a6m28ef7joug","lat":40.947151,"long":-72.835717},"type":"Feature","geometry":{"type":"Point","coordinates":[-72.835717,40.947151]}},{"properties":{"city":"Wantagh","zip":"11793","fy10 fee uniques":13,"id":"a6m28eetunny","lat":40.643404,"long":-73.50862},"type":"Feature","geometry":{"type":"Point","coordinates":[-73.50862,40.643404]}},{"properties":{"city":"West Islip","zip":"11795","fy10 fee uniques":10,"id":"a6m28eh3q7sk","lat":40.709265,"long":-73.29848},"type":"Feature","geometry":{"type":"Point","coordinates":[-73.29848,40.709265]}},{"properties":{"city":"West Sayville","zip":"11796","fy10 fee uniques":3,"id":"a6m28e9wasvy","lat":40.731247,"long":-73.100156},"type":"Feature","geometry":{"type":"Point","coordinates":[-73.100156,40.731247]}},{"properties":{"city":"Woodbury","zip":"11797","fy10 fee uniques":4,"id":"a6m28e8g56v1","lat":40.817392,"long":-73.470038},"type":"Feature","geometry":{"type":"Point","coordinates":[-73.470038,40.817392]}},{"properties":{"city":"Wyandanch","zip":"11798","fy10 fee uniques":16,"id":"a6m28eeg8g6e","lat":40.751875,"long":-73.371127},"type":"Feature","geometry":{"type":"Point","coordinates":[-73.371127,40.751875]}},{"properties":{"city":"Hicksville","zip":"11801","fy10 fee uniques":13,"id":"a6m28ek5zo2r","lat":40.767608,"long":-73.524698},"type":"Feature","geometry":{"type":"Point","coordinates":[-73.524698,40.767608]}},{"properties":{"city":"Plainview","zip":"11803","fy10 fee uniques":8,"id":"a6m28ee2ft08","lat":40.781792,"long":-73.47333},"type":"Feature","geometry":{"type":"Point","coordinates":[-73.47333,40.781792]}},{"properties":{"city":"Plainview","zip":"11804","fy10 fee uniques":5,"id":"a6m28eimjxb2","lat":40.756785,"long":-73.454311},"type":"Feature","geometry":{"type":"Point","coordinates":[-73.454311,40.756785]}},{"properties":{"city":"Riverhead","zip":"11901","fy10 fee uniques":15,"id":"a6m28efcnir1","lat":40.92404,"long":-72.650989},"type":"Feature","geometry":{"type":"Point","coordinates":[-72.650989,40.92404]}},{"properties":{"city":"Amagansett","zip":"11930","fy10 fee uniques":1,"id":"a6m28ei879ub","lat":40.990862,"long":-72.095919},"type":"Feature","geometry":{"type":"Point","coordinates":[-72.095919,40.990862]}},{"properties":{"city":"Aquebogue","zip":"11931","fy10 fee uniques":2,"id":"a6m28ee89lyj","lat":40.939435,"long":-72.637606},"type":"Feature","geometry":{"type":"Point","coordinates":[-72.637606,40.939435]}},{"properties":{"city":"Calverton","zip":"11933","fy10 fee uniques":10,"id":"a6m28eed7yeh","lat":40.92538,"long":-72.754445},"type":"Feature","geometry":{"type":"Point","coordinates":[-72.754445,40.92538]}},{"properties":{"city":"Center Moriches","zip":"11934","fy10 fee uniques":10,"id":"a6m28e8slmhl","lat":40.797526,"long":-72.792351},"type":"Feature","geometry":{"type":"Point","coordinates":[-72.792351,40.797526]}},{"properties":{"city":"Cutchogue","zip":"11935","fy10 fee uniques":2,"id":"a6m28e5m09zc","lat":41.015934,"long":-72.48691},"type":"Feature","geometry":{"type":"Point","coordinates":[-72.48691,41.015934]}},{"properties":{"city":"Springs","zip":"11937","fy10 fee uniques":3,"id":"a6m28ejbzcg5","lat":41.027438,"long":-72.183606},"type":"Feature","geometry":{"type":"Point","coordinates":[-72.183606,41.027438]}},{"properties":{"city":"Greenport","zip":"11939","fy10 fee uniques":2,"id":"a6m28eapg5f0","lat":41.12933,"long":-72.34227},"type":"Feature","geometry":{"type":"Point","coordinates":[-72.34227,41.12933]}},{"properties":{"city":"East Moriches","zip":"11940","fy10 fee uniques":1,"id":"a6m28efw451i","lat":40.800525,"long":-72.759351},"type":"Feature","geometry":{"type":"Point","coordinates":[-72.759351,40.800525]}},{"properties":{"city":"Eastport","zip":"11941","fy10 fee uniques":1,"id":"a6m28edx0yn3","lat":40.824099,"long":-72.718941},"type":"Feature","geometry":{"type":"Point","coordinates":[-72.718941,40.824099]}},{"properties":{"city":"East Quogue","zip":"11942","fy10 fee uniques":1,"id":"a6m28efjqbhu","lat":40.838061,"long":-72.577283},"type":"Feature","geometry":{"type":"Point","coordinates":[-72.577283,40.838061]}},{"properties":{"city":"Greenport","zip":"11944","fy10 fee uniques":3,"id":"a6m28eb0dvyr","lat":41.095404,"long":-72.373464},"type":"Feature","geometry":{"type":"Point","coordinates":[-72.373464,41.095404]}},{"properties":{"city":"Hampton Bays","zip":"11946","fy10 fee uniques":6,"id":"a6m28ef2nzh7","lat":40.870826,"long":-72.524562},"type":"Feature","geometry":{"type":"Point","coordinates":[-72.524562,40.870826]}},{"properties":{"city":"Manorville","zip":"11949","fy10 fee uniques":5,"id":"a6m28ejnnsbo","lat":40.868696,"long":-72.773005},"type":"Feature","geometry":{"type":"Point","coordinates":[-72.773005,40.868696]}},{"properties":{"city":"Mastic","zip":"11950","fy10 fee uniques":11,"id":"a6m28ekrhgyk","lat":40.808001,"long":-72.84841},"type":"Feature","geometry":{"type":"Point","coordinates":[-72.84841,40.808001]}},{"properties":{"city":"Mastic Beach","zip":"11951","fy10 fee uniques":9,"id":"a6m28ehabxx3","lat":40.759939,"long":-72.834973},"type":"Feature","geometry":{"type":"Point","coordinates":[-72.834973,40.759939]}},{"properties":{"city":"Middle Island","zip":"11953","fy10 fee uniques":13,"id":"a6m28ehyu8c9","lat":40.885911,"long":-72.949762},"type":"Feature","geometry":{"type":"Point","coordinates":[-72.949762,40.885911]}},{"properties":{"city":"Mastic","zip":"11955","fy10 fee uniques":3,"id":"a6m28e57y470","lat":40.809952,"long":-72.819629},"type":"Feature","geometry":{"type":"Point","coordinates":[-72.819629,40.809952]}},{"properties":{"city":"Ridge","zip":"11961","fy10 fee uniques":15,"id":"a6m28ecussw4","lat":40.902588,"long":-72.883779},"type":"Feature","geometry":{"type":"Point","coordinates":[-72.883779,40.902588]}},{"properties":{"city":"Noyack","zip":"11963","fy10 fee uniques":2,"id":"a6m28eftdcsj","lat":40.995604,"long":-72.318885},"type":"Feature","geometry":{"type":"Point","coordinates":[-72.318885,40.995604]}},{"properties":{"city":"Shelter Island","zip":"11964","fy10 fee uniques":1,"id":"a6m28e88hdeq","lat":41.066132,"long":-72.317991},"type":"Feature","geometry":{"type":"Point","coordinates":[-72.317991,41.066132]}},{"properties":{"city":"Shirley","zip":"11967","fy10 fee uniques":17,"id":"a6m28e76p6qf","lat":40.790182,"long":-72.879809},"type":"Feature","geometry":{"type":"Point","coordinates":[-72.879809,40.790182]}},{"properties":{"city":"North Sea","zip":"11968","fy10 fee uniques":7,"id":"a6m28efcubsl","lat":40.894196,"long":-72.41262},"type":"Feature","geometry":{"type":"Point","coordinates":[-72.41262,40.894196]}},{"properties":{"city":"Southampton","zip":"11969","fy10 fee uniques":1,"id":"a6m28ei25c1q","lat":40.88,"long":-72.39},"type":"Feature","geometry":{"type":"Point","coordinates":[-72.39,40.88]}},{"properties":{"city":"Southold","zip":"11971","fy10 fee uniques":1,"id":"a6m28efbk8gi","lat":41.059748,"long":-72.426146},"type":"Feature","geometry":{"type":"Point","coordinates":[-72.426146,41.059748]}},{"properties":{"city":"Speonk","zip":"11972","fy10 fee uniques":1,"id":"a6m28ea7o963","lat":40.819312,"long":-72.706552},"type":"Feature","geometry":{"type":"Point","coordinates":[-72.706552,40.819312]}},{"properties":{"city":"Watermill","zip":"11976","fy10 fee uniques":1,"id":"a6m28eekn6ea","lat":40.93015,"long":-72.342202},"type":"Feature","geometry":{"type":"Point","coordinates":[-72.342202,40.93015]}},{"properties":{"city":"Yaphank","zip":"11980","fy10 fee uniques":5,"id":"a6m28ejx3tlo","lat":40.830109,"long":-72.920395},"type":"Feature","geometry":{"type":"Point","coordinates":[-72.920395,40.830109]}},{"properties":{"city":"Saugerties","zip":"12477","fy10 fee uniques":1,"id":"a6m28e4s44ww","lat":42.053427,"long":-73.980972},"type":"Feature","geometry":{"type":"Point","coordinates":[-73.980972,42.053427]}},{"properties":{"city":"Wallkill","zip":"12525","fy10 fee uniques":1,"id":"a6m28ekheqqw","lat":41.688974,"long":-74.202106},"type":"Feature","geometry":{"type":"Point","coordinates":[-74.202106,41.688974]}},{"properties":{"city":"Milwaukie","zip":"97222","fy10 fee uniques":1,"id":"a6m28edvk7gm","lat":45.441669,"long":-122.617264},"type":"Feature","geometry":{"type":"Point","coordinates":[-122.617264,45.441669]}},{"properties":{"city":"Allentown","zip":"18101","fy10 fee uniques":1,"id":"a6m28ehwp6oc","lat":40.622692,"long":-75.463829},"type":"Feature","geometry":{"type":"Point","coordinates":[-75.463829,40.622692]}},{"properties":{"city":"Lincolnville","zip":"29485","fy10 fee uniques":1,"id":"a6m28ejnyi73","lat":32.944671,"long":-80.16735},"type":"Feature","geometry":{"type":"Point","coordinates":[-80.16735,32.944671]}},{"properties":{"city":"Meadows","zip":"77036","fy10 fee uniques":1,"id":"a6m28ef8o166","lat":29.692227,"long":-95.536085},"type":"Feature","geometry":{"type":"Point","coordinates":[-95.536085,29.692227]}},{"properties":{"city":"Herndon","zip":"20171","fy10 fee uniques":2,"id":"a6m28ecbmhql","lat":38.924598,"long":-77.399543},"type":"Feature","geometry":{"type":"Point","coordinates":[-77.399543,38.924598]}},{"properties":{"city":"Chester","zip":"23831","fy10 fee uniques":1,"id":"a6m28e8tk7g0","lat":37.341123,"long":-77.460357},"type":"Feature","geometry":{"type":"Point","coordinates":[-77.460357,37.341123]}},{"properties":{"city":"Evergreen","zip":"98684","fy10 fee uniques":1,"id":"a6m28ehxmb9c","lat":45.638459,"long":-122.502784},"type":"Feature","geometry":{"type":"Point","coordinates":[-122.502784,45.638459]}}],"is_temporal":false,"author":{"url":"","metadata":"","contact_name":"","contact_address":"","source":"","contact_phone":""},"source":"","pagination":{"sort":null,"start":0,"total":200,"limit":1000000},"state":"complete","tags":"","published":"2014-08-12T21:01:58-04:00","id":160065}