{"type":"FeatureCollection","data_type":"Dataset Analysis","url_type":null,"permissions":[{"permissions":{"download":true,"view":true},"group_id":"everyone"}],"classification":null,"title":"Filtered Features of 'Electric Vehicle Charging Stations ' based on 'Theme Parks'","count":307,"stream_id":160599,"contributor":{"url":"http://geocommons.com/users/3645","name":"semprebon"},"data_attributes":null,"calculation_params":[{"calculation":"buffer_intersect","input":{"ds1":"160474","ds2":"160375","unit":"miles","include_distance":"1","distance":"50"}}],"icon_link":null,"link":"http://geocommons.com/overlays/160599.json","extent":[-122.506,27.8598,-73.9944,43.0252],"geometry_types":["point"],"unique_name":null,"name":"Filtered Features of 'Electric Vehicle Charging Stations ' based on 'Theme Parks'","feature_count":307,"description":"Dataset created by filtering features of 'Electric Vehicle Charging Stations ' that are within a buffer of 50 miles around the features in 'Theme Parks'","next_feature":null,"is_raster":false,"short_classification":"Y","stats":{"latitude":{"max":43.0251745,"mean":38.0186959876221,"variance":12.7980985918838,"stdev":3.57744302426801,"min":27.859822,"median":38.8883234},"public":{"max":1,"mean":0.762214983713355,"variance":0.181835600689787,"stdev":0.42642185765951,"min":0,"median":1},"private":{"max":1,"mean":0.0684039087947883,"variance":0.0639330650827105,"stdev":0.252849886459754,"min":0,"median":0},"id":{"max":40360,"mean":33023.1824104235,"variance":14685737.7640033,"stdev":3832.19751108986,"min":18843,"median":33223},"actual":{"max":1,"mean":0.957654723127036,"variance":0.0406846777799067,"stdev":0.201704431730953,"min":0,"median":1},"plus4":{"max":9998,"mean":4391.21052631579,"variance":5824373.06432749,"stdev":2413.3737929147,"min":1314,"median":3918},"longitude":{"max":-73.994377,"mean":-88.2088937517915,"variance":155.465391496672,"stdev":12.468576161562,"min":-122.506388,"median":-84.5759924},"government":{"max":1,"mean":0.127035830618893,"variance":0.111260139234847,"stdev":0.3335568006125,"min":0,"median":0},"distance":{"max":49.8976195256998,"mean":25.8771865833198,"variance":169.097700687,"stdev":13.0037571757935,"min":0.882043175155061,"median":24.4769746256538}},"features":[{"properties":{"expected date":null,"city":"Tampa","latitude":27.859822,"zip":"33621","station name":"MacDill Air Force Base","public":0,"private":0,"id":"120","street address":"2914 Great Egret Ave","station phone":null,"date last confirmed":"2009-12-03","actual":1,"longitude":-82.494425,"plus4":null,"groups with access code":"Private - government only","government":1,"state":"FL","distance":13.0232543904875},"type":"Feature","geometry":{"type":"Point","coordinates":[-82.494425,27.859822]}},{"properties":{"expected date":null,"city":"Lake Wales","latitude":27.9041888,"zip":"33853","station name":"Sunoco-Circle K","public":1,"private":0,"id":"2125","street address":"1349 Highway 60","station phone":"863-679-2692","date last confirmed":"2011-06-30","actual":1,"longitude":-81.6129898,"plus4":null,"groups with access code":"Public - see hours","government":0,"state":"FL","distance":8.93585226280749},"type":"Feature","geometry":{"type":"Point","coordinates":[-81.6129898,27.9041888]}},{"properties":{"expected date":null,"city":"Lakeland","latitude":28.0348053,"zip":"33801","station name":"FleetWing","public":1,"private":0,"id":"2074","street address":"814 S Combee Rd","station phone":"863-665-7557","date last confirmed":"2011-06-30","actual":1,"longitude":-81.9078555,"plus4":null,"groups with access code":"Public - see hours","government":0,"state":"FL","distance":3.80111933224693},"type":"Feature","geometry":{"type":"Point","coordinates":[-81.9078555,28.0348053]}},{"properties":{"expected date":null,"city":"Orlando","latitude":28.500075,"zip":"32802","station name":"Orange County","public":0,"private":0,"id":"154","street address":"4400 Vineland Rd","station phone":null,"date last confirmed":"2011-06-30","actual":1,"longitude":-81.432644,"plus4":null,"groups with access code":"Private - government only","government":1,"state":"FL","distance":2.81088930178984},"type":"Feature","geometry":{"type":"Point","coordinates":[-81.432644,28.500075]}},{"properties":{"expected date":null,"city":"Ocoee","latitude":28.514944,"zip":"34761","station name":"Turkey Lake Service Plaza - Citgo","public":1,"private":0,"id":"1612","street address":"Milepost 263, Florida's Turnpike","station phone":"407-291-6329","date last confirmed":"2011-06-30","actual":1,"longitude":-81.499331,"plus4":null,"groups with access code":"Public - see hours","government":0,"state":"FL","distance":3.81541903263366},"type":"Feature","geometry":{"type":"Point","coordinates":[-81.499331,28.514944]}},{"properties":{"expected date":null,"city":"San Antonio","latitude":29.38009,"zip":"78236","station name":"Lackland Air Force Base","public":0,"private":0,"id":"124","street address":"1865 Selfridge Ave","station phone":null,"date last confirmed":"2009-12-03","actual":1,"longitude":-98.617161,"plus4":null,"groups with access code":"Private - government only","government":1,"state":"TX","distance":8.2106064155294},"type":"Feature","geometry":{"type":"Point","coordinates":[-98.617161,29.38009]}},{"properties":{"expected date":null,"city":"San Antonio","latitude":29.4532064,"zip":"78219","station name":"CleanFuel USA","public":1,"private":0,"id":"667","street address":"4023 I-35 N","station phone":"512-942-8300","date last confirmed":"2010-10-31","actual":1,"longitude":-98.4171243,"plus4":null,"groups with access code":"Public - credit card at all times","government":0,"state":"TX","distance":16.4508592053347},"type":"Feature","geometry":{"type":"Point","coordinates":[-98.4171243,29.4532064]}},{"properties":{"expected date":null,"city":"San Antonio","latitude":29.4965238,"zip":"78253","station name":"Valero Corner Store #1062","public":1,"private":0,"id":"2319","street address":"11003 Culebra Rd","station phone":"210-688-0845","date last confirmed":"2010-12-31","actual":1,"longitude":-98.7107737,"plus4":null,"groups with access code":"Public - see hours","government":0,"state":"TX","distance":2.35661683776406},"type":"Feature","geometry":{"type":"Point","coordinates":[-98.7107737,29.4965238]}},{"properties":{"expected date":null,"city":"San Antonio","latitude":29.510763,"zip":"78218","station name":"Valero Corner Store #1055","public":1,"private":0,"id":"2158","street address":"4801 Walzem Rd","station phone":"210-637-0516","date last confirmed":"2010-08-31","actual":1,"longitude":-98.396558,"plus4":null,"groups with access code":"Public - see hours","government":0,"state":"TX","distance":15.5417365894853},"type":"Feature","geometry":{"type":"Point","coordinates":[-98.396558,29.510763]}},{"properties":{"expected date":null,"city":"Universal City","latitude":29.534429,"zip":"78150","station name":"Randolph Air Force Base","public":0,"private":0,"id":"115","street address":"395 B St W","station phone":null,"date last confirmed":"2009-12-03","actual":1,"longitude":-98.285529,"plus4":null,"groups with access code":"Private - government only","government":1,"state":"TX","distance":22.3208432946101},"type":"Feature","geometry":{"type":"Point","coordinates":[-98.285529,29.534429]}},{"properties":{"expected date":null,"city":"Schertz","latitude":29.598406,"zip":"78154","station name":"H-E-B","public":1,"private":0,"id":"402","street address":"17460 IH-35 N","station phone":"210-651-5105","date last confirmed":"2010-10-31","actual":1,"longitude":-98.277917,"plus4":null,"groups with access code":"Public - credit card after hours","government":0,"state":"TX","distance":22.3571807092934},"type":"Feature","geometry":{"type":"Point","coordinates":[-98.277917,29.598406]}},{"properties":{"expected date":null,"city":"New Braunfels","latitude":29.694807,"zip":"78130","station name":"Shell - MidTex","public":1,"private":0,"id":"2121","street address":"1015 S Seguin Ave","station phone":"830-629-4895","date last confirmed":"2011-06-30","actual":1,"longitude":-98.112069,"plus4":null,"groups with access code":"Public - see hours","government":0,"state":"TX","distance":34.357642736016},"type":"Feature","geometry":{"type":"Point","coordinates":[-98.112069,29.694807]}},{"properties":{"expected date":null,"city":"Spring Branch","latitude":29.8503863,"zip":"78070","station name":"Fischers Market #32 - MidTex","public":1,"private":0,"id":"1930","street address":"7765 US Highway 281 N","station phone":"830-904-4040","date last confirmed":"2011-06-30","actual":1,"longitude":-98.4085436,"plus4":null,"groups with access code":"Public - see hours","government":0,"state":"TX","distance":21.9086845013608},"type":"Feature","geometry":{"type":"Point","coordinates":[-98.4085436,29.8503863]}},{"properties":{"expected date":null,"city":"Kerrville","latitude":30.048864,"zip":"78028","station name":"Pit Stop Food Mart - Shell","public":1,"private":0,"id":"2208","street address":"528 Main St","station phone":"830-896-2888","date last confirmed":"2011-06-30","actual":1,"longitude":-99.141547,"plus4":null,"groups with access code":"Public - see hours","government":0,"state":"TX","distance":48.7174551269636},"type":"Feature","geometry":{"type":"Point","coordinates":[-99.141547,30.048864]}},{"properties":{"expected date":null,"city":"White Springs","latitude":30.31458,"zip":"32096","station name":"Gate Petroleum","public":1,"private":0,"id":"1980","street address":"2940 County Road 136","station phone":"386-963-5555","date last confirmed":"2011-06-30","actual":1,"longitude":-82.811343,"plus4":null,"groups with access code":"Public - see hours","government":0,"state":"FL","distance":44.8087283329661},"type":"Feature","geometry":{"type":"Point","coordinates":[-82.811343,30.31458]}},{"properties":{"expected date":null,"city":"Valdosta","latitude":30.9112,"zip":"31605","station name":"Flash Foods","public":1,"private":0,"id":"1610","street address":"4109 Bemis Rd","station phone":"229-249-8845","date last confirmed":"2011-06-30","actual":1,"longitude":-83.2633,"plus4":null,"groups with access code":"Public - see hours","government":0,"state":"GA","distance":14.4015304285401},"type":"Feature","geometry":{"type":"Point","coordinates":[-83.2633,30.9112]}},{"properties":{"expected date":null,"city":"Crowley","latitude":32.564434,"zip":"76036","station name":"Kroger #590","public":1,"private":0,"id":"489","street address":"1004 Crowley Rd","station phone":"817-297-0235","date last confirmed":"2010-10-31","actual":1,"longitude":-97.35391,"plus4":null,"groups with access code":"Public - credit card after hours","government":0,"state":"TX","distance":23.4805671106079},"type":"Feature","geometry":{"type":"Point","coordinates":[-97.35391,32.564434]}},{"properties":{"expected date":null,"city":"Mansfield","latitude":32.607457,"zip":"76063","station name":"Kroger #584","public":1,"private":0,"id":"494","street address":"3001 Matlock Rd","station phone":"817-473-7658","date last confirmed":"2010-10-31","actual":1,"longitude":-97.116418,"plus4":null,"groups with access code":"Public - credit card after hours","government":0,"state":"TX","distance":10.6940631322754},"type":"Feature","geometry":{"type":"Point","coordinates":[-97.116418,32.607457]}},{"properties":{"expected date":null,"city":"Chula Vista","latitude":32.644835,"zip":"91910","station name":"Propel Fuels","public":1,"private":0,"id":"805","street address":"1495 East H St","station phone":"619-421-7600","date last confirmed":"2011-03-31","actual":1,"longitude":-116.999993,"plus4":null,"groups with access code":"Public - credit card at all times","government":0,"state":"CA","distance":17.8503731012503},"type":"Feature","geometry":{"type":"Point","coordinates":[-116.999993,32.644835]}},{"properties":{"expected date":null,"city":"Dallas","latitude":32.696398,"zip":"75216","station name":"Dallas VA Medical Center","public":0,"private":0,"id":"199","street address":"4500 S Lancaster Rd","station phone":null,"date last confirmed":"2010-12-31","actual":1,"longitude":-96.786858,"plus4":null,"groups with access code":"Private - government only","government":1,"state":"TX","distance":20.2167168442173},"type":"Feature","geometry":{"type":"Point","coordinates":[-96.786858,32.696398]}},{"properties":{"expected date":null,"city":"San Diego","latitude":32.7550904,"zip":"92105","station name":"Pearson Fuels","public":1,"private":0,"id":"306","street address":"4067 El Cajon Blvd","station phone":"619-243-0456","date last confirmed":"2010-10-31","actual":1,"longitude":-117.1078743,"plus4":null,"groups with access code":"Public - credit card after hours","government":0,"state":"CA","distance":8.45920870946221},"type":"Feature","geometry":{"type":"Point","coordinates":[-117.1078743,32.7550904]}},{"properties":{"expected date":null,"city":"North Richland Hills","latitude":32.850497,"zip":"76180","station name":"Kroger #582","public":1,"private":0,"id":"477","street address":"9135 Boulevard 26","station phone":"817-605-3392","date last confirmed":"2010-10-31","actual":1,"longitude":-97.193105,"plus4":null,"groups with access code":"Public - credit card after hours","government":0,"state":"TX","distance":10.9676528525675},"type":"Feature","geometry":{"type":"Point","coordinates":[-97.193105,32.850497]}},{"properties":{"expected date":"2011-09-01","city":"San Diego","latitude":32.887588,"zip":"92145","station name":"Miramar Marine Corps Air Station","public":0,"private":0,"id":"12","street address":"Bauer Rd &amp; Gonsalves Ave","station phone":null,"date last confirmed":"2011-02-28","actual":0,"longitude":-117.1293781,"plus4":null,"groups with access code":"PLANNED - not yet accessible","government":0,"state":"CA","distance":10.0004740753633},"type":"Feature","geometry":{"type":"Point","coordinates":[-117.1293781,32.887588]}},{"properties":{"expected date":null,"city":"Irving","latitude":32.90805,"zip":"75063","station name":"Kroger #577","public":1,"private":0,"id":"1111","street address":"7505 N MacArthur Blvd","station phone":"972-831-8357","date last confirmed":"2010-10-31","actual":1,"longitude":-96.95932,"plus4":null,"groups with access code":"Public - see hours","government":0,"state":"TX","distance":13.4818251925106},"type":"Feature","geometry":{"type":"Point","coordinates":[-96.95932,32.90805]}},{"properties":{"expected date":null,"city":"Grapevine","latitude":32.910206,"zip":"76051","station name":"Clean Fuel USA","public":1,"private":0,"id":"635","street address":"2501 William D Tate","station phone":"817-410-6184","date last confirmed":"2010-11-30","actual":1,"longitude":-97.096408,"plus4":null,"groups with access code":"Public - credit card after hours","government":0,"state":"TX","distance":11.2303511818474},"type":"Feature","geometry":{"type":"Point","coordinates":[-97.096408,32.910206]}},{"properties":{"expected date":null,"city":"Grapevine","latitude":32.921231,"zip":"76051","station name":"Classic Clean Fuels","public":1,"private":0,"id":"527","street address":"101 W Highway 114","station phone":"800-371-1560","date last confirmed":"2010-10-31","actual":1,"longitude":-97.07894,"plus4":null,"groups with access code":"Public - credit card after hours","government":0,"state":"TX","distance":11.8690164082401},"type":"Feature","geometry":{"type":"Point","coordinates":[-97.07894,32.921231]}},{"properties":{"expected date":"2011-08-01","city":"Hillsboro","latitude":32.9437717,"zip":"76645","station name":"Willie's Place","public":0,"private":0,"id":"9","street address":"101 Cornelius Rd S","station phone":"254-582-8433","date last confirmed":"2010-12-31","actual":0,"longitude":-96.4296518,"plus4":null,"groups with access code":"PLANNED - not yet accessible","government":0,"state":"TX","distance":46.4911328439508},"type":"Feature","geometry":{"type":"Point","coordinates":[-96.4296518,32.9437717]}},{"properties":{"expected date":null,"city":"Sachse","latitude":32.968266,"zip":"75048","station name":"Kroger #461","public":1,"private":0,"id":"474","street address":"5190 Highway 78","station phone":"972-675-2111","date last confirmed":"2010-06-30","actual":1,"longitude":-96.604047,"plus4":null,"groups with access code":"Public - credit card after hours","government":0,"state":"TX","distance":35.7435649652575},"type":"Feature","geometry":{"type":"Point","coordinates":[-96.604047,32.968266]}},{"properties":{"expected date":null,"city":"Dallas","latitude":32.998112,"zip":"75287","station name":"Kroger #587","public":1,"private":0,"id":"480","street address":"3939 Frankford Rd","station phone":"972-662-1000","date last confirmed":"2010-10-31","actual":1,"longitude":-96.846148,"plus4":null,"groups with access code":"Public - credit card after hours","government":0,"state":"TX","distance":23.2354894669933},"type":"Feature","geometry":{"type":"Point","coordinates":[-96.846148,32.998112]}},{"properties":{"expected date":null,"city":"Carrollton","latitude":33.01925,"zip":"75007","station name":"Kroger #460","public":1,"private":0,"id":"1120","street address":"4038 Old Denton Rd","station phone":"972-512-3356","date last confirmed":"2010-10-31","actual":1,"longitude":-96.913843,"plus4":null,"groups with access code":"Public - see hours","government":0,"state":"TX","distance":21.6223775351948},"type":"Feature","geometry":{"type":"Point","coordinates":[-96.913843,33.01925]}},{"properties":{"expected date":null,"city":"Plano","latitude":33.110663,"zip":"75025","station name":"Kroger #598","public":1,"private":0,"id":"411","street address":"9732 Coit Rd","station phone":"214-705-9072","date last confirmed":"2010-10-31","actual":1,"longitude":-96.76769,"plus4":null,"groups with access code":"Public - credit card after hours","government":0,"state":"TX","distance":32.6692540196139},"type":"Feature","geometry":{"type":"Point","coordinates":[-96.76769,33.110663]}},{"properties":{"expected date":null,"city":"Carlsbad","latitude":33.127865,"zip":"92009","station name":"Shell - Bressi Ranch - Pearson Fuels","public":1,"private":0,"id":"1483","street address":"2741 Gateway Rd","station phone":"760-431-2741","date last confirmed":"2010-10-31","actual":1,"longitude":-117.251448,"plus4":null,"groups with access code":"Public - see hours","government":0,"state":"CA","distance":4.475832268811},"type":"Feature","geometry":{"type":"Point","coordinates":[-117.251448,33.127865]}},{"properties":{"expected date":null,"city":"Denton","latitude":33.178339,"zip":"76205","station name":"Martin Eagle Oil Company","public":1,"private":0,"id":"763","street address":"2700 James St","station phone":"940-383-2351","date last confirmed":"2010-10-31","actual":1,"longitude":-97.142362,"plus4":null,"groups with access code":"Public - credit card at all times","government":0,"state":"TX","distance":29.9456924559468},"type":"Feature","geometry":{"type":"Point","coordinates":[-97.142362,33.178339]}},{"properties":{"expected date":null,"city":"Oceanside","latitude":33.189251,"zip":"92054","station name":"The Oceansider - Texaco - Pearson Fuels","public":1,"private":0,"id":"1485","street address":"1660 Oceanside Blvd","station phone":"760-722-1304","date last confirmed":"2010-10-31","actual":1,"longitude":-117.364311,"plus4":null,"groups with access code":"Public - see hours","government":0,"state":"CA","distance":3.84879477579669},"type":"Feature","geometry":{"type":"Point","coordinates":[-117.364311,33.189251]}},{"properties":{"expected date":null,"city":"Griffin","latitude":33.2502538,"zip":"30223","station name":"Willis BP Amoco","public":1,"private":0,"id":"1925","street address":"103 S 8th St","station phone":"770-227-5724","date last confirmed":"2011-06-30","actual":1,"longitude":-84.2654525,"plus4":null,"groups with access code":"Public - see hours","government":0,"state":"GA","distance":41.2426926991716},"type":"Feature","geometry":{"type":"Point","coordinates":[-84.2654525,33.2502538]}},{"properties":{"expected date":null,"city":"Camp Pendleton","latitude":33.298722,"zip":"92055","station name":"Camp Pendleton Marine Corps Base","public":0,"private":1,"id":"267","street address":"Vandegrift Blvd","station phone":null,"date last confirmed":"2011-02-28","actual":1,"longitude":-117.347685,"plus4":null,"groups with access code":"Private access only","government":0,"state":"CA","distance":11.4358673230595},"type":"Feature","geometry":{"type":"Point","coordinates":[-117.347685,33.298722]}},{"properties":{"expected date":null,"city":"Newnan","latitude":33.3832574,"zip":"30263","station name":"Silver Star Chevron","public":1,"private":0,"id":"2325","street address":"165 Temple Ave","station phone":"770-683-2732","date last confirmed":"2011-06-30","actual":1,"longitude":-84.814186,"plus4":null,"groups with access code":"Public - see hours","government":0,"state":"GA","distance":32.3651174702842},"type":"Feature","geometry":{"type":"Point","coordinates":[-84.814186,33.3832574]}},{"properties":{"expected date":null,"city":"Fairburn","latitude":33.5288254,"zip":"30213","station name":"Fairburn Family Travel Center","public":1,"private":0,"id":"1691","street address":"7860 Senoia Rd","station phone":"770-306-8319","date last confirmed":"2011-06-30","actual":1,"longitude":-84.5759924,"plus4":null,"groups with access code":"Public - see hours","government":0,"state":"GA","distance":17.0190251650128},"type":"Feature","geometry":{"type":"Point","coordinates":[-84.5759924,33.5288254]}},{"properties":{"expected date":null,"city":"Jonesboro","latitude":33.538563,"zip":"30236","station name":"Texaco","public":1,"private":0,"id":"1581","street address":"7915 Jonesboro Rd","station phone":"770-210-0404","date last confirmed":"2011-06-30","actual":1,"longitude":-84.351558,"plus4":null,"groups with access code":"Public - see hours","government":0,"state":"GA","distance":21.4181725473066},"type":"Feature","geometry":{"type":"Point","coordinates":[-84.351558,33.538563]}},{"properties":{"expected date":null,"city":"Rex","latitude":33.577705,"zip":"30273","station name":"Chevron","public":1,"private":0,"id":"1583","street address":"6448 Highway 42","station phone":"770-474-1084","date last confirmed":"2011-06-30","actual":1,"longitude":-84.282558,"plus4":null,"groups with access code":"Public - see hours","government":0,"state":"GA","distance":23.0828171272849},"type":"Feature","geometry":{"type":"Point","coordinates":[-84.282558,33.577705]}},{"properties":{"expected date":null,"city":"Union City","latitude":33.585972,"zip":"30291","station name":"Chevron","public":1,"private":0,"id":"1570","street address":"3850 Flat Shoals Rd","station phone":"770-969-8036","date last confirmed":"2011-06-30","actual":1,"longitude":-84.5157658,"plus4":null,"groups with access code":"Public - see hours","government":0,"state":"GA","distance":13.1846463797538},"type":"Feature","geometry":{"type":"Point","coordinates":[-84.5157658,33.585972]}},{"properties":{"expected date":null,"city":"Forest Park","latitude":33.6273446,"zip":"30297","station name":"Georgia Power","public":0,"private":1,"id":"235","street address":"112 Lake Mirror Rd","station phone":null,"date last confirmed":"2011-06-30","actual":1,"longitude":-84.391835,"plus4":null,"groups with access code":"Private access only","government":0,"state":"GA","distance":15.0845734796239},"type":"Feature","geometry":{"type":"Point","coordinates":[-84.391835,33.6273446]}},{"properties":{"expected date":null,"city":"Conyers","latitude":33.667966,"zip":"30012","station name":"Chevron","public":1,"private":0,"id":"1579","street address":"1113 West Ave","station phone":"770-483-1155","date last confirmed":"2011-06-30","actual":1,"longitude":-84.025176,"plus4":null,"groups with access code":"Public - see hours","government":0,"state":"GA","distance":37.125613819066},"type":"Feature","geometry":{"type":"Point","coordinates":[-84.025176,33.667966]}},{"properties":{"expected date":null,"city":"Bremen","latitude":33.693184,"zip":"30110","station name":"SuperMart Shell","public":1,"private":0,"id":"1890","street address":"153 US Highway 27","station phone":"770-537-1326","date last confirmed":"2011-06-30","actual":1,"longitude":-85.152927,"plus4":null,"groups with access code":"Public - see hours","government":0,"state":"GA","distance":41.986652540813},"type":"Feature","geometry":{"type":"Point","coordinates":[-85.152927,33.693184]}},{"properties":{"expected date":null,"city":"Lithonia","latitude":33.700012,"zip":"30038","station name":"Georgia Power","public":0,"private":1,"id":"233","street address":"5195 Minola Dr","station phone":null,"date last confirmed":"2011-06-30","actual":1,"longitude":-84.1782829,"plus4":null,"groups with access code":"Private access only","government":0,"state":"GA","distance":26.3996979652184},"type":"Feature","geometry":{"type":"Point","coordinates":[-84.1782829,33.700012]}},{"properties":{"expected date":null,"city":"Atlanta","latitude":33.7454738,"zip":"30303","station name":"PS Energy - UFO","public":0,"private":1,"id":"53","street address":"340 Whitehall St SW","station phone":"404-321-5711","date last confirmed":"2011-06-30","actual":1,"longitude":-84.4000209,"plus4":3718,"groups with access code":"Private - fleet customers only","government":0,"state":"GA","distance":10.8722408065878},"type":"Feature","geometry":{"type":"Point","coordinates":[-84.4000209,33.7454738]}},{"properties":{"expected date":null,"city":"Atlanta","latitude":33.747451,"zip":"30317","station name":"GasXpress Exxon","public":1,"private":0,"id":"1992","street address":"202 Candler Rd","station phone":"404-687-9455","date last confirmed":"2011-06-30","actual":1,"longitude":-84.291712,"plus4":null,"groups with access code":"Public - see hours","government":0,"state":"GA","distance":18.2932058381298},"type":"Feature","geometry":{"type":"Point","coordinates":[-84.291712,33.747451]}},{"properties":{"expected date":null,"city":"Atlanta","latitude":33.7668878,"zip":"30316","station name":"Georgia Power","public":0,"private":1,"id":"234","street address":"760 Ralph McGill Blvd","station phone":null,"date last confirmed":"2011-06-30","actual":1,"longitude":-84.3626298,"plus4":null,"groups with access code":"Private access only","government":0,"state":"GA","distance":13.2940005393577},"type":"Feature","geometry":{"type":"Point","coordinates":[-84.3626298,33.7668878]}},{"properties":{"expected date":null,"city":"Lithia Springs","latitude":33.767381,"zip":"30122","station name":"Chevron","public":1,"private":0,"id":"2324","street address":"1365 Lee Rd","station phone":"770-745-6831","date last confirmed":"2011-06-30","actual":1,"longitude":-84.652042,"plus4":3018,"groups with access code":"Public - see hours","government":0,"state":"GA","distance":7.10425921645332},"type":"Feature","geometry":{"type":"Point","coordinates":[-84.652042,33.767381]}},{"properties":{"expected date":null,"city":"Atlanta","latitude":33.7761949,"zip":"30318","station name":"Georgia Power","public":0,"private":1,"id":"263","street address":"829 Jefferson St","station phone":null,"date last confirmed":"2011-06-30","actual":1,"longitude":-84.4144814,"plus4":null,"groups with access code":"Private access only","government":0,"state":"GA","distance":9.74303325116129},"type":"Feature","geometry":{"type":"Point","coordinates":[-84.4144814,33.7761949]}},{"properties":{"expected date":null,"city":"Harbor City","latitude":33.812608,"zip":"90710","station name":"Propel Fuels - Harbor City","public":1,"private":0,"id":"807","street address":"1250 Sepulveda Blvd","station phone":"800-871-0773","date last confirmed":"2011-05-31","actual":1,"longitude":-118.297831,"plus4":null,"groups with access code":"Public - credit card at all times","government":0,"state":"CA","distance":17.5231755199181},"type":"Feature","geometry":{"type":"Point","coordinates":[-118.297831,33.812608]}},{"properties":{"expected date":null,"city":"Atlanta","latitude":33.8142248,"zip":"30312","station name":"AM/PM BP","public":1,"private":0,"id":"2378","street address":"2193 Peachtree Rd NW","station phone":"404-355-3323","date last confirmed":"2011-06-30","actual":1,"longitude":-84.3920568,"plus4":null,"groups with access code":"Public - see hours","government":0,"state":"GA","distance":11.690410641691},"type":"Feature","geometry":{"type":"Point","coordinates":[-84.3920568,33.8142248]}},{"properties":{"expected date":null,"city":"Buckhead","latitude":33.8234,"zip":"30324","station name":"Chevron Food Mart","public":1,"private":0,"id":"1926","street address":"639 Morosgo Dr","station phone":"404-549-9740","date last confirmed":"2011-06-30","actual":1,"longitude":-84.3673,"plus4":null,"groups with access code":"Public - see hours","government":0,"state":"GA","distance":13.5081178882665},"type":"Feature","geometry":{"type":"Point","coordinates":[-84.3673,33.8234]}},{"properties":{"expected date":null,"city":"Stone Mountain","latitude":33.825961,"zip":"30083","station name":"Texaco","public":1,"private":0,"id":"1584","street address":"1525 Mountain Industrial","station phone":"770-493-9107","date last confirmed":"2011-06-30","actual":1,"longitude":-84.195513,"plus4":null,"groups with access code":"Public - see hours","government":0,"state":"GA","distance":25.1094838773758},"type":"Feature","geometry":{"type":"Point","coordinates":[-84.195513,33.825961]}},{"properties":{"expected date":null,"city":"Atlanta","latitude":33.8375219,"zip":"30329","station name":"Chevron","public":1,"private":0,"id":"1577","street address":"2755 Clairmont Rd","station phone":"404-321-2712","date last confirmed":"2011-06-30","actual":1,"longitude":-84.3118921,"plus4":null,"groups with access code":"Public - see hours","government":0,"state":"GA","distance":17.4479084112378},"type":"Feature","geometry":{"type":"Point","coordinates":[-84.3118921,33.8375219]}},{"properties":{"expected date":null,"city":"Perris","latitude":33.841,"zip":"92570","station name":"Union 76 - Pearson Fuels","public":1,"private":0,"id":"1951","street address":"19248 Harvill Ave","station phone":"951-940-9855","date last confirmed":"2010-06-30","actual":1,"longitude":-117.25447,"plus4":null,"groups with access code":"Public - see hours","government":0,"state":"CA","distance":45.9697016309967},"type":"Feature","geometry":{"type":"Point","coordinates":[-117.25447,33.841]}},{"properties":{"expected date":null,"city":"Smyrna","latitude":33.8444058,"zip":"30080","station name":"Texaco Food Mart","public":1,"private":0,"id":"1504","street address":"4495 S Cobb Dr","station phone":"770-434-9569","date last confirmed":"2011-06-30","actual":1,"longitude":-84.5016019,"plus4":null,"groups with access code":"Public - see hours","government":0,"state":"GA","distance":6.3803797666037},"type":"Feature","geometry":{"type":"Point","coordinates":[-84.5016019,33.8444058]}},{"properties":{"expected date":null,"city":"Tucker","latitude":33.848644,"zip":"30084","station name":"BP","public":1,"private":0,"id":"2309","street address":"4615 Hugh Howell Rd","station phone":"770-674-4753","date last confirmed":"2011-06-30","actual":1,"longitude":-84.200385,"plus4":null,"groups with access code":"Public - see hours","government":0,"state":"GA","distance":25.0303134602956},"type":"Feature","geometry":{"type":"Point","coordinates":[-84.200385,33.848644]}},{"properties":{"expected date":"2011-12-31","city":"Doraville","latitude":33.924112,"zip":"30360","station name":"Shell Nirvana Food Mart","public":0,"private":0,"id":"18","street address":"6400 Peachtree Industrial Blvd","station phone":"770-458-8009","date last confirmed":"2011-06-30","actual":0,"longitude":-84.281218,"plus4":null,"groups with access code":"PLANNED - not yet accessible","government":0,"state":"GA","distance":21.7163591854638},"type":"Feature","geometry":{"type":"Point","coordinates":[-84.281218,33.924112]}},{"properties":{"expected date":null,"city":"Sandy Springs","latitude":33.924121,"zip":"30328","station name":"Chevron","public":1,"private":0,"id":"2326","street address":"295 Mount Vernon Hwy NE","station phone":"678-732-9540","date last confirmed":"2011-06-30","actual":1,"longitude":-84.377565,"plus4":3918,"groups with access code":"Public - see hours","government":0,"state":"GA","distance":16.2648188691338},"type":"Feature","geometry":{"type":"Point","coordinates":[-84.377565,33.924121]}},{"properties":{"expected date":null,"city":"Lawrenceville","latitude":33.9323441,"zip":"30045","station name":"Safa Express BP","public":1,"private":0,"id":"1582","street address":"725 Grayson Hwy","station phone":"770-277-1119","date last confirmed":"2011-06-30","actual":1,"longitude":-83.9771992,"plus4":null,"groups with access code":"Public - see hours","government":0,"state":"GA","distance":41.4368933679625},"type":"Feature","geometry":{"type":"Point","coordinates":[-83.9771992,33.9323441]}},{"properties":{"expected date":null,"city":"Duluth","latitude":33.950201,"zip":"30096","station name":"Chevron Food Mart","public":1,"private":0,"id":"2402","street address":"1843 Pleasant Hill Rd","station phone":"770-381-1585","date last confirmed":"2011-06-30","actual":1,"longitude":-84.1288378,"plus4":null,"groups with access code":"Public - see hours","government":0,"state":"GA","distance":31.8335886227119},"type":"Feature","geometry":{"type":"Point","coordinates":[-84.1288378,33.950201]}},{"properties":{"expected date":null,"city":"Atlanta","latitude":33.954948,"zip":"30328","station name":"North Spring Shell","public":1,"private":0,"id":"1889","street address":"7325 Roswell Rd","station phone":"770-394-1604","date last confirmed":"2011-06-30","actual":1,"longitude":-84.364464,"plus4":null,"groups with access code":"Public - see hours","government":0,"state":"GA","distance":18.3121657005976},"type":"Feature","geometry":{"type":"Point","coordinates":[-84.364464,33.954948]}},{"properties":{"expected date":null,"city":"Atlanta","latitude":33.9597447,"zip":"30350","station name":"Chevron","public":1,"private":0,"id":"1580","street address":"4249 Dunwoody Club Dr","station phone":"770-901-9334","date last confirmed":"2011-06-30","actual":1,"longitude":-84.2965346,"plus4":null,"groups with access code":"Public - see hours","government":0,"state":"GA","distance":22.1437874597599},"type":"Feature","geometry":{"type":"Point","coordinates":[-84.2965346,33.9597447]}},{"properties":{"expected date":null,"city":"Los Angeles","latitude":34.05398,"zip":"90049","station name":"Conserv Fuel","public":1,"private":0,"id":"1484","street address":"11699 San Vicente Blvd","station phone":"310-571-0039","date last confirmed":"2010-02-28","actual":1,"longitude":-118.4656,"plus4":null,"groups with access code":"Public - see hours","government":0,"state":"CA","distance":9.80113296804264},"type":"Feature","geometry":{"type":"Point","coordinates":[-118.4656,34.05398]}},{"properties":{"expected date":null,"city":"Buford","latitude":34.085655,"zip":"30519","station name":"Citgo","public":1,"private":0,"id":"1578","street address":"3820 Buford Dr","station phone":"770-614-1791","date last confirmed":"2011-06-30","actual":1,"longitude":-83.9924319,"plus4":null,"groups with access code":"Public - see hours","government":0,"state":"GA","distance":44.5349464045815},"type":"Feature","geometry":{"type":"Point","coordinates":[-83.9924319,34.085655]}},{"properties":{"expected date":null,"city":"Pomona","latitude":34.107634,"zip":"91767","station name":"Foothill Chevron - Pearson Fuels","public":1,"private":0,"id":"1964","street address":"100 W Foothill Blvd","station phone":"909-593-1502","date last confirmed":"2011-03-31","actual":1,"longitude":-117.749025,"plus4":null,"groups with access code":"Public - see hours","government":0,"state":"CA","distance":23.3650046342859},"type":"Feature","geometry":{"type":"Point","coordinates":[-117.749025,34.107634]}},{"properties":{"expected date":null,"city":"Arcadia","latitude":34.139765,"zip":"91006","station name":"Chevron - Propel Fuels","public":1,"private":0,"id":"804","street address":"102 E Huntington Dr","station phone":"626-446-7423","date last confirmed":"2011-03-31","actual":1,"longitude":-118.027928,"plus4":null,"groups with access code":"Public - credit card at all times","government":0,"state":"CA","distance":17.0810901403901},"type":"Feature","geometry":{"type":"Point","coordinates":[-118.027928,34.139765]}},{"properties":{"expected date":null,"city":"Ventura","latitude":34.248013,"zip":"93003","station name":"Silvas Oil Company - Pearson Fuels","public":1,"private":0,"id":"770","street address":"6417 Ventura Blvd","station phone":"805-288-5477","date last confirmed":"2010-11-30","actual":1,"longitude":-119.199978,"plus4":null,"groups with access code":"Public - credit card at all times","government":0,"state":"CA","distance":44.3340909626609},"type":"Feature","geometry":{"type":"Point","coordinates":[-119.199978,34.248013]}},{"properties":{"expected date":null,"city":"Rock Hill","latitude":34.9139514,"zip":"29730","station name":"Exxon","public":1,"private":0,"id":"2192","street address":"1055 S Anderson Rd","station phone":"803-366-5322","date last confirmed":"2011-06-30","actual":1,"longitude":-80.9842811,"plus4":null,"groups with access code":"Public - see hours","government":0,"state":"SC","distance":13.3021337483798},"type":"Feature","geometry":{"type":"Point","coordinates":[-80.9842811,34.9139514]}},{"properties":{"expected date":"2011-08-15","city":"Rock Hill","latitude":34.9214195,"zip":"29730","station name":"City of Rock Hill","public":0,"private":0,"id":"42","street address":"757 S Anderson Rd","station phone":"803-329-5551","date last confirmed":"2011-04-30","actual":0,"longitude":-80.9927288,"plus4":null,"groups with access code":"PLANNED - not yet accessible","government":0,"state":"SC","distance":12.9416868167206},"type":"Feature","geometry":{"type":"Point","coordinates":[-80.9927288,34.9214195]}},{"properties":{"expected date":null,"city":"Rock Hill","latitude":34.9379597,"zip":"29730","station name":"City of Rock Hill","public":0,"private":0,"id":"140","street address":"349 Columbia Ave","station phone":"803-329-5551","date last confirmed":"2011-04-30","actual":1,"longitude":-81.0347375,"plus4":3505,"groups with access code":"Private - government only","government":1,"state":"SC","distance":12.9083833165758},"type":"Feature","geometry":{"type":"Point","coordinates":[-81.0347375,34.9379597]}},{"properties":{"expected date":null,"city":"Sharon","latitude":34.9486772,"zip":"29742","station name":"Brownie's Marathon","public":1,"private":0,"id":"1309","street address":"3864 York St","station phone":"803-927-7202","date last confirmed":"2011-04-30","actual":1,"longitude":-81.3411016,"plus4":null,"groups with access code":"Public - see hours","government":0,"state":"SC","distance":29.1096811207286},"type":"Feature","geometry":{"type":"Point","coordinates":[-81.3411016,34.9486772]}},{"properties":{"expected date":"2011-07-01","city":"Fort Mill","latitude":35.008779,"zip":"29715","station name":"Fairway Fuel","public":0,"private":0,"id":"2","street address":"1290 Tom Hall St","station phone":"803-548-2074","date last confirmed":"2011-04-30","actual":0,"longitude":-80.9178137,"plus4":null,"groups with access code":"PLANNED - not yet accessible","government":0,"state":"SC","distance":6.95947737763782},"type":"Feature","geometry":{"type":"Point","coordinates":[-80.9178137,35.008779]}},{"properties":{"expected date":null,"city":"Rock Hill","latitude":35.017176,"zip":"29732","station name":"Exxon","public":1,"private":0,"id":"2207","street address":"1308 N Cherry Rd","station phone":"803-366-1004","date last confirmed":"2011-06-30","actual":1,"longitude":-81.015413,"plus4":null,"groups with access code":"Public - see hours","government":0,"state":"SC","distance":7.56981304053764},"type":"Feature","geometry":{"type":"Point","coordinates":[-81.015413,35.017176]}},{"properties":{"expected date":null,"city":"Fort Mill","latitude":35.0304829,"zip":"29715","station name":"Times Oil - BP","public":1,"private":0,"id":"1090","street address":"1010 Carolina Place Dr","station phone":"803-548-5440","date last confirmed":"2011-04-30","actual":1,"longitude":-80.9672173,"plus4":null,"groups with access code":"Public - see hours","government":0,"state":"SC","distance":5.23247311573139},"type":"Feature","geometry":{"type":"Point","coordinates":[-80.9672173,35.0304829]}},{"properties":{"expected date":null,"city":"Charlotte","latitude":35.2146413,"zip":"28215","station name":"R&amp;K Express - BP","public":1,"private":0,"id":"2005","street address":"8712 Pence Rd","station phone":"704-532-4136","date last confirmed":"2011-04-30","actual":1,"longitude":-80.6881344,"plus4":null,"groups with access code":"Public - see hours","government":0,"state":"NC","distance":19.8613577013516},"type":"Feature","geometry":{"type":"Point","coordinates":[-80.6881344,35.2146413]}},{"properties":{"expected date":null,"city":"Charlotte","latitude":35.2710579,"zip":"28213","station name":"North Carolina DOT","public":0,"private":0,"id":"202","street address":"7901 District Dr","station phone":null,"date last confirmed":"2011-05-31","actual":1,"longitude":-80.734363,"plus4":null,"groups with access code":"Private - government only","government":1,"state":"NC","distance":19.1783172685969},"type":"Feature","geometry":{"type":"Point","coordinates":[-80.734363,35.2710579]}},{"properties":{"expected date":null,"city":"Shelby","latitude":35.272726,"zip":"28152","station name":"Gasland USA #7","public":1,"private":0,"id":"1009","street address":"1801 E Dixon Blvd","station phone":"704-484-9175","date last confirmed":"2011-04-30","actual":1,"longitude":-81.496491,"plus4":null,"groups with access code":"Public - see hours","government":0,"state":"NC","distance":39.7602252520766},"type":"Feature","geometry":{"type":"Point","coordinates":[-81.496491,35.272726]}},{"properties":{"expected date":null,"city":"Shelby","latitude":35.27821,"zip":"28152","station name":"Gasland USA #3 - Thomas Petroleum","public":1,"private":0,"id":"971","street address":"919 S Lafayette St","station phone":"704-480-9733","date last confirmed":"2011-04-30","actual":1,"longitude":-81.54273,"plus4":null,"groups with access code":"Public - see hours","government":0,"state":"NC","distance":42.9219030981205},"type":"Feature","geometry":{"type":"Point","coordinates":[-81.54273,35.27821]}},{"properties":{"expected date":null,"city":"Cherryville","latitude":35.385745,"zip":"28021","station name":"Gasland USA","public":1,"private":0,"id":"2457","street address":"1008 E Church St","station phone":"704-435-5770","date last confirmed":"2011-06-30","actual":1,"longitude":-81.367772,"plus4":null,"groups with access code":"Public - see hours","government":0,"state":"NC","distance":34.9874479471371},"type":"Feature","geometry":{"type":"Point","coordinates":[-81.367772,35.385745]}},{"properties":{"expected date":null,"city":"Knoxville","latitude":35.8602164,"zip":"37922","station name":"Pilot Food Mart #104","public":1,"private":0,"id":"1522","street address":"9550 Northshore Dr","station phone":"865-692-9751","date last confirmed":"2011-05-31","actual":1,"longitude":-84.0703195,"plus4":null,"groups with access code":"Public - see hours","government":0,"state":"TN","distance":37.3947323900263},"type":"Feature","geometry":{"type":"Point","coordinates":[-84.0703195,35.8602164]}},{"properties":{"expected date":null,"city":"Knoxville","latitude":35.9245925,"zip":"37923","station name":"Pilot Food Mart #105","public":1,"private":0,"id":"1407","street address":"205 Walker Springs Rd","station phone":"865-694-8160","date last confirmed":"2011-05-31","actual":1,"longitude":-84.0660205,"plus4":null,"groups with access code":"Public - see hours","government":0,"state":"TN","distance":37.8626672785873},"type":"Feature","geometry":{"type":"Point","coordinates":[-84.0660205,35.9245925]}},{"properties":{"expected date":null,"city":"Newport","latitude":35.949902,"zip":"37821","station name":"Zoomerz #59 - Exxon","public":1,"private":0,"id":"1950","street address":"905 Cosby Hwy","station phone":"423-623-4724","date last confirmed":"2011-05-31","actual":1,"longitude":-83.202626,"plus4":null,"groups with access code":"Public - see hours","government":0,"state":"TN","distance":25.5475615068903},"type":"Feature","geometry":{"type":"Point","coordinates":[-83.202626,35.949902]}},{"properties":{"expected date":null,"city":"Knoxville","latitude":35.998402,"zip":"37914","station name":"Pilot Travel Center #219","public":1,"private":0,"id":"2070","street address":"7210 Strawberry Plains Pike","station phone":"865-544-1067","date last confirmed":"2011-05-31","actual":1,"longitude":-83.778289,"plus4":null,"groups with access code":"Public - see hours","government":0,"state":"TN","distance":22.1126900056854},"type":"Feature","geometry":{"type":"Point","coordinates":[-83.778289,35.998402]}},{"properties":{"expected date":null,"city":"Knoxville","latitude":36.000275,"zip":"37914","station name":"TDOT District 15 - Region 1","public":0,"private":0,"id":"208","street address":"1045 Maintenance Ln","station phone":"865-594-2718","date last confirmed":"2011-05-31","actual":1,"longitude":-83.7721561,"plus4":null,"groups with access code":"Private - government only","government":1,"state":"TN","distance":21.8676609331756},"type":"Feature","geometry":{"type":"Point","coordinates":[-83.7721561,36.000275]}},{"properties":{"expected date":null,"city":"Knoxville","latitude":36.0021715,"zip":"37914","station name":"TDOT - Region 1","public":0,"private":0,"id":"207","street address":"7345 Region Ln","station phone":"865-594-2403","date last confirmed":"2011-05-31","actual":1,"longitude":-83.77195,"plus4":null,"groups with access code":"Private - government only","government":1,"state":"TN","distance":21.9396547668943},"type":"Feature","geometry":{"type":"Point","coordinates":[-83.77195,36.0021715]}},{"properties":{"expected date":null,"city":"Halls","latitude":36.080842,"zip":"37918","station name":"Coffman Oil SmartServ","public":1,"private":0,"id":"2069","street address":"7132 Maynardville Pike","station phone":"865-922-7245","date last confirmed":"2011-05-31","actual":1,"longitude":-83.9271447,"plus4":null,"groups with access code":"Public - see hours","government":0,"state":"TN","distance":33.6563188246075},"type":"Feature","geometry":{"type":"Point","coordinates":[-83.9271447,36.080842]}},{"properties":{"expected date":null,"city":"Clinton","latitude":36.168164,"zip":"37716","station name":"Weigel's #64","public":1,"private":0,"id":"1708","street address":"2409 N Charles G Seivers Blvd","station phone":"865-494-7970","date last confirmed":"2011-05-31","actual":1,"longitude":-84.0804492,"plus4":null,"groups with access code":"Public - see hours","government":0,"state":"TN","distance":45.650755262981},"type":"Feature","geometry":{"type":"Point","coordinates":[-84.0804492,36.168164]}},{"properties":{"expected date":null,"city":"Bulls Gap","latitude":36.2248999,"zip":"37711","station name":"Zoomerz #68","public":1,"private":0,"id":"1942","street address":"13425 Andrew Johnson Hwy","station phone":"423-235-2202","date last confirmed":"2011-05-31","actual":1,"longitude":-83.048883,"plus4":null,"groups with access code":"Public - see hours","government":0,"state":"TN","distance":45.0253425062944},"type":"Feature","geometry":{"type":"Point","coordinates":[-83.048883,36.2248999]}},{"properties":{"expected date":null,"city":"Portsmouth","latitude":36.817133,"zip":"23709","station name":"Norfolk Naval Shipyard","public":0,"private":0,"id":"107","street address":null,"station phone":null,"date last confirmed":"2009-12-03","actual":1,"longitude":-76.300781,"plus4":null,"groups with access code":"Private - government only","government":1,"state":"VA","distance":37.7515851794403},"type":"Feature","geometry":{"type":"Point","coordinates":[-76.300781,36.817133]}},{"properties":{"expected date":null,"city":"Norfolk","latitude":36.941557,"zip":"23511","station name":"Norfolk Naval Exchange Air Station","public":1,"private":0,"id":"764","street address":"Mall Dr","station phone":"757-440-2265","date last confirmed":"2011-06-30","actual":1,"longitude":-76.31294,"plus4":null,"groups with access code":"Public - credit card at all times","government":0,"state":"VA","distance":30.9153683484156},"type":"Feature","geometry":{"type":"Point","coordinates":[-76.31294,36.941557]}},{"properties":{"expected date":null,"city":"Hampton","latitude":37.097728,"zip":"23681","station name":"Langley Research Center","public":0,"private":0,"id":"101","street address":"2 E Ames St","station phone":null,"date last confirmed":"2010-12-31","actual":1,"longitude":-76.383423,"plus4":null,"groups with access code":"Private - government only","government":1,"state":"VA","distance":20.7012121913503},"type":"Feature","geometry":{"type":"Point","coordinates":[-76.383423,37.097728]}},{"properties":{"expected date":null,"city":"Yorktown","latitude":37.2590734,"zip":"23691","station name":"Yorktown Naval Weapons Station","public":0,"private":0,"id":"108","street address":null,"station phone":null,"date last confirmed":"2009-12-03","actual":1,"longitude":-76.557493,"plus4":null,"groups with access code":"Private - government only","government":1,"state":"VA","distance":6.39161345880891},"type":"Feature","geometry":{"type":"Point","coordinates":[-76.557493,37.2590734]}},{"properties":{"expected date":null,"city":"San Jose","latitude":37.2753771,"zip":"95136","station name":"Propel Fuels","public":1,"private":0,"id":"777","street address":"735 W Capitol Expy","station phone":"800-871-0773","date last confirmed":"2011-01-31","actual":1,"longitude":-121.8661329,"plus4":null,"groups with access code":"Public - credit card at all times","government":0,"state":"CA","distance":10.8693745560132},"type":"Feature","geometry":{"type":"Point","coordinates":[-121.8661329,37.2753771]}},{"properties":{"expected date":null,"city":"Hayes","latitude":37.2814863,"zip":"23072","station name":"Phillips Energy Incorporated","public":1,"private":0,"id":"2100","street address":"2586 George Washington Memorial Hwy","station phone":"804-642-2166","date last confirmed":"2010-06-30","actual":1,"longitude":-76.5042617,"plus4":null,"groups with access code":"Public - see hours","government":0,"state":"VA","distance":10.3537422796101},"type":"Feature","geometry":{"type":"Point","coordinates":[-76.5042617,37.2814863]}},{"properties":{"expected date":null,"city":"San Jose","latitude":37.3552852,"zip":"95112","station name":"Propel Fuels","public":1,"private":0,"id":"796","street address":"1002 N 1st St","station phone":"800-871-0773","date last confirmed":"2011-01-31","actual":1,"longitude":-121.904702,"plus4":null,"groups with access code":"Public - credit card at all times","government":0,"state":"CA","distance":5.28166905563895},"type":"Feature","geometry":{"type":"Point","coordinates":[-121.904702,37.3552852]}},{"properties":{"expected date":null,"city":"San Jose","latitude":37.3641411,"zip":"95112","station name":"San Jose Chevron - Pearson Fuels","public":1,"private":0,"id":"1965","street address":"680 Commercial St","station phone":"408-287-6054","date last confirmed":"2010-10-31","actual":1,"longitude":-121.892421,"plus4":null,"groups with access code":"Public - see hours","government":0,"state":"CA","distance":5.80613894357692},"type":"Feature","geometry":{"type":"Point","coordinates":[-121.892421,37.3641411]}},{"properties":{"expected date":null,"city":"San Jose","latitude":37.397495,"zip":"95131","station name":"Propel Fuels","public":1,"private":0,"id":"785","street address":"790 Montague Expy","station phone":"800-871-0773","date last confirmed":"2011-01-31","actual":1,"longitude":-121.912812,"plus4":null,"groups with access code":"Public - credit card at all times","government":0,"state":"CA","distance":4.12682038369411},"type":"Feature","geometry":{"type":"Point","coordinates":[-121.912812,37.397495]}},{"properties":{"expected date":null,"city":"Richmond","latitude":37.4151499,"zip":"23297","station name":"AAFES Bellwood Station","public":0,"private":0,"id":"145","street address":"8000 Jefferson Davis Hwy","station phone":"804-275-1478","date last confirmed":"2011-06-30","actual":1,"longitude":-77.4360478,"plus4":null,"groups with access code":"Private - government only","government":1,"state":"VA","distance":29.1571008876797},"type":"Feature","geometry":{"type":"Point","coordinates":[-77.4360478,37.4151499]}},{"properties":{"expected date":null,"city":"Menlo Park","latitude":37.416491,"zip":"94025","station name":"SLAC National Accelerator Laboratory","public":0,"private":1,"id":"268","street address":"2575 Sand Hill Rd","station phone":null,"date last confirmed":"2011-04-30","actual":1,"longitude":-122.209564,"plus4":null,"groups with access code":"Private access only","government":0,"state":"CA","distance":16.9465187002784},"type":"Feature","geometry":{"type":"Point","coordinates":[-122.209564,37.416491]}},{"properties":{"expected date":null,"city":"Menlo Park","latitude":37.466879,"zip":"94025","station name":"Menlo Park VA Medical Center","public":0,"private":0,"id":"187","street address":"795 Willow Rd","station phone":null,"date last confirmed":"2010-12-31","actual":1,"longitude":-122.162803,"plus4":null,"groups with access code":"Private - government only","government":1,"state":"CA","distance":14.3127807643874},"type":"Feature","geometry":{"type":"Point","coordinates":[-122.162803,37.466879]}},{"properties":{"expected date":null,"city":"Redwood City","latitude":37.494144,"zip":"94063","station name":"Propel Fuels - Redwood City","public":1,"private":0,"id":"808","street address":"503 Whippie Ave","station phone":"800-871-0773","date last confirmed":"2011-05-31","actual":1,"longitude":-122.234528,"plus4":null,"groups with access code":"Public - credit card at all times","government":0,"state":"CA","distance":19.4926543795265},"type":"Feature","geometry":{"type":"Point","coordinates":[-122.234528,37.494144]}},{"properties":{"expected date":null,"city":"Fremont","latitude":37.548138,"zip":"94538","station name":"Propel Fuels","public":1,"private":0,"id":"778","street address":"39707 Paseo Padre Pkwy","station phone":"800-871-0773","date last confirmed":"2011-01-31","actual":1,"longitude":-121.971555,"plus4":null,"groups with access code":"Public - credit card at all times","government":0,"state":"CA","distance":8.33437864675642},"type":"Feature","geometry":{"type":"Point","coordinates":[-121.971555,37.548138]}},{"properties":{"expected date":null,"city":"Richmond","latitude":37.563663,"zip":"23220","station name":"Virginia Office of Fleet Management Services","public":0,"private":0,"id":"131","street address":"2400 W Leigh St","station phone":null,"date last confirmed":"2010-10-31","actual":1,"longitude":-77.463136,"plus4":null,"groups with access code":"Private - government only","government":1,"state":"VA","distance":18.9534401121319},"type":"Feature","geometry":{"type":"Point","coordinates":[-77.463136,37.563663]}},{"properties":{"expected date":null,"city":"Sunol","latitude":37.5729576,"zip":"94586","station name":"Sunol Super Stop","public":1,"private":0,"id":"2431","street address":"3004 Andrade Rd","station phone":"925-862-0577","date last confirmed":"2011-06-30","actual":1,"longitude":-121.884649,"plus4":null,"groups with access code":"Public - see hours","government":0,"state":"CA","distance":13.6449625026636},"type":"Feature","geometry":{"type":"Point","coordinates":[-121.884649,37.5729576]}},{"properties":{"expected date":null,"city":"Hayward","latitude":37.666397,"zip":"94541","station name":"Chevron - Pearson Fuels","public":1,"private":0,"id":"1562","street address":"525 West A St","station phone":"510-780-9536","date last confirmed":"2010-10-31","actual":1,"longitude":-122.110472,"plus4":null,"groups with access code":"Public - see hours","government":0,"state":"CA","distance":10.488079257261},"type":"Feature","geometry":{"type":"Point","coordinates":[-122.110472,37.666397]}},{"properties":{"expected date":null,"city":"Livermore","latitude":37.681216,"zip":"94551","station name":"Lawrence Livermore National Laboratory","public":0,"private":0,"id":"78","street address":"7000 East Ave","station phone":null,"date last confirmed":"2010-12-31","actual":1,"longitude":-121.698978,"plus4":9234,"groups with access code":"Private - government only","government":1,"state":"CA","distance":27.5431511544022},"type":"Feature","geometry":{"type":"Point","coordinates":[-121.698978,37.681216]}},{"properties":{"expected date":null,"city":"San Francisco","latitude":37.782908,"zip":"94121","station name":"Department of Veterans Affairs","public":0,"private":1,"id":"252","street address":"4150 Clement St","station phone":null,"date last confirmed":"2010-12-31","actual":1,"longitude":-122.506388,"plus4":null,"groups with access code":"Private access only","government":0,"state":"CA","distance":30.6152893483817},"type":"Feature","geometry":{"type":"Point","coordinates":[-122.506388,37.782908]}},{"properties":{"expected date":null,"city":"Oakland","latitude":37.809238,"zip":"94610","station name":"Propel Fuels","public":1,"private":0,"id":"780","street address":"350 Grand Ave","station phone":"800-871-0773","date last confirmed":"2011-01-31","actual":1,"longitude":-122.255662,"plus4":null,"groups with access code":"Public - credit card at all times","government":0,"state":"CA","distance":16.346377929825},"type":"Feature","geometry":{"type":"Point","coordinates":[-122.255662,37.809238]}},{"properties":{"expected date":null,"city":"Berkeley","latitude":37.8684129,"zip":"94710","station name":"Propel Fuels","public":1,"private":0,"id":"784","street address":"849 University Ave","station phone":"800-871-0773","date last confirmed":"2011-01-31","actual":1,"longitude":-122.296973,"plus4":null,"groups with access code":"Public - credit card at all times","government":0,"state":"CA","distance":16.2917911289155},"type":"Feature","geometry":{"type":"Point","coordinates":[-122.296973,37.8684129]}},{"properties":{"expected date":null,"city":"Berkeley","latitude":37.876706,"zip":"94720","station name":"Lawrence Berkeley National Laboratory","public":0,"private":0,"id":"95","street address":"McMillan Rd","station phone":null,"date last confirmed":"2010-12-31","actual":1,"longitude":-122.246067,"plus4":null,"groups with access code":"Private - government only","government":1,"state":"CA","distance":13.1832358832798},"type":"Feature","geometry":{"type":"Point","coordinates":[-122.246067,37.876706]}},{"properties":{"expected date":null,"city":"Evansville","latitude":37.97718,"zip":"47715","station name":"MotoMart","public":1,"private":0,"id":"2329","street address":"6328 E Lloyd Expy","station phone":"812-476-8621","date last confirmed":"2011-05-31","actual":1,"longitude":-87.47478,"plus4":null,"groups with access code":"Public - see hours","government":0,"state":"IN","distance":39.8025966183525},"type":"Feature","geometry":{"type":"Point","coordinates":[-87.47478,37.97718]}},{"properties":{"expected date":null,"city":"Evansville","latitude":37.9948335,"zip":"47715","station name":"Thornton's #88","public":1,"private":0,"id":"2369","street address":"6300 Morgan Ave","station phone":"812-477-4886","date last confirmed":"2011-02-28","actual":1,"longitude":-87.4749939,"plus4":null,"groups with access code":"Public - see hours","government":0,"state":"IN","distance":39.4632636590604},"type":"Feature","geometry":{"type":"Point","coordinates":[-87.4749939,37.9948335]}},{"properties":{"expected date":null,"city":"Martinez","latitude":37.995206,"zip":"94533","station name":"Martinez VA Medical Center","public":0,"private":1,"id":"270","street address":"150 Muir Rd","station phone":null,"date last confirmed":"2010-12-31","actual":1,"longitude":-122.116218,"plus4":null,"groups with access code":"Private access only","government":0,"state":"CA","distance":10.6413217419204},"type":"Feature","geometry":{"type":"Point","coordinates":[-122.116218,37.995206]}},{"properties":{"expected date":null,"city":"Concord","latitude":38.0154681,"zip":"94520","station name":"Black Diamond Chevron - Pearson Fuels","public":1,"private":0,"id":"1554","street address":"1001 Willow Pass Ct","station phone":"925-682-2100","date last confirmed":"2010-10-31","actual":1,"longitude":-122.0015397,"plus4":null,"groups with access code":"Public - see hours","government":0,"state":"CA","distance":18.4583302526406},"type":"Feature","geometry":{"type":"Point","coordinates":[-122.0015397,38.0154681]}},{"properties":{"expected date":null,"city":"Evansville","latitude":38.02527,"zip":"47720","station name":"SuperAg Co-op","public":1,"private":0,"id":"575","street address":"5015 N St Joseph Ave","station phone":"812-423-6481","date last confirmed":"2011-05-31","actual":1,"longitude":-87.598091,"plus4":null,"groups with access code":"Public - credit card after hours","government":0,"state":"IN","distance":47.539600430031},"type":"Feature","geometry":{"type":"Point","coordinates":[-87.598091,38.02527]}},{"properties":{"expected date":null,"city":"Festus","latitude":38.2129509,"zip":"63028","station name":"Express Mart - P-66","public":1,"private":0,"id":"2250","street address":"801 Collins Dr","station phone":"636-933-1770","date last confirmed":"2011-01-31","actual":1,"longitude":-90.412803,"plus4":null,"groups with access code":"Public - see hours","government":0,"state":"MO","distance":27.4983920529347},"type":"Feature","geometry":{"type":"Point","coordinates":[-90.412803,38.2129509]}},{"properties":{"expected date":null,"city":"Fairfield","latitude":38.251398,"zip":"94534","station name":"Plaza Oliver Valero - DMC Green Incorporated","public":1,"private":0,"id":"1879","street address":"1009 Oliver Rd","station phone":"707-399-3600","date last confirmed":"2010-10-31","actual":1,"longitude":-122.069787,"plus4":null,"groups with access code":"Public - see hours","government":0,"state":"CA","distance":14.7418588789662},"type":"Feature","geometry":{"type":"Point","coordinates":[-122.069787,38.251398]}},{"properties":{"expected date":null,"city":"Pevely","latitude":38.28714,"zip":"63070","station name":"I-55 Motor Plaza","public":1,"private":0,"id":"1364","street address":"1707 Highway Z","station phone":"636-479-4436","date last confirmed":"2011-01-31","actual":1,"longitude":-90.4033956,"plus4":null,"groups with access code":"Public - see hours","government":0,"state":"MO","distance":24.4769746256538},"type":"Feature","geometry":{"type":"Point","coordinates":[-90.4033956,38.28714]}},{"properties":{"expected date":null,"city":"Waterloo","latitude":38.3344197,"zip":"62298","station name":"Waterloo Fast Stop","public":1,"private":0,"id":"317","street address":"409 S Illinois Rte 3","station phone":"618-939-4979","date last confirmed":"2010-11-30","actual":1,"longitude":-90.1548749,"plus4":null,"groups with access code":"Public - credit card after hours","government":0,"state":"IL","distance":38.1997384192243},"type":"Feature","geometry":{"type":"Point","coordinates":[-90.1548749,38.3344197]}},{"properties":{"expected date":null,"city":"Fredericksburg","latitude":38.3381192,"zip":"22405","station name":"Liberty Gas","public":1,"private":0,"id":"2416","street address":"364 Warrenton Rd","station phone":"540-899-5440","date last confirmed":"2011-05-31","actual":1,"longitude":-77.487071,"plus4":null,"groups with access code":"Public - see hours","government":0,"state":"VA","distance":35.0220553540906},"type":"Feature","geometry":{"type":"Point","coordinates":[-77.487071,38.3381192]}},{"properties":{"expected date":null,"city":"Jasper","latitude":38.364496,"zip":"47546","station name":"Sunoco - Circle A Mart #111","public":1,"private":0,"id":"1114","street address":"1921 S Lube Way","station phone":"812-634-7827","date last confirmed":"2011-05-31","actual":1,"longitude":-86.9410089,"plus4":null,"groups with access code":"Public - see hours","government":0,"state":"IN","distance":17.3003240037473},"type":"Feature","geometry":{"type":"Point","coordinates":[-86.9410089,38.364496]}},{"properties":{"expected date":null,"city":"Saint Clair","latitude":38.3741131,"zip":"63077","station name":"Fastlane","public":1,"private":0,"id":"1731","street address":"8299 Highway 47","station phone":"636-629-4538","date last confirmed":"2011-01-31","actual":1,"longitude":-90.9810441,"plus4":null,"groups with access code":"Public - see hours","government":0,"state":"MO","distance":23.0066794623762},"type":"Feature","geometry":{"type":"Point","coordinates":[-90.9810441,38.3741131]}},{"properties":{"expected date":null,"city":"Vacaville","latitude":38.397068,"zip":"95688","station name":"Pacific Pride - Interstate Oil Company","public":1,"private":0,"id":"759","street address":"917 Cotting Ln","station phone":"530-662-5481","date last confirmed":"2010-10-31","actual":1,"longitude":-121.953811,"plus4":null,"groups with access code":"Public - credit card at all times","government":0,"state":"CA","distance":27.1785424070182},"type":"Feature","geometry":{"type":"Point","coordinates":[-121.953811,38.397068]}},{"properties":{"expected date":null,"city":"Union","latitude":38.4280336,"zip":"63084","station name":"MFA Oil Petro-Card 24","public":1,"private":0,"id":"718","street address":"7485 Highway 47","station phone":"636-583-2960","date last confirmed":"2011-01-31","actual":1,"longitude":-90.9900686,"plus4":null,"groups with access code":"Public - credit card at all times","government":0,"state":"MO","distance":22.4348314900241},"type":"Feature","geometry":{"type":"Point","coordinates":[-90.9900686,38.4280336]}},{"properties":{"expected date":null,"city":"Washington","latitude":38.4454629,"zip":"63090","station name":"Murphy Oil Co","public":1,"private":0,"id":"1489","street address":"1645 A Roy Dr","station phone":"636-390-9386","date last confirmed":"2011-01-31","actual":1,"longitude":-90.391153,"plus4":null,"groups with access code":"Public - see hours","government":0,"state":"MO","distance":20.3815849434265},"type":"Feature","geometry":{"type":"Point","coordinates":[-90.391153,38.4454629]}},{"properties":{"expected date":null,"city":"Quantico","latitude":38.514617,"zip":"22134","station name":"Quantico Marine Corps Base","public":0,"private":1,"id":"237","street address":"3250 Catlin Ave","station phone":null,"date last confirmed":"2011-02-28","actual":1,"longitude":-77.308398,"plus4":null,"groups with access code":"Private access only","government":0,"state":"VA","distance":42.7994672029302},"type":"Feature","geometry":{"type":"Point","coordinates":[-77.308398,38.514617]}},{"properties":{"expected date":null,"city":"Davis","latitude":38.540247,"zip":"95618","station name":"Chevron - DMC Green Incorporated","public":1,"private":0,"id":"1857","street address":"1601 Research Park Dr","station phone":"530-750-0799","date last confirmed":"2010-10-31","actual":1,"longitude":-121.73185,"plus4":null,"groups with access code":"Public - see hours","government":0,"state":"CA","distance":45.2775358931918},"type":"Feature","geometry":{"type":"Point","coordinates":[-121.73185,38.540247]}},{"properties":{"expected date":null,"city":"Wildwood","latitude":38.5502027,"zip":"63040","station name":"Mobil On the Run","public":1,"private":0,"id":"1749","street address":"16509 Old Manchester Rd","station phone":"636-458-1809","date last confirmed":"2011-01-31","actual":1,"longitude":-90.7042407,"plus4":null,"groups with access code":"Public - see hours","government":0,"state":"MO","distance":3.74379032691279},"type":"Feature","geometry":{"type":"Point","coordinates":[-90.7042407,38.5502027]}},{"properties":{"expected date":null,"city":"West Baden","latitude":38.562442,"zip":"47469","station name":"Fast Eddie's","public":1,"private":0,"id":"1300","street address":"8362 W State Road 56","station phone":"812-936-4409","date last confirmed":"2011-05-31","actual":1,"longitude":-86.613791,"plus4":null,"groups with access code":"Public - see hours","government":0,"state":"IN","distance":37.2433590163973},"type":"Feature","geometry":{"type":"Point","coordinates":[-86.613791,38.562442]}},{"properties":{"expected date":null,"city":"Shiloh","latitude":38.570958,"zip":"62269","station name":"Green Mount MotoMart","public":1,"private":0,"id":"1971","street address":"1790 Frank Scott Parkway E","station phone":"618-622-8379","date last confirmed":"2010-11-30","actual":1,"longitude":-89.965778,"plus4":null,"groups with access code":"Public - see hours","government":0,"state":"IL","distance":49.5408857996279},"type":"Feature","geometry":{"type":"Point","coordinates":[-89.965778,38.570958]}},{"properties":{"expected date":null,"city":"Washington","latitude":38.617671,"zip":"47501","station name":"Frette Energy","public":1,"private":0,"id":"1425","street address":"2684 S State Road 57","station phone":"812-254-3671","date last confirmed":"2011-05-31","actual":1,"longitude":-87.184421,"plus4":null,"groups with access code":"Public - see hours","government":0,"state":"IN","distance":39.2790193503639},"type":"Feature","geometry":{"type":"Point","coordinates":[-87.184421,38.617671]}},{"properties":{"expected date":null,"city":"Brentwood","latitude":38.6217645,"zip":"63144","station name":"Mobil On the Run","public":1,"private":0,"id":"1838","street address":"2120 S Brentwood","station phone":"314-961-7957","date last confirmed":"2011-01-31","actual":1,"longitude":-90.3483908,"plus4":null,"groups with access code":"Public - see hours","government":0,"state":"MO","distance":24.2776926748136},"type":"Feature","geometry":{"type":"Point","coordinates":[-90.3483908,38.6217645]}},{"properties":{"expected date":null,"city":"Caseyville","latitude":38.640742,"zip":"62232","station name":"Han Dee Mart","public":1,"private":0,"id":"1976","street address":"411 N Main St","station phone":"618-344-3667","date last confirmed":"2010-11-30","actual":1,"longitude":-90.021234,"plus4":null,"groups with access code":"Public - see hours","government":0,"state":"IL","distance":46.2507475965181},"type":"Feature","geometry":{"type":"Point","coordinates":[-90.021234,38.640742]}},{"properties":{"expected date":null,"city":"Saint Louis","latitude":38.644359,"zip":"63102","station name":"Ninth Street Petroleum - Naes Fuel","public":1,"private":0,"id":"1441","street address":"1815 N 9th St","station phone":"314-241-1455","date last confirmed":"2011-01-31","actual":1,"longitude":-90.188515,"plus4":null,"groups with access code":"Public - see hours","government":0,"state":"MO","distance":35.2822378214496},"type":"Feature","geometry":{"type":"Point","coordinates":[-90.188515,38.644359]}},{"properties":{"expected date":null,"city":"Chesterfield","latitude":38.667547,"zip":"63017","station name":"BP","public":1,"private":0,"id":"1747","street address":"110 Long Rd","station phone":"636-532-0756","date last confirmed":"2011-01-31","actual":1,"longitude":-90.6170549,"plus4":null,"groups with access code":"Public - see hours","government":0,"state":"MO","distance":12.0646428854919},"type":"Feature","geometry":{"type":"Point","coordinates":[-90.6170549,38.667547]}},{"properties":{"expected date":null,"city":"Loogootee","latitude":38.675815,"zip":"47553","station name":"Jones &amp; Sons Marathon","public":1,"private":0,"id":"1299","street address":"113 Broadway St","station phone":"812-295-4466","date last confirmed":"2011-05-31","actual":1,"longitude":-86.912358,"plus4":null,"groups with access code":"Public - see hours","government":0,"state":"IN","distance":38.554040931383},"type":"Feature","geometry":{"type":"Point","coordinates":[-86.912358,38.675815]}},{"properties":{"expected date":null,"city":"Overland","latitude":38.6872164,"zip":"63114","station name":"Mobil On the Run","public":1,"private":0,"id":"1586","street address":"9405 Page Ave","station phone":"314-262-7082","date last confirmed":"2011-01-31","actual":1,"longitude":-90.362875,"plus4":null,"groups with access code":"Public - see hours","government":0,"state":"MO","distance":25.2568824157173},"type":"Feature","geometry":{"type":"Point","coordinates":[-90.362875,38.6872164]}},{"properties":{"expected date":null,"city":"Saint Louis","latitude":38.687484,"zip":"63132","station name":"Mobil","public":1,"private":0,"id":"2253","street address":"9403 Page Ave","station phone":"314-262-7082","date last confirmed":"2011-01-31","actual":1,"longitude":-90.3627379,"plus4":null,"groups with access code":"Public - see hours","government":0,"state":"MO","distance":25.2739224929725},"type":"Feature","geometry":{"type":"Point","coordinates":[-90.3627379,38.687484]}},{"properties":{"expected date":null,"city":"Fort Belvoir","latitude":38.7040514,"zip":"22060","station name":"Fort Belvoir","public":0,"private":0,"id":"91","street address":null,"station phone":null,"date last confirmed":"2009-12-03","actual":1,"longitude":-77.1600201,"plus4":null,"groups with access code":"Private - government only","government":1,"state":"VA","distance":30.2977359948995},"type":"Feature","geometry":{"type":"Point","coordinates":[-77.1600201,38.7040514]}},{"properties":{"expected date":null,"city":"College Park","latitude":38.7531223,"zip":"20742","station name":"University of Maryland - Motor Transportation Facility","public":0,"private":0,"id":"186","street address":"Building 011","station phone":null,"date last confirmed":"2010-10-31","actual":1,"longitude":-76.6597963,"plus4":6311,"groups with access code":"Private - government only","government":1,"state":"MD","distance":13.0063103361263},"type":"Feature","geometry":{"type":"Point","coordinates":[-76.6597963,38.7531223]}},{"properties":{"expected date":null,"city":"O'Fallon","latitude":38.756127,"zip":"63366","station name":"K&amp;N - Mobil On the Run","public":1,"private":0,"id":"1748","street address":"3000 Highway K","station phone":"636-240-7925","date last confirmed":"2011-01-31","actual":1,"longitude":-90.699693,"plus4":null,"groups with access code":"Public - see hours","government":0,"state":"MO","distance":17.5032722179734},"type":"Feature","geometry":{"type":"Point","coordinates":[-90.699693,38.756127]}},{"properties":{"expected date":null,"city":"Saint Charles","latitude":38.760717,"zip":"63301","station name":"Fastlane Muegge","public":1,"private":0,"id":"1508","street address":"2301 Old Highway 94 S","station phone":"636-447-9930","date last confirmed":"2011-01-31","actual":1,"longitude":-90.540067,"plus4":null,"groups with access code":"Public - see hours","government":0,"state":"MO","distance":20.1609391505875},"type":"Feature","geometry":{"type":"Point","coordinates":[-90.540067,38.760717]}},{"properties":{"expected date":null,"city":"Cottleville","latitude":38.7614696,"zip":"63376","station name":"Fastlane #34","public":1,"private":0,"id":"1480","street address":"994 Knaust Rd","station phone":"636-922-4135","date last confirmed":"2011-01-31","actual":1,"longitude":-90.6583529,"plus4":null,"groups with access code":"Public - see hours","government":0,"state":"MO","distance":17.8521012257306},"type":"Feature","geometry":{"type":"Point","coordinates":[-90.6583529,38.7614696]}},{"properties":{"expected date":null,"city":"Saint Charles","latitude":38.7697414,"zip":"63301","station name":"Mobil On the Run","public":1,"private":0,"id":"907","street address":"1401 5th St","station phone":"636-947-6388","date last confirmed":"2011-01-31","actual":1,"longitude":-90.49385,"plus4":null,"groups with access code":"Public - see hours","government":0,"state":"MO","distance":22.3042577416537},"type":"Feature","geometry":{"type":"Point","coordinates":[-90.49385,38.7697414]}},{"properties":{"expected date":null,"city":"Saint Charles","latitude":38.780344,"zip":"63301","station name":"ZX - Thoele Oil","public":1,"private":0,"id":"1436","street address":"2212 First Capitol","station phone":"636-724-7550","date last confirmed":"2011-01-31","actual":1,"longitude":-90.5074829,"plus4":null,"groups with access code":"Public - see hours","government":0,"state":"MO","distance":22.4142270011072},"type":"Feature","geometry":{"type":"Point","coordinates":[-90.5074829,38.780344]}},{"properties":{"expected date":null,"city":"Saint Charles","latitude":38.792447,"zip":"63301","station name":"ZX - Thoele Oil","public":1,"private":0,"id":"1437","street address":"3740 W Clay","station phone":"636-724-3433","date last confirmed":"2011-01-31","actual":1,"longitude":-90.560145,"plus4":null,"groups with access code":"Public - see hours","government":0,"state":"MO","distance":21.4477537052212},"type":"Feature","geometry":{"type":"Point","coordinates":[-90.560145,38.792447]}},{"properties":{"expected date":null,"city":"Andrews AFB","latitude":38.807471,"zip":"20762","station name":"Andrews Air Force Base","public":0,"private":0,"id":"119","street address":"3066 E Perimeter Rd","station phone":null,"date last confirmed":"2009-12-03","actual":1,"longitude":-76.856443,"plus4":null,"groups with access code":"Private - government only","government":1,"state":"MD","distance":8.39477396151157},"type":"Feature","geometry":{"type":"Point","coordinates":[-76.856443,38.807471]}},{"properties":{"expected date":null,"city":"Floristell","latitude":38.815016,"zip":"63348","station name":"Fast Lane","public":1,"private":0,"id":"1766","street address":"3166 S Service Rd E","station phone":"636-673-1248","date last confirmed":"2011-01-31","actual":1,"longitude":-90.952803,"plus4":null,"groups with access code":"Public - see hours","government":0,"state":"MO","distance":28.7109496988584},"type":"Feature","geometry":{"type":"Point","coordinates":[-90.952803,38.815016]}},{"properties":{"expected date":null,"city":"Wentzville","latitude":38.8189752,"zip":"63385","station name":"Mobil On the Run","public":1,"private":0,"id":"1587","street address":"1744 Wentzville Parkway","station phone":"636-332-9000","date last confirmed":"2011-01-31","actual":1,"longitude":-90.8777071,"plus4":null,"groups with access code":"Public - see hours","government":0,"state":"MO","distance":25.7326579839641},"type":"Feature","geometry":{"type":"Point","coordinates":[-90.8777071,38.8189752]}},{"properties":{"expected date":null,"city":"Washington","latitude":38.85076,"zip":"20332","station name":"Bolling Air Force Base","public":0,"private":0,"id":"109","street address":"211 Brookley Ave","station phone":null,"date last confirmed":"2009-12-03","actual":1,"longitude":-77.008499,"plus4":null,"groups with access code":"Private - government only","government":1,"state":"DC","distance":16.9098054628766},"type":"Feature","geometry":{"type":"Point","coordinates":[-77.008499,38.85076]}},{"properties":{"expected date":null,"city":"Arlington","latitude":38.8696368,"zip":"22204","station name":"Quarters K Citgo - Pentagon/Navy Exchange","public":1,"private":0,"id":"902","street address":"801 S Joyce St","station phone":"703-979-0405","date last confirmed":"2011-02-28","actual":1,"longitude":-77.0638577,"plus4":4552,"groups with access code":"Public - see hours","government":0,"state":"VA","distance":20.5402127244117},"type":"Feature","geometry":{"type":"Point","coordinates":[-77.0638577,38.8696368]}},{"properties":{"expected date":null,"city":"Alton","latitude":38.8883234,"zip":"62002","station name":"Zephyr Express","public":1,"private":0,"id":"1182","street address":"1110 E Broadway St","station phone":"618-465-8483","date last confirmed":"2010-11-30","actual":1,"longitude":-90.1691149,"plus4":null,"groups with access code":"Public - see hours","government":0,"state":"IL","distance":44.0503534123858},"type":"Feature","geometry":{"type":"Point","coordinates":[-90.1691149,38.8883234]}},{"properties":{"expected date":null,"city":"Washington","latitude":38.9105896,"zip":"20002","station name":"DC Fleet Management Administration Fueling Location","public":0,"private":1,"id":"239","street address":"1835 West Virginia Ave NE","station phone":null,"date last confirmed":"2010-11-30","actual":1,"longitude":-76.985604,"plus4":null,"groups with access code":"Private access only","government":0,"state":"DC","distance":15.0201855068434},"type":"Feature","geometry":{"type":"Point","coordinates":[-76.985604,38.9105896]}},{"properties":{"expected date":null,"city":"Washington","latitude":38.9223275,"zip":"20007","station name":"Georgetown Chevron","public":1,"private":0,"id":"1408","street address":"2450 Wisconsin Ave NW","station phone":"202-337-6277","date last confirmed":"2010-09-30","actual":1,"longitude":-77.0729157,"plus4":null,"groups with access code":"Public - see hours","government":0,"state":"DC","distance":21.0926213603942},"type":"Feature","geometry":{"type":"Point","coordinates":[-77.0729157,38.9223275]}},{"properties":{"expected date":"2011-03-15","city":"Washington","latitude":38.92997,"zip":"20008","station name":"National Zoological Park - Smithsonian","public":0,"private":0,"id":"28","street address":"3001 Connecticut Ave NW","station phone":null,"date last confirmed":"2010-12-31","actual":0,"longitude":-77.055101,"plus4":null,"groups with access code":"PLANNED - not yet accessible","government":0,"state":"DC","distance":19.9214856868598},"type":"Feature","geometry":{"type":"Point","coordinates":[-77.055101,38.92997]}},{"properties":{"expected date":null,"city":"Moscow Mills","latitude":38.949228,"zip":"63362","station name":"FastLane","public":1,"private":0,"id":"2004","street address":"240 College Campus Dr","station phone":"636-356-9201","date last confirmed":"2011-01-31","actual":1,"longitude":-90.929406,"plus4":null,"groups with access code":"Public - see hours","government":0,"state":"MO","distance":35.3365824079847},"type":"Feature","geometry":{"type":"Point","coordinates":[-90.929406,38.949228]}},{"properties":{"expected date":null,"city":"Bethesda","latitude":38.9644959,"zip":"20816","station name":"River Road Exxon - W Express","public":1,"private":0,"id":"2217","street address":"5143 River Rd","station phone":"301-652-8440","date last confirmed":"2010-11-30","actual":1,"longitude":-77.102832,"plus4":null,"groups with access code":"Public - see hours","government":0,"state":"MD","distance":23.431156352787},"type":"Feature","geometry":{"type":"Point","coordinates":[-77.102832,38.9644959]}},{"properties":{"expected date":"2011-12-01","city":"Takoma Park","latitude":38.9677689,"zip":"20912","station name":"Takoma Park Texaco","public":0,"private":0,"id":"8","street address":"6400 New Hampshire Ave","station phone":"301-270-7119","date last confirmed":"2011-06-30","actual":0,"longitude":-77.0013589,"plus4":null,"groups with access code":"PLANNED - not yet accessible","government":0,"state":"MD","distance":16.7650724059285},"type":"Feature","geometry":{"type":"Point","coordinates":[-77.0013589,38.9677689]}},{"properties":{"expected date":null,"city":"Annapolis","latitude":38.983854,"zip":"21041","station name":"Citgo","public":1,"private":0,"id":"880","street address":"2042 West St","station phone":"410-571-9676","date last confirmed":"2010-11-30","actual":1,"longitude":-76.538428,"plus4":3032,"groups with access code":"Public - see hours","government":0,"state":"MD","distance":17.2622320730819},"type":"Feature","geometry":{"type":"Point","coordinates":[-76.538428,38.983854]}},{"properties":{"expected date":null,"city":"Annapolis","latitude":38.993832,"zip":"21401","station name":"Shell","public":1,"private":0,"id":"2237","street address":"811 Bestgate Rd","station phone":"410-266-3892","date last confirmed":"2010-11-30","actual":1,"longitude":-76.536924,"plus4":null,"groups with access code":"Public - see hours","government":0,"state":"MD","distance":17.5612747660743},"type":"Feature","geometry":{"type":"Point","coordinates":[-76.536924,38.993832]}},{"properties":{"expected date":null,"city":"Greenbelt","latitude":38.99791,"zip":"20771","station name":"Goddard Space Flight Center","public":0,"private":1,"id":"215","street address":"8800 Greenbelt Rd","station phone":null,"date last confirmed":"2010-12-31","actual":1,"longitude":-76.845822,"plus4":null,"groups with access code":"Private access only","government":0,"state":"MD","distance":8.66602301175578},"type":"Feature","geometry":{"type":"Point","coordinates":[-76.845822,38.99791]}},{"properties":{"expected date":null,"city":"Bethesda","latitude":39.0040649,"zip":"20892","station name":"National Institutes of Health","public":0,"private":0,"id":"122","street address":"9000 Rockville Pike","station phone":null,"date last confirmed":"2010-12-31","actual":1,"longitude":-77.0974955,"plus4":null,"groups with access code":"Private - government only","government":1,"state":"MD","distance":23.837010461704},"type":"Feature","geometry":{"type":"Point","coordinates":[-77.0974955,39.0040649]}},{"properties":{"expected date":null,"city":"Ashburn","latitude":39.0317374,"zip":"20147","station name":"Schmitz Sunoco Goose Creek","public":1,"private":0,"id":"2210","street address":"42800 Creek View Plaza","station phone":"703-724-4422","date last confirmed":"2010-09-30","actual":1,"longitude":-77.387241,"plus4":null,"groups with access code":"Public - see hours","government":0,"state":"VA","distance":43.5149217763625},"type":"Feature","geometry":{"type":"Point","coordinates":[-77.387241,39.0317374]}},{"properties":{"expected date":null,"city":"Covington","latitude":39.0422439,"zip":"41011","station name":"Kroger #392 - Latonia","public":1,"private":0,"id":"1336","street address":"4303 Winston Ave","station phone":"859-655-0727","date last confirmed":"2011-04-30","actual":1,"longitude":-84.509527,"plus4":null,"groups with access code":"Public - see hours","government":0,"state":"KY","distance":28.0380540275401},"type":"Feature","geometry":{"type":"Point","coordinates":[-84.509527,39.0422439]}},{"properties":{"expected date":null,"city":"Hebron","latitude":39.0654194,"zip":"41048","station name":"Kroger","public":1,"private":0,"id":"2036","street address":"3105 N Bend Rd","station phone":"859-962-4900","date last confirmed":"2011-04-30","actual":1,"longitude":-84.7033234,"plus4":null,"groups with access code":"Public - see hours","government":0,"state":"KY","distance":36.8043236243732},"type":"Feature","geometry":{"type":"Point","coordinates":[-84.7033234,39.0654194]}},{"properties":{"expected date":"2011-12-01","city":"Rockville","latitude":39.0658294,"zip":"20852","station name":"Congressional Plaza Sunoco","public":0,"private":0,"id":"7","street address":"1464 Rockville Pike","station phone":"301-770-7240","date last confirmed":"2011-06-30","actual":0,"longitude":-77.12716,"plus4":null,"groups with access code":"PLANNED - not yet accessible","government":0,"state":"MD","distance":27.2474669514373},"type":"Feature","geometry":{"type":"Point","coordinates":[-77.12716,39.0658294]}},{"properties":{"expected date":null,"city":"Fort Meade","latitude":39.091217,"zip":"20724","station name":"Chevron","public":1,"private":0,"id":"2238","street address":"3240 Laurel Fort Meade Rd","station phone":"301-490-8800","date last confirmed":"2010-11-30","actual":1,"longitude":-76.774924,"plus4":null,"groups with access code":"Public - see hours","government":0,"state":"MD","distance":13.0051908533498},"type":"Feature","geometry":{"type":"Point","coordinates":[-76.774924,39.091217]}},{"properties":{"expected date":null,"city":"Laurel","latitude":39.091217,"zip":"20724","station name":"Chevron Service Center","public":1,"private":0,"id":"872","street address":"3240 Fort Meade Rd","station phone":"410-880-4740","date last confirmed":"2010-09-30","actual":1,"longitude":-76.774924,"plus4":1314,"groups with access code":"Public - see hours","government":0,"state":"MD","distance":13.0051908533498},"type":"Feature","geometry":{"type":"Point","coordinates":[-76.774924,39.091217]}},{"properties":{"expected date":null,"city":"Gaithersburg","latitude":39.1163093,"zip":"20878","station name":"Washingtonian Chevron","public":1,"private":0,"id":"1742","street address":"10003 Fields Rd","station phone":"301-840-6277","date last confirmed":"2010-09-30","actual":1,"longitude":-77.2064251,"plus4":null,"groups with access code":"Public - see hours","government":0,"state":"MD","distance":33.7102752383069},"type":"Feature","geometry":{"type":"Point","coordinates":[-77.2064251,39.1163093]}},{"properties":{"expected date":null,"city":"Tremont","latitude":39.119865,"zip":"61568","station name":"Tremont Oil Company","public":1,"private":0,"id":"1249","street address":"201 E Pearl St","station phone":"309-925-2251","date last confirmed":"2010-11-30","actual":1,"longitude":-90.3263164,"plus4":null,"groups with access code":"Public - see hours","government":0,"state":"IL","distance":48.9569435237512},"type":"Feature","geometry":{"type":"Point","coordinates":[-90.3263164,39.119865]}},{"properties":{"expected date":null,"city":"Gaithersburg","latitude":39.123845,"zip":"20855","station name":"Montgomery County Agencies - Fleet Management Services","public":1,"private":0,"id":"648","street address":"16640 Crabbs Branch Way","station phone":"240-777-5730","date last confirmed":"2010-11-30","actual":1,"longitude":-77.1623991,"plus4":null,"groups with access code":"Public - credit card at all times","government":0,"state":"MD","distance":31.2772696842347},"type":"Feature","geometry":{"type":"Point","coordinates":[-77.1623991,39.123845]}},{"properties":{"expected date":null,"city":"Gaithersburg","latitude":39.140096,"zip":"20899","station name":"Department of Commerce","public":0,"private":0,"id":"181","street address":"100 Bureau Dr","station phone":null,"date last confirmed":"2011-04-30","actual":1,"longitude":-77.218394,"plus4":null,"groups with access code":"Private - government only","government":1,"state":"MD","distance":35.2117035337592},"type":"Feature","geometry":{"type":"Point","coordinates":[-77.218394,39.140096]}},{"properties":{"expected date":null,"city":"Cincinnati","latitude":39.144855,"zip":"45209","station name":"Kroger Fuel Center #355 - Hyde Park","public":1,"private":0,"id":"1343","street address":"3710 Paxton Ave","station phone":"513-871-4142","date last confirmed":"2011-02-28","actual":1,"longitude":-84.431245,"plus4":null,"groups with access code":"Public - see hours","government":0,"state":"OH","distance":19.1419484713279},"type":"Feature","geometry":{"type":"Point","coordinates":[-84.431245,39.144855]}},{"properties":{"expected date":null,"city":"Hanover","latitude":39.160387,"zip":"21076","station name":"SHA Refueling Station","public":0,"private":0,"id":"192","street address":"7491 Connelley Dr","station phone":"410-582-5575","date last confirmed":"2010-11-30","actual":1,"longitude":-76.679571,"plus4":null,"groups with access code":"Private - government only","government":1,"state":"MD","distance":15.3509119539743},"type":"Feature","geometry":{"type":"Point","coordinates":[-76.679571,39.160387]}},{"properties":{"expected date":null,"city":"Cincinnati","latitude":39.172998,"zip":"45248","station name":"Kroger Fuel Center #436","public":1,"private":0,"id":"1346","street address":"5830 Harrison Rd","station phone":"513-574-2810","date last confirmed":"2011-02-28","actual":1,"longitude":-84.640566,"plus4":null,"groups with access code":"Public - see hours","government":0,"state":"OH","distance":29.4891810568242},"type":"Feature","geometry":{"type":"Point","coordinates":[-84.640566,39.172998]}},{"properties":{"expected date":null,"city":"Germantown","latitude":39.17569,"zip":"20874","station name":"Town Center Chevron","public":1,"private":0,"id":"1706","street address":"12301 Middlebrook Rd","station phone":"301-972-5122","date last confirmed":"2010-09-30","actual":1,"longitude":-77.253989,"plus4":null,"groups with access code":"Public - see hours","government":0,"state":"MD","distance":38.5341554110085},"type":"Feature","geometry":{"type":"Point","coordinates":[-77.253989,39.17569]}},{"properties":{"expected date":null,"city":"Germantown","latitude":39.192544,"zip":"20876","station name":"W Express","public":1,"private":0,"id":"1672","street address":"20510 Frederick Rd","station phone":"301-353-8288","date last confirmed":"2010-09-30","actual":1,"longitude":-77.243452,"plus4":null,"groups with access code":"Public - see hours","government":0,"state":"MD","distance":38.4411888996386},"type":"Feature","geometry":{"type":"Point","coordinates":[-77.243452,39.192544]}},{"properties":{"expected date":null,"city":"Cincinnati","latitude":39.2195086,"zip":"45231","station name":"Kroger Fuel Center - Finneytown","public":1,"private":0,"id":"1246","street address":"8421 Winton Rd","station phone":"513-728-8637","date last confirmed":"2011-02-28","actual":1,"longitude":-84.5179852,"plus4":null,"groups with access code":"Public - see hours","government":0,"state":"OH","distance":20.5206180510796},"type":"Feature","geometry":{"type":"Point","coordinates":[-84.5179852,39.2195086]}},{"properties":{"expected date":null,"city":"Loveland","latitude":39.228264,"zip":"45140","station name":"Kroger Fuel Center #435","public":1,"private":0,"id":"1347","street address":"6388 Branch Hill-Guinea Pike","station phone":"513-697-4828","date last confirmed":"2011-02-28","actual":1,"longitude":-84.25415,"plus4":null,"groups with access code":"Public - see hours","government":0,"state":"OH","distance":9.13629244760257},"type":"Feature","geometry":{"type":"Point","coordinates":[-84.25415,39.228264]}},{"properties":{"expected date":null,"city":"Harrison","latitude":39.2404802,"zip":"45030","station name":"Tom's Marathon","public":1,"private":0,"id":"1680","street address":"9959 Harrison Rd","station phone":"513-367-1220","date last confirmed":"2011-02-28","actual":1,"longitude":-84.7744802,"plus4":null,"groups with access code":"Public - see hours","government":0,"state":"OH","distance":36.6504344095435},"type":"Feature","geometry":{"type":"Point","coordinates":[-84.7744802,39.2404802]}},{"properties":{"expected date":null,"city":"Baltimore","latitude":39.2937529,"zip":"21202","station name":"City of Baltimore","public":0,"private":0,"id":"167","street address":"420 N Front St","station phone":null,"date last confirmed":"2010-09-30","actual":1,"longitude":-76.6089229,"plus4":null,"groups with access code":"Private - government only","government":1,"state":"MD","distance":20.3503534051842},"type":"Feature","geometry":{"type":"Point","coordinates":[-76.6089229,39.2937529]}},{"properties":{"expected date":null,"city":"Blanchester","latitude":39.2965054,"zip":"45107","station name":"Kroger Fuel Center #395","public":1,"private":0,"id":"1344","street address":"1001 Cherry St","station phone":"937-783-0240","date last confirmed":"2011-02-28","actual":1,"longitude":-83.975308,"plus4":9998,"groups with access code":"Public - see hours","government":0,"state":"OH","distance":20.1404084074611},"type":"Feature","geometry":{"type":"Point","coordinates":[-83.975308,39.2965054]}},{"properties":{"expected date":null,"city":"Baltimore","latitude":39.301951,"zip":"21201","station name":"Baltimore State Office Center - Department of General Services","public":0,"private":0,"id":"117","street address":"301 W Preston St","station phone":"410-767-4310","date last confirmed":"2010-09-30","actual":1,"longitude":-76.622804,"plus4":null,"groups with access code":"Private - government only","government":1,"state":"MD","distance":21.4086001126558},"type":"Feature","geometry":{"type":"Point","coordinates":[-76.622804,39.301951]}},{"properties":{"expected date":null,"city":"Baltimore","latitude":39.306494,"zip":"21213","station name":"City of Baltimore","public":0,"private":0,"id":"168","street address":"3800 E Biddle St","station phone":null,"date last confirmed":"2010-09-30","actual":1,"longitude":-76.566271,"plus4":null,"groups with access code":"Private - government only","government":1,"state":"MD","distance":22.7273378024015},"type":"Feature","geometry":{"type":"Point","coordinates":[-76.566271,39.306494]}},{"properties":{"expected date":null,"city":"Baltimore","latitude":39.310685,"zip":"21235","station name":"Social Security Administration","public":0,"private":0,"id":"139","street address":"6401 Security Blvd","station phone":"410-965-4082","date last confirmed":"2010-12-31","actual":1,"longitude":-76.727065,"plus4":null,"groups with access code":"Private - government only","government":1,"state":"MD","distance":26.0696631239315},"type":"Feature","geometry":{"type":"Point","coordinates":[-76.727065,39.310685]}},{"properties":{"expected date":"2011-03-15","city":"Perry Point","latitude":39.429161,"zip":"21902","station name":"Perry Point VA Medical Center","public":0,"private":0,"id":"13","street address":"Circle Dr","station phone":null,"date last confirmed":"2010-12-31","actual":0,"longitude":-75.9930307,"plus4":null,"groups with access code":"PLANNED - not yet accessible","government":0,"state":"MD","distance":44.2119943193313},"type":"Feature","geometry":{"type":"Point","coordinates":[-75.9930307,39.429161]}},{"properties":{"expected date":null,"city":"Franklin","latitude":39.499572,"zip":"45005","station name":"Meijer Gas #61","public":1,"private":0,"id":"1567","street address":"3651 Towne Blvd","station phone":"513-420-3929","date last confirmed":"2011-03-31","actual":1,"longitude":-84.330623,"plus4":null,"groups with access code":"Public - see hours","government":0,"state":"OH","distance":11.2365750925029},"type":"Feature","geometry":{"type":"Point","coordinates":[-84.330623,39.499572]}},{"properties":{"expected date":null,"city":"Bear","latitude":39.60987,"zip":"19701","station name":"Bear Necessities - BP","public":1,"private":0,"id":"1361","street address":"1923 Pulaski Hwy","station phone":"302-836-8599","date last confirmed":"2010-11-30","actual":1,"longitude":-75.7090319,"plus4":null,"groups with access code":"Public - see hours","government":0,"state":"DE","distance":45.6466426378017},"type":"Feature","geometry":{"type":"Point","coordinates":[-75.7090319,39.60987]}},{"properties":{"expected date":null,"city":"Dayton","latitude":39.6725523,"zip":"45459","station name":"GasAmerica","public":1,"private":0,"id":"1212","street address":"2631 W Alex Bell Rd","station phone":"937-299-0774","date last confirmed":"2011-02-28","actual":1,"longitude":-84.2155884,"plus4":null,"groups with access code":"Public - see hours","government":0,"state":"OH","distance":22.1582966578152},"type":"Feature","geometry":{"type":"Point","coordinates":[-84.2155884,39.6725523]}},{"properties":{"expected date":null,"city":"Moraine","latitude":39.6725523,"zip":"45459","station name":"GasAmerica #141","public":1,"private":0,"id":"2270","street address":"2631 W Alex Bell Rd","station phone":"937-299-0774","date last confirmed":"2011-02-28","actual":1,"longitude":-84.2155884,"plus4":null,"groups with access code":"Public - see hours","government":0,"state":"OH","distance":22.1582966578152},"type":"Feature","geometry":{"type":"Point","coordinates":[-84.2155884,39.6725523]}},{"properties":{"expected date":null,"city":"Dayton","latitude":39.744371,"zip":"45428","station name":"Dayton VA Medical Center","public":0,"private":0,"id":"180","street address":"4100 W Third St","station phone":null,"date last confirmed":"2010-12-31","actual":1,"longitude":-84.261878,"plus4":null,"groups with access code":"Private - government only","government":1,"state":"OH","distance":26.823106657307},"type":"Feature","geometry":{"type":"Point","coordinates":[-84.261878,39.744371]}},{"properties":{"expected date":null,"city":"Hanover","latitude":39.774639,"zip":"17331","station name":"Tom's Hanover Exxon","public":1,"private":0,"id":"2019","street address":"1340 S Baltimore St","station phone":"717-633-7401","date last confirmed":"2011-04-30","actual":1,"longitude":-76.959869,"plus4":null,"groups with access code":"Public - see hours","government":0,"state":"PA","distance":41.7906546487842},"type":"Feature","geometry":{"type":"Point","coordinates":[-76.959869,39.774639]}},{"properties":{"expected date":null,"city":"Shamong","latitude":39.8104,"zip":"8088","station name":"Mighty Joe's Gas Station","public":1,"private":0,"id":"1989","street address":"1231 Route 206","station phone":"609-268-0303","date last confirmed":"2011-02-28","actual":1,"longitude":-74.737,"plus4":null,"groups with access code":"Public - see hours","government":0,"state":"NJ","distance":32.1398387641624},"type":"Feature","geometry":{"type":"Point","coordinates":[-74.737,39.8104]}},{"properties":{"expected date":null,"city":"Dayton","latitude":39.8175359,"zip":"45424","station name":"Kroger Fuel Center #754","public":1,"private":0,"id":"1353","street address":"4506 Brandt Pike","station phone":"937-233-8843","date last confirmed":"2011-02-28","actual":1,"longitude":-84.1254809,"plus4":null,"groups with access code":"Public - see hours","government":0,"state":"OH","distance":33.2671309802435},"type":"Feature","geometry":{"type":"Point","coordinates":[-84.1254809,39.8175359]}},{"properties":{"expected date":null,"city":"Dayton","latitude":39.818065,"zip":"45433","station name":"Wright-Patterson Air Force Base - Station 1","public":0,"private":0,"id":"93","street address":"1940 Allbrook Dr","station phone":null,"date last confirmed":"2009-12-03","actual":1,"longitude":-84.033595,"plus4":5541,"groups with access code":"Private - government only","government":1,"state":"OH","distance":35.5656216196744},"type":"Feature","geometry":{"type":"Point","coordinates":[-84.033595,39.818065]}},{"properties":{"expected date":null,"city":"Dayton","latitude":39.818065,"zip":"45433","station name":"Wright-Patterson Air Force Base - Station 2","public":0,"private":0,"id":"94","street address":"1940 Allbrook Dr","station phone":null,"date last confirmed":"2009-12-03","actual":1,"longitude":-84.033595,"plus4":null,"groups with access code":"Private - government only","government":1,"state":"OH","distance":35.5656216196744},"type":"Feature","geometry":{"type":"Point","coordinates":[-84.033595,39.818065]}},{"properties":{"expected date":null,"city":"Dayton","latitude":39.857819,"zip":"45415","station name":"Meijer Gas #106","public":1,"private":0,"id":"528","street address":"9200 N Main St","station phone":"937-832-5129","date last confirmed":"2011-03-31","actual":1,"longitude":-84.275395,"plus4":null,"groups with access code":"Public - credit card after hours","government":0,"state":"OH","distance":34.7015678246},"type":"Feature","geometry":{"type":"Point","coordinates":[-84.275395,39.857819]}},{"properties":{"expected date":null,"city":"Uniontown","latitude":39.8664403,"zip":"15401","station name":"JG Service Station","public":1,"private":0,"id":"2088","street address":"2013 Morgantown Rd","station phone":"724-437-1470","date last confirmed":"2011-04-30","actual":1,"longitude":-79.7456883,"plus4":null,"groups with access code":"Public - see hours","government":0,"state":"PA","distance":36.9391993408706},"type":"Feature","geometry":{"type":"Point","coordinates":[-79.7456883,39.8664403]}},{"properties":{"expected date":null,"city":"Huber Heights","latitude":39.8703523,"zip":"45424","station name":"Meijer Gas #241","public":1,"private":0,"id":"1569","street address":"7266 Executive Blvd","station phone":"937-237-4629","date last confirmed":"2011-03-31","actual":1,"longitude":-84.1083624,"plus4":null,"groups with access code":"Public - see hours","government":0,"state":"OH","distance":37.0958732354121},"type":"Feature","geometry":{"type":"Point","coordinates":[-84.1083624,39.8703523]}},{"properties":{"expected date":null,"city":"Spring Grove","latitude":39.8817642,"zip":"17362","station name":"Tom's","public":1,"private":0,"id":"1796","street address":"502 N Main St","station phone":"717-225-4298","date last confirmed":"2011-04-30","actual":1,"longitude":-76.8643859,"plus4":null,"groups with access code":"Public - see hours","government":0,"state":"PA","distance":32.1699695125811},"type":"Feature","geometry":{"type":"Point","coordinates":[-76.8643859,39.8817642]}},{"properties":{"expected date":null,"city":"York","latitude":39.9594381,"zip":"17402","station name":"Tom's - Lone Star","public":1,"private":0,"id":"1218","street address":"2905 E Prospect Rd","station phone":"717-757-4290","date last confirmed":"2011-04-30","actual":1,"longitude":-76.6593992,"plus4":null,"groups with access code":"Public - see hours","government":0,"state":"PA","distance":21.1087017750851},"type":"Feature","geometry":{"type":"Point","coordinates":[-76.6593992,39.9594381]}},{"properties":{"expected date":null,"city":"Strasburg","latitude":39.9923712,"zip":"17579","station name":"WoGo - Worley &amp; Obetz","public":1,"private":0,"id":"284","street address":"902 Strasburg Pike","station phone":"717-665-6981","date last confirmed":"2011-05-31","actual":1,"longitude":-76.2001767,"plus4":null,"groups with access code":"Public - card key at all times","government":0,"state":"PA","distance":2.93862467691772},"type":"Feature","geometry":{"type":"Point","coordinates":[-76.2001767,39.9923712]}},{"properties":{"expected date":null,"city":"Coatesville","latitude":39.9986463,"zip":"19320","station name":"Coatesville VA Medical Center","public":0,"private":0,"id":"173","street address":"1400 Blackhorse Hill Rd","station phone":"610-384-7711","date last confirmed":"2010-12-31","actual":1,"longitude":-75.8005774,"plus4":null,"groups with access code":"Private - government only","government":1,"state":"PA","distance":28.0812513035686},"type":"Feature","geometry":{"type":"Point","coordinates":[-75.8005774,39.9986463]}},{"properties":{"expected date":null,"city":"York","latitude":40.018907,"zip":"17406","station name":"Tom's Erngsville","public":1,"private":0,"id":"2021","street address":"3167 Susquehanna Trail","station phone":"717-764-3329","date last confirmed":"2011-04-30","actual":1,"longitude":-76.746977,"plus4":null,"groups with access code":"Public - see hours","government":0,"state":"PA","distance":20.2260369630867},"type":"Feature","geometry":{"type":"Point","coordinates":[-76.746977,40.018907]}},{"properties":{"expected date":null,"city":"Exton","latitude":40.0294992,"zip":"19341","station name":"Reilly &amp; Sons AMERIgreen","public":1,"private":0,"id":"2046","street address":"603 E Lincoln Hwy","station phone":"610-363-7225","date last confirmed":"2011-04-30","actual":1,"longitude":-75.6144007,"plus4":null,"groups with access code":"Public - see hours","government":0,"state":"PA","distance":36.3312274579466},"type":"Feature","geometry":{"type":"Point","coordinates":[-75.6144007,40.0294992]}},{"properties":{"expected date":null,"city":"Troy","latitude":40.030363,"zip":"45373","station name":"Kroger Fuel Center #914","public":1,"private":0,"id":"1358","street address":"751 W Market St","station phone":"937-339-7774","date last confirmed":"2011-02-28","actual":1,"longitude":-84.2225,"plus4":null,"groups with access code":"Public - see hours","government":0,"state":"OH","distance":46.6717269697234},"type":"Feature","geometry":{"type":"Point","coordinates":[-84.2225,40.030363]}},{"properties":{"expected date":null,"city":"Lancaster","latitude":40.04011,"zip":"17602","station name":"Tom's Old Philadelphia Pike","public":1,"private":0,"id":"2020","street address":"1954 Old Philadelphia Pike","station phone":"717-291-0264","date last confirmed":"2011-04-30","actual":1,"longitude":-76.247822,"plus4":null,"groups with access code":"Public - see hours","government":0,"state":"PA","distance":49.142465122326},"type":"Feature","geometry":{"type":"Point","coordinates":[-76.247822,40.04011]}},{"properties":{"expected date":null,"city":"Lancaster","latitude":40.047358,"zip":"17605","station name":"Pacific Pride/WoGo - Worley &amp; Obetz","public":1,"private":0,"id":"286","street address":"202 Greenfield Rd","station phone":"800-697-6891","date last confirmed":"2011-05-31","actual":1,"longitude":-76.256325,"plus4":null,"groups with access code":"Public - card key at all times","government":0,"state":"PA","distance":48.5813266055421},"type":"Feature","geometry":{"type":"Point","coordinates":[-76.256325,40.047358]}},{"properties":{"expected date":null,"city":"Troy","latitude":40.0565168,"zip":"45373","station name":"Meijer Gas #112","public":1,"private":0,"id":"1561","street address":"1990 W Main St","station phone":"937-332-0529","date last confirmed":"2011-03-31","actual":1,"longitude":-84.242322,"plus4":null,"groups with access code":"Public - see hours","government":0,"state":"OH","distance":48.3329201549175},"type":"Feature","geometry":{"type":"Point","coordinates":[-84.242322,40.0565168]}},{"properties":{"expected date":null,"city":"Mount Joy","latitude":40.11422,"zip":"17552","station name":"Pacific Pride - Worley &amp; Obetz","public":1,"private":0,"id":"285","street address":"40 Orchard Rd","station phone":"800-697-6891","date last confirmed":"2011-04-30","actual":1,"longitude":-76.515879,"plus4":null,"groups with access code":"Public - card key at all times","government":0,"state":"PA","distance":6.65520196877534},"type":"Feature","geometry":{"type":"Point","coordinates":[-76.515879,40.11422]}},{"properties":{"expected date":null,"city":"Wexford","latitude":40.1271728,"zip":"15090","station name":"Pine Township GetGo","public":1,"private":0,"id":"2066","street address":"140 Towne Centre Dr","station phone":"724-934-1404","date last confirmed":"2011-04-30","actual":1,"longitude":-75.3603508,"plus4":null,"groups with access code":"Public - see hours","government":0,"state":"PA","distance":33.6616981580163},"type":"Feature","geometry":{"type":"Point","coordinates":[-75.3603508,40.1271728]}},{"properties":{"expected date":null,"city":"Jeffersonville","latitude":40.137571,"zip":"19403","station name":"Dileo Auto Service","public":1,"private":0,"id":"1694","street address":"2233 W Main St","station phone":"610-539-5308","date last confirmed":"2011-04-30","actual":1,"longitude":-75.383354,"plus4":null,"groups with access code":"Public - see hours","government":0,"state":"PA","distance":32.5148329657316},"type":"Feature","geometry":{"type":"Point","coordinates":[-75.383354,40.137571]}},{"properties":{"expected date":null,"city":"Lititz","latitude":40.1521932,"zip":"17543","station name":"WoGo - Worley &amp; Obetz","public":1,"private":0,"id":"281","street address":"736 Rothsville Rd","station phone":"800-697-6891","date last confirmed":"2011-04-30","actual":1,"longitude":-76.2875768,"plus4":null,"groups with access code":"Public - card key at all times","government":0,"state":"PA","distance":43.9642480759657},"type":"Feature","geometry":{"type":"Point","coordinates":[-76.2875768,40.1521932]}},{"properties":{"expected date":null,"city":"Manheim","latitude":40.1691111,"zip":"17545","station name":"Molly's Convenience Store - Worley &amp; Obetz","public":1,"private":0,"id":"1166","street address":"35 Doe Run Rd","station phone":"717-664-1030","date last confirmed":"2011-05-31","actual":1,"longitude":-76.3865097,"plus4":null,"groups with access code":"Public - see hours","government":0,"state":"PA","distance":48.0199030223828},"type":"Feature","geometry":{"type":"Point","coordinates":[-76.3865097,40.1691111]}},{"properties":{"expected date":null,"city":"Manheim","latitude":40.1708472,"zip":"17545","station name":"WoGo - Worley &amp; Obetz","public":1,"private":0,"id":"1695","street address":"85 White Oak Rd","station phone":"717-664-1922","date last confirmed":"2011-04-30","actual":1,"longitude":-76.3879387,"plus4":null,"groups with access code":"Public - see hours","government":0,"state":"PA","distance":47.9980649133443},"type":"Feature","geometry":{"type":"Point","coordinates":[-76.3879387,40.1708472]}},{"properties":{"expected date":null,"city":"Middletown","latitude":40.1939026,"zip":"17057","station name":"Pacific Pride - Worley &amp; Obetz","public":1,"private":0,"id":"283","street address":"600 Emaus St","station phone":"717-665-6891","date last confirmed":"2011-05-31","actual":1,"longitude":-76.7222007,"plus4":null,"groups with access code":"Public - card key at all times","government":0,"state":"PA","distance":8.5711674098645},"type":"Feature","geometry":{"type":"Point","coordinates":[-76.7222007,40.1939026]}},{"properties":{"expected date":null,"city":"New Cumberland","latitude":40.1968982,"zip":"17070","station name":"Pennsylvania Turnpike New Cumberland Maintenance Facility","public":0,"private":0,"id":"128","street address":"519 Marsh Run Rd","station phone":null,"date last confirmed":"2010-05-31","actual":1,"longitude":-76.8275485,"plus4":null,"groups with access code":"Private - government only","government":1,"state":"PA","distance":13.9551077450008},"type":"Feature","geometry":{"type":"Point","coordinates":[-76.8275485,40.1968982]}},{"properties":{"expected date":null,"city":"Carlisle","latitude":40.1990309,"zip":"17013","station name":"Sheetz Store #426","public":1,"private":0,"id":"2273","street address":"1401 Trindle Rd","station phone":"717-218-5213","date last confirmed":"2011-04-30","actual":1,"longitude":-77.154832,"plus4":null,"groups with access code":"Public - see hours","government":0,"state":"PA","distance":35.2516801017325},"type":"Feature","geometry":{"type":"Point","coordinates":[-77.154832,40.1990309]}},{"properties":{"expected date":null,"city":"Hamilton","latitude":40.2084798,"zip":"8610","station name":"Hamilton Township","public":0,"private":0,"id":"183","street address":"240 Tampa Ave","station phone":null,"date last confirmed":"2011-02-28","actual":1,"longitude":-74.709909,"plus4":null,"groups with access code":"Private - government only","government":1,"state":"NJ","distance":17.0141029567682},"type":"Feature","geometry":{"type":"Point","coordinates":[-74.709909,40.2084798]}},{"properties":{"expected date":null,"city":"Carlisle","latitude":40.2214501,"zip":"17013","station name":"Sheetz Store #191","public":1,"private":0,"id":"2272","street address":"1098 Harrisburg Pike","station phone":"717-218-5270","date last confirmed":"2011-04-30","actual":1,"longitude":-77.1621775,"plus4":1615,"groups with access code":"Public - see hours","government":0,"state":"PA","distance":35.6043117655186},"type":"Feature","geometry":{"type":"Point","coordinates":[-77.1621775,40.2214501]}},{"properties":{"expected date":null,"city":"Pittsburgh","latitude":40.301286,"zip":"15236","station name":"National Energy Technology Laboratory","public":0,"private":1,"id":"218","street address":"626 Cochrans Mill Rd","station phone":null,"date last confirmed":"2010-12-31","actual":1,"longitude":-79.980158,"plus4":null,"groups with access code":"Private access only","government":0,"state":"PA","distance":10.0955311233131},"type":"Feature","geometry":{"type":"Point","coordinates":[-79.980158,40.301286]}},{"properties":{"expected date":null,"city":"Pittsburgh","latitude":40.3194442,"zip":"15236","station name":"Sheetz Store #376","public":1,"private":0,"id":"1123","street address":"1000 Clairton Blvd","station phone":"412-460-0152","date last confirmed":"2011-04-30","actual":1,"longitude":-79.9415541,"plus4":null,"groups with access code":"Public - see hours","government":0,"state":"PA","distance":7.24279542674449},"type":"Feature","geometry":{"type":"Point","coordinates":[-79.9415541,40.3194442]}},{"properties":{"expected date":null,"city":"Harrisburg","latitude":40.3239439,"zip":"17112","station name":"Sheetz Store #412","public":1,"private":0,"id":"2274","street address":"6260 Allentown Blvd","station phone":"717-671-6710","date last confirmed":"2011-04-30","actual":1,"longitude":-76.7844165,"plus4":null,"groups with access code":"Public - see hours","government":0,"state":"PA","distance":9.4321675121341},"type":"Feature","geometry":{"type":"Point","coordinates":[-76.7844165,40.3239439]}},{"properties":{"expected date":null,"city":"Milroy","latitude":40.3479974,"zip":"17063","station name":"Tom's Travel Center #49","public":1,"private":0,"id":"1618","street address":"20 Commerce Dr","station phone":"717-667-6002","date last confirmed":"2011-04-30","actual":1,"longitude":-75.9885567,"plus4":null,"groups with access code":"Public - see hours","government":0,"state":"PA","distance":3.01813662186855},"type":"Feature","geometry":{"type":"Point","coordinates":[-75.9885567,40.3479974]}},{"properties":{"expected date":null,"city":"Princeton","latitude":40.352188,"zip":"8453","station name":"Princeton Plasma Physics Laboratory","public":0,"private":0,"id":"159","street address":"100 Stellarator Rd","station phone":null,"date last confirmed":"2010-12-31","actual":1,"longitude":-74.6069982,"plus4":null,"groups with access code":"Private - government only","government":1,"state":"NJ","distance":17.949175941523},"type":"Feature","geometry":{"type":"Point","coordinates":[-74.6069982,40.352188]}},{"properties":{"expected date":null,"city":"Newark","latitude":40.4340387,"zip":"7114","station name":"Newark Liberty International Airport - Gulf","public":1,"private":0,"id":"783","street address":"100 Lindbergh Rd","station phone":"516-710-1898","date last confirmed":"2011-03-31","actual":1,"longitude":-74.7668362,"plus4":null,"groups with access code":"Public - credit card at all times","government":0,"state":"NJ","distance":27.2123565826482},"type":"Feature","geometry":{"type":"Point","coordinates":[-74.7668362,40.4340387]}},{"properties":{"expected date":null,"city":"Monroeville","latitude":40.4379443,"zip":"15146","station name":"Sheetz Store #360","public":1,"private":0,"id":"1216","street address":"3954 William Penn Hwy","station phone":"412-373-1539","date last confirmed":"2011-04-30","actual":1,"longitude":-79.7745055,"plus4":null,"groups with access code":"Public - see hours","government":0,"state":"PA","distance":7.42915999779795},"type":"Feature","geometry":{"type":"Point","coordinates":[-79.7745055,40.4379443]}},{"properties":{"expected date":null,"city":"Pittsburgh","latitude":40.4483934,"zip":"15205","station name":"Sheetz Store #353","public":1,"private":0,"id":"1217","street address":"5410 Campbells Run Rd","station phone":"412-787-1190","date last confirmed":"2011-04-30","actual":1,"longitude":-80.1580239,"plus4":null,"groups with access code":"Public - see hours","government":0,"state":"PA","distance":20.8219184070457},"type":"Feature","geometry":{"type":"Point","coordinates":[-80.1580239,40.4483934]}},{"properties":{"expected date":null,"city":"Kutztown","latitude":40.520514,"zip":"19530","station name":"Moyer Energy","public":1,"private":0,"id":"2087","street address":"110 E Main St","station phone":"610-683-7364","date last confirmed":"2011-04-30","actual":1,"longitude":-75.774589,"plus4":null,"groups with access code":"Public - see hours","government":0,"state":"PA","distance":1.37519319613438},"type":"Feature","geometry":{"type":"Point","coordinates":[-75.774589,40.520514]}},{"properties":{"expected date":null,"city":"Verona","latitude":40.5222154,"zip":"15147","station name":"Sunoco - Oakmont Service Plaza","public":1,"private":0,"id":"1521","street address":"2000 Eastern Ave","station phone":"412-828-3702","date last confirmed":"2011-04-30","actual":1,"longitude":-79.8111132,"plus4":null,"groups with access code":"Public - see hours","government":0,"state":"PA","distance":10.294690001941},"type":"Feature","geometry":{"type":"Point","coordinates":[-79.8111132,40.5222154]}},{"properties":{"expected date":null,"city":"Allentown","latitude":40.5774207,"zip":"18106","station name":"Sunoco - Allentown Service Plaza","public":1,"private":0,"id":"1794","street address":"5052 Cetronia Rd","station phone":"610-398-7086","date last confirmed":"2011-04-30","actual":1,"longitude":-75.5617372,"plus4":null,"groups with access code":"Public - see hours","government":0,"state":"PA","distance":0.882043175155061},"type":"Feature","geometry":{"type":"Point","coordinates":[-75.5617372,40.5774207]}},{"properties":{"expected date":null,"city":"Staten Island","latitude":40.5878181,"zip":"10314","station name":"Department of Sanitation New York City - Staten Island 2","public":0,"private":0,"id":"84","street address":"2500 Richmond Ave","station phone":null,"date last confirmed":"2011-02-28","actual":1,"longitude":-74.168232,"plus4":null,"groups with access code":"Private - government only","government":1,"state":"NY","distance":34.9803226148443},"type":"Feature","geometry":{"type":"Point","coordinates":[-74.168232,40.5878181]}},{"properties":{"expected date":"2011-06-15","city":"Brooklyn","latitude":40.5917267,"zip":"12214","station name":"Department of Sanitation New York City - Brooklyn 11","public":0,"private":0,"id":"1","street address":"1824 Shore Pkwy","station phone":null,"date last confirmed":"2011-02-28","actual":0,"longitude":-73.994377,"plus4":null,"groups with access code":"PLANNED - not yet accessible","government":0,"state":"NY","distance":42.4929273555829},"type":"Feature","geometry":{"type":"Point","coordinates":[-73.994377,40.5917267]}},{"properties":{"expected date":null,"city":"East Orange","latitude":40.754951,"zip":"7018","station name":"Power Gas","public":1,"private":0,"id":"2057","street address":"205 Sanford St","station phone":"973-678-2002","date last confirmed":"2011-02-28","actual":1,"longitude":-74.228628,"plus4":null,"groups with access code":"Public - see hours","government":0,"state":"NJ","distance":43.7701306403955},"type":"Feature","geometry":{"type":"Point","coordinates":[-74.228628,40.754951]}},{"properties":{"expected date":null,"city":"Mansfield","latitude":40.7593648,"zip":"44906","station name":"Kroger Fuel Center #518","public":1,"private":0,"id":"1455","street address":"1240 Park Ave W","station phone":"419-528-1860","date last confirmed":"2011-02-28","actual":1,"longitude":-82.5601264,"plus4":null,"groups with access code":"Public - see hours","government":0,"state":"OH","distance":46.7617840251787},"type":"Feature","geometry":{"type":"Point","coordinates":[-82.5601264,40.7593648]}},{"properties":{"expected date":null,"city":"Ontario","latitude":40.7890511,"zip":"44862","station name":"Ontario BellStore","public":1,"private":0,"id":"2271","street address":"1330 N Lexington Springmill Rd","station phone":"419-747-4079","date last confirmed":"2011-02-28","actual":1,"longitude":-82.590075,"plus4":null,"groups with access code":"Public - see hours","government":0,"state":"OH","distance":44.5216476967695},"type":"Feature","geometry":{"type":"Point","coordinates":[-82.590075,40.7890511]}},{"properties":{"expected date":null,"city":"Barberton","latitude":41.023841,"zip":"44023","station name":"Rocky's Drive Thru","public":1,"private":0,"id":"1535","street address":"560 Norton Ave","station phone":"330-745-9799","date last confirmed":"2011-02-28","actual":1,"longitude":-81.609927,"plus4":null,"groups with access code":"Public - see hours","government":0,"state":"OH","distance":27.6589792179356},"type":"Feature","geometry":{"type":"Point","coordinates":[-81.609927,41.023841]}},{"properties":{"expected date":null,"city":"Norwalk","latitude":41.247338,"zip":"44857","station name":"Sunrise Energy","public":1,"private":0,"id":"423","street address":"211 Cleveland Rd","station phone":"419-668-4494","date last confirmed":"2011-02-28","actual":1,"longitude":-82.590537,"plus4":null,"groups with access code":"Public - credit card after hours","government":0,"state":"OH","distance":13.0616738349405},"type":"Feature","geometry":{"type":"Point","coordinates":[-82.590537,41.247338]}},{"properties":{"expected date":null,"city":"Norwalk","latitude":41.255088,"zip":"44857","station name":"Schild's IGA Supercenter","public":1,"private":0,"id":"1257","street address":"171 Milan Ave","station phone":"419-668-5156","date last confirmed":"2011-02-28","actual":1,"longitude":-82.6122929,"plus4":null,"groups with access code":"Public - see hours","government":0,"state":"OH","distance":12.3826333482712},"type":"Feature","geometry":{"type":"Point","coordinates":[-82.6122929,41.255088]}},{"properties":{"expected date":null,"city":"Oberlin","latitude":41.287747,"zip":"44074","station name":"Full Circle Fuels","public":1,"private":0,"id":"2365","street address":"141 S Main St","station phone":"440-574-5436","date last confirmed":"2011-02-28","actual":1,"longitude":-82.217184,"plus4":null,"groups with access code":"Public - see hours","government":0,"state":"OH","distance":27.2018564884397},"type":"Feature","geometry":{"type":"Point","coordinates":[-82.217184,41.287747]}},{"properties":{"expected date":null,"city":"Brecksville","latitude":41.2936966,"zip":"44141","station name":"Louis Stokes Cleveland VA Medical Center","public":0,"private":0,"id":"160","street address":"10000 Brecksville Rd","station phone":null,"date last confirmed":"2010-12-31","actual":1,"longitude":-81.6292334,"plus4":null,"groups with access code":"Private - government only","government":1,"state":"OH","distance":17.0822822160634},"type":"Feature","geometry":{"type":"Point","coordinates":[-81.6292334,41.2936966]}},{"properties":{"expected date":null,"city":"Cleveland","latitude":41.411335,"zip":"44135","station name":"Glenn Research Center","public":0,"private":0,"id":"87","street address":"Taylor Rd","station phone":null,"date last confirmed":"2010-12-31","actual":1,"longitude":-81.86235,"plus4":1525,"groups with access code":"Private - government only","government":1,"state":"OH","distance":24.9349612483775},"type":"Feature","geometry":{"type":"Point","coordinates":[-81.86235,41.411335]}},{"properties":{"expected date":null,"city":"Parma","latitude":41.4143156,"zip":"44134","station name":"Francis Corp - Frank's Sunoco","public":1,"private":0,"id":"1496","street address":"5391 State Rd","station phone":"216-661-3090","date last confirmed":"2011-02-28","actual":1,"longitude":-81.7102469,"plus4":null,"groups with access code":"Public - see hours","government":0,"state":"OH","distance":20.1593152517773},"type":"Feature","geometry":{"type":"Point","coordinates":[-81.7102469,41.4143156]}},{"properties":{"expected date":null,"city":"Cleveland","latitude":41.4696008,"zip":"44111","station name":"Giant Eagle GetGo","public":1,"private":0,"id":"1678","street address":"3038 W 117th St","station phone":"216-941-9024","date last confirmed":"2011-02-28","actual":1,"longitude":-81.7689264,"plus4":null,"groups with access code":"Public - see hours","government":0,"state":"OH","distance":25.6339731438009},"type":"Feature","geometry":{"type":"Point","coordinates":[-81.7689264,41.4696008]}},{"properties":{"expected date":null,"city":"Palos Hills","latitude":41.704046,"zip":"60465","station name":"Palos Hills Mart","public":1,"private":0,"id":"2440","street address":"10300 S Harlem Ave","station phone":"708-598-2626","date last confirmed":"2011-06-30","actual":1,"longitude":-87.798164,"plus4":null,"groups with access code":"Public - see hours","government":0,"state":"IL","distance":47.7992249552114},"type":"Feature","geometry":{"type":"Point","coordinates":[-87.798164,41.704046]}},{"properties":{"expected date":null,"city":"Lemont","latitude":41.714111,"zip":"60439","station name":"Argonne National Laboratory","public":0,"private":1,"id":"227","street address":"9700 Cass Ave","station phone":null,"date last confirmed":"2010-12-31","actual":1,"longitude":-87.964016,"plus4":null,"groups with access code":"Private access only","government":0,"state":"IL","distance":46.2564757863367},"type":"Feature","geometry":{"type":"Point","coordinates":[-87.964016,41.714111]}},{"properties":{"expected date":null,"city":"Aurora","latitude":41.7409294,"zip":"60504","station name":"Thorntons Store #125","public":1,"private":0,"id":"1042","street address":"2800 Ogden Ave","station phone":"630-820-6468","date last confirmed":"2010-11-30","actual":1,"longitude":-88.245268,"plus4":null,"groups with access code":"Public - see hours","government":0,"state":"IL","distance":49.2062940551183},"type":"Feature","geometry":{"type":"Point","coordinates":[-88.245268,41.7409294]}},{"properties":{"expected date":null,"city":"Chicago","latitude":41.744808,"zip":"60652","station name":"Midway Marathon","public":1,"private":0,"id":"1601","street address":"8145 S Pulaski","station phone":"773-585-8912","date last confirmed":"2011-05-31","actual":1,"longitude":-87.7215189,"plus4":null,"groups with access code":"Public - see hours","government":0,"state":"IL","distance":46.6433954208498},"type":"Feature","geometry":{"type":"Point","coordinates":[-87.7215189,41.744808]}},{"properties":{"expected date":null,"city":"Burbank","latitude":41.7481269,"zip":"60459","station name":"Citgo - Tiger Gas","public":1,"private":0,"id":"2311","street address":"7901 S Natchez","station phone":"708-430-3895","date last confirmed":"2010-11-30","actual":1,"longitude":-87.782481,"plus4":null,"groups with access code":"Public - see hours","government":0,"state":"IL","distance":45.2037832808086},"type":"Feature","geometry":{"type":"Point","coordinates":[-87.782481,41.7481269]}},{"properties":{"expected date":null,"city":"Chicago","latitude":41.7764105,"zip":"60621","station name":"City of Chicago FS#9","public":0,"private":1,"id":"248","street address":"25 W 65th St","station phone":null,"date last confirmed":"2010-09-30","actual":1,"longitude":-87.6262227,"plus4":null,"groups with access code":"Private access only","government":0,"state":"IL","distance":47.2343261484536},"type":"Feature","geometry":{"type":"Point","coordinates":[-87.6262227,41.7764105]}},{"properties":{"expected date":"2011-06-15","city":"Chicago","latitude":41.7782998,"zip":"60638","station name":"City of Chicago FS#202","public":0,"private":0,"id":"20","street address":"5150 W 63rd St","station phone":null,"date last confirmed":"2010-09-30","actual":0,"longitude":-87.750506,"plus4":null,"groups with access code":"PLANNED - not yet accessible","government":0,"state":"IL","distance":43.8524928255798},"type":"Feature","geometry":{"type":"Point","coordinates":[-87.750506,41.7782998]}},{"properties":{"expected date":null,"city":"Chicago","latitude":41.780707,"zip":"60637","station name":"Mobil","public":1,"private":0,"id":"2314","street address":"850 E 63rd St","station phone":"773-955-9245","date last confirmed":"2010-11-30","actual":1,"longitude":-87.603997,"plus4":null,"groups with access code":"Public - see hours","government":0,"state":"IL","distance":47.695608633045},"type":"Feature","geometry":{"type":"Point","coordinates":[-87.603997,41.780707]}},{"properties":{"expected date":null,"city":"North Aurora","latitude":41.8045204,"zip":"60542","station name":"Woodman's Grocery","public":1,"private":0,"id":"1232","street address":"151 Hansen Blvd","station phone":"630-723-3900","date last confirmed":"2010-11-30","actual":1,"longitude":-88.3698202,"plus4":null,"groups with access code":"Public - see hours","government":0,"state":"IL","distance":49.8976195256998},"type":"Feature","geometry":{"type":"Point","coordinates":[-88.3698202,41.8045204]}},{"properties":{"expected date":null,"city":"Chicago","latitude":41.8258046,"zip":"60609","station name":"City of Chicago FS#4","public":0,"private":1,"id":"250","street address":"3746 S Iron","station phone":null,"date last confirmed":"2010-09-30","actual":1,"longitude":-87.6593683,"plus4":null,"groups with access code":"Private access only","government":0,"state":"IL","distance":43.1521073937717},"type":"Feature","geometry":{"type":"Point","coordinates":[-87.6593683,41.8258046]}},{"properties":{"expected date":null,"city":"Riverside","latitude":41.8306915,"zip":"60546","station name":"Minuteman Riverside","public":1,"private":0,"id":"1201","street address":"3346 S Harlem Ave","station phone":"708-447-3748","date last confirmed":"2010-11-30","actual":1,"longitude":-87.8029647,"plus4":null,"groups with access code":"Public - see hours","government":0,"state":"IL","distance":39.344215328511},"type":"Feature","geometry":{"type":"Point","coordinates":[-87.8029647,41.8306915]}},{"properties":{"expected date":null,"city":"Batavia","latitude":41.849009,"zip":"60510","station name":"Fermi National Accelerator Laboratory - Fuel Service Center","public":0,"private":1,"id":"228","street address":"929 Receiving Rd","station phone":null,"date last confirmed":"2010-12-31","actual":1,"longitude":-88.259439,"plus4":null,"groups with access code":"Private access only","government":0,"state":"IL","distance":43.0927681063015},"type":"Feature","geometry":{"type":"Point","coordinates":[-88.259439,41.849009]}},{"properties":{"expected date":null,"city":"Lombard","latitude":41.8593905,"zip":"60148","station name":"Road Ranger #237","public":1,"private":0,"id":"924","street address":"909 E Roosevelt Rd","station phone":"815-239-6028","date last confirmed":"2010-11-30","actual":1,"longitude":-88.0474971,"plus4":null,"groups with access code":"Public - see hours","government":0,"state":"IL","distance":36.9142745575874},"type":"Feature","geometry":{"type":"Point","coordinates":[-88.0474971,41.8593905]}},{"properties":{"expected date":null,"city":"Berwyn","latitude":41.860783,"zip":"60402","station name":"Harlem Marathon","public":1,"private":0,"id":"1555","street address":"1427 S Harlem Ave","station phone":"708-788-3017","date last confirmed":"2010-02-28","actual":1,"longitude":-87.803873,"plus4":null,"groups with access code":"Public - see hours","government":0,"state":"IL","distance":37.3399220517192},"type":"Feature","geometry":{"type":"Point","coordinates":[-87.803873,41.860783]}},{"properties":{"expected date":null,"city":"University Park","latitude":41.8742031,"zip":"60466","station name":"Raceco","public":1,"private":0,"id":"789","street address":"450 Cicero Ave","station phone":"708-534-3050","date last confirmed":"2010-11-30","actual":1,"longitude":-87.7450451,"plus4":null,"groups with access code":"Public - credit card at all times","government":0,"state":"IL","distance":37.6319919441153},"type":"Feature","geometry":{"type":"Point","coordinates":[-87.7450451,41.8742031]}},{"properties":{"expected date":null,"city":"Chicago","latitude":41.88911,"zip":"60624","station name":"City of Chicago FS#3","public":0,"private":1,"id":"247","street address":"4233 W Ferdinand","station phone":null,"date last confirmed":"2010-09-30","actual":1,"longitude":-87.732795,"plus4":null,"groups with access code":"Private access only","government":0,"state":"IL","distance":36.9140210369449},"type":"Feature","geometry":{"type":"Point","coordinates":[-87.732795,41.88911]}},{"properties":{"expected date":null,"city":"Northlake","latitude":41.902074,"zip":"60164","station name":"Marathon","public":1,"private":0,"id":"1978","street address":"2 E Lake St","station phone":"708-343-0201","date last confirmed":"2010-03-31","actual":1,"longitude":-87.902739,"plus4":null,"groups with access code":"Public - see hours","government":0,"state":"IL","distance":33.4254281914291},"type":"Feature","geometry":{"type":"Point","coordinates":[-87.902739,41.902074]}},{"properties":{"expected date":null,"city":"Chicago","latitude":41.9138941,"zip":"60642","station name":"City of Chicago FS#1","public":0,"private":1,"id":"264","street address":"1701 N Throop","station phone":null,"date last confirmed":"2010-09-30","actual":1,"longitude":-87.6618712,"plus4":null,"groups with access code":"Private access only","government":0,"state":"IL","distance":37.7124172534615},"type":"Feature","geometry":{"type":"Point","coordinates":[-87.6618712,41.9138941]}},{"properties":{"expected date":null,"city":"Northlake","latitude":41.917381,"zip":"60164","station name":"Shell - Mannheim Dickens Gas","public":1,"private":0,"id":"2444","street address":"2201 N Mannheim","station phone":"847-288-1447","date last confirmed":"2011-06-30","actual":1,"longitude":-87.883621,"plus4":null,"groups with access code":"Public - see hours","government":0,"state":"IL","distance":32.5040008884059},"type":"Feature","geometry":{"type":"Point","coordinates":[-87.883621,41.917381]}},{"properties":{"expected date":null,"city":"Elmhurst","latitude":41.919886,"zip":"60126","station name":"Power Mart","public":1,"private":0,"id":"2053","street address":"572 W Lake St","station phone":"866-769-7678","date last confirmed":"2010-03-31","actual":1,"longitude":-87.958794,"plus4":null,"groups with access code":"Public - see hours","government":0,"state":"IL","distance":32.0967597404672},"type":"Feature","geometry":{"type":"Point","coordinates":[-87.958794,41.919886]}},{"properties":{"expected date":null,"city":"Chicago","latitude":41.931272,"zip":"60639","station name":"Aisha Wash and Fuel Island - Citgo","public":1,"private":0,"id":"1500","street address":"5549 W Diversey Ave","station phone":"773-889-0241","date last confirmed":"2010-11-30","actual":1,"longitude":-87.7659144,"plus4":null,"groups with access code":"Public - see hours","government":0,"state":"IL","distance":33.4474780651092},"type":"Feature","geometry":{"type":"Point","coordinates":[-87.7659144,41.931272]}},{"properties":{"expected date":null,"city":"Chicago","latitude":41.932561,"zip":"60641","station name":"Clark Gas for Less","public":1,"private":0,"id":"1556","street address":"2801 N Damen Ave","station phone":"773-528-0461","date last confirmed":"2010-11-30","actual":1,"longitude":-87.677886,"plus4":null,"groups with access code":"Public - see hours","government":0,"state":"IL","distance":36.0562525582992},"type":"Feature","geometry":{"type":"Point","coordinates":[-87.677886,41.932561]}},{"properties":{"expected date":"2011-06-15","city":"Chicago","latitude":41.9403515,"zip":"60618","station name":"City of Chicago FS#205","public":0,"private":0,"id":"21","street address":"3245 N Cambell","station phone":null,"date last confirmed":"2010-09-30","actual":0,"longitude":-87.6905971,"plus4":null,"groups with access code":"PLANNED - not yet accessible","government":0,"state":"IL","distance":35.1690921800774},"type":"Feature","geometry":{"type":"Point","coordinates":[-87.6905971,41.9403515]}},{"properties":{"expected date":null,"city":"Chicago","latitude":41.9562333,"zip":"60613","station name":"Gas City #70","public":1,"private":0,"id":"861","street address":"4070 N Clark St","station phone":"773-528-3040","date last confirmed":"2010-11-30","actual":1,"longitude":-87.6634066,"plus4":null,"groups with access code":"Public - see hours","government":0,"state":"IL","distance":35.0870853238237},"type":"Feature","geometry":{"type":"Point","coordinates":[-87.6634066,41.9562333]}},{"properties":{"expected date":null,"city":"Chicago","latitude":41.960545,"zip":"60666","station name":"City of Chicago FS#7","public":0,"private":1,"id":"249","street address":"10000 W Montrose","station phone":null,"date last confirmed":"2010-09-30","actual":1,"longitude":-87.739373,"plus4":null,"groups with access code":"Private access only","government":0,"state":"IL","distance":32.354896855249},"type":"Feature","geometry":{"type":"Point","coordinates":[-87.739373,41.960545]}},{"properties":{"expected date":null,"city":"Chicago","latitude":41.962515,"zip":"60630","station name":"City of Chicago FS#5","public":0,"private":1,"id":"246","street address":"4833 W Sunnyside","station phone":null,"date last confirmed":"2010-09-30","actual":1,"longitude":-87.7490324,"plus4":null,"groups with access code":"Private access only","government":0,"state":"IL","distance":31.9210069022661},"type":"Feature","geometry":{"type":"Point","coordinates":[-87.7490324,41.962515]}},{"properties":{"expected date":null,"city":"Wood Dale","latitude":41.963105,"zip":"60191","station name":"Wood Dale Citgo","public":1,"private":0,"id":"1351","street address":"217 E Irving Park Rd","station phone":"630-595-4233","date last confirmed":"2010-11-30","actual":1,"longitude":-87.973643,"plus4":null,"groups with access code":"Public - see hours","government":0,"state":"IL","distance":29.2305900651193},"type":"Feature","geometry":{"type":"Point","coordinates":[-87.973643,41.963105]}},{"properties":{"expected date":null,"city":"Wood Dale","latitude":41.992429,"zip":"60191","station name":"Thornton's Store","public":1,"private":0,"id":"2421","street address":"110 W Devon Ave","station phone":"630-616-0993","date last confirmed":"2011-05-31","actual":1,"longitude":-87.980958,"plus4":null,"groups with access code":"Public - see hours","government":0,"state":"IL","distance":27.2672410424345},"type":"Feature","geometry":{"type":"Point","coordinates":[-87.980958,41.992429]}},{"properties":{"expected date":"2011-06-15","city":"Chicago","latitude":41.9992708,"zip":"60626","station name":"City of Chicago FS#2","public":0,"private":0,"id":"19","street address":"6445 N Ravenswood","station phone":null,"date last confirmed":"2010-09-30","actual":0,"longitude":-87.6750217,"plus4":null,"groups with access code":"PLANNED - not yet accessible","government":0,"state":"IL","distance":32.1798813810459},"type":"Feature","geometry":{"type":"Point","coordinates":[-87.6750217,41.9992708]}},{"properties":{"expected date":null,"city":"Skokie","latitude":42.018747,"zip":"60076","station name":"Shell","public":1,"private":0,"id":"1333","street address":"3301 W Howard St","station phone":"847-763-1921","date last confirmed":"2011-05-31","actual":1,"longitude":-87.711763,"plus4":4010,"groups with access code":"Public - see hours","government":0,"state":"IL","distance":29.7122739960088},"type":"Feature","geometry":{"type":"Point","coordinates":[-87.711763,42.018747]}},{"properties":{"expected date":null,"city":"Elgin","latitude":42.036394,"zip":"60123","station name":"Larkin Marathon","public":1,"private":0,"id":"863","street address":"1126 Larkin Ave","station phone":"847-741-9524","date last confirmed":"2010-02-28","actual":1,"longitude":-88.306618,"plus4":5242,"groups with access code":"Public - see hours","government":0,"state":"IL","distance":34.9837280772673},"type":"Feature","geometry":{"type":"Point","coordinates":[-88.306618,42.036394]}},{"properties":{"expected date":null,"city":"Evanston","latitude":42.0410024,"zip":"60201","station name":"Citgo - Clark Station","public":1,"private":0,"id":"855","street address":"2401 Dempster St","station phone":"847-866-7190","date last confirmed":"2010-11-30","actual":1,"longitude":-87.7069067,"plus4":3953,"groups with access code":"Public - see hours","government":0,"state":"IL","distance":28.5597654774324},"type":"Feature","geometry":{"type":"Point","coordinates":[-87.7069067,42.0410024]}},{"properties":{"expected date":null,"city":"Schaumburg","latitude":42.0412345,"zip":"60173","station name":"Shell","public":1,"private":0,"id":"1136","street address":"750 E Higgins Rd","station phone":"847-843-2424","date last confirmed":"2011-06-30","actual":1,"longitude":-88.0614474,"plus4":null,"groups with access code":"Public - see hours","government":0,"state":"IL","distance":25.1914624688447},"type":"Feature","geometry":{"type":"Point","coordinates":[-88.0614474,42.0412345]}},{"properties":{"expected date":null,"city":"Elgin","latitude":42.051678,"zip":"60123","station name":"PetroLiance LLC","public":1,"private":0,"id":"1990","street address":"739 N State St","station phone":"847-608-7140","date last confirmed":"2010-12-31","actual":1,"longitude":-88.295132,"plus4":null,"groups with access code":"Public - see hours","government":0,"state":"IL","distance":33.7025787292412},"type":"Feature","geometry":{"type":"Point","coordinates":[-88.295132,42.051678]}},{"properties":{"expected date":null,"city":"Mount Prospect","latitude":42.066092,"zip":"60056","station name":"Formula Marathon","public":1,"private":0,"id":"832","street address":"310 W Northwest Hwy","station phone":"847-577-5760","date last confirmed":"2010-02-28","actual":1,"longitude":-87.9419939,"plus4":3103,"groups with access code":"Public - see hours","government":0,"state":"IL","distance":21.9475914976266},"type":"Feature","geometry":{"type":"Point","coordinates":[-87.9419939,42.066092]}},{"properties":{"expected date":null,"city":"East Dundee","latitude":42.088172,"zip":"60118","station name":"Citgo","public":1,"private":0,"id":"1781","street address":"1097 E Main St","station phone":"847-428-4205","date last confirmed":"2010-11-30","actual":1,"longitude":-88.2449904,"plus4":null,"groups with access code":"Public - see hours","government":0,"state":"IL","distance":29.4324041945828},"type":"Feature","geometry":{"type":"Point","coordinates":[-88.2449904,42.088172]}},{"properties":{"expected date":null,"city":"Palatine","latitude":42.116959,"zip":"60067","station name":"Palatine Oil Company","public":1,"private":0,"id":"646","street address":"515 W Colfax","station phone":"847-358-3600","date last confirmed":"2010-02-28","actual":1,"longitude":-88.056257,"plus4":2572,"groups with access code":"Public - credit card at all times","government":0,"state":"IL","distance":20.1877801633247},"type":"Feature","geometry":{"type":"Point","coordinates":[-88.056257,42.116959]}},{"properties":{"expected date":null,"city":"Barrington","latitude":42.214247,"zip":"60010","station name":"Minuteman Citgo Lake Zurich","public":1,"private":0,"id":"1847","street address":"24112 Rand Rd","station phone":"847-438-5722","date last confirmed":"2010-11-30","actual":1,"longitude":-88.111678,"plus4":null,"groups with access code":"Public - see hours","government":0,"state":"IL","distance":16.8082142589392},"type":"Feature","geometry":{"type":"Point","coordinates":[-88.111678,42.214247]}},{"properties":{"expected date":null,"city":"Crystal Lake","latitude":42.2293587,"zip":"60014","station name":"Shell","public":1,"private":0,"id":"1443","street address":"220 West Virginia St","station phone":"815-459-7807","date last confirmed":"2011-04-30","actual":1,"longitude":-88.3307856,"plus4":7272,"groups with access code":"Public - see hours","government":0,"state":"IL","distance":29.1813673825155},"type":"Feature","geometry":{"type":"Point","coordinates":[-88.3307856,42.2293587]}},{"properties":{"expected date":null,"city":"Great Lakes","latitude":42.3160976,"zip":"60088","station name":"Naval Station Great Lakes","public":0,"private":0,"id":"96","street address":"2415 Saulding","station phone":null,"date last confirmed":"2009-12-03","actual":1,"longitude":-87.8517837,"plus4":null,"groups with access code":"Private - government only","government":1,"state":"IL","distance":7.75360753038296},"type":"Feature","geometry":{"type":"Point","coordinates":[-87.8517837,42.3160976]}},{"properties":{"expected date":null,"city":"Volo","latitude":42.3236748,"zip":"60073","station name":"Thornton's #310","public":1,"private":0,"id":"2368","street address":"205 S US Highway 12","station phone":"815-578-9085","date last confirmed":"2011-02-28","actual":1,"longitude":-88.1644571,"plus4":null,"groups with access code":"Public - see hours","government":0,"state":"IL","distance":16.3149500232722},"type":"Feature","geometry":{"type":"Point","coordinates":[-88.1644571,42.3236748]}},{"properties":{"expected date":null,"city":"Lakemoor","latitude":42.328289,"zip":"60051","station name":"Thornton's","public":1,"private":0,"id":"2443","street address":"28937 W Illinois Route 120","station phone":"815-344-1502","date last confirmed":"2011-06-30","actual":1,"longitude":-88.197644,"plus4":null,"groups with access code":"Public - see hours","government":0,"state":"IL","distance":18.412977625516},"type":"Feature","geometry":{"type":"Point","coordinates":[-88.197644,42.328289]}},{"properties":{"expected date":null,"city":"McHenry","latitude":42.3433459,"zip":"60050","station name":"PetroLiance LLC","public":1,"private":0,"id":"762","street address":"4019 W Main St","station phone":"847-741-2577","date last confirmed":"2010-12-31","actual":1,"longitude":-88.277302,"plus4":null,"groups with access code":"Public - credit card at all times","government":0,"state":"IL","distance":23.7499298394802},"type":"Feature","geometry":{"type":"Point","coordinates":[-88.277302,42.3433459]}},{"properties":{"expected date":null,"city":"Gages Lake","latitude":42.356644,"zip":"60030","station name":"Gages Lake Citgo","public":1,"private":0,"id":"1657","street address":"33978 N US 45","station phone":"847-223-9033","date last confirmed":"2010-11-30","actual":1,"longitude":-88.003008,"plus4":null,"groups with access code":"Public - see hours","government":0,"state":"IL","distance":4.99884566726995},"type":"Feature","geometry":{"type":"Point","coordinates":[-88.003008,42.356644]}},{"properties":{"expected date":null,"city":"Harvard","latitude":42.4058599,"zip":"60033","station name":"Sullivans Foods &amp; Fuel","public":1,"private":0,"id":"798","street address":"1299 S Division St","station phone":"815-943-7446","date last confirmed":"2010-11-30","actual":1,"longitude":-88.6134079,"plus4":null,"groups with access code":"Public - credit card at all times","government":0,"state":"IL","distance":46.7202509067346},"type":"Feature","geometry":{"type":"Point","coordinates":[-88.6134079,42.4058599]}},{"properties":{"expected date":null,"city":"Beach Park","latitude":42.421107,"zip":"60099","station name":"Annas Marketplace &amp; Car Wash - Citgo","public":1,"private":0,"id":"2310","street address":"38512 N Sheridan Rd","station phone":"847-244-9800","date last confirmed":"2010-11-30","actual":1,"longitude":-87.826071,"plus4":null,"groups with access code":"Public - see hours","government":0,"state":"IL","distance":8.4515782024804},"type":"Feature","geometry":{"type":"Point","coordinates":[-87.826071,42.421107]}},{"properties":{"expected date":null,"city":"Richmond","latitude":42.4711808,"zip":"60071","station name":"Richmond Shell","public":1,"private":0,"id":"1644","street address":"10007 Main St","station phone":"815-678-2929","date last confirmed":"2010-11-30","actual":1,"longitude":-88.3064612,"plus4":null,"groups with access code":"Public - see hours","government":0,"state":"IL","distance":26.3053223997996},"type":"Feature","geometry":{"type":"Point","coordinates":[-88.3064612,42.4711808]}},{"properties":{"expected date":null,"city":"Winthrop Harbor","latitude":42.47827,"zip":"60096","station name":"Harbor Marathon","public":1,"private":0,"id":"1405","street address":"901 N Sheridan Rd","station phone":"847-731-9600","date last confirmed":"2011-04-30","actual":1,"longitude":-87.8233489,"plus4":null,"groups with access code":"Public - see hours","government":0,"state":"IL","distance":10.5983935434973},"type":"Feature","geometry":{"type":"Point","coordinates":[-87.8233489,42.47827]}},{"properties":{"expected date":null,"city":"Walworth","latitude":42.529794,"zip":"53184","station name":"Daniels Sentry Foods","public":1,"private":0,"id":"536","street address":"681 Kenosha St","station phone":"262-275-2384","date last confirmed":"2010-08-31","actual":1,"longitude":-88.585536,"plus4":null,"groups with access code":"Public - credit card after hours","government":0,"state":"WI","distance":45.8984246580859},"type":"Feature","geometry":{"type":"Point","coordinates":[-88.585536,42.529794]}},{"properties":{"expected date":null,"city":"Burlington","latitude":42.583204,"zip":"53105","station name":"Wheatland Convenience Center","public":1,"private":0,"id":"1497","street address":"33703 59th St","station phone":"262-537-2312","date last confirmed":"2010-08-31","actual":1,"longitude":-88.219241,"plus4":null,"groups with access code":"Public - see hours","government":0,"state":"WI","distance":24.0067335640107},"type":"Feature","geometry":{"type":"Point","coordinates":[-88.219241,42.583204]}},{"properties":{"expected date":null,"city":"Elkhorn","latitude":42.693747,"zip":"53121","station name":"Kwik Trip #485","public":1,"private":0,"id":"1961","street address":"6 W Hidden Trail","station phone":"262-723-7179","date last confirmed":"2011-04-30","actual":1,"longitude":-88.546614,"plus4":null,"groups with access code":"Public - see hours","government":0,"state":"WI","distance":47.3603772321808},"type":"Feature","geometry":{"type":"Point","coordinates":[-88.546614,42.693747]}},{"properties":{"expected date":null,"city":"Racine","latitude":42.720168,"zip":"53406","station name":"Washington Avenue Mobil","public":1,"private":0,"id":"1167","street address":"6840 Washington Ave","station phone":"262-884-7500","date last confirmed":"2011-04-30","actual":1,"longitude":-87.865072,"plus4":null,"groups with access code":"Public - see hours","government":0,"state":"WI","distance":24.0329699804191},"type":"Feature","geometry":{"type":"Point","coordinates":[-87.865072,42.720168]}},{"properties":{"expected date":null,"city":"Racine","latitude":42.751851,"zip":"53404","station name":"BP","public":1,"private":0,"id":"2394","street address":"3502 Rapids Dr","station phone":"262-634-5801","date last confirmed":"2011-04-30","actual":1,"longitude":-87.82101,"plus4":null,"groups with access code":"Public - see hours","government":0,"state":"WI","distance":27.0063108653554},"type":"Feature","geometry":{"type":"Point","coordinates":[-87.82101,42.751851]}},{"properties":{"expected date":null,"city":"West Bend","latitude":42.7851088,"zip":"53095","station name":"Tri Par","public":1,"private":0,"id":"1440","street address":"5015 Highway P","station phone":"262-338-8531","date last confirmed":"2010-08-31","actual":1,"longitude":-88.2513629,"plus4":null,"groups with access code":"Public - see hours","government":0,"state":"WI","distance":35.4176666409607},"type":"Feature","geometry":{"type":"Point","coordinates":[-88.2513629,42.7851088]}},{"properties":{"expected date":null,"city":"Oak Creek","latitude":42.8722284,"zip":"53154","station name":"Kwik Trip #422","public":1,"private":0,"id":"2352","street address":"9535 S 13th St","station phone":"414-762-2370","date last confirmed":"2011-01-31","actual":1,"longitude":-87.9324956,"plus4":null,"groups with access code":"Public - see hours","government":0,"state":"WI","distance":33.9314175297884},"type":"Feature","geometry":{"type":"Point","coordinates":[-87.9324956,42.8722284]}},{"properties":{"expected date":null,"city":"Oak Creek","latitude":42.8975404,"zip":"53154","station name":"Woodman's Food Markets","public":1,"private":0,"id":"1640","street address":"8131 S Howell Ave","station phone":"414-376-4023","date last confirmed":"2010-11-30","actual":1,"longitude":-87.9119023,"plus4":null,"groups with access code":"Public - see hours","government":0,"state":"WI","distance":35.8080554331954},"type":"Feature","geometry":{"type":"Point","coordinates":[-87.9119023,42.8975404]}},{"properties":{"expected date":null,"city":"Franklin","latitude":42.9161392,"zip":"53132","station name":"Andy's","public":1,"private":0,"id":"1498","street address":"5040 W Rawson","station phone":"414-425-3800","date last confirmed":"2010-08-31","actual":1,"longitude":-87.9788004,"plus4":null,"groups with access code":"Public - see hours","government":0,"state":"WI","distance":37.1758278232676},"type":"Feature","geometry":{"type":"Point","coordinates":[-87.9788004,42.9161392]}},{"properties":{"expected date":null,"city":"Milwaukee","latitude":42.935796,"zip":"53207","station name":"Airport Petroleum Corporation","public":1,"private":0,"id":"1956","street address":"5979 S Howell Ave","station phone":"414-747-8779","date last confirmed":"2010-08-31","actual":1,"longitude":-87.910304,"plus4":null,"groups with access code":"Public - see hours","government":0,"state":"WI","distance":38.4447282054706},"type":"Feature","geometry":{"type":"Point","coordinates":[-87.910304,42.935796]}},{"properties":{"expected date":null,"city":"Waukesha","latitude":42.993647,"zip":"53186","station name":"Kwik Trip #436","public":1,"private":0,"id":"601","street address":"924 Fleetfoot Dr","station phone":"262-446-3313","date last confirmed":"2011-04-30","actual":1,"longitude":-88.203417,"plus4":null,"groups with access code":"Public - credit card after hours","government":0,"state":"WI","distance":46.0558008798544},"type":"Feature","geometry":{"type":"Point","coordinates":[-88.203417,42.993647]}},{"properties":{"expected date":null,"city":"Waukesha","latitude":42.995841,"zip":"53186","station name":"Kwik Trip #373","public":1,"private":0,"id":"2214","street address":"1809 W St Paul Ave","station phone":"262-547-1450","date last confirmed":"2011-04-30","actual":1,"longitude":-88.258317,"plus4":null,"groups with access code":"Public - see hours","government":0,"state":"WI","distance":47.9742362087954},"type":"Feature","geometry":{"type":"Point","coordinates":[-88.258317,42.995841]}},{"properties":{"expected date":null,"city":"Milwaukee","latitude":43.0251745,"zip":"53204","station name":"Walker's Point Plaza","public":1,"private":0,"id":"1227","street address":"605 S First St","station phone":"414-220-4380","date last confirmed":"2010-08-31","actual":1,"longitude":-87.9110981,"plus4":null,"groups with access code":"Public - see hours","government":0,"state":"WI","distance":44.574307321053},"type":"Feature","geometry":{"type":"Point","coordinates":[-87.9110981,43.0251745]}}],"is_temporal":false,"author":{"url":null,"metadata":null,"contact_name":null,"contact_address":null,"source":null,"contact_phone":null},"source":null,"pagination":{"sort":null,"start":0,"total":307,"limit":1000000},"state":"complete","tags":"","published":"2014-08-12T21:47:19-04:00","id":160599}