{"type":"FeatureCollection","data_type":"Dataset Analysis","url_type":null,"permissions":[{"permissions":{"download":true,"view":true},"group_id":"everyone"}],"classification":null,"title":"Clipped 'Electric Vehicle Charging Stations ' using 'Dataset from 'Theme Parks' with a 50miles buffer'","count":307,"stream_id":160561,"contributor":{"url":"http://geocommons.com/users/3645","name":"semprebon"},"data_attributes":null,"calculation_params":[{"calculation":"clip","input":{"ds1":"160474","ds2":"160379"}}],"icon_link":null,"link":"http://geocommons.com/overlays/160561.json","extent":[-122.506,27.8598,-73.9944,43.0252],"geometry_types":["point"],"unique_name":null,"name":"Clipped 'Electric Vehicle Charging Stations ' using 'Dataset from 'Theme Parks' with a 50miles buffer'","feature_count":307,"description":"Dataset created by clipping 1) Electric Vehicle Charging Stations   with 2) Dataset from 'Theme Parks' with a 50miles buffer as the clipping dataset","next_feature":null,"is_raster":false,"short_classification":"Y","stats":{"latitude":{"max":43.0251745,"mean":38.0186959876221,"variance":12.7980985918838,"stdev":3.57744302426801,"min":27.859822,"median":38.8883234},"public":{"max":1,"mean":0.762214983713355,"variance":0.181835600689787,"stdev":0.42642185765951,"min":0,"median":1},"private":{"max":1,"mean":0.0684039087947883,"variance":0.0639330650827114,"stdev":0.252849886459756,"min":0,"median":0},"id":{"max":40360,"mean":33023.1824104235,"variance":14685737.7640033,"stdev":3832.19751108986,"min":18843,"median":33223},"actual":{"max":1,"mean":0.957654723127036,"variance":0.0406846777799063,"stdev":0.201704431730952,"min":0,"median":1},"plus4":{"max":9998,"mean":4391.21052631579,"variance":5824373.06432749,"stdev":2413.3737929147,"min":1314,"median":3918},"longitude":{"max":-73.994377,"mean":-88.2088937517915,"variance":155.465391496672,"stdev":12.468576161562,"min":-122.506388,"median":-84.5759924},"government":{"max":1,"mean":0.127035830618893,"variance":0.111260139234847,"stdev":0.333556800612499,"min":0,"median":0}},"features":[{"properties":{"city":"Brooklyn","expected date":"2011-06-15","station name":"Department of Sanitation New York City - Brooklyn 11","zip":"12214","latitude":40.5917267,"public":0,"private":0,"street address":"1824 Shore Pkwy","id":"1","station phone":null,"actual":0,"date last confirmed":"2011-02-28","plus4":null,"longitude":-73.994377,"groups with access code":"PLANNED - not yet accessible","state":"NY","government":0},"type":"Feature","geometry":{"type":"Point","coordinates":[-73.994377,40.5917267]}},{"properties":{"city":"Fort Mill","expected date":"2011-07-01","station name":"Fairway Fuel","zip":"29715","latitude":35.008779,"public":0,"private":0,"street address":"1290 Tom Hall St","id":"2","station phone":"803-548-2074","actual":0,"date last confirmed":"2011-04-30","plus4":null,"longitude":-80.9178137,"groups with access code":"PLANNED - not yet accessible","state":"SC","government":0},"type":"Feature","geometry":{"type":"Point","coordinates":[-80.9178137,35.008779]}},{"properties":{"city":"Rockville","expected date":"2011-12-01","station name":"Congressional Plaza Sunoco","zip":"20852","latitude":39.0658294,"public":0,"private":0,"street address":"1464 Rockville Pike","id":"7","station phone":"301-770-7240","actual":0,"date last confirmed":"2011-06-30","plus4":null,"longitude":-77.12716,"groups with access code":"PLANNED - not yet accessible","state":"MD","government":0},"type":"Feature","geometry":{"type":"Point","coordinates":[-77.12716,39.0658294]}},{"properties":{"city":"Takoma Park","expected date":"2011-12-01","station name":"Takoma Park Texaco","zip":"20912","latitude":38.9677689,"public":0,"private":0,"street address":"6400 New Hampshire Ave","id":"8","station phone":"301-270-7119","actual":0,"date last confirmed":"2011-06-30","plus4":null,"longitude":-77.0013589,"groups with access code":"PLANNED - not yet accessible","state":"MD","government":0},"type":"Feature","geometry":{"type":"Point","coordinates":[-77.0013589,38.9677689]}},{"properties":{"city":"Hillsboro","expected date":"2011-08-01","station name":"Willie's Place","zip":"76645","latitude":32.9437717,"public":0,"private":0,"street address":"101 Cornelius Rd S","id":"9","station phone":"254-582-8433","actual":0,"date last confirmed":"2010-12-31","plus4":null,"longitude":-96.4296518,"groups with access code":"PLANNED - not yet accessible","state":"TX","government":0},"type":"Feature","geometry":{"type":"Point","coordinates":[-96.4296518,32.9437717]}},{"properties":{"city":"San Diego","expected date":"2011-09-01","station name":"Miramar Marine Corps Air Station","zip":"92145","latitude":32.887588,"public":0,"private":0,"street address":"Bauer Rd &amp; Gonsalves Ave","id":"12","station phone":null,"actual":0,"date last confirmed":"2011-02-28","plus4":null,"longitude":-117.1293781,"groups with access code":"PLANNED - not yet accessible","state":"CA","government":0},"type":"Feature","geometry":{"type":"Point","coordinates":[-117.1293781,32.887588]}},{"properties":{"city":"Perry Point","expected date":"2011-03-15","station name":"Perry Point VA Medical Center","zip":"21902","latitude":39.429161,"public":0,"private":0,"street address":"Circle Dr","id":"13","station phone":null,"actual":0,"date last confirmed":"2010-12-31","plus4":null,"longitude":-75.9930307,"groups with access code":"PLANNED - not yet accessible","state":"MD","government":0},"type":"Feature","geometry":{"type":"Point","coordinates":[-75.9930307,39.429161]}},{"properties":{"city":"Doraville","expected date":"2011-12-31","station name":"Shell Nirvana Food Mart","zip":"30360","latitude":33.924112,"public":0,"private":0,"street address":"6400 Peachtree Industrial Blvd","id":"18","station phone":"770-458-8009","actual":0,"date last confirmed":"2011-06-30","plus4":null,"longitude":-84.281218,"groups with access code":"PLANNED - not yet accessible","state":"GA","government":0},"type":"Feature","geometry":{"type":"Point","coordinates":[-84.281218,33.924112]}},{"properties":{"city":"Chicago","expected date":"2011-06-15","station name":"City of Chicago FS#2","zip":"60626","latitude":41.9992708,"public":0,"private":0,"street address":"6445 N Ravenswood","id":"19","station phone":null,"actual":0,"date last confirmed":"2010-09-30","plus4":null,"longitude":-87.6750217,"groups with access code":"PLANNED - not yet accessible","state":"IL","government":0},"type":"Feature","geometry":{"type":"Point","coordinates":[-87.6750217,41.9992708]}},{"properties":{"city":"Chicago","expected date":"2011-06-15","station name":"City of Chicago FS#202","zip":"60638","latitude":41.7782998,"public":0,"private":0,"street address":"5150 W 63rd St","id":"20","station phone":null,"actual":0,"date last confirmed":"2010-09-30","plus4":null,"longitude":-87.750506,"groups with access code":"PLANNED - not yet accessible","state":"IL","government":0},"type":"Feature","geometry":{"type":"Point","coordinates":[-87.750506,41.7782998]}},{"properties":{"city":"Chicago","expected date":"2011-06-15","station name":"City of Chicago FS#205","zip":"60618","latitude":41.9403515,"public":0,"private":0,"street address":"3245 N Cambell","id":"21","station phone":null,"actual":0,"date last confirmed":"2010-09-30","plus4":null,"longitude":-87.6905971,"groups with access code":"PLANNED - not yet accessible","state":"IL","government":0},"type":"Feature","geometry":{"type":"Point","coordinates":[-87.6905971,41.9403515]}},{"properties":{"city":"Washington","expected date":"2011-03-15","station name":"National Zoological Park - Smithsonian","zip":"20008","latitude":38.92997,"public":0,"private":0,"street address":"3001 Connecticut Ave NW","id":"28","station phone":null,"actual":0,"date last confirmed":"2010-12-31","plus4":null,"longitude":-77.055101,"groups with access code":"PLANNED - not yet accessible","state":"DC","government":0},"type":"Feature","geometry":{"type":"Point","coordinates":[-77.055101,38.92997]}},{"properties":{"city":"Rock Hill","expected date":"2011-08-15","station name":"City of Rock Hill","zip":"29730","latitude":34.9214195,"public":0,"private":0,"street address":"757 S Anderson Rd","id":"42","station phone":"803-329-5551","actual":0,"date last confirmed":"2011-04-30","plus4":null,"longitude":-80.9927288,"groups with access code":"PLANNED - not yet accessible","state":"SC","government":0},"type":"Feature","geometry":{"type":"Point","coordinates":[-80.9927288,34.9214195]}},{"properties":{"city":"Atlanta","expected date":null,"station name":"PS Energy - UFO","zip":"30303","latitude":33.7454738,"public":0,"private":1,"street address":"340 Whitehall St SW","id":"53","station phone":"404-321-5711","actual":1,"date last confirmed":"2011-06-30","plus4":3718,"longitude":-84.4000209,"groups with access code":"Private - fleet customers only","state":"GA","government":0},"type":"Feature","geometry":{"type":"Point","coordinates":[-84.4000209,33.7454738]}},{"properties":{"city":"Livermore","expected date":null,"station name":"Lawrence Livermore National Laboratory","zip":"94551","latitude":37.681216,"public":0,"private":0,"street address":"7000 East Ave","id":"78","station phone":null,"actual":1,"date last confirmed":"2010-12-31","plus4":9234,"longitude":-121.698978,"groups with access code":"Private - government only","state":"CA","government":1},"type":"Feature","geometry":{"type":"Point","coordinates":[-121.698978,37.681216]}},{"properties":{"city":"Staten Island","expected date":null,"station name":"Department of Sanitation New York City - Staten Island 2","zip":"10314","latitude":40.5878181,"public":0,"private":0,"street address":"2500 Richmond Ave","id":"84","station phone":null,"actual":1,"date last confirmed":"2011-02-28","plus4":null,"longitude":-74.168232,"groups with access code":"Private - government only","state":"NY","government":1},"type":"Feature","geometry":{"type":"Point","coordinates":[-74.168232,40.5878181]}},{"properties":{"city":"Cleveland","expected date":null,"station name":"Glenn Research Center","zip":"44135","latitude":41.411335,"public":0,"private":0,"street address":"Taylor Rd","id":"87","station phone":null,"actual":1,"date last confirmed":"2010-12-31","plus4":1525,"longitude":-81.86235,"groups with access code":"Private - government only","state":"OH","government":1},"type":"Feature","geometry":{"type":"Point","coordinates":[-81.86235,41.411335]}},{"properties":{"city":"Fort Belvoir","expected date":null,"station name":"Fort Belvoir","zip":"22060","latitude":38.7040514,"public":0,"private":0,"street address":null,"id":"91","station phone":null,"actual":1,"date last confirmed":"2009-12-03","plus4":null,"longitude":-77.1600201,"groups with access code":"Private - government only","state":"VA","government":1},"type":"Feature","geometry":{"type":"Point","coordinates":[-77.1600201,38.7040514]}},{"properties":{"city":"Dayton","expected date":null,"station name":"Wright-Patterson Air Force Base - Station 1","zip":"45433","latitude":39.818065,"public":0,"private":0,"street address":"1940 Allbrook Dr","id":"93","station phone":null,"actual":1,"date last confirmed":"2009-12-03","plus4":5541,"longitude":-84.033595,"groups with access code":"Private - government only","state":"OH","government":1},"type":"Feature","geometry":{"type":"Point","coordinates":[-84.033595,39.818065]}},{"properties":{"city":"Dayton","expected date":null,"station name":"Wright-Patterson Air Force Base - Station 2","zip":"45433","latitude":39.818065,"public":0,"private":0,"street address":"1940 Allbrook Dr","id":"94","station phone":null,"actual":1,"date last confirmed":"2009-12-03","plus4":null,"longitude":-84.033595,"groups with access code":"Private - government only","state":"OH","government":1},"type":"Feature","geometry":{"type":"Point","coordinates":[-84.033595,39.818065]}},{"properties":{"city":"Berkeley","expected date":null,"station name":"Lawrence Berkeley National Laboratory","zip":"94720","latitude":37.876706,"public":0,"private":0,"street address":"McMillan Rd","id":"95","station phone":null,"actual":1,"date last confirmed":"2010-12-31","plus4":null,"longitude":-122.246067,"groups with access code":"Private - government only","state":"CA","government":1},"type":"Feature","geometry":{"type":"Point","coordinates":[-122.246067,37.876706]}},{"properties":{"city":"Great Lakes","expected date":null,"station name":"Naval Station Great Lakes","zip":"60088","latitude":42.3160976,"public":0,"private":0,"street address":"2415 Saulding","id":"96","station phone":null,"actual":1,"date last confirmed":"2009-12-03","plus4":null,"longitude":-87.8517837,"groups with access code":"Private - government only","state":"IL","government":1},"type":"Feature","geometry":{"type":"Point","coordinates":[-87.8517837,42.3160976]}},{"properties":{"city":"Hampton","expected date":null,"station name":"Langley Research Center","zip":"23681","latitude":37.097728,"public":0,"private":0,"street address":"2 E Ames St","id":"101","station phone":null,"actual":1,"date last confirmed":"2010-12-31","plus4":null,"longitude":-76.383423,"groups with access code":"Private - government only","state":"VA","government":1},"type":"Feature","geometry":{"type":"Point","coordinates":[-76.383423,37.097728]}},{"properties":{"city":"Portsmouth","expected date":null,"station name":"Norfolk Naval Shipyard","zip":"23709","latitude":36.817133,"public":0,"private":0,"street address":null,"id":"107","station phone":null,"actual":1,"date last confirmed":"2009-12-03","plus4":null,"longitude":-76.300781,"groups with access code":"Private - government only","state":"VA","government":1},"type":"Feature","geometry":{"type":"Point","coordinates":[-76.300781,36.817133]}},{"properties":{"city":"Yorktown","expected date":null,"station name":"Yorktown Naval Weapons Station","zip":"23691","latitude":37.2590734,"public":0,"private":0,"street address":null,"id":"108","station phone":null,"actual":1,"date last confirmed":"2009-12-03","plus4":null,"longitude":-76.557493,"groups with access code":"Private - government only","state":"VA","government":1},"type":"Feature","geometry":{"type":"Point","coordinates":[-76.557493,37.2590734]}},{"properties":{"city":"Washington","expected date":null,"station name":"Bolling Air Force Base","zip":"20332","latitude":38.85076,"public":0,"private":0,"street address":"211 Brookley Ave","id":"109","station phone":null,"actual":1,"date last confirmed":"2009-12-03","plus4":null,"longitude":-77.008499,"groups with access code":"Private - government only","state":"DC","government":1},"type":"Feature","geometry":{"type":"Point","coordinates":[-77.008499,38.85076]}},{"properties":{"city":"Universal City","expected date":null,"station name":"Randolph Air Force Base","zip":"78150","latitude":29.534429,"public":0,"private":0,"street address":"395 B St W","id":"115","station phone":null,"actual":1,"date last confirmed":"2009-12-03","plus4":null,"longitude":-98.285529,"groups with access code":"Private - government only","state":"TX","government":1},"type":"Feature","geometry":{"type":"Point","coordinates":[-98.285529,29.534429]}},{"properties":{"city":"Baltimore","expected date":null,"station name":"Baltimore State Office Center - Department of General Services","zip":"21201","latitude":39.301951,"public":0,"private":0,"street address":"301 W Preston St","id":"117","station phone":"410-767-4310","actual":1,"date last confirmed":"2010-09-30","plus4":null,"longitude":-76.622804,"groups with access code":"Private - government only","state":"MD","government":1},"type":"Feature","geometry":{"type":"Point","coordinates":[-76.622804,39.301951]}},{"properties":{"city":"Andrews AFB","expected date":null,"station name":"Andrews Air Force Base","zip":"20762","latitude":38.807471,"public":0,"private":0,"street address":"3066 E Perimeter Rd","id":"119","station phone":null,"actual":1,"date last confirmed":"2009-12-03","plus4":null,"longitude":-76.856443,"groups with access code":"Private - government only","state":"MD","government":1},"type":"Feature","geometry":{"type":"Point","coordinates":[-76.856443,38.807471]}},{"properties":{"city":"Tampa","expected date":null,"station name":"MacDill Air Force Base","zip":"33621","latitude":27.859822,"public":0,"private":0,"street address":"2914 Great Egret Ave","id":"120","station phone":null,"actual":1,"date last confirmed":"2009-12-03","plus4":null,"longitude":-82.494425,"groups with access code":"Private - government only","state":"FL","government":1},"type":"Feature","geometry":{"type":"Point","coordinates":[-82.494425,27.859822]}},{"properties":{"city":"Bethesda","expected date":null,"station name":"National Institutes of Health","zip":"20892","latitude":39.0040649,"public":0,"private":0,"street address":"9000 Rockville Pike","id":"122","station phone":null,"actual":1,"date last confirmed":"2010-12-31","plus4":null,"longitude":-77.0974955,"groups with access code":"Private - government only","state":"MD","government":1},"type":"Feature","geometry":{"type":"Point","coordinates":[-77.0974955,39.0040649]}},{"properties":{"city":"San Antonio","expected date":null,"station name":"Lackland Air Force Base","zip":"78236","latitude":29.38009,"public":0,"private":0,"street address":"1865 Selfridge Ave","id":"124","station phone":null,"actual":1,"date last confirmed":"2009-12-03","plus4":null,"longitude":-98.617161,"groups with access code":"Private - government only","state":"TX","government":1},"type":"Feature","geometry":{"type":"Point","coordinates":[-98.617161,29.38009]}},{"properties":{"city":"New Cumberland","expected date":null,"station name":"Pennsylvania Turnpike New Cumberland Maintenance Facility","zip":"17070","latitude":40.1968982,"public":0,"private":0,"street address":"519 Marsh Run Rd","id":"128","station phone":null,"actual":1,"date last confirmed":"2010-05-31","plus4":null,"longitude":-76.8275485,"groups with access code":"Private - government only","state":"PA","government":1},"type":"Feature","geometry":{"type":"Point","coordinates":[-76.8275485,40.1968982]}},{"properties":{"city":"Richmond","expected date":null,"station name":"Virginia Office of Fleet Management Services","zip":"23220","latitude":37.563663,"public":0,"private":0,"street address":"2400 W Leigh St","id":"131","station phone":null,"actual":1,"date last confirmed":"2010-10-31","plus4":null,"longitude":-77.463136,"groups with access code":"Private - government only","state":"VA","government":1},"type":"Feature","geometry":{"type":"Point","coordinates":[-77.463136,37.563663]}},{"properties":{"city":"Baltimore","expected date":null,"station name":"Social Security Administration","zip":"21235","latitude":39.310685,"public":0,"private":0,"street address":"6401 Security Blvd","id":"139","station phone":"410-965-4082","actual":1,"date last confirmed":"2010-12-31","plus4":null,"longitude":-76.727065,"groups with access code":"Private - government only","state":"MD","government":1},"type":"Feature","geometry":{"type":"Point","coordinates":[-76.727065,39.310685]}},{"properties":{"city":"Rock Hill","expected date":null,"station name":"City of Rock Hill","zip":"29730","latitude":34.9379597,"public":0,"private":0,"street address":"349 Columbia Ave","id":"140","station phone":"803-329-5551","actual":1,"date last confirmed":"2011-04-30","plus4":3505,"longitude":-81.0347375,"groups with access code":"Private - government only","state":"SC","government":1},"type":"Feature","geometry":{"type":"Point","coordinates":[-81.0347375,34.9379597]}},{"properties":{"city":"Richmond","expected date":null,"station name":"AAFES Bellwood Station","zip":"23297","latitude":37.4151499,"public":0,"private":0,"street address":"8000 Jefferson Davis Hwy","id":"145","station phone":"804-275-1478","actual":1,"date last confirmed":"2011-06-30","plus4":null,"longitude":-77.4360478,"groups with access code":"Private - government only","state":"VA","government":1},"type":"Feature","geometry":{"type":"Point","coordinates":[-77.4360478,37.4151499]}},{"properties":{"city":"Orlando","expected date":null,"station name":"Orange County","zip":"32802","latitude":28.500075,"public":0,"private":0,"street address":"4400 Vineland Rd","id":"154","station phone":null,"actual":1,"date last confirmed":"2011-06-30","plus4":null,"longitude":-81.432644,"groups with access code":"Private - government only","state":"FL","government":1},"type":"Feature","geometry":{"type":"Point","coordinates":[-81.432644,28.500075]}},{"properties":{"city":"Princeton","expected date":null,"station name":"Princeton Plasma Physics Laboratory","zip":"8453","latitude":40.352188,"public":0,"private":0,"street address":"100 Stellarator Rd","id":"159","station phone":null,"actual":1,"date last confirmed":"2010-12-31","plus4":null,"longitude":-74.6069982,"groups with access code":"Private - government only","state":"NJ","government":1},"type":"Feature","geometry":{"type":"Point","coordinates":[-74.6069982,40.352188]}},{"properties":{"city":"Brecksville","expected date":null,"station name":"Louis Stokes Cleveland VA Medical Center","zip":"44141","latitude":41.2936966,"public":0,"private":0,"street address":"10000 Brecksville Rd","id":"160","station phone":null,"actual":1,"date last confirmed":"2010-12-31","plus4":null,"longitude":-81.6292334,"groups with access code":"Private - government only","state":"OH","government":1},"type":"Feature","geometry":{"type":"Point","coordinates":[-81.6292334,41.2936966]}},{"properties":{"city":"Baltimore","expected date":null,"station name":"City of Baltimore","zip":"21202","latitude":39.2937529,"public":0,"private":0,"street address":"420 N Front St","id":"167","station phone":null,"actual":1,"date last confirmed":"2010-09-30","plus4":null,"longitude":-76.6089229,"groups with access code":"Private - government only","state":"MD","government":1},"type":"Feature","geometry":{"type":"Point","coordinates":[-76.6089229,39.2937529]}},{"properties":{"city":"Baltimore","expected date":null,"station name":"City of Baltimore","zip":"21213","latitude":39.306494,"public":0,"private":0,"street address":"3800 E Biddle St","id":"168","station phone":null,"actual":1,"date last confirmed":"2010-09-30","plus4":null,"longitude":-76.566271,"groups with access code":"Private - government only","state":"MD","government":1},"type":"Feature","geometry":{"type":"Point","coordinates":[-76.566271,39.306494]}},{"properties":{"city":"Coatesville","expected date":null,"station name":"Coatesville VA Medical Center","zip":"19320","latitude":39.9986463,"public":0,"private":0,"street address":"1400 Blackhorse Hill Rd","id":"173","station phone":"610-384-7711","actual":1,"date last confirmed":"2010-12-31","plus4":null,"longitude":-75.8005774,"groups with access code":"Private - government only","state":"PA","government":1},"type":"Feature","geometry":{"type":"Point","coordinates":[-75.8005774,39.9986463]}},{"properties":{"city":"Dayton","expected date":null,"station name":"Dayton VA Medical Center","zip":"45428","latitude":39.744371,"public":0,"private":0,"street address":"4100 W Third St","id":"180","station phone":null,"actual":1,"date last confirmed":"2010-12-31","plus4":null,"longitude":-84.261878,"groups with access code":"Private - government only","state":"OH","government":1},"type":"Feature","geometry":{"type":"Point","coordinates":[-84.261878,39.744371]}},{"properties":{"city":"Gaithersburg","expected date":null,"station name":"Department of Commerce","zip":"20899","latitude":39.140096,"public":0,"private":0,"street address":"100 Bureau Dr","id":"181","station phone":null,"actual":1,"date last confirmed":"2011-04-30","plus4":null,"longitude":-77.218394,"groups with access code":"Private - government only","state":"MD","government":1},"type":"Feature","geometry":{"type":"Point","coordinates":[-77.218394,39.140096]}},{"properties":{"city":"Hamilton","expected date":null,"station name":"Hamilton Township","zip":"8610","latitude":40.2084798,"public":0,"private":0,"street address":"240 Tampa Ave","id":"183","station phone":null,"actual":1,"date last confirmed":"2011-02-28","plus4":null,"longitude":-74.709909,"groups with access code":"Private - government only","state":"NJ","government":1},"type":"Feature","geometry":{"type":"Point","coordinates":[-74.709909,40.2084798]}},{"properties":{"city":"College Park","expected date":null,"station name":"University of Maryland - Motor Transportation Facility","zip":"20742","latitude":38.7531223,"public":0,"private":0,"street address":"Building 011","id":"186","station phone":null,"actual":1,"date last confirmed":"2010-10-31","plus4":6311,"longitude":-76.6597963,"groups with access code":"Private - government only","state":"MD","government":1},"type":"Feature","geometry":{"type":"Point","coordinates":[-76.6597963,38.7531223]}},{"properties":{"city":"Menlo Park","expected date":null,"station name":"Menlo Park VA Medical Center","zip":"94025","latitude":37.466879,"public":0,"private":0,"street address":"795 Willow Rd","id":"187","station phone":null,"actual":1,"date last confirmed":"2010-12-31","plus4":null,"longitude":-122.162803,"groups with access code":"Private - government only","state":"CA","government":1},"type":"Feature","geometry":{"type":"Point","coordinates":[-122.162803,37.466879]}},{"properties":{"city":"Hanover","expected date":null,"station name":"SHA Refueling Station","zip":"21076","latitude":39.160387,"public":0,"private":0,"street address":"7491 Connelley Dr","id":"192","station phone":"410-582-5575","actual":1,"date last confirmed":"2010-11-30","plus4":null,"longitude":-76.679571,"groups with access code":"Private - government only","state":"MD","government":1},"type":"Feature","geometry":{"type":"Point","coordinates":[-76.679571,39.160387]}},{"properties":{"city":"Dallas","expected date":null,"station name":"Dallas VA Medical Center","zip":"75216","latitude":32.696398,"public":0,"private":0,"street address":"4500 S Lancaster Rd","id":"199","station phone":null,"actual":1,"date last confirmed":"2010-12-31","plus4":null,"longitude":-96.786858,"groups with access code":"Private - government only","state":"TX","government":1},"type":"Feature","geometry":{"type":"Point","coordinates":[-96.786858,32.696398]}},{"properties":{"city":"Charlotte","expected date":null,"station name":"North Carolina DOT","zip":"28213","latitude":35.2710579,"public":0,"private":0,"street address":"7901 District Dr","id":"202","station phone":null,"actual":1,"date last confirmed":"2011-05-31","plus4":null,"longitude":-80.734363,"groups with access code":"Private - government only","state":"NC","government":1},"type":"Feature","geometry":{"type":"Point","coordinates":[-80.734363,35.2710579]}},{"properties":{"city":"Knoxville","expected date":null,"station name":"TDOT - Region 1","zip":"37914","latitude":36.0021715,"public":0,"private":0,"street address":"7345 Region Ln","id":"207","station phone":"865-594-2403","actual":1,"date last confirmed":"2011-05-31","plus4":null,"longitude":-83.77195,"groups with access code":"Private - government only","state":"TN","government":1},"type":"Feature","geometry":{"type":"Point","coordinates":[-83.77195,36.0021715]}},{"properties":{"city":"Knoxville","expected date":null,"station name":"TDOT District 15 - Region 1","zip":"37914","latitude":36.000275,"public":0,"private":0,"street address":"1045 Maintenance Ln","id":"208","station phone":"865-594-2718","actual":1,"date last confirmed":"2011-05-31","plus4":null,"longitude":-83.7721561,"groups with access code":"Private - government only","state":"TN","government":1},"type":"Feature","geometry":{"type":"Point","coordinates":[-83.7721561,36.000275]}},{"properties":{"city":"Greenbelt","expected date":null,"station name":"Goddard Space Flight Center","zip":"20771","latitude":38.99791,"public":0,"private":1,"street address":"8800 Greenbelt Rd","id":"215","station phone":null,"actual":1,"date last confirmed":"2010-12-31","plus4":null,"longitude":-76.845822,"groups with access code":"Private access only","state":"MD","government":0},"type":"Feature","geometry":{"type":"Point","coordinates":[-76.845822,38.99791]}},{"properties":{"city":"Pittsburgh","expected date":null,"station name":"National Energy Technology Laboratory","zip":"15236","latitude":40.301286,"public":0,"private":1,"street address":"626 Cochrans Mill Rd","id":"218","station phone":null,"actual":1,"date last confirmed":"2010-12-31","plus4":null,"longitude":-79.980158,"groups with access code":"Private access only","state":"PA","government":0},"type":"Feature","geometry":{"type":"Point","coordinates":[-79.980158,40.301286]}},{"properties":{"city":"Lemont","expected date":null,"station name":"Argonne National Laboratory","zip":"60439","latitude":41.714111,"public":0,"private":1,"street address":"9700 Cass Ave","id":"227","station phone":null,"actual":1,"date last confirmed":"2010-12-31","plus4":null,"longitude":-87.964016,"groups with access code":"Private access only","state":"IL","government":0},"type":"Feature","geometry":{"type":"Point","coordinates":[-87.964016,41.714111]}},{"properties":{"city":"Batavia","expected date":null,"station name":"Fermi National Accelerator Laboratory - Fuel Service Center","zip":"60510","latitude":41.849009,"public":0,"private":1,"street address":"929 Receiving Rd","id":"228","station phone":null,"actual":1,"date last confirmed":"2010-12-31","plus4":null,"longitude":-88.259439,"groups with access code":"Private access only","state":"IL","government":0},"type":"Feature","geometry":{"type":"Point","coordinates":[-88.259439,41.849009]}},{"properties":{"city":"Lithonia","expected date":null,"station name":"Georgia Power","zip":"30038","latitude":33.700012,"public":0,"private":1,"street address":"5195 Minola Dr","id":"233","station phone":null,"actual":1,"date last confirmed":"2011-06-30","plus4":null,"longitude":-84.1782829,"groups with access code":"Private access only","state":"GA","government":0},"type":"Feature","geometry":{"type":"Point","coordinates":[-84.1782829,33.700012]}},{"properties":{"city":"Atlanta","expected date":null,"station name":"Georgia Power","zip":"30316","latitude":33.7668878,"public":0,"private":1,"street address":"760 Ralph McGill Blvd","id":"234","station phone":null,"actual":1,"date last confirmed":"2011-06-30","plus4":null,"longitude":-84.3626298,"groups with access code":"Private access only","state":"GA","government":0},"type":"Feature","geometry":{"type":"Point","coordinates":[-84.3626298,33.7668878]}},{"properties":{"city":"Forest Park","expected date":null,"station name":"Georgia Power","zip":"30297","latitude":33.6273446,"public":0,"private":1,"street address":"112 Lake Mirror Rd","id":"235","station phone":null,"actual":1,"date last confirmed":"2011-06-30","plus4":null,"longitude":-84.391835,"groups with access code":"Private access only","state":"GA","government":0},"type":"Feature","geometry":{"type":"Point","coordinates":[-84.391835,33.6273446]}},{"properties":{"city":"Quantico","expected date":null,"station name":"Quantico Marine Corps Base","zip":"22134","latitude":38.514617,"public":0,"private":1,"street address":"3250 Catlin Ave","id":"237","station phone":null,"actual":1,"date last confirmed":"2011-02-28","plus4":null,"longitude":-77.308398,"groups with access code":"Private access only","state":"VA","government":0},"type":"Feature","geometry":{"type":"Point","coordinates":[-77.308398,38.514617]}},{"properties":{"city":"Washington","expected date":null,"station name":"DC Fleet Management Administration Fueling Location","zip":"20002","latitude":38.9105896,"public":0,"private":1,"street address":"1835 West Virginia Ave NE","id":"239","station phone":null,"actual":1,"date last confirmed":"2010-11-30","plus4":null,"longitude":-76.985604,"groups with access code":"Private access only","state":"DC","government":0},"type":"Feature","geometry":{"type":"Point","coordinates":[-76.985604,38.9105896]}},{"properties":{"city":"Chicago","expected date":null,"station name":"City of Chicago FS#5","zip":"60630","latitude":41.962515,"public":0,"private":1,"street address":"4833 W Sunnyside","id":"246","station phone":null,"actual":1,"date last confirmed":"2010-09-30","plus4":null,"longitude":-87.7490324,"groups with access code":"Private access only","state":"IL","government":0},"type":"Feature","geometry":{"type":"Point","coordinates":[-87.7490324,41.962515]}},{"properties":{"city":"Chicago","expected date":null,"station name":"City of Chicago FS#3","zip":"60624","latitude":41.88911,"public":0,"private":1,"street address":"4233 W Ferdinand","id":"247","station phone":null,"actual":1,"date last confirmed":"2010-09-30","plus4":null,"longitude":-87.732795,"groups with access code":"Private access only","state":"IL","government":0},"type":"Feature","geometry":{"type":"Point","coordinates":[-87.732795,41.88911]}},{"properties":{"city":"Chicago","expected date":null,"station name":"City of Chicago FS#9","zip":"60621","latitude":41.7764105,"public":0,"private":1,"street address":"25 W 65th St","id":"248","station phone":null,"actual":1,"date last confirmed":"2010-09-30","plus4":null,"longitude":-87.6262227,"groups with access code":"Private access only","state":"IL","government":0},"type":"Feature","geometry":{"type":"Point","coordinates":[-87.6262227,41.7764105]}},{"properties":{"city":"Chicago","expected date":null,"station name":"City of Chicago FS#7","zip":"60666","latitude":41.960545,"public":0,"private":1,"street address":"10000 W Montrose","id":"249","station phone":null,"actual":1,"date last confirmed":"2010-09-30","plus4":null,"longitude":-87.739373,"groups with access code":"Private access only","state":"IL","government":0},"type":"Feature","geometry":{"type":"Point","coordinates":[-87.739373,41.960545]}},{"properties":{"city":"Chicago","expected date":null,"station name":"City of Chicago FS#4","zip":"60609","latitude":41.8258046,"public":0,"private":1,"street address":"3746 S Iron","id":"250","station phone":null,"actual":1,"date last confirmed":"2010-09-30","plus4":null,"longitude":-87.6593683,"groups with access code":"Private access only","state":"IL","government":0},"type":"Feature","geometry":{"type":"Point","coordinates":[-87.6593683,41.8258046]}},{"properties":{"city":"San Francisco","expected date":null,"station name":"Department of Veterans Affairs","zip":"94121","latitude":37.782908,"public":0,"private":1,"street address":"4150 Clement St","id":"252","station phone":null,"actual":1,"date last confirmed":"2010-12-31","plus4":null,"longitude":-122.506388,"groups with access code":"Private access only","state":"CA","government":0},"type":"Feature","geometry":{"type":"Point","coordinates":[-122.506388,37.782908]}},{"properties":{"city":"Atlanta","expected date":null,"station name":"Georgia Power","zip":"30318","latitude":33.7761949,"public":0,"private":1,"street address":"829 Jefferson St","id":"263","station phone":null,"actual":1,"date last confirmed":"2011-06-30","plus4":null,"longitude":-84.4144814,"groups with access code":"Private access only","state":"GA","government":0},"type":"Feature","geometry":{"type":"Point","coordinates":[-84.4144814,33.7761949]}},{"properties":{"city":"Chicago","expected date":null,"station name":"City of Chicago FS#1","zip":"60642","latitude":41.9138941,"public":0,"private":1,"street address":"1701 N Throop","id":"264","station phone":null,"actual":1,"date last confirmed":"2010-09-30","plus4":null,"longitude":-87.6618712,"groups with access code":"Private access only","state":"IL","government":0},"type":"Feature","geometry":{"type":"Point","coordinates":[-87.6618712,41.9138941]}},{"properties":{"city":"Camp Pendleton","expected date":null,"station name":"Camp Pendleton Marine Corps Base","zip":"92055","latitude":33.298722,"public":0,"private":1,"street address":"Vandegrift Blvd","id":"267","station phone":null,"actual":1,"date last confirmed":"2011-02-28","plus4":null,"longitude":-117.347685,"groups with access code":"Private access only","state":"CA","government":0},"type":"Feature","geometry":{"type":"Point","coordinates":[-117.347685,33.298722]}},{"properties":{"city":"Menlo Park","expected date":null,"station name":"SLAC National Accelerator Laboratory","zip":"94025","latitude":37.416491,"public":0,"private":1,"street address":"2575 Sand Hill Rd","id":"268","station phone":null,"actual":1,"date last confirmed":"2011-04-30","plus4":null,"longitude":-122.209564,"groups with access code":"Private access only","state":"CA","government":0},"type":"Feature","geometry":{"type":"Point","coordinates":[-122.209564,37.416491]}},{"properties":{"city":"Martinez","expected date":null,"station name":"Martinez VA Medical Center","zip":"94533","latitude":37.995206,"public":0,"private":1,"street address":"150 Muir Rd","id":"270","station phone":null,"actual":1,"date last confirmed":"2010-12-31","plus4":null,"longitude":-122.116218,"groups with access code":"Private access only","state":"CA","government":0},"type":"Feature","geometry":{"type":"Point","coordinates":[-122.116218,37.995206]}},{"properties":{"city":"Lititz","expected date":null,"station name":"WoGo - Worley &amp; Obetz","zip":"17543","latitude":40.1521932,"public":1,"private":0,"street address":"736 Rothsville Rd","id":"281","station phone":"800-697-6891","actual":1,"date last confirmed":"2011-04-30","plus4":null,"longitude":-76.2875768,"groups with access code":"Public - card key at all times","state":"PA","government":0},"type":"Feature","geometry":{"type":"Point","coordinates":[-76.2875768,40.1521932]}},{"properties":{"city":"Middletown","expected date":null,"station name":"Pacific Pride - Worley &amp; Obetz","zip":"17057","latitude":40.1939026,"public":1,"private":0,"street address":"600 Emaus St","id":"283","station phone":"717-665-6891","actual":1,"date last confirmed":"2011-05-31","plus4":null,"longitude":-76.7222007,"groups with access code":"Public - card key at all times","state":"PA","government":0},"type":"Feature","geometry":{"type":"Point","coordinates":[-76.7222007,40.1939026]}},{"properties":{"city":"Strasburg","expected date":null,"station name":"WoGo - Worley &amp; Obetz","zip":"17579","latitude":39.9923712,"public":1,"private":0,"street address":"902 Strasburg Pike","id":"284","station phone":"717-665-6981","actual":1,"date last confirmed":"2011-05-31","plus4":null,"longitude":-76.2001767,"groups with access code":"Public - card key at all times","state":"PA","government":0},"type":"Feature","geometry":{"type":"Point","coordinates":[-76.2001767,39.9923712]}},{"properties":{"city":"Mount Joy","expected date":null,"station name":"Pacific Pride - Worley &amp; Obetz","zip":"17552","latitude":40.11422,"public":1,"private":0,"street address":"40 Orchard Rd","id":"285","station phone":"800-697-6891","actual":1,"date last confirmed":"2011-04-30","plus4":null,"longitude":-76.515879,"groups with access code":"Public - card key at all times","state":"PA","government":0},"type":"Feature","geometry":{"type":"Point","coordinates":[-76.515879,40.11422]}},{"properties":{"city":"Lancaster","expected date":null,"station name":"Pacific Pride/WoGo - Worley &amp; Obetz","zip":"17605","latitude":40.047358,"public":1,"private":0,"street address":"202 Greenfield Rd","id":"286","station phone":"800-697-6891","actual":1,"date last confirmed":"2011-05-31","plus4":null,"longitude":-76.256325,"groups with access code":"Public - card key at all times","state":"PA","government":0},"type":"Feature","geometry":{"type":"Point","coordinates":[-76.256325,40.047358]}},{"properties":{"city":"San Diego","expected date":null,"station name":"Pearson Fuels","zip":"92105","latitude":32.7550904,"public":1,"private":0,"street address":"4067 El Cajon Blvd","id":"306","station phone":"619-243-0456","actual":1,"date last confirmed":"2010-10-31","plus4":null,"longitude":-117.1078743,"groups with access code":"Public - credit card after hours","state":"CA","government":0},"type":"Feature","geometry":{"type":"Point","coordinates":[-117.1078743,32.7550904]}},{"properties":{"city":"Waterloo","expected date":null,"station name":"Waterloo Fast Stop","zip":"62298","latitude":38.3344197,"public":1,"private":0,"street address":"409 S Illinois Rte 3","id":"317","station phone":"618-939-4979","actual":1,"date last confirmed":"2010-11-30","plus4":null,"longitude":-90.1548749,"groups with access code":"Public - credit card after hours","state":"IL","government":0},"type":"Feature","geometry":{"type":"Point","coordinates":[-90.1548749,38.3344197]}},{"properties":{"city":"Schertz","expected date":null,"station name":"H-E-B","zip":"78154","latitude":29.598406,"public":1,"private":0,"street address":"17460 IH-35 N","id":"402","station phone":"210-651-5105","actual":1,"date last confirmed":"2010-10-31","plus4":null,"longitude":-98.277917,"groups with access code":"Public - credit card after hours","state":"TX","government":0},"type":"Feature","geometry":{"type":"Point","coordinates":[-98.277917,29.598406]}},{"properties":{"city":"Plano","expected date":null,"station name":"Kroger #598","zip":"75025","latitude":33.110663,"public":1,"private":0,"street address":"9732 Coit Rd","id":"411","station phone":"214-705-9072","actual":1,"date last confirmed":"2010-10-31","plus4":null,"longitude":-96.76769,"groups with access code":"Public - credit card after hours","state":"TX","government":0},"type":"Feature","geometry":{"type":"Point","coordinates":[-96.76769,33.110663]}},{"properties":{"city":"Norwalk","expected date":null,"station name":"Sunrise Energy","zip":"44857","latitude":41.247338,"public":1,"private":0,"street address":"211 Cleveland Rd","id":"423","station phone":"419-668-4494","actual":1,"date last confirmed":"2011-02-28","plus4":null,"longitude":-82.590537,"groups with access code":"Public - credit card after hours","state":"OH","government":0},"type":"Feature","geometry":{"type":"Point","coordinates":[-82.590537,41.247338]}},{"properties":{"city":"Sachse","expected date":null,"station name":"Kroger #461","zip":"75048","latitude":32.968266,"public":1,"private":0,"street address":"5190 Highway 78","id":"474","station phone":"972-675-2111","actual":1,"date last confirmed":"2010-06-30","plus4":null,"longitude":-96.604047,"groups with access code":"Public - credit card after hours","state":"TX","government":0},"type":"Feature","geometry":{"type":"Point","coordinates":[-96.604047,32.968266]}},{"properties":{"city":"North Richland Hills","expected date":null,"station name":"Kroger #582","zip":"76180","latitude":32.850497,"public":1,"private":0,"street address":"9135 Boulevard 26","id":"477","station phone":"817-605-3392","actual":1,"date last confirmed":"2010-10-31","plus4":null,"longitude":-97.193105,"groups with access code":"Public - credit card after hours","state":"TX","government":0},"type":"Feature","geometry":{"type":"Point","coordinates":[-97.193105,32.850497]}},{"properties":{"city":"Dallas","expected date":null,"station name":"Kroger #587","zip":"75287","latitude":32.998112,"public":1,"private":0,"street address":"3939 Frankford Rd","id":"480","station phone":"972-662-1000","actual":1,"date last confirmed":"2010-10-31","plus4":null,"longitude":-96.846148,"groups with access code":"Public - credit card after hours","state":"TX","government":0},"type":"Feature","geometry":{"type":"Point","coordinates":[-96.846148,32.998112]}},{"properties":{"city":"Crowley","expected date":null,"station name":"Kroger #590","zip":"76036","latitude":32.564434,"public":1,"private":0,"street address":"1004 Crowley Rd","id":"489","station phone":"817-297-0235","actual":1,"date last confirmed":"2010-10-31","plus4":null,"longitude":-97.35391,"groups with access code":"Public - credit card after hours","state":"TX","government":0},"type":"Feature","geometry":{"type":"Point","coordinates":[-97.35391,32.564434]}},{"properties":{"city":"Mansfield","expected date":null,"station name":"Kroger #584","zip":"76063","latitude":32.607457,"public":1,"private":0,"street address":"3001 Matlock Rd","id":"494","station phone":"817-473-7658","actual":1,"date last confirmed":"2010-10-31","plus4":null,"longitude":-97.116418,"groups with access code":"Public - credit card after hours","state":"TX","government":0},"type":"Feature","geometry":{"type":"Point","coordinates":[-97.116418,32.607457]}},{"properties":{"city":"Grapevine","expected date":null,"station name":"Classic Clean Fuels","zip":"76051","latitude":32.921231,"public":1,"private":0,"street address":"101 W Highway 114","id":"527","station phone":"800-371-1560","actual":1,"date last confirmed":"2010-10-31","plus4":null,"longitude":-97.07894,"groups with access code":"Public - credit card after hours","state":"TX","government":0},"type":"Feature","geometry":{"type":"Point","coordinates":[-97.07894,32.921231]}},{"properties":{"city":"Dayton","expected date":null,"station name":"Meijer Gas #106","zip":"45415","latitude":39.857819,"public":1,"private":0,"street address":"9200 N Main St","id":"528","station phone":"937-832-5129","actual":1,"date last confirmed":"2011-03-31","plus4":null,"longitude":-84.275395,"groups with access code":"Public - credit card after hours","state":"OH","government":0},"type":"Feature","geometry":{"type":"Point","coordinates":[-84.275395,39.857819]}},{"properties":{"city":"Walworth","expected date":null,"station name":"Daniels Sentry Foods","zip":"53184","latitude":42.529794,"public":1,"private":0,"street address":"681 Kenosha St","id":"536","station phone":"262-275-2384","actual":1,"date last confirmed":"2010-08-31","plus4":null,"longitude":-88.585536,"groups with access code":"Public - credit card after hours","state":"WI","government":0},"type":"Feature","geometry":{"type":"Point","coordinates":[-88.585536,42.529794]}},{"properties":{"city":"Evansville","expected date":null,"station name":"SuperAg Co-op","zip":"47720","latitude":38.02527,"public":1,"private":0,"street address":"5015 N St Joseph Ave","id":"575","station phone":"812-423-6481","actual":1,"date last confirmed":"2011-05-31","plus4":null,"longitude":-87.598091,"groups with access code":"Public - credit card after hours","state":"IN","government":0},"type":"Feature","geometry":{"type":"Point","coordinates":[-87.598091,38.02527]}},{"properties":{"city":"Waukesha","expected date":null,"station name":"Kwik Trip #436","zip":"53186","latitude":42.993647,"public":1,"private":0,"street address":"924 Fleetfoot Dr","id":"601","station phone":"262-446-3313","actual":1,"date last confirmed":"2011-04-30","plus4":null,"longitude":-88.203417,"groups with access code":"Public - credit card after hours","state":"WI","government":0},"type":"Feature","geometry":{"type":"Point","coordinates":[-88.203417,42.993647]}},{"properties":{"city":"Grapevine","expected date":null,"station name":"Clean Fuel USA","zip":"76051","latitude":32.910206,"public":1,"private":0,"street address":"2501 William D Tate","id":"635","station phone":"817-410-6184","actual":1,"date last confirmed":"2010-11-30","plus4":null,"longitude":-97.096408,"groups with access code":"Public - credit card after hours","state":"TX","government":0},"type":"Feature","geometry":{"type":"Point","coordinates":[-97.096408,32.910206]}},{"properties":{"city":"Palatine","expected date":null,"station name":"Palatine Oil Company","zip":"60067","latitude":42.116959,"public":1,"private":0,"street address":"515 W Colfax","id":"646","station phone":"847-358-3600","actual":1,"date last confirmed":"2010-02-28","plus4":2572,"longitude":-88.056257,"groups with access code":"Public - credit card at all times","state":"IL","government":0},"type":"Feature","geometry":{"type":"Point","coordinates":[-88.056257,42.116959]}},{"properties":{"city":"Gaithersburg","expected date":null,"station name":"Montgomery County Agencies - Fleet Management Services","zip":"20855","latitude":39.123845,"public":1,"private":0,"street address":"16640 Crabbs Branch Way","id":"648","station phone":"240-777-5730","actual":1,"date last confirmed":"2010-11-30","plus4":null,"longitude":-77.1623991,"groups with access code":"Public - credit card at all times","state":"MD","government":0},"type":"Feature","geometry":{"type":"Point","coordinates":[-77.1623991,39.123845]}},{"properties":{"city":"San Antonio","expected date":null,"station name":"CleanFuel USA","zip":"78219","latitude":29.4532064,"public":1,"private":0,"street address":"4023 I-35 N","id":"667","station phone":"512-942-8300","actual":1,"date last confirmed":"2010-10-31","plus4":null,"longitude":-98.4171243,"groups with access code":"Public - credit card at all times","state":"TX","government":0},"type":"Feature","geometry":{"type":"Point","coordinates":[-98.4171243,29.4532064]}},{"properties":{"city":"Union","expected date":null,"station name":"MFA Oil Petro-Card 24","zip":"63084","latitude":38.4280336,"public":1,"private":0,"street address":"7485 Highway 47","id":"718","station phone":"636-583-2960","actual":1,"date last confirmed":"2011-01-31","plus4":null,"longitude":-90.9900686,"groups with access code":"Public - credit card at all times","state":"MO","government":0},"type":"Feature","geometry":{"type":"Point","coordinates":[-90.9900686,38.4280336]}},{"properties":{"city":"Vacaville","expected date":null,"station name":"Pacific Pride - Interstate Oil Company","zip":"95688","latitude":38.397068,"public":1,"private":0,"street address":"917 Cotting Ln","id":"759","station phone":"530-662-5481","actual":1,"date last confirmed":"2010-10-31","plus4":null,"longitude":-121.953811,"groups with access code":"Public - credit card at all times","state":"CA","government":0},"type":"Feature","geometry":{"type":"Point","coordinates":[-121.953811,38.397068]}},{"properties":{"city":"McHenry","expected date":null,"station name":"PetroLiance LLC","zip":"60050","latitude":42.3433459,"public":1,"private":0,"street address":"4019 W Main St","id":"762","station phone":"847-741-2577","actual":1,"date last confirmed":"2010-12-31","plus4":null,"longitude":-88.277302,"groups with access code":"Public - credit card at all times","state":"IL","government":0},"type":"Feature","geometry":{"type":"Point","coordinates":[-88.277302,42.3433459]}},{"properties":{"city":"Denton","expected date":null,"station name":"Martin Eagle Oil Company","zip":"76205","latitude":33.178339,"public":1,"private":0,"street address":"2700 James St","id":"763","station phone":"940-383-2351","actual":1,"date last confirmed":"2010-10-31","plus4":null,"longitude":-97.142362,"groups with access code":"Public - credit card at all times","state":"TX","government":0},"type":"Feature","geometry":{"type":"Point","coordinates":[-97.142362,33.178339]}},{"properties":{"city":"Norfolk","expected date":null,"station name":"Norfolk Naval Exchange Air Station","zip":"23511","latitude":36.941557,"public":1,"private":0,"street address":"Mall Dr","id":"764","station phone":"757-440-2265","actual":1,"date last confirmed":"2011-06-30","plus4":null,"longitude":-76.31294,"groups with access code":"Public - credit card at all times","state":"VA","government":0},"type":"Feature","geometry":{"type":"Point","coordinates":[-76.31294,36.941557]}},{"properties":{"city":"Ventura","expected date":null,"station name":"Silvas Oil Company - Pearson Fuels","zip":"93003","latitude":34.248013,"public":1,"private":0,"street address":"6417 Ventura Blvd","id":"770","station phone":"805-288-5477","actual":1,"date last confirmed":"2010-11-30","plus4":null,"longitude":-119.199978,"groups with access code":"Public - credit card at all times","state":"CA","government":0},"type":"Feature","geometry":{"type":"Point","coordinates":[-119.199978,34.248013]}},{"properties":{"city":"San Jose","expected date":null,"station name":"Propel Fuels","zip":"95136","latitude":37.2753771,"public":1,"private":0,"street address":"735 W Capitol Expy","id":"777","station phone":"800-871-0773","actual":1,"date last confirmed":"2011-01-31","plus4":null,"longitude":-121.8661329,"groups with access code":"Public - credit card at all times","state":"CA","government":0},"type":"Feature","geometry":{"type":"Point","coordinates":[-121.8661329,37.2753771]}},{"properties":{"city":"Fremont","expected date":null,"station name":"Propel Fuels","zip":"94538","latitude":37.548138,"public":1,"private":0,"street address":"39707 Paseo Padre Pkwy","id":"778","station phone":"800-871-0773","actual":1,"date last confirmed":"2011-01-31","plus4":null,"longitude":-121.971555,"groups with access code":"Public - credit card at all times","state":"CA","government":0},"type":"Feature","geometry":{"type":"Point","coordinates":[-121.971555,37.548138]}},{"properties":{"city":"Oakland","expected date":null,"station name":"Propel Fuels","zip":"94610","latitude":37.809238,"public":1,"private":0,"street address":"350 Grand Ave","id":"780","station phone":"800-871-0773","actual":1,"date last confirmed":"2011-01-31","plus4":null,"longitude":-122.255662,"groups with access code":"Public - credit card at all times","state":"CA","government":0},"type":"Feature","geometry":{"type":"Point","coordinates":[-122.255662,37.809238]}},{"properties":{"city":"Newark","expected date":null,"station name":"Newark Liberty International Airport - Gulf","zip":"7114","latitude":40.4340387,"public":1,"private":0,"street address":"100 Lindbergh Rd","id":"783","station phone":"516-710-1898","actual":1,"date last confirmed":"2011-03-31","plus4":null,"longitude":-74.7668362,"groups with access code":"Public - credit card at all times","state":"NJ","government":0},"type":"Feature","geometry":{"type":"Point","coordinates":[-74.7668362,40.4340387]}},{"properties":{"city":"Berkeley","expected date":null,"station name":"Propel Fuels","zip":"94710","latitude":37.8684129,"public":1,"private":0,"street address":"849 University Ave","id":"784","station phone":"800-871-0773","actual":1,"date last confirmed":"2011-01-31","plus4":null,"longitude":-122.296973,"groups with access code":"Public - credit card at all times","state":"CA","government":0},"type":"Feature","geometry":{"type":"Point","coordinates":[-122.296973,37.8684129]}},{"properties":{"city":"San Jose","expected date":null,"station name":"Propel Fuels","zip":"95131","latitude":37.397495,"public":1,"private":0,"street address":"790 Montague Expy","id":"785","station phone":"800-871-0773","actual":1,"date last confirmed":"2011-01-31","plus4":null,"longitude":-121.912812,"groups with access code":"Public - credit card at all times","state":"CA","government":0},"type":"Feature","geometry":{"type":"Point","coordinates":[-121.912812,37.397495]}},{"properties":{"city":"University Park","expected date":null,"station name":"Raceco","zip":"60466","latitude":41.8742031,"public":1,"private":0,"street address":"450 Cicero Ave","id":"789","station phone":"708-534-3050","actual":1,"date last confirmed":"2010-11-30","plus4":null,"longitude":-87.7450451,"groups with access code":"Public - credit card at all times","state":"IL","government":0},"type":"Feature","geometry":{"type":"Point","coordinates":[-87.7450451,41.8742031]}},{"properties":{"city":"San Jose","expected date":null,"station name":"Propel Fuels","zip":"95112","latitude":37.3552852,"public":1,"private":0,"street address":"1002 N 1st St","id":"796","station phone":"800-871-0773","actual":1,"date last confirmed":"2011-01-31","plus4":null,"longitude":-121.904702,"groups with access code":"Public - credit card at all times","state":"CA","government":0},"type":"Feature","geometry":{"type":"Point","coordinates":[-121.904702,37.3552852]}},{"properties":{"city":"Harvard","expected date":null,"station name":"Sullivans Foods &amp; Fuel","zip":"60033","latitude":42.4058599,"public":1,"private":0,"street address":"1299 S Division St","id":"798","station phone":"815-943-7446","actual":1,"date last confirmed":"2010-11-30","plus4":null,"longitude":-88.6134079,"groups with access code":"Public - credit card at all times","state":"IL","government":0},"type":"Feature","geometry":{"type":"Point","coordinates":[-88.6134079,42.4058599]}},{"properties":{"city":"Arcadia","expected date":null,"station name":"Chevron - Propel Fuels","zip":"91006","latitude":34.139765,"public":1,"private":0,"street address":"102 E Huntington Dr","id":"804","station phone":"626-446-7423","actual":1,"date last confirmed":"2011-03-31","plus4":null,"longitude":-118.027928,"groups with access code":"Public - credit card at all times","state":"CA","government":0},"type":"Feature","geometry":{"type":"Point","coordinates":[-118.027928,34.139765]}},{"properties":{"city":"Chula Vista","expected date":null,"station name":"Propel Fuels","zip":"91910","latitude":32.644835,"public":1,"private":0,"street address":"1495 East H St","id":"805","station phone":"619-421-7600","actual":1,"date last confirmed":"2011-03-31","plus4":null,"longitude":-116.999993,"groups with access code":"Public - credit card at all times","state":"CA","government":0},"type":"Feature","geometry":{"type":"Point","coordinates":[-116.999993,32.644835]}},{"properties":{"city":"Harbor City","expected date":null,"station name":"Propel Fuels - Harbor City","zip":"90710","latitude":33.812608,"public":1,"private":0,"street address":"1250 Sepulveda Blvd","id":"807","station phone":"800-871-0773","actual":1,"date last confirmed":"2011-05-31","plus4":null,"longitude":-118.297831,"groups with access code":"Public - credit card at all times","state":"CA","government":0},"type":"Feature","geometry":{"type":"Point","coordinates":[-118.297831,33.812608]}},{"properties":{"city":"Redwood City","expected date":null,"station name":"Propel Fuels - Redwood City","zip":"94063","latitude":37.494144,"public":1,"private":0,"street address":"503 Whippie Ave","id":"808","station phone":"800-871-0773","actual":1,"date last confirmed":"2011-05-31","plus4":null,"longitude":-122.234528,"groups with access code":"Public - credit card at all times","state":"CA","government":0},"type":"Feature","geometry":{"type":"Point","coordinates":[-122.234528,37.494144]}},{"properties":{"city":"Mount Prospect","expected date":null,"station name":"Formula Marathon","zip":"60056","latitude":42.066092,"public":1,"private":0,"street address":"310 W Northwest Hwy","id":"832","station phone":"847-577-5760","actual":1,"date last confirmed":"2010-02-28","plus4":3103,"longitude":-87.9419939,"groups with access code":"Public - see hours","state":"IL","government":0},"type":"Feature","geometry":{"type":"Point","coordinates":[-87.9419939,42.066092]}},{"properties":{"city":"Evanston","expected date":null,"station name":"Citgo - Clark Station","zip":"60201","latitude":42.0410024,"public":1,"private":0,"street address":"2401 Dempster St","id":"855","station phone":"847-866-7190","actual":1,"date last confirmed":"2010-11-30","plus4":3953,"longitude":-87.7069067,"groups with access code":"Public - see hours","state":"IL","government":0},"type":"Feature","geometry":{"type":"Point","coordinates":[-87.7069067,42.0410024]}},{"properties":{"city":"Chicago","expected date":null,"station name":"Gas City #70","zip":"60613","latitude":41.9562333,"public":1,"private":0,"street address":"4070 N Clark St","id":"861","station phone":"773-528-3040","actual":1,"date last confirmed":"2010-11-30","plus4":null,"longitude":-87.6634066,"groups with access code":"Public - see hours","state":"IL","government":0},"type":"Feature","geometry":{"type":"Point","coordinates":[-87.6634066,41.9562333]}},{"properties":{"city":"Elgin","expected date":null,"station name":"Larkin Marathon","zip":"60123","latitude":42.036394,"public":1,"private":0,"street address":"1126 Larkin Ave","id":"863","station phone":"847-741-9524","actual":1,"date last confirmed":"2010-02-28","plus4":5242,"longitude":-88.306618,"groups with access code":"Public - see hours","state":"IL","government":0},"type":"Feature","geometry":{"type":"Point","coordinates":[-88.306618,42.036394]}},{"properties":{"city":"Laurel","expected date":null,"station name":"Chevron Service Center","zip":"20724","latitude":39.091217,"public":1,"private":0,"street address":"3240 Fort Meade Rd","id":"872","station phone":"410-880-4740","actual":1,"date last confirmed":"2010-09-30","plus4":1314,"longitude":-76.774924,"groups with access code":"Public - see hours","state":"MD","government":0},"type":"Feature","geometry":{"type":"Point","coordinates":[-76.774924,39.091217]}},{"properties":{"city":"Annapolis","expected date":null,"station name":"Citgo","zip":"21041","latitude":38.983854,"public":1,"private":0,"street address":"2042 West St","id":"880","station phone":"410-571-9676","actual":1,"date last confirmed":"2010-11-30","plus4":3032,"longitude":-76.538428,"groups with access code":"Public - see hours","state":"MD","government":0},"type":"Feature","geometry":{"type":"Point","coordinates":[-76.538428,38.983854]}},{"properties":{"city":"Arlington","expected date":null,"station name":"Quarters K Citgo - Pentagon/Navy Exchange","zip":"22204","latitude":38.8696368,"public":1,"private":0,"street address":"801 S Joyce St","id":"902","station phone":"703-979-0405","actual":1,"date last confirmed":"2011-02-28","plus4":4552,"longitude":-77.0638577,"groups with access code":"Public - see hours","state":"VA","government":0},"type":"Feature","geometry":{"type":"Point","coordinates":[-77.0638577,38.8696368]}},{"properties":{"city":"Saint Charles","expected date":null,"station name":"Mobil On the Run","zip":"63301","latitude":38.7697414,"public":1,"private":0,"street address":"1401 5th St","id":"907","station phone":"636-947-6388","actual":1,"date last confirmed":"2011-01-31","plus4":null,"longitude":-90.49385,"groups with access code":"Public - see hours","state":"MO","government":0},"type":"Feature","geometry":{"type":"Point","coordinates":[-90.49385,38.7697414]}},{"properties":{"city":"Lombard","expected date":null,"station name":"Road Ranger #237","zip":"60148","latitude":41.8593905,"public":1,"private":0,"street address":"909 E Roosevelt Rd","id":"924","station phone":"815-239-6028","actual":1,"date last confirmed":"2010-11-30","plus4":null,"longitude":-88.0474971,"groups with access code":"Public - see hours","state":"IL","government":0},"type":"Feature","geometry":{"type":"Point","coordinates":[-88.0474971,41.8593905]}},{"properties":{"city":"Shelby","expected date":null,"station name":"Gasland USA #3 - Thomas Petroleum","zip":"28152","latitude":35.27821,"public":1,"private":0,"street address":"919 S Lafayette St","id":"971","station phone":"704-480-9733","actual":1,"date last confirmed":"2011-04-30","plus4":null,"longitude":-81.54273,"groups with access code":"Public - see hours","state":"NC","government":0},"type":"Feature","geometry":{"type":"Point","coordinates":[-81.54273,35.27821]}},{"properties":{"city":"Shelby","expected date":null,"station name":"Gasland USA #7","zip":"28152","latitude":35.272726,"public":1,"private":0,"street address":"1801 E Dixon Blvd","id":"1009","station phone":"704-484-9175","actual":1,"date last confirmed":"2011-04-30","plus4":null,"longitude":-81.496491,"groups with access code":"Public - see hours","state":"NC","government":0},"type":"Feature","geometry":{"type":"Point","coordinates":[-81.496491,35.272726]}},{"properties":{"city":"Aurora","expected date":null,"station name":"Thorntons Store #125","zip":"60504","latitude":41.7409294,"public":1,"private":0,"street address":"2800 Ogden Ave","id":"1042","station phone":"630-820-6468","actual":1,"date last confirmed":"2010-11-30","plus4":null,"longitude":-88.245268,"groups with access code":"Public - see hours","state":"IL","government":0},"type":"Feature","geometry":{"type":"Point","coordinates":[-88.245268,41.7409294]}},{"properties":{"city":"Fort Mill","expected date":null,"station name":"Times Oil - BP","zip":"29715","latitude":35.0304829,"public":1,"private":0,"street address":"1010 Carolina Place Dr","id":"1090","station phone":"803-548-5440","actual":1,"date last confirmed":"2011-04-30","plus4":null,"longitude":-80.9672173,"groups with access code":"Public - see hours","state":"SC","government":0},"type":"Feature","geometry":{"type":"Point","coordinates":[-80.9672173,35.0304829]}},{"properties":{"city":"Irving","expected date":null,"station name":"Kroger #577","zip":"75063","latitude":32.90805,"public":1,"private":0,"street address":"7505 N MacArthur Blvd","id":"1111","station phone":"972-831-8357","actual":1,"date last confirmed":"2010-10-31","plus4":null,"longitude":-96.95932,"groups with access code":"Public - see hours","state":"TX","government":0},"type":"Feature","geometry":{"type":"Point","coordinates":[-96.95932,32.90805]}},{"properties":{"city":"Jasper","expected date":null,"station name":"Sunoco - Circle A Mart #111","zip":"47546","latitude":38.364496,"public":1,"private":0,"street address":"1921 S Lube Way","id":"1114","station phone":"812-634-7827","actual":1,"date last confirmed":"2011-05-31","plus4":null,"longitude":-86.9410089,"groups with access code":"Public - see hours","state":"IN","government":0},"type":"Feature","geometry":{"type":"Point","coordinates":[-86.9410089,38.364496]}},{"properties":{"city":"Carrollton","expected date":null,"station name":"Kroger #460","zip":"75007","latitude":33.01925,"public":1,"private":0,"street address":"4038 Old Denton Rd","id":"1120","station phone":"972-512-3356","actual":1,"date last confirmed":"2010-10-31","plus4":null,"longitude":-96.913843,"groups with access code":"Public - see hours","state":"TX","government":0},"type":"Feature","geometry":{"type":"Point","coordinates":[-96.913843,33.01925]}},{"properties":{"city":"Pittsburgh","expected date":null,"station name":"Sheetz Store #376","zip":"15236","latitude":40.3194442,"public":1,"private":0,"street address":"1000 Clairton Blvd","id":"1123","station phone":"412-460-0152","actual":1,"date last confirmed":"2011-04-30","plus4":null,"longitude":-79.9415541,"groups with access code":"Public - see hours","state":"PA","government":0},"type":"Feature","geometry":{"type":"Point","coordinates":[-79.9415541,40.3194442]}},{"properties":{"city":"Schaumburg","expected date":null,"station name":"Shell","zip":"60173","latitude":42.0412345,"public":1,"private":0,"street address":"750 E Higgins Rd","id":"1136","station phone":"847-843-2424","actual":1,"date last confirmed":"2011-06-30","plus4":null,"longitude":-88.0614474,"groups with access code":"Public - see hours","state":"IL","government":0},"type":"Feature","geometry":{"type":"Point","coordinates":[-88.0614474,42.0412345]}},{"properties":{"city":"Manheim","expected date":null,"station name":"Molly's Convenience Store - Worley &amp; Obetz","zip":"17545","latitude":40.1691111,"public":1,"private":0,"street address":"35 Doe Run Rd","id":"1166","station phone":"717-664-1030","actual":1,"date last confirmed":"2011-05-31","plus4":null,"longitude":-76.3865097,"groups with access code":"Public - see hours","state":"PA","government":0},"type":"Feature","geometry":{"type":"Point","coordinates":[-76.3865097,40.1691111]}},{"properties":{"city":"Racine","expected date":null,"station name":"Washington Avenue Mobil","zip":"53406","latitude":42.720168,"public":1,"private":0,"street address":"6840 Washington Ave","id":"1167","station phone":"262-884-7500","actual":1,"date last confirmed":"2011-04-30","plus4":null,"longitude":-87.865072,"groups with access code":"Public - see hours","state":"WI","government":0},"type":"Feature","geometry":{"type":"Point","coordinates":[-87.865072,42.720168]}},{"properties":{"city":"Alton","expected date":null,"station name":"Zephyr Express","zip":"62002","latitude":38.8883234,"public":1,"private":0,"street address":"1110 E Broadway St","id":"1182","station phone":"618-465-8483","actual":1,"date last confirmed":"2010-11-30","plus4":null,"longitude":-90.1691149,"groups with access code":"Public - see hours","state":"IL","government":0},"type":"Feature","geometry":{"type":"Point","coordinates":[-90.1691149,38.8883234]}},{"properties":{"city":"Riverside","expected date":null,"station name":"Minuteman Riverside","zip":"60546","latitude":41.8306915,"public":1,"private":0,"street address":"3346 S Harlem Ave","id":"1201","station phone":"708-447-3748","actual":1,"date last confirmed":"2010-11-30","plus4":null,"longitude":-87.8029647,"groups with access code":"Public - see hours","state":"IL","government":0},"type":"Feature","geometry":{"type":"Point","coordinates":[-87.8029647,41.8306915]}},{"properties":{"city":"Dayton","expected date":null,"station name":"GasAmerica","zip":"45459","latitude":39.6725523,"public":1,"private":0,"street address":"2631 W Alex Bell Rd","id":"1212","station phone":"937-299-0774","actual":1,"date last confirmed":"2011-02-28","plus4":null,"longitude":-84.2155884,"groups with access code":"Public - see hours","state":"OH","government":0},"type":"Feature","geometry":{"type":"Point","coordinates":[-84.2155884,39.6725523]}},{"properties":{"city":"Monroeville","expected date":null,"station name":"Sheetz Store #360","zip":"15146","latitude":40.4379443,"public":1,"private":0,"street address":"3954 William Penn Hwy","id":"1216","station phone":"412-373-1539","actual":1,"date last confirmed":"2011-04-30","plus4":null,"longitude":-79.7745055,"groups with access code":"Public - see hours","state":"PA","government":0},"type":"Feature","geometry":{"type":"Point","coordinates":[-79.7745055,40.4379443]}},{"properties":{"city":"Pittsburgh","expected date":null,"station name":"Sheetz Store #353","zip":"15205","latitude":40.4483934,"public":1,"private":0,"street address":"5410 Campbells Run Rd","id":"1217","station phone":"412-787-1190","actual":1,"date last confirmed":"2011-04-30","plus4":null,"longitude":-80.1580239,"groups with access code":"Public - see hours","state":"PA","government":0},"type":"Feature","geometry":{"type":"Point","coordinates":[-80.1580239,40.4483934]}},{"properties":{"city":"York","expected date":null,"station name":"Tom's - Lone Star","zip":"17402","latitude":39.9594381,"public":1,"private":0,"street address":"2905 E Prospect Rd","id":"1218","station phone":"717-757-4290","actual":1,"date last confirmed":"2011-04-30","plus4":null,"longitude":-76.6593992,"groups with access code":"Public - see hours","state":"PA","government":0},"type":"Feature","geometry":{"type":"Point","coordinates":[-76.6593992,39.9594381]}},{"properties":{"city":"Milwaukee","expected date":null,"station name":"Walker's Point Plaza","zip":"53204","latitude":43.0251745,"public":1,"private":0,"street address":"605 S First St","id":"1227","station phone":"414-220-4380","actual":1,"date last confirmed":"2010-08-31","plus4":null,"longitude":-87.9110981,"groups with access code":"Public - see hours","state":"WI","government":0},"type":"Feature","geometry":{"type":"Point","coordinates":[-87.9110981,43.0251745]}},{"properties":{"city":"North Aurora","expected date":null,"station name":"Woodman's Grocery","zip":"60542","latitude":41.8045204,"public":1,"private":0,"street address":"151 Hansen Blvd","id":"1232","station phone":"630-723-3900","actual":1,"date last confirmed":"2010-11-30","plus4":null,"longitude":-88.3698202,"groups with access code":"Public - see hours","state":"IL","government":0},"type":"Feature","geometry":{"type":"Point","coordinates":[-88.3698202,41.8045204]}},{"properties":{"city":"Cincinnati","expected date":null,"station name":"Kroger Fuel Center - Finneytown","zip":"45231","latitude":39.2195086,"public":1,"private":0,"street address":"8421 Winton Rd","id":"1246","station phone":"513-728-8637","actual":1,"date last confirmed":"2011-02-28","plus4":null,"longitude":-84.5179852,"groups with access code":"Public - see hours","state":"OH","government":0},"type":"Feature","geometry":{"type":"Point","coordinates":[-84.5179852,39.2195086]}},{"properties":{"city":"Tremont","expected date":null,"station name":"Tremont Oil Company","zip":"61568","latitude":39.119865,"public":1,"private":0,"street address":"201 E Pearl St","id":"1249","station phone":"309-925-2251","actual":1,"date last confirmed":"2010-11-30","plus4":null,"longitude":-90.3263164,"groups with access code":"Public - see hours","state":"IL","government":0},"type":"Feature","geometry":{"type":"Point","coordinates":[-90.3263164,39.119865]}},{"properties":{"city":"Norwalk","expected date":null,"station name":"Schild's IGA Supercenter","zip":"44857","latitude":41.255088,"public":1,"private":0,"street address":"171 Milan Ave","id":"1257","station phone":"419-668-5156","actual":1,"date last confirmed":"2011-02-28","plus4":null,"longitude":-82.6122929,"groups with access code":"Public - see hours","state":"OH","government":0},"type":"Feature","geometry":{"type":"Point","coordinates":[-82.6122929,41.255088]}},{"properties":{"city":"Loogootee","expected date":null,"station name":"Jones &amp; Sons Marathon","zip":"47553","latitude":38.675815,"public":1,"private":0,"street address":"113 Broadway St","id":"1299","station phone":"812-295-4466","actual":1,"date last confirmed":"2011-05-31","plus4":null,"longitude":-86.912358,"groups with access code":"Public - see hours","state":"IN","government":0},"type":"Feature","geometry":{"type":"Point","coordinates":[-86.912358,38.675815]}},{"properties":{"city":"West Baden","expected date":null,"station name":"Fast Eddie's","zip":"47469","latitude":38.562442,"public":1,"private":0,"street address":"8362 W State Road 56","id":"1300","station phone":"812-936-4409","actual":1,"date last confirmed":"2011-05-31","plus4":null,"longitude":-86.613791,"groups with access code":"Public - see hours","state":"IN","government":0},"type":"Feature","geometry":{"type":"Point","coordinates":[-86.613791,38.562442]}},{"properties":{"city":"Sharon","expected date":null,"station name":"Brownie's Marathon","zip":"29742","latitude":34.9486772,"public":1,"private":0,"street address":"3864 York St","id":"1309","station phone":"803-927-7202","actual":1,"date last confirmed":"2011-04-30","plus4":null,"longitude":-81.3411016,"groups with access code":"Public - see hours","state":"SC","government":0},"type":"Feature","geometry":{"type":"Point","coordinates":[-81.3411016,34.9486772]}},{"properties":{"city":"Skokie","expected date":null,"station name":"Shell","zip":"60076","latitude":42.018747,"public":1,"private":0,"street address":"3301 W Howard St","id":"1333","station phone":"847-763-1921","actual":1,"date last confirmed":"2011-05-31","plus4":4010,"longitude":-87.711763,"groups with access code":"Public - see hours","state":"IL","government":0},"type":"Feature","geometry":{"type":"Point","coordinates":[-87.711763,42.018747]}},{"properties":{"city":"Covington","expected date":null,"station name":"Kroger #392 - Latonia","zip":"41011","latitude":39.0422439,"public":1,"private":0,"street address":"4303 Winston Ave","id":"1336","station phone":"859-655-0727","actual":1,"date last confirmed":"2011-04-30","plus4":null,"longitude":-84.509527,"groups with access code":"Public - see hours","state":"KY","government":0},"type":"Feature","geometry":{"type":"Point","coordinates":[-84.509527,39.0422439]}},{"properties":{"city":"Cincinnati","expected date":null,"station name":"Kroger Fuel Center #355 - Hyde Park","zip":"45209","latitude":39.144855,"public":1,"private":0,"street address":"3710 Paxton Ave","id":"1343","station phone":"513-871-4142","actual":1,"date last confirmed":"2011-02-28","plus4":null,"longitude":-84.431245,"groups with access code":"Public - see hours","state":"OH","government":0},"type":"Feature","geometry":{"type":"Point","coordinates":[-84.431245,39.144855]}},{"properties":{"city":"Blanchester","expected date":null,"station name":"Kroger Fuel Center #395","zip":"45107","latitude":39.2965054,"public":1,"private":0,"street address":"1001 Cherry St","id":"1344","station phone":"937-783-0240","actual":1,"date last confirmed":"2011-02-28","plus4":9998,"longitude":-83.975308,"groups with access code":"Public - see hours","state":"OH","government":0},"type":"Feature","geometry":{"type":"Point","coordinates":[-83.975308,39.2965054]}},{"properties":{"city":"Cincinnati","expected date":null,"station name":"Kroger Fuel Center #436","zip":"45248","latitude":39.172998,"public":1,"private":0,"street address":"5830 Harrison Rd","id":"1346","station phone":"513-574-2810","actual":1,"date last confirmed":"2011-02-28","plus4":null,"longitude":-84.640566,"groups with access code":"Public - see hours","state":"OH","government":0},"type":"Feature","geometry":{"type":"Point","coordinates":[-84.640566,39.172998]}},{"properties":{"city":"Loveland","expected date":null,"station name":"Kroger Fuel Center #435","zip":"45140","latitude":39.228264,"public":1,"private":0,"street address":"6388 Branch Hill-Guinea Pike","id":"1347","station phone":"513-697-4828","actual":1,"date last confirmed":"2011-02-28","plus4":null,"longitude":-84.25415,"groups with access code":"Public - see hours","state":"OH","government":0},"type":"Feature","geometry":{"type":"Point","coordinates":[-84.25415,39.228264]}},{"properties":{"city":"Wood Dale","expected date":null,"station name":"Wood Dale Citgo","zip":"60191","latitude":41.963105,"public":1,"private":0,"street address":"217 E Irving Park Rd","id":"1351","station phone":"630-595-4233","actual":1,"date last confirmed":"2010-11-30","plus4":null,"longitude":-87.973643,"groups with access code":"Public - see hours","state":"IL","government":0},"type":"Feature","geometry":{"type":"Point","coordinates":[-87.973643,41.963105]}},{"properties":{"city":"Dayton","expected date":null,"station name":"Kroger Fuel Center #754","zip":"45424","latitude":39.8175359,"public":1,"private":0,"street address":"4506 Brandt Pike","id":"1353","station phone":"937-233-8843","actual":1,"date last confirmed":"2011-02-28","plus4":null,"longitude":-84.1254809,"groups with access code":"Public - see hours","state":"OH","government":0},"type":"Feature","geometry":{"type":"Point","coordinates":[-84.1254809,39.8175359]}},{"properties":{"city":"Troy","expected date":null,"station name":"Kroger Fuel Center #914","zip":"45373","latitude":40.030363,"public":1,"private":0,"street address":"751 W Market St","id":"1358","station phone":"937-339-7774","actual":1,"date last confirmed":"2011-02-28","plus4":null,"longitude":-84.2225,"groups with access code":"Public - see hours","state":"OH","government":0},"type":"Feature","geometry":{"type":"Point","coordinates":[-84.2225,40.030363]}},{"properties":{"city":"Bear","expected date":null,"station name":"Bear Necessities - BP","zip":"19701","latitude":39.60987,"public":1,"private":0,"street address":"1923 Pulaski Hwy","id":"1361","station phone":"302-836-8599","actual":1,"date last confirmed":"2010-11-30","plus4":null,"longitude":-75.7090319,"groups with access code":"Public - see hours","state":"DE","government":0},"type":"Feature","geometry":{"type":"Point","coordinates":[-75.7090319,39.60987]}},{"properties":{"city":"Pevely","expected date":null,"station name":"I-55 Motor Plaza","zip":"63070","latitude":38.28714,"public":1,"private":0,"street address":"1707 Highway Z","id":"1364","station phone":"636-479-4436","actual":1,"date last confirmed":"2011-01-31","plus4":null,"longitude":-90.4033956,"groups with access code":"Public - see hours","state":"MO","government":0},"type":"Feature","geometry":{"type":"Point","coordinates":[-90.4033956,38.28714]}},{"properties":{"city":"Winthrop Harbor","expected date":null,"station name":"Harbor Marathon","zip":"60096","latitude":42.47827,"public":1,"private":0,"street address":"901 N Sheridan Rd","id":"1405","station phone":"847-731-9600","actual":1,"date last confirmed":"2011-04-30","plus4":null,"longitude":-87.8233489,"groups with access code":"Public - see hours","state":"IL","government":0},"type":"Feature","geometry":{"type":"Point","coordinates":[-87.8233489,42.47827]}},{"properties":{"city":"Knoxville","expected date":null,"station name":"Pilot Food Mart #105","zip":"37923","latitude":35.9245925,"public":1,"private":0,"street address":"205 Walker Springs Rd","id":"1407","station phone":"865-694-8160","actual":1,"date last confirmed":"2011-05-31","plus4":null,"longitude":-84.0660205,"groups with access code":"Public - see hours","state":"TN","government":0},"type":"Feature","geometry":{"type":"Point","coordinates":[-84.0660205,35.9245925]}},{"properties":{"city":"Washington","expected date":null,"station name":"Georgetown Chevron","zip":"20007","latitude":38.9223275,"public":1,"private":0,"street address":"2450 Wisconsin Ave NW","id":"1408","station phone":"202-337-6277","actual":1,"date last confirmed":"2010-09-30","plus4":null,"longitude":-77.0729157,"groups with access code":"Public - see hours","state":"DC","government":0},"type":"Feature","geometry":{"type":"Point","coordinates":[-77.0729157,38.9223275]}},{"properties":{"city":"Washington","expected date":null,"station name":"Frette Energy","zip":"47501","latitude":38.617671,"public":1,"private":0,"street address":"2684 S State Road 57","id":"1425","station phone":"812-254-3671","actual":1,"date last confirmed":"2011-05-31","plus4":null,"longitude":-87.184421,"groups with access code":"Public - see hours","state":"IN","government":0},"type":"Feature","geometry":{"type":"Point","coordinates":[-87.184421,38.617671]}},{"properties":{"city":"Saint Charles","expected date":null,"station name":"ZX - Thoele Oil","zip":"63301","latitude":38.780344,"public":1,"private":0,"street address":"2212 First Capitol","id":"1436","station phone":"636-724-7550","actual":1,"date last confirmed":"2011-01-31","plus4":null,"longitude":-90.5074829,"groups with access code":"Public - see hours","state":"MO","government":0},"type":"Feature","geometry":{"type":"Point","coordinates":[-90.5074829,38.780344]}},{"properties":{"city":"Saint Charles","expected date":null,"station name":"ZX - Thoele Oil","zip":"63301","latitude":38.792447,"public":1,"private":0,"street address":"3740 W Clay","id":"1437","station phone":"636-724-3433","actual":1,"date last confirmed":"2011-01-31","plus4":null,"longitude":-90.560145,"groups with access code":"Public - see hours","state":"MO","government":0},"type":"Feature","geometry":{"type":"Point","coordinates":[-90.560145,38.792447]}},{"properties":{"city":"West Bend","expected date":null,"station name":"Tri Par","zip":"53095","latitude":42.7851088,"public":1,"private":0,"street address":"5015 Highway P","id":"1440","station phone":"262-338-8531","actual":1,"date last confirmed":"2010-08-31","plus4":null,"longitude":-88.2513629,"groups with access code":"Public - see hours","state":"WI","government":0},"type":"Feature","geometry":{"type":"Point","coordinates":[-88.2513629,42.7851088]}},{"properties":{"city":"Saint Louis","expected date":null,"station name":"Ninth Street Petroleum - Naes Fuel","zip":"63102","latitude":38.644359,"public":1,"private":0,"street address":"1815 N 9th St","id":"1441","station phone":"314-241-1455","actual":1,"date last confirmed":"2011-01-31","plus4":null,"longitude":-90.188515,"groups with access code":"Public - see hours","state":"MO","government":0},"type":"Feature","geometry":{"type":"Point","coordinates":[-90.188515,38.644359]}},{"properties":{"city":"Crystal Lake","expected date":null,"station name":"Shell","zip":"60014","latitude":42.2293587,"public":1,"private":0,"street address":"220 West Virginia St","id":"1443","station phone":"815-459-7807","actual":1,"date last confirmed":"2011-04-30","plus4":7272,"longitude":-88.3307856,"groups with access code":"Public - see hours","state":"IL","government":0},"type":"Feature","geometry":{"type":"Point","coordinates":[-88.3307856,42.2293587]}},{"properties":{"city":"Mansfield","expected date":null,"station name":"Kroger Fuel Center #518","zip":"44906","latitude":40.7593648,"public":1,"private":0,"street address":"1240 Park Ave W","id":"1455","station phone":"419-528-1860","actual":1,"date last confirmed":"2011-02-28","plus4":null,"longitude":-82.5601264,"groups with access code":"Public - see hours","state":"OH","government":0},"type":"Feature","geometry":{"type":"Point","coordinates":[-82.5601264,40.7593648]}},{"properties":{"city":"Cottleville","expected date":null,"station name":"Fastlane #34","zip":"63376","latitude":38.7614696,"public":1,"private":0,"street address":"994 Knaust Rd","id":"1480","station phone":"636-922-4135","actual":1,"date last confirmed":"2011-01-31","plus4":null,"longitude":-90.6583529,"groups with access code":"Public - see hours","state":"MO","government":0},"type":"Feature","geometry":{"type":"Point","coordinates":[-90.6583529,38.7614696]}},{"properties":{"city":"Carlsbad","expected date":null,"station name":"Shell - Bressi Ranch - Pearson Fuels","zip":"92009","latitude":33.127865,"public":1,"private":0,"street address":"2741 Gateway Rd","id":"1483","station phone":"760-431-2741","actual":1,"date last confirmed":"2010-10-31","plus4":null,"longitude":-117.251448,"groups with access code":"Public - see hours","state":"CA","government":0},"type":"Feature","geometry":{"type":"Point","coordinates":[-117.251448,33.127865]}},{"properties":{"city":"Los Angeles","expected date":null,"station name":"Conserv Fuel","zip":"90049","latitude":34.05398,"public":1,"private":0,"street address":"11699 San Vicente Blvd","id":"1484","station phone":"310-571-0039","actual":1,"date last confirmed":"2010-02-28","plus4":null,"longitude":-118.4656,"groups with access code":"Public - see hours","state":"CA","government":0},"type":"Feature","geometry":{"type":"Point","coordinates":[-118.4656,34.05398]}},{"properties":{"city":"Oceanside","expected date":null,"station name":"The Oceansider - Texaco - Pearson Fuels","zip":"92054","latitude":33.189251,"public":1,"private":0,"street address":"1660 Oceanside Blvd","id":"1485","station phone":"760-722-1304","actual":1,"date last confirmed":"2010-10-31","plus4":null,"longitude":-117.364311,"groups with access code":"Public - see hours","state":"CA","government":0},"type":"Feature","geometry":{"type":"Point","coordinates":[-117.364311,33.189251]}},{"properties":{"city":"Washington","expected date":null,"station name":"Murphy Oil Co","zip":"63090","latitude":38.4454629,"public":1,"private":0,"street address":"1645 A Roy Dr","id":"1489","station phone":"636-390-9386","actual":1,"date last confirmed":"2011-01-31","plus4":null,"longitude":-90.391153,"groups with access code":"Public - see hours","state":"MO","government":0},"type":"Feature","geometry":{"type":"Point","coordinates":[-90.391153,38.4454629]}},{"properties":{"city":"Parma","expected date":null,"station name":"Francis Corp - Frank's Sunoco","zip":"44134","latitude":41.4143156,"public":1,"private":0,"street address":"5391 State Rd","id":"1496","station phone":"216-661-3090","actual":1,"date last confirmed":"2011-02-28","plus4":null,"longitude":-81.7102469,"groups with access code":"Public - see hours","state":"OH","government":0},"type":"Feature","geometry":{"type":"Point","coordinates":[-81.7102469,41.4143156]}},{"properties":{"city":"Burlington","expected date":null,"station name":"Wheatland Convenience Center","zip":"53105","latitude":42.583204,"public":1,"private":0,"street address":"33703 59th St","id":"1497","station phone":"262-537-2312","actual":1,"date last confirmed":"2010-08-31","plus4":null,"longitude":-88.219241,"groups with access code":"Public - see hours","state":"WI","government":0},"type":"Feature","geometry":{"type":"Point","coordinates":[-88.219241,42.583204]}},{"properties":{"city":"Franklin","expected date":null,"station name":"Andy's","zip":"53132","latitude":42.9161392,"public":1,"private":0,"street address":"5040 W Rawson","id":"1498","station phone":"414-425-3800","actual":1,"date last confirmed":"2010-08-31","plus4":null,"longitude":-87.9788004,"groups with access code":"Public - see hours","state":"WI","government":0},"type":"Feature","geometry":{"type":"Point","coordinates":[-87.9788004,42.9161392]}},{"properties":{"city":"Chicago","expected date":null,"station name":"Aisha Wash and Fuel Island - Citgo","zip":"60639","latitude":41.931272,"public":1,"private":0,"street address":"5549 W Diversey Ave","id":"1500","station phone":"773-889-0241","actual":1,"date last confirmed":"2010-11-30","plus4":null,"longitude":-87.7659144,"groups with access code":"Public - see hours","state":"IL","government":0},"type":"Feature","geometry":{"type":"Point","coordinates":[-87.7659144,41.931272]}},{"properties":{"city":"Smyrna","expected date":null,"station name":"Texaco Food Mart","zip":"30080","latitude":33.8444058,"public":1,"private":0,"street address":"4495 S Cobb Dr","id":"1504","station phone":"770-434-9569","actual":1,"date last confirmed":"2011-06-30","plus4":null,"longitude":-84.5016019,"groups with access code":"Public - see hours","state":"GA","government":0},"type":"Feature","geometry":{"type":"Point","coordinates":[-84.5016019,33.8444058]}},{"properties":{"city":"Saint Charles","expected date":null,"station name":"Fastlane Muegge","zip":"63301","latitude":38.760717,"public":1,"private":0,"street address":"2301 Old Highway 94 S","id":"1508","station phone":"636-447-9930","actual":1,"date last confirmed":"2011-01-31","plus4":null,"longitude":-90.540067,"groups with access code":"Public - see hours","state":"MO","government":0},"type":"Feature","geometry":{"type":"Point","coordinates":[-90.540067,38.760717]}},{"properties":{"city":"Verona","expected date":null,"station name":"Sunoco - Oakmont Service Plaza","zip":"15147","latitude":40.5222154,"public":1,"private":0,"street address":"2000 Eastern Ave","id":"1521","station phone":"412-828-3702","actual":1,"date last confirmed":"2011-04-30","plus4":null,"longitude":-79.8111132,"groups with access code":"Public - see hours","state":"PA","government":0},"type":"Feature","geometry":{"type":"Point","coordinates":[-79.8111132,40.5222154]}},{"properties":{"city":"Knoxville","expected date":null,"station name":"Pilot Food Mart #104","zip":"37922","latitude":35.8602164,"public":1,"private":0,"street address":"9550 Northshore Dr","id":"1522","station phone":"865-692-9751","actual":1,"date last confirmed":"2011-05-31","plus4":null,"longitude":-84.0703195,"groups with access code":"Public - see hours","state":"TN","government":0},"type":"Feature","geometry":{"type":"Point","coordinates":[-84.0703195,35.8602164]}},{"properties":{"city":"Barberton","expected date":null,"station name":"Rocky's Drive Thru","zip":"44023","latitude":41.023841,"public":1,"private":0,"street address":"560 Norton Ave","id":"1535","station phone":"330-745-9799","actual":1,"date last confirmed":"2011-02-28","plus4":null,"longitude":-81.609927,"groups with access code":"Public - see hours","state":"OH","government":0},"type":"Feature","geometry":{"type":"Point","coordinates":[-81.609927,41.023841]}},{"properties":{"city":"Concord","expected date":null,"station name":"Black Diamond Chevron - Pearson Fuels","zip":"94520","latitude":38.0154681,"public":1,"private":0,"street address":"1001 Willow Pass Ct","id":"1554","station phone":"925-682-2100","actual":1,"date last confirmed":"2010-10-31","plus4":null,"longitude":-122.0015397,"groups with access code":"Public - see hours","state":"CA","government":0},"type":"Feature","geometry":{"type":"Point","coordinates":[-122.0015397,38.0154681]}},{"properties":{"city":"Berwyn","expected date":null,"station name":"Harlem Marathon","zip":"60402","latitude":41.860783,"public":1,"private":0,"street address":"1427 S Harlem Ave","id":"1555","station phone":"708-788-3017","actual":1,"date last confirmed":"2010-02-28","plus4":null,"longitude":-87.803873,"groups with access code":"Public - see hours","state":"IL","government":0},"type":"Feature","geometry":{"type":"Point","coordinates":[-87.803873,41.860783]}},{"properties":{"city":"Chicago","expected date":null,"station name":"Clark Gas for Less","zip":"60641","latitude":41.932561,"public":1,"private":0,"street address":"2801 N Damen Ave","id":"1556","station phone":"773-528-0461","actual":1,"date last confirmed":"2010-11-30","plus4":null,"longitude":-87.677886,"groups with access code":"Public - see hours","state":"IL","government":0},"type":"Feature","geometry":{"type":"Point","coordinates":[-87.677886,41.932561]}},{"properties":{"city":"Troy","expected date":null,"station name":"Meijer Gas #112","zip":"45373","latitude":40.0565168,"public":1,"private":0,"street address":"1990 W Main St","id":"1561","station phone":"937-332-0529","actual":1,"date last confirmed":"2011-03-31","plus4":null,"longitude":-84.242322,"groups with access code":"Public - see hours","state":"OH","government":0},"type":"Feature","geometry":{"type":"Point","coordinates":[-84.242322,40.0565168]}},{"properties":{"city":"Hayward","expected date":null,"station name":"Chevron - Pearson Fuels","zip":"94541","latitude":37.666397,"public":1,"private":0,"street address":"525 West A St","id":"1562","station phone":"510-780-9536","actual":1,"date last confirmed":"2010-10-31","plus4":null,"longitude":-122.110472,"groups with access code":"Public - see hours","state":"CA","government":0},"type":"Feature","geometry":{"type":"Point","coordinates":[-122.110472,37.666397]}},{"properties":{"city":"Franklin","expected date":null,"station name":"Meijer Gas #61","zip":"45005","latitude":39.499572,"public":1,"private":0,"street address":"3651 Towne Blvd","id":"1567","station phone":"513-420-3929","actual":1,"date last confirmed":"2011-03-31","plus4":null,"longitude":-84.330623,"groups with access code":"Public - see hours","state":"OH","government":0},"type":"Feature","geometry":{"type":"Point","coordinates":[-84.330623,39.499572]}},{"properties":{"city":"Huber Heights","expected date":null,"station name":"Meijer Gas #241","zip":"45424","latitude":39.8703523,"public":1,"private":0,"street address":"7266 Executive Blvd","id":"1569","station phone":"937-237-4629","actual":1,"date last confirmed":"2011-03-31","plus4":null,"longitude":-84.1083624,"groups with access code":"Public - see hours","state":"OH","government":0},"type":"Feature","geometry":{"type":"Point","coordinates":[-84.1083624,39.8703523]}},{"properties":{"city":"Union City","expected date":null,"station name":"Chevron","zip":"30291","latitude":33.585972,"public":1,"private":0,"street address":"3850 Flat Shoals Rd","id":"1570","station phone":"770-969-8036","actual":1,"date last confirmed":"2011-06-30","plus4":null,"longitude":-84.5157658,"groups with access code":"Public - see hours","state":"GA","government":0},"type":"Feature","geometry":{"type":"Point","coordinates":[-84.5157658,33.585972]}},{"properties":{"city":"Atlanta","expected date":null,"station name":"Chevron","zip":"30329","latitude":33.8375219,"public":1,"private":0,"street address":"2755 Clairmont Rd","id":"1577","station phone":"404-321-2712","actual":1,"date last confirmed":"2011-06-30","plus4":null,"longitude":-84.3118921,"groups with access code":"Public - see hours","state":"GA","government":0},"type":"Feature","geometry":{"type":"Point","coordinates":[-84.3118921,33.8375219]}},{"properties":{"city":"Buford","expected date":null,"station name":"Citgo","zip":"30519","latitude":34.085655,"public":1,"private":0,"street address":"3820 Buford Dr","id":"1578","station phone":"770-614-1791","actual":1,"date last confirmed":"2011-06-30","plus4":null,"longitude":-83.9924319,"groups with access code":"Public - see hours","state":"GA","government":0},"type":"Feature","geometry":{"type":"Point","coordinates":[-83.9924319,34.085655]}},{"properties":{"city":"Conyers","expected date":null,"station name":"Chevron","zip":"30012","latitude":33.667966,"public":1,"private":0,"street address":"1113 West Ave","id":"1579","station phone":"770-483-1155","actual":1,"date last confirmed":"2011-06-30","plus4":null,"longitude":-84.025176,"groups with access code":"Public - see hours","state":"GA","government":0},"type":"Feature","geometry":{"type":"Point","coordinates":[-84.025176,33.667966]}},{"properties":{"city":"Atlanta","expected date":null,"station name":"Chevron","zip":"30350","latitude":33.9597447,"public":1,"private":0,"street address":"4249 Dunwoody Club Dr","id":"1580","station phone":"770-901-9334","actual":1,"date last confirmed":"2011-06-30","plus4":null,"longitude":-84.2965346,"groups with access code":"Public - see hours","state":"GA","government":0},"type":"Feature","geometry":{"type":"Point","coordinates":[-84.2965346,33.9597447]}},{"properties":{"city":"Jonesboro","expected date":null,"station name":"Texaco","zip":"30236","latitude":33.538563,"public":1,"private":0,"street address":"7915 Jonesboro Rd","id":"1581","station phone":"770-210-0404","actual":1,"date last confirmed":"2011-06-30","plus4":null,"longitude":-84.351558,"groups with access code":"Public - see hours","state":"GA","government":0},"type":"Feature","geometry":{"type":"Point","coordinates":[-84.351558,33.538563]}},{"properties":{"city":"Lawrenceville","expected date":null,"station name":"Safa Express BP","zip":"30045","latitude":33.9323441,"public":1,"private":0,"street address":"725 Grayson Hwy","id":"1582","station phone":"770-277-1119","actual":1,"date last confirmed":"2011-06-30","plus4":null,"longitude":-83.9771992,"groups with access code":"Public - see hours","state":"GA","government":0},"type":"Feature","geometry":{"type":"Point","coordinates":[-83.9771992,33.9323441]}},{"properties":{"city":"Rex","expected date":null,"station name":"Chevron","zip":"30273","latitude":33.577705,"public":1,"private":0,"street address":"6448 Highway 42","id":"1583","station phone":"770-474-1084","actual":1,"date last confirmed":"2011-06-30","plus4":null,"longitude":-84.282558,"groups with access code":"Public - see hours","state":"GA","government":0},"type":"Feature","geometry":{"type":"Point","coordinates":[-84.282558,33.577705]}},{"properties":{"city":"Stone Mountain","expected date":null,"station name":"Texaco","zip":"30083","latitude":33.825961,"public":1,"private":0,"street address":"1525 Mountain Industrial","id":"1584","station phone":"770-493-9107","actual":1,"date last confirmed":"2011-06-30","plus4":null,"longitude":-84.195513,"groups with access code":"Public - see hours","state":"GA","government":0},"type":"Feature","geometry":{"type":"Point","coordinates":[-84.195513,33.825961]}},{"properties":{"city":"Overland","expected date":null,"station name":"Mobil On the Run","zip":"63114","latitude":38.6872164,"public":1,"private":0,"street address":"9405 Page Ave","id":"1586","station phone":"314-262-7082","actual":1,"date last confirmed":"2011-01-31","plus4":null,"longitude":-90.362875,"groups with access code":"Public - see hours","state":"MO","government":0},"type":"Feature","geometry":{"type":"Point","coordinates":[-90.362875,38.6872164]}},{"properties":{"city":"Wentzville","expected date":null,"station name":"Mobil On the Run","zip":"63385","latitude":38.8189752,"public":1,"private":0,"street address":"1744 Wentzville Parkway","id":"1587","station phone":"636-332-9000","actual":1,"date last confirmed":"2011-01-31","plus4":null,"longitude":-90.8777071,"groups with access code":"Public - see hours","state":"MO","government":0},"type":"Feature","geometry":{"type":"Point","coordinates":[-90.8777071,38.8189752]}},{"properties":{"city":"Chicago","expected date":null,"station name":"Midway Marathon","zip":"60652","latitude":41.744808,"public":1,"private":0,"street address":"8145 S Pulaski","id":"1601","station phone":"773-585-8912","actual":1,"date last confirmed":"2011-05-31","plus4":null,"longitude":-87.7215189,"groups with access code":"Public - see hours","state":"IL","government":0},"type":"Feature","geometry":{"type":"Point","coordinates":[-87.7215189,41.744808]}},{"properties":{"city":"Valdosta","expected date":null,"station name":"Flash Foods","zip":"31605","latitude":30.9112,"public":1,"private":0,"street address":"4109 Bemis Rd","id":"1610","station phone":"229-249-8845","actual":1,"date last confirmed":"2011-06-30","plus4":null,"longitude":-83.2633,"groups with access code":"Public - see hours","state":"GA","government":0},"type":"Feature","geometry":{"type":"Point","coordinates":[-83.2633,30.9112]}},{"properties":{"city":"Ocoee","expected date":null,"station name":"Turkey Lake Service Plaza - Citgo","zip":"34761","latitude":28.514944,"public":1,"private":0,"street address":"Milepost 263, Florida's Turnpike","id":"1612","station phone":"407-291-6329","actual":1,"date last confirmed":"2011-06-30","plus4":null,"longitude":-81.499331,"groups with access code":"Public - see hours","state":"FL","government":0},"type":"Feature","geometry":{"type":"Point","coordinates":[-81.499331,28.514944]}},{"properties":{"city":"Milroy","expected date":null,"station name":"Tom's Travel Center #49","zip":"17063","latitude":40.3479974,"public":1,"private":0,"street address":"20 Commerce Dr","id":"1618","station phone":"717-667-6002","actual":1,"date last confirmed":"2011-04-30","plus4":null,"longitude":-75.9885567,"groups with access code":"Public - see hours","state":"PA","government":0},"type":"Feature","geometry":{"type":"Point","coordinates":[-75.9885567,40.3479974]}},{"properties":{"city":"Oak Creek","expected date":null,"station name":"Woodman's Food Markets","zip":"53154","latitude":42.8975404,"public":1,"private":0,"street address":"8131 S Howell Ave","id":"1640","station phone":"414-376-4023","actual":1,"date last confirmed":"2010-11-30","plus4":null,"longitude":-87.9119023,"groups with access code":"Public - see hours","state":"WI","government":0},"type":"Feature","geometry":{"type":"Point","coordinates":[-87.9119023,42.8975404]}},{"properties":{"city":"Richmond","expected date":null,"station name":"Richmond Shell","zip":"60071","latitude":42.4711808,"public":1,"private":0,"street address":"10007 Main St","id":"1644","station phone":"815-678-2929","actual":1,"date last confirmed":"2010-11-30","plus4":null,"longitude":-88.3064612,"groups with access code":"Public - see hours","state":"IL","government":0},"type":"Feature","geometry":{"type":"Point","coordinates":[-88.3064612,42.4711808]}},{"properties":{"city":"Gages Lake","expected date":null,"station name":"Gages Lake Citgo","zip":"60030","latitude":42.356644,"public":1,"private":0,"street address":"33978 N US 45","id":"1657","station phone":"847-223-9033","actual":1,"date last confirmed":"2010-11-30","plus4":null,"longitude":-88.003008,"groups with access code":"Public - see hours","state":"IL","government":0},"type":"Feature","geometry":{"type":"Point","coordinates":[-88.003008,42.356644]}},{"properties":{"city":"Germantown","expected date":null,"station name":"W Express","zip":"20876","latitude":39.192544,"public":1,"private":0,"street address":"20510 Frederick Rd","id":"1672","station phone":"301-353-8288","actual":1,"date last confirmed":"2010-09-30","plus4":null,"longitude":-77.243452,"groups with access code":"Public - see hours","state":"MD","government":0},"type":"Feature","geometry":{"type":"Point","coordinates":[-77.243452,39.192544]}},{"properties":{"city":"Cleveland","expected date":null,"station name":"Giant Eagle GetGo","zip":"44111","latitude":41.4696008,"public":1,"private":0,"street address":"3038 W 117th St","id":"1678","station phone":"216-941-9024","actual":1,"date last confirmed":"2011-02-28","plus4":null,"longitude":-81.7689264,"groups with access code":"Public - see hours","state":"OH","government":0},"type":"Feature","geometry":{"type":"Point","coordinates":[-81.7689264,41.4696008]}},{"properties":{"city":"Harrison","expected date":null,"station name":"Tom's Marathon","zip":"45030","latitude":39.2404802,"public":1,"private":0,"street address":"9959 Harrison Rd","id":"1680","station phone":"513-367-1220","actual":1,"date last confirmed":"2011-02-28","plus4":null,"longitude":-84.7744802,"groups with access code":"Public - see hours","state":"OH","government":0},"type":"Feature","geometry":{"type":"Point","coordinates":[-84.7744802,39.2404802]}},{"properties":{"city":"Fairburn","expected date":null,"station name":"Fairburn Family Travel Center","zip":"30213","latitude":33.5288254,"public":1,"private":0,"street address":"7860 Senoia Rd","id":"1691","station phone":"770-306-8319","actual":1,"date last confirmed":"2011-06-30","plus4":null,"longitude":-84.5759924,"groups with access code":"Public - see hours","state":"GA","government":0},"type":"Feature","geometry":{"type":"Point","coordinates":[-84.5759924,33.5288254]}},{"properties":{"city":"Jeffersonville","expected date":null,"station name":"Dileo Auto Service","zip":"19403","latitude":40.137571,"public":1,"private":0,"street address":"2233 W Main St","id":"1694","station phone":"610-539-5308","actual":1,"date last confirmed":"2011-04-30","plus4":null,"longitude":-75.383354,"groups with access code":"Public - see hours","state":"PA","government":0},"type":"Feature","geometry":{"type":"Point","coordinates":[-75.383354,40.137571]}},{"properties":{"city":"Manheim","expected date":null,"station name":"WoGo - Worley &amp; Obetz","zip":"17545","latitude":40.1708472,"public":1,"private":0,"street address":"85 White Oak Rd","id":"1695","station phone":"717-664-1922","actual":1,"date last confirmed":"2011-04-30","plus4":null,"longitude":-76.3879387,"groups with access code":"Public - see hours","state":"PA","government":0},"type":"Feature","geometry":{"type":"Point","coordinates":[-76.3879387,40.1708472]}},{"properties":{"city":"Germantown","expected date":null,"station name":"Town Center Chevron","zip":"20874","latitude":39.17569,"public":1,"private":0,"street address":"12301 Middlebrook Rd","id":"1706","station phone":"301-972-5122","actual":1,"date last confirmed":"2010-09-30","plus4":null,"longitude":-77.253989,"groups with access code":"Public - see hours","state":"MD","government":0},"type":"Feature","geometry":{"type":"Point","coordinates":[-77.253989,39.17569]}},{"properties":{"city":"Clinton","expected date":null,"station name":"Weigel's #64","zip":"37716","latitude":36.168164,"public":1,"private":0,"street address":"2409 N Charles G Seivers Blvd","id":"1708","station phone":"865-494-7970","actual":1,"date last confirmed":"2011-05-31","plus4":null,"longitude":-84.0804492,"groups with access code":"Public - see hours","state":"TN","government":0},"type":"Feature","geometry":{"type":"Point","coordinates":[-84.0804492,36.168164]}},{"properties":{"city":"Saint Clair","expected date":null,"station name":"Fastlane","zip":"63077","latitude":38.3741131,"public":1,"private":0,"street address":"8299 Highway 47","id":"1731","station phone":"636-629-4538","actual":1,"date last confirmed":"2011-01-31","plus4":null,"longitude":-90.9810441,"groups with access code":"Public - see hours","state":"MO","government":0},"type":"Feature","geometry":{"type":"Point","coordinates":[-90.9810441,38.3741131]}},{"properties":{"city":"Gaithersburg","expected date":null,"station name":"Washingtonian Chevron","zip":"20878","latitude":39.1163093,"public":1,"private":0,"street address":"10003 Fields Rd","id":"1742","station phone":"301-840-6277","actual":1,"date last confirmed":"2010-09-30","plus4":null,"longitude":-77.2064251,"groups with access code":"Public - see hours","state":"MD","government":0},"type":"Feature","geometry":{"type":"Point","coordinates":[-77.2064251,39.1163093]}},{"properties":{"city":"Chesterfield","expected date":null,"station name":"BP","zip":"63017","latitude":38.667547,"public":1,"private":0,"street address":"110 Long Rd","id":"1747","station phone":"636-532-0756","actual":1,"date last confirmed":"2011-01-31","plus4":null,"longitude":-90.6170549,"groups with access code":"Public - see hours","state":"MO","government":0},"type":"Feature","geometry":{"type":"Point","coordinates":[-90.6170549,38.667547]}},{"properties":{"city":"O'Fallon","expected date":null,"station name":"K&amp;N - Mobil On the Run","zip":"63366","latitude":38.756127,"public":1,"private":0,"street address":"3000 Highway K","id":"1748","station phone":"636-240-7925","actual":1,"date last confirmed":"2011-01-31","plus4":null,"longitude":-90.699693,"groups with access code":"Public - see hours","state":"MO","government":0},"type":"Feature","geometry":{"type":"Point","coordinates":[-90.699693,38.756127]}},{"properties":{"city":"Wildwood","expected date":null,"station name":"Mobil On the Run","zip":"63040","latitude":38.5502027,"public":1,"private":0,"street address":"16509 Old Manchester Rd","id":"1749","station phone":"636-458-1809","actual":1,"date last confirmed":"2011-01-31","plus4":null,"longitude":-90.7042407,"groups with access code":"Public - see hours","state":"MO","government":0},"type":"Feature","geometry":{"type":"Point","coordinates":[-90.7042407,38.5502027]}},{"properties":{"city":"Floristell","expected date":null,"station name":"Fast Lane","zip":"63348","latitude":38.815016,"public":1,"private":0,"street address":"3166 S Service Rd E","id":"1766","station phone":"636-673-1248","actual":1,"date last confirmed":"2011-01-31","plus4":null,"longitude":-90.952803,"groups with access code":"Public - see hours","state":"MO","government":0},"type":"Feature","geometry":{"type":"Point","coordinates":[-90.952803,38.815016]}},{"properties":{"city":"East Dundee","expected date":null,"station name":"Citgo","zip":"60118","latitude":42.088172,"public":1,"private":0,"street address":"1097 E Main St","id":"1781","station phone":"847-428-4205","actual":1,"date last confirmed":"2010-11-30","plus4":null,"longitude":-88.2449904,"groups with access code":"Public - see hours","state":"IL","government":0},"type":"Feature","geometry":{"type":"Point","coordinates":[-88.2449904,42.088172]}},{"properties":{"city":"Allentown","expected date":null,"station name":"Sunoco - Allentown Service Plaza","zip":"18106","latitude":40.5774207,"public":1,"private":0,"street address":"5052 Cetronia Rd","id":"1794","station phone":"610-398-7086","actual":1,"date last confirmed":"2011-04-30","plus4":null,"longitude":-75.5617372,"groups with access code":"Public - see hours","state":"PA","government":0},"type":"Feature","geometry":{"type":"Point","coordinates":[-75.5617372,40.5774207]}},{"properties":{"city":"Spring Grove","expected date":null,"station name":"Tom's","zip":"17362","latitude":39.8817642,"public":1,"private":0,"street address":"502 N Main St","id":"1796","station phone":"717-225-4298","actual":1,"date last confirmed":"2011-04-30","plus4":null,"longitude":-76.8643859,"groups with access code":"Public - see hours","state":"PA","government":0},"type":"Feature","geometry":{"type":"Point","coordinates":[-76.8643859,39.8817642]}},{"properties":{"city":"Brentwood","expected date":null,"station name":"Mobil On the Run","zip":"63144","latitude":38.6217645,"public":1,"private":0,"street address":"2120 S Brentwood","id":"1838","station phone":"314-961-7957","actual":1,"date last confirmed":"2011-01-31","plus4":null,"longitude":-90.3483908,"groups with access code":"Public - see hours","state":"MO","government":0},"type":"Feature","geometry":{"type":"Point","coordinates":[-90.3483908,38.6217645]}},{"properties":{"city":"Barrington","expected date":null,"station name":"Minuteman Citgo Lake Zurich","zip":"60010","latitude":42.214247,"public":1,"private":0,"street address":"24112 Rand Rd","id":"1847","station phone":"847-438-5722","actual":1,"date last confirmed":"2010-11-30","plus4":null,"longitude":-88.111678,"groups with access code":"Public - see hours","state":"IL","government":0},"type":"Feature","geometry":{"type":"Point","coordinates":[-88.111678,42.214247]}},{"properties":{"city":"Davis","expected date":null,"station name":"Chevron - DMC Green Incorporated","zip":"95618","latitude":38.540247,"public":1,"private":0,"street address":"1601 Research Park Dr","id":"1857","station phone":"530-750-0799","actual":1,"date last confirmed":"2010-10-31","plus4":null,"longitude":-121.73185,"groups with access code":"Public - see hours","state":"CA","government":0},"type":"Feature","geometry":{"type":"Point","coordinates":[-121.73185,38.540247]}},{"properties":{"city":"Fairfield","expected date":null,"station name":"Plaza Oliver Valero - DMC Green Incorporated","zip":"94534","latitude":38.251398,"public":1,"private":0,"street address":"1009 Oliver Rd","id":"1879","station phone":"707-399-3600","actual":1,"date last confirmed":"2010-10-31","plus4":null,"longitude":-122.069787,"groups with access code":"Public - see hours","state":"CA","government":0},"type":"Feature","geometry":{"type":"Point","coordinates":[-122.069787,38.251398]}},{"properties":{"city":"Atlanta","expected date":null,"station name":"North Spring Shell","zip":"30328","latitude":33.954948,"public":1,"private":0,"street address":"7325 Roswell Rd","id":"1889","station phone":"770-394-1604","actual":1,"date last confirmed":"2011-06-30","plus4":null,"longitude":-84.364464,"groups with access code":"Public - see hours","state":"GA","government":0},"type":"Feature","geometry":{"type":"Point","coordinates":[-84.364464,33.954948]}},{"properties":{"city":"Bremen","expected date":null,"station name":"SuperMart Shell","zip":"30110","latitude":33.693184,"public":1,"private":0,"street address":"153 US Highway 27","id":"1890","station phone":"770-537-1326","actual":1,"date last confirmed":"2011-06-30","plus4":null,"longitude":-85.152927,"groups with access code":"Public - see hours","state":"GA","government":0},"type":"Feature","geometry":{"type":"Point","coordinates":[-85.152927,33.693184]}},{"properties":{"city":"Griffin","expected date":null,"station name":"Willis BP Amoco","zip":"30223","latitude":33.2502538,"public":1,"private":0,"street address":"103 S 8th St","id":"1925","station phone":"770-227-5724","actual":1,"date last confirmed":"2011-06-30","plus4":null,"longitude":-84.2654525,"groups with access code":"Public - see hours","state":"GA","government":0},"type":"Feature","geometry":{"type":"Point","coordinates":[-84.2654525,33.2502538]}},{"properties":{"city":"Buckhead","expected date":null,"station name":"Chevron Food Mart","zip":"30324","latitude":33.8234,"public":1,"private":0,"street address":"639 Morosgo Dr","id":"1926","station phone":"404-549-9740","actual":1,"date last confirmed":"2011-06-30","plus4":null,"longitude":-84.3673,"groups with access code":"Public - see hours","state":"GA","government":0},"type":"Feature","geometry":{"type":"Point","coordinates":[-84.3673,33.8234]}},{"properties":{"city":"Spring Branch","expected date":null,"station name":"Fischers Market #32 - MidTex","zip":"78070","latitude":29.8503863,"public":1,"private":0,"street address":"7765 US Highway 281 N","id":"1930","station phone":"830-904-4040","actual":1,"date last confirmed":"2011-06-30","plus4":null,"longitude":-98.4085436,"groups with access code":"Public - see hours","state":"TX","government":0},"type":"Feature","geometry":{"type":"Point","coordinates":[-98.4085436,29.8503863]}},{"properties":{"city":"Bulls Gap","expected date":null,"station name":"Zoomerz #68","zip":"37711","latitude":36.2248999,"public":1,"private":0,"street address":"13425 Andrew Johnson Hwy","id":"1942","station phone":"423-235-2202","actual":1,"date last confirmed":"2011-05-31","plus4":null,"longitude":-83.048883,"groups with access code":"Public - see hours","state":"TN","government":0},"type":"Feature","geometry":{"type":"Point","coordinates":[-83.048883,36.2248999]}},{"properties":{"city":"Newport","expected date":null,"station name":"Zoomerz #59 - Exxon","zip":"37821","latitude":35.949902,"public":1,"private":0,"street address":"905 Cosby Hwy","id":"1950","station phone":"423-623-4724","actual":1,"date last confirmed":"2011-05-31","plus4":null,"longitude":-83.202626,"groups with access code":"Public - see hours","state":"TN","government":0},"type":"Feature","geometry":{"type":"Point","coordinates":[-83.202626,35.949902]}},{"properties":{"city":"Perris","expected date":null,"station name":"Union 76 - Pearson Fuels","zip":"92570","latitude":33.841,"public":1,"private":0,"street address":"19248 Harvill Ave","id":"1951","station phone":"951-940-9855","actual":1,"date last confirmed":"2010-06-30","plus4":null,"longitude":-117.25447,"groups with access code":"Public - see hours","state":"CA","government":0},"type":"Feature","geometry":{"type":"Point","coordinates":[-117.25447,33.841]}},{"properties":{"city":"Milwaukee","expected date":null,"station name":"Airport Petroleum Corporation","zip":"53207","latitude":42.935796,"public":1,"private":0,"street address":"5979 S Howell Ave","id":"1956","station phone":"414-747-8779","actual":1,"date last confirmed":"2010-08-31","plus4":null,"longitude":-87.910304,"groups with access code":"Public - see hours","state":"WI","government":0},"type":"Feature","geometry":{"type":"Point","coordinates":[-87.910304,42.935796]}},{"properties":{"city":"Elkhorn","expected date":null,"station name":"Kwik Trip #485","zip":"53121","latitude":42.693747,"public":1,"private":0,"street address":"6 W Hidden Trail","id":"1961","station phone":"262-723-7179","actual":1,"date last confirmed":"2011-04-30","plus4":null,"longitude":-88.546614,"groups with access code":"Public - see hours","state":"WI","government":0},"type":"Feature","geometry":{"type":"Point","coordinates":[-88.546614,42.693747]}},{"properties":{"city":"Pomona","expected date":null,"station name":"Foothill Chevron - Pearson Fuels","zip":"91767","latitude":34.107634,"public":1,"private":0,"street address":"100 W Foothill Blvd","id":"1964","station phone":"909-593-1502","actual":1,"date last confirmed":"2011-03-31","plus4":null,"longitude":-117.749025,"groups with access code":"Public - see hours","state":"CA","government":0},"type":"Feature","geometry":{"type":"Point","coordinates":[-117.749025,34.107634]}},{"properties":{"city":"San Jose","expected date":null,"station name":"San Jose Chevron - Pearson Fuels","zip":"95112","latitude":37.3641411,"public":1,"private":0,"street address":"680 Commercial St","id":"1965","station phone":"408-287-6054","actual":1,"date last confirmed":"2010-10-31","plus4":null,"longitude":-121.892421,"groups with access code":"Public - see hours","state":"CA","government":0},"type":"Feature","geometry":{"type":"Point","coordinates":[-121.892421,37.3641411]}},{"properties":{"city":"Shiloh","expected date":null,"station name":"Green Mount MotoMart","zip":"62269","latitude":38.570958,"public":1,"private":0,"street address":"1790 Frank Scott Parkway E","id":"1971","station phone":"618-622-8379","actual":1,"date last confirmed":"2010-11-30","plus4":null,"longitude":-89.965778,"groups with access code":"Public - see hours","state":"IL","government":0},"type":"Feature","geometry":{"type":"Point","coordinates":[-89.965778,38.570958]}},{"properties":{"city":"Caseyville","expected date":null,"station name":"Han Dee Mart","zip":"62232","latitude":38.640742,"public":1,"private":0,"street address":"411 N Main St","id":"1976","station phone":"618-344-3667","actual":1,"date last confirmed":"2010-11-30","plus4":null,"longitude":-90.021234,"groups with access code":"Public - see hours","state":"IL","government":0},"type":"Feature","geometry":{"type":"Point","coordinates":[-90.021234,38.640742]}},{"properties":{"city":"Northlake","expected date":null,"station name":"Marathon","zip":"60164","latitude":41.902074,"public":1,"private":0,"street address":"2 E Lake St","id":"1978","station phone":"708-343-0201","actual":1,"date last confirmed":"2010-03-31","plus4":null,"longitude":-87.902739,"groups with access code":"Public - see hours","state":"IL","government":0},"type":"Feature","geometry":{"type":"Point","coordinates":[-87.902739,41.902074]}},{"properties":{"city":"White Springs","expected date":null,"station name":"Gate Petroleum","zip":"32096","latitude":30.31458,"public":1,"private":0,"street address":"2940 County Road 136","id":"1980","station phone":"386-963-5555","actual":1,"date last confirmed":"2011-06-30","plus4":null,"longitude":-82.811343,"groups with access code":"Public - see hours","state":"FL","government":0},"type":"Feature","geometry":{"type":"Point","coordinates":[-82.811343,30.31458]}},{"properties":{"city":"Shamong","expected date":null,"station name":"Mighty Joe's Gas Station","zip":"8088","latitude":39.8104,"public":1,"private":0,"street address":"1231 Route 206","id":"1989","station phone":"609-268-0303","actual":1,"date last confirmed":"2011-02-28","plus4":null,"longitude":-74.737,"groups with access code":"Public - see hours","state":"NJ","government":0},"type":"Feature","geometry":{"type":"Point","coordinates":[-74.737,39.8104]}},{"properties":{"city":"Elgin","expected date":null,"station name":"PetroLiance LLC","zip":"60123","latitude":42.051678,"public":1,"private":0,"street address":"739 N State St","id":"1990","station phone":"847-608-7140","actual":1,"date last confirmed":"2010-12-31","plus4":null,"longitude":-88.295132,"groups with access code":"Public - see hours","state":"IL","government":0},"type":"Feature","geometry":{"type":"Point","coordinates":[-88.295132,42.051678]}},{"properties":{"city":"Atlanta","expected date":null,"station name":"GasXpress Exxon","zip":"30317","latitude":33.747451,"public":1,"private":0,"street address":"202 Candler Rd","id":"1992","station phone":"404-687-9455","actual":1,"date last confirmed":"2011-06-30","plus4":null,"longitude":-84.291712,"groups with access code":"Public - see hours","state":"GA","government":0},"type":"Feature","geometry":{"type":"Point","coordinates":[-84.291712,33.747451]}},{"properties":{"city":"Moscow Mills","expected date":null,"station name":"FastLane","zip":"63362","latitude":38.949228,"public":1,"private":0,"street address":"240 College Campus Dr","id":"2004","station phone":"636-356-9201","actual":1,"date last confirmed":"2011-01-31","plus4":null,"longitude":-90.929406,"groups with access code":"Public - see hours","state":"MO","government":0},"type":"Feature","geometry":{"type":"Point","coordinates":[-90.929406,38.949228]}},{"properties":{"city":"Charlotte","expected date":null,"station name":"R&amp;K Express - BP","zip":"28215","latitude":35.2146413,"public":1,"private":0,"street address":"8712 Pence Rd","id":"2005","station phone":"704-532-4136","actual":1,"date last confirmed":"2011-04-30","plus4":null,"longitude":-80.6881344,"groups with access code":"Public - see hours","state":"NC","government":0},"type":"Feature","geometry":{"type":"Point","coordinates":[-80.6881344,35.2146413]}},{"properties":{"city":"Hanover","expected date":null,"station name":"Tom's Hanover Exxon","zip":"17331","latitude":39.774639,"public":1,"private":0,"street address":"1340 S Baltimore St","id":"2019","station phone":"717-633-7401","actual":1,"date last confirmed":"2011-04-30","plus4":null,"longitude":-76.959869,"groups with access code":"Public - see hours","state":"PA","government":0},"type":"Feature","geometry":{"type":"Point","coordinates":[-76.959869,39.774639]}},{"properties":{"city":"Lancaster","expected date":null,"station name":"Tom's Old Philadelphia Pike","zip":"17602","latitude":40.04011,"public":1,"private":0,"street address":"1954 Old Philadelphia Pike","id":"2020","station phone":"717-291-0264","actual":1,"date last confirmed":"2011-04-30","plus4":null,"longitude":-76.247822,"groups with access code":"Public - see hours","state":"PA","government":0},"type":"Feature","geometry":{"type":"Point","coordinates":[-76.247822,40.04011]}},{"properties":{"city":"York","expected date":null,"station name":"Tom's Erngsville","zip":"17406","latitude":40.018907,"public":1,"private":0,"street address":"3167 Susquehanna Trail","id":"2021","station phone":"717-764-3329","actual":1,"date last confirmed":"2011-04-30","plus4":null,"longitude":-76.746977,"groups with access code":"Public - see hours","state":"PA","government":0},"type":"Feature","geometry":{"type":"Point","coordinates":[-76.746977,40.018907]}},{"properties":{"city":"Hebron","expected date":null,"station name":"Kroger","zip":"41048","latitude":39.0654194,"public":1,"private":0,"street address":"3105 N Bend Rd","id":"2036","station phone":"859-962-4900","actual":1,"date last confirmed":"2011-04-30","plus4":null,"longitude":-84.7033234,"groups with access code":"Public - see hours","state":"KY","government":0},"type":"Feature","geometry":{"type":"Point","coordinates":[-84.7033234,39.0654194]}},{"properties":{"city":"Exton","expected date":null,"station name":"Reilly &amp; Sons AMERIgreen","zip":"19341","latitude":40.0294992,"public":1,"private":0,"street address":"603 E Lincoln Hwy","id":"2046","station phone":"610-363-7225","actual":1,"date last confirmed":"2011-04-30","plus4":null,"longitude":-75.6144007,"groups with access code":"Public - see hours","state":"PA","government":0},"type":"Feature","geometry":{"type":"Point","coordinates":[-75.6144007,40.0294992]}},{"properties":{"city":"Elmhurst","expected date":null,"station name":"Power Mart","zip":"60126","latitude":41.919886,"public":1,"private":0,"street address":"572 W Lake St","id":"2053","station phone":"866-769-7678","actual":1,"date last confirmed":"2010-03-31","plus4":null,"longitude":-87.958794,"groups with access code":"Public - see hours","state":"IL","government":0},"type":"Feature","geometry":{"type":"Point","coordinates":[-87.958794,41.919886]}},{"properties":{"city":"East Orange","expected date":null,"station name":"Power Gas","zip":"7018","latitude":40.754951,"public":1,"private":0,"street address":"205 Sanford St","id":"2057","station phone":"973-678-2002","actual":1,"date last confirmed":"2011-02-28","plus4":null,"longitude":-74.228628,"groups with access code":"Public - see hours","state":"NJ","government":0},"type":"Feature","geometry":{"type":"Point","coordinates":[-74.228628,40.754951]}},{"properties":{"city":"Wexford","expected date":null,"station name":"Pine Township GetGo","zip":"15090","latitude":40.1271728,"public":1,"private":0,"street address":"140 Towne Centre Dr","id":"2066","station phone":"724-934-1404","actual":1,"date last confirmed":"2011-04-30","plus4":null,"longitude":-75.3603508,"groups with access code":"Public - see hours","state":"PA","government":0},"type":"Feature","geometry":{"type":"Point","coordinates":[-75.3603508,40.1271728]}},{"properties":{"city":"Halls","expected date":null,"station name":"Coffman Oil SmartServ","zip":"37918","latitude":36.080842,"public":1,"private":0,"street address":"7132 Maynardville Pike","id":"2069","station phone":"865-922-7245","actual":1,"date last confirmed":"2011-05-31","plus4":null,"longitude":-83.9271447,"groups with access code":"Public - see hours","state":"TN","government":0},"type":"Feature","geometry":{"type":"Point","coordinates":[-83.9271447,36.080842]}},{"properties":{"city":"Knoxville","expected date":null,"station name":"Pilot Travel Center #219","zip":"37914","latitude":35.998402,"public":1,"private":0,"street address":"7210 Strawberry Plains Pike","id":"2070","station phone":"865-544-1067","actual":1,"date last confirmed":"2011-05-31","plus4":null,"longitude":-83.778289,"groups with access code":"Public - see hours","state":"TN","government":0},"type":"Feature","geometry":{"type":"Point","coordinates":[-83.778289,35.998402]}},{"properties":{"city":"Lakeland","expected date":null,"station name":"FleetWing","zip":"33801","latitude":28.0348053,"public":1,"private":0,"street address":"814 S Combee Rd","id":"2074","station phone":"863-665-7557","actual":1,"date last confirmed":"2011-06-30","plus4":null,"longitude":-81.9078555,"groups with access code":"Public - see hours","state":"FL","government":0},"type":"Feature","geometry":{"type":"Point","coordinates":[-81.9078555,28.0348053]}},{"properties":{"city":"Kutztown","expected date":null,"station name":"Moyer Energy","zip":"19530","latitude":40.520514,"public":1,"private":0,"street address":"110 E Main St","id":"2087","station phone":"610-683-7364","actual":1,"date last confirmed":"2011-04-30","plus4":null,"longitude":-75.774589,"groups with access code":"Public - see hours","state":"PA","government":0},"type":"Feature","geometry":{"type":"Point","coordinates":[-75.774589,40.520514]}},{"properties":{"city":"Uniontown","expected date":null,"station name":"JG Service Station","zip":"15401","latitude":39.8664403,"public":1,"private":0,"street address":"2013 Morgantown Rd","id":"2088","station phone":"724-437-1470","actual":1,"date last confirmed":"2011-04-30","plus4":null,"longitude":-79.7456883,"groups with access code":"Public - see hours","state":"PA","government":0},"type":"Feature","geometry":{"type":"Point","coordinates":[-79.7456883,39.8664403]}},{"properties":{"city":"Hayes","expected date":null,"station name":"Phillips Energy Incorporated","zip":"23072","latitude":37.2814863,"public":1,"private":0,"street address":"2586 George Washington Memorial Hwy","id":"2100","station phone":"804-642-2166","actual":1,"date last confirmed":"2010-06-30","plus4":null,"longitude":-76.5042617,"groups with access code":"Public - see hours","state":"VA","government":0},"type":"Feature","geometry":{"type":"Point","coordinates":[-76.5042617,37.2814863]}},{"properties":{"city":"New Braunfels","expected date":null,"station name":"Shell - MidTex","zip":"78130","latitude":29.694807,"public":1,"private":0,"street address":"1015 S Seguin Ave","id":"2121","station phone":"830-629-4895","actual":1,"date last confirmed":"2011-06-30","plus4":null,"longitude":-98.112069,"groups with access code":"Public - see hours","state":"TX","government":0},"type":"Feature","geometry":{"type":"Point","coordinates":[-98.112069,29.694807]}},{"properties":{"city":"Lake Wales","expected date":null,"station name":"Sunoco-Circle K","zip":"33853","latitude":27.9041888,"public":1,"private":0,"street address":"1349 Highway 60","id":"2125","station phone":"863-679-2692","actual":1,"date last confirmed":"2011-06-30","plus4":null,"longitude":-81.6129898,"groups with access code":"Public - see hours","state":"FL","government":0},"type":"Feature","geometry":{"type":"Point","coordinates":[-81.6129898,27.9041888]}},{"properties":{"city":"San Antonio","expected date":null,"station name":"Valero Corner Store #1055","zip":"78218","latitude":29.510763,"public":1,"private":0,"street address":"4801 Walzem Rd","id":"2158","station phone":"210-637-0516","actual":1,"date last confirmed":"2010-08-31","plus4":null,"longitude":-98.396558,"groups with access code":"Public - see hours","state":"TX","government":0},"type":"Feature","geometry":{"type":"Point","coordinates":[-98.396558,29.510763]}},{"properties":{"city":"Rock Hill","expected date":null,"station name":"Exxon","zip":"29730","latitude":34.9139514,"public":1,"private":0,"street address":"1055 S Anderson Rd","id":"2192","station phone":"803-366-5322","actual":1,"date last confirmed":"2011-06-30","plus4":null,"longitude":-80.9842811,"groups with access code":"Public - see hours","state":"SC","government":0},"type":"Feature","geometry":{"type":"Point","coordinates":[-80.9842811,34.9139514]}},{"properties":{"city":"Rock Hill","expected date":null,"station name":"Exxon","zip":"29732","latitude":35.017176,"public":1,"private":0,"street address":"1308 N Cherry Rd","id":"2207","station phone":"803-366-1004","actual":1,"date last confirmed":"2011-06-30","plus4":null,"longitude":-81.015413,"groups with access code":"Public - see hours","state":"SC","government":0},"type":"Feature","geometry":{"type":"Point","coordinates":[-81.015413,35.017176]}},{"properties":{"city":"Kerrville","expected date":null,"station name":"Pit Stop Food Mart - Shell","zip":"78028","latitude":30.048864,"public":1,"private":0,"street address":"528 Main St","id":"2208","station phone":"830-896-2888","actual":1,"date last confirmed":"2011-06-30","plus4":null,"longitude":-99.141547,"groups with access code":"Public - see hours","state":"TX","government":0},"type":"Feature","geometry":{"type":"Point","coordinates":[-99.141547,30.048864]}},{"properties":{"city":"Ashburn","expected date":null,"station name":"Schmitz Sunoco Goose Creek","zip":"20147","latitude":39.0317374,"public":1,"private":0,"street address":"42800 Creek View Plaza","id":"2210","station phone":"703-724-4422","actual":1,"date last confirmed":"2010-09-30","plus4":null,"longitude":-77.387241,"groups with access code":"Public - see hours","state":"VA","government":0},"type":"Feature","geometry":{"type":"Point","coordinates":[-77.387241,39.0317374]}},{"properties":{"city":"Waukesha","expected date":null,"station name":"Kwik Trip #373","zip":"53186","latitude":42.995841,"public":1,"private":0,"street address":"1809 W St Paul Ave","id":"2214","station phone":"262-547-1450","actual":1,"date last confirmed":"2011-04-30","plus4":null,"longitude":-88.258317,"groups with access code":"Public - see hours","state":"WI","government":0},"type":"Feature","geometry":{"type":"Point","coordinates":[-88.258317,42.995841]}},{"properties":{"city":"Bethesda","expected date":null,"station name":"River Road Exxon - W Express","zip":"20816","latitude":38.9644959,"public":1,"private":0,"street address":"5143 River Rd","id":"2217","station phone":"301-652-8440","actual":1,"date last confirmed":"2010-11-30","plus4":null,"longitude":-77.102832,"groups with access code":"Public - see hours","state":"MD","government":0},"type":"Feature","geometry":{"type":"Point","coordinates":[-77.102832,38.9644959]}},{"properties":{"city":"Annapolis","expected date":null,"station name":"Shell","zip":"21401","latitude":38.993832,"public":1,"private":0,"street address":"811 Bestgate Rd","id":"2237","station phone":"410-266-3892","actual":1,"date last confirmed":"2010-11-30","plus4":null,"longitude":-76.536924,"groups with access code":"Public - see hours","state":"MD","government":0},"type":"Feature","geometry":{"type":"Point","coordinates":[-76.536924,38.993832]}},{"properties":{"city":"Fort Meade","expected date":null,"station name":"Chevron","zip":"20724","latitude":39.091217,"public":1,"private":0,"street address":"3240 Laurel Fort Meade Rd","id":"2238","station phone":"301-490-8800","actual":1,"date last confirmed":"2010-11-30","plus4":null,"longitude":-76.774924,"groups with access code":"Public - see hours","state":"MD","government":0},"type":"Feature","geometry":{"type":"Point","coordinates":[-76.774924,39.091217]}},{"properties":{"city":"Festus","expected date":null,"station name":"Express Mart - P-66","zip":"63028","latitude":38.2129509,"public":1,"private":0,"street address":"801 Collins Dr","id":"2250","station phone":"636-933-1770","actual":1,"date last confirmed":"2011-01-31","plus4":null,"longitude":-90.412803,"groups with access code":"Public - see hours","state":"MO","government":0},"type":"Feature","geometry":{"type":"Point","coordinates":[-90.412803,38.2129509]}},{"properties":{"city":"Saint Louis","expected date":null,"station name":"Mobil","zip":"63132","latitude":38.687484,"public":1,"private":0,"street address":"9403 Page Ave","id":"2253","station phone":"314-262-7082","actual":1,"date last confirmed":"2011-01-31","plus4":null,"longitude":-90.3627379,"groups with access code":"Public - see hours","state":"MO","government":0},"type":"Feature","geometry":{"type":"Point","coordinates":[-90.3627379,38.687484]}},{"properties":{"city":"Moraine","expected date":null,"station name":"GasAmerica #141","zip":"45459","latitude":39.6725523,"public":1,"private":0,"street address":"2631 W Alex Bell Rd","id":"2270","station phone":"937-299-0774","actual":1,"date last confirmed":"2011-02-28","plus4":null,"longitude":-84.2155884,"groups with access code":"Public - see hours","state":"OH","government":0},"type":"Feature","geometry":{"type":"Point","coordinates":[-84.2155884,39.6725523]}},{"properties":{"city":"Ontario","expected date":null,"station name":"Ontario BellStore","zip":"44862","latitude":40.7890511,"public":1,"private":0,"street address":"1330 N Lexington Springmill Rd","id":"2271","station phone":"419-747-4079","actual":1,"date last confirmed":"2011-02-28","plus4":null,"longitude":-82.590075,"groups with access code":"Public - see hours","state":"OH","government":0},"type":"Feature","geometry":{"type":"Point","coordinates":[-82.590075,40.7890511]}},{"properties":{"city":"Carlisle","expected date":null,"station name":"Sheetz Store #191","zip":"17013","latitude":40.2214501,"public":1,"private":0,"street address":"1098 Harrisburg Pike","id":"2272","station phone":"717-218-5270","actual":1,"date last confirmed":"2011-04-30","plus4":1615,"longitude":-77.1621775,"groups with access code":"Public - see hours","state":"PA","government":0},"type":"Feature","geometry":{"type":"Point","coordinates":[-77.1621775,40.2214501]}},{"properties":{"city":"Carlisle","expected date":null,"station name":"Sheetz Store #426","zip":"17013","latitude":40.1990309,"public":1,"private":0,"street address":"1401 Trindle Rd","id":"2273","station phone":"717-218-5213","actual":1,"date last confirmed":"2011-04-30","plus4":null,"longitude":-77.154832,"groups with access code":"Public - see hours","state":"PA","government":0},"type":"Feature","geometry":{"type":"Point","coordinates":[-77.154832,40.1990309]}},{"properties":{"city":"Harrisburg","expected date":null,"station name":"Sheetz Store #412","zip":"17112","latitude":40.3239439,"public":1,"private":0,"street address":"6260 Allentown Blvd","id":"2274","station phone":"717-671-6710","actual":1,"date last confirmed":"2011-04-30","plus4":null,"longitude":-76.7844165,"groups with access code":"Public - see hours","state":"PA","government":0},"type":"Feature","geometry":{"type":"Point","coordinates":[-76.7844165,40.3239439]}},{"properties":{"city":"Tucker","expected date":null,"station name":"BP","zip":"30084","latitude":33.848644,"public":1,"private":0,"street address":"4615 Hugh Howell Rd","id":"2309","station phone":"770-674-4753","actual":1,"date last confirmed":"2011-06-30","plus4":null,"longitude":-84.200385,"groups with access code":"Public - see hours","state":"GA","government":0},"type":"Feature","geometry":{"type":"Point","coordinates":[-84.200385,33.848644]}},{"properties":{"city":"Beach Park","expected date":null,"station name":"Annas Marketplace &amp; Car Wash - Citgo","zip":"60099","latitude":42.421107,"public":1,"private":0,"street address":"38512 N Sheridan Rd","id":"2310","station phone":"847-244-9800","actual":1,"date last confirmed":"2010-11-30","plus4":null,"longitude":-87.826071,"groups with access code":"Public - see hours","state":"IL","government":0},"type":"Feature","geometry":{"type":"Point","coordinates":[-87.826071,42.421107]}},{"properties":{"city":"Burbank","expected date":null,"station name":"Citgo - Tiger Gas","zip":"60459","latitude":41.7481269,"public":1,"private":0,"street address":"7901 S Natchez","id":"2311","station phone":"708-430-3895","actual":1,"date last confirmed":"2010-11-30","plus4":null,"longitude":-87.782481,"groups with access code":"Public - see hours","state":"IL","government":0},"type":"Feature","geometry":{"type":"Point","coordinates":[-87.782481,41.7481269]}},{"properties":{"city":"Chicago","expected date":null,"station name":"Mobil","zip":"60637","latitude":41.780707,"public":1,"private":0,"street address":"850 E 63rd St","id":"2314","station phone":"773-955-9245","actual":1,"date last confirmed":"2010-11-30","plus4":null,"longitude":-87.603997,"groups with access code":"Public - see hours","state":"IL","government":0},"type":"Feature","geometry":{"type":"Point","coordinates":[-87.603997,41.780707]}},{"properties":{"city":"San Antonio","expected date":null,"station name":"Valero Corner Store #1062","zip":"78253","latitude":29.4965238,"public":1,"private":0,"street address":"11003 Culebra Rd","id":"2319","station phone":"210-688-0845","actual":1,"date last confirmed":"2010-12-31","plus4":null,"longitude":-98.7107737,"groups with access code":"Public - see hours","state":"TX","government":0},"type":"Feature","geometry":{"type":"Point","coordinates":[-98.7107737,29.4965238]}},{"properties":{"city":"Lithia Springs","expected date":null,"station name":"Chevron","zip":"30122","latitude":33.767381,"public":1,"private":0,"street address":"1365 Lee Rd","id":"2324","station phone":"770-745-6831","actual":1,"date last confirmed":"2011-06-30","plus4":3018,"longitude":-84.652042,"groups with access code":"Public - see hours","state":"GA","government":0},"type":"Feature","geometry":{"type":"Point","coordinates":[-84.652042,33.767381]}},{"properties":{"city":"Newnan","expected date":null,"station name":"Silver Star Chevron","zip":"30263","latitude":33.3832574,"public":1,"private":0,"street address":"165 Temple Ave","id":"2325","station phone":"770-683-2732","actual":1,"date last confirmed":"2011-06-30","plus4":null,"longitude":-84.814186,"groups with access code":"Public - see hours","state":"GA","government":0},"type":"Feature","geometry":{"type":"Point","coordinates":[-84.814186,33.3832574]}},{"properties":{"city":"Sandy Springs","expected date":null,"station name":"Chevron","zip":"30328","latitude":33.924121,"public":1,"private":0,"street address":"295 Mount Vernon Hwy NE","id":"2326","station phone":"678-732-9540","actual":1,"date last confirmed":"2011-06-30","plus4":3918,"longitude":-84.377565,"groups with access code":"Public - see hours","state":"GA","government":0},"type":"Feature","geometry":{"type":"Point","coordinates":[-84.377565,33.924121]}},{"properties":{"city":"Evansville","expected date":null,"station name":"MotoMart","zip":"47715","latitude":37.97718,"public":1,"private":0,"street address":"6328 E Lloyd Expy","id":"2329","station phone":"812-476-8621","actual":1,"date last confirmed":"2011-05-31","plus4":null,"longitude":-87.47478,"groups with access code":"Public - see hours","state":"IN","government":0},"type":"Feature","geometry":{"type":"Point","coordinates":[-87.47478,37.97718]}},{"properties":{"city":"Oak Creek","expected date":null,"station name":"Kwik Trip #422","zip":"53154","latitude":42.8722284,"public":1,"private":0,"street address":"9535 S 13th St","id":"2352","station phone":"414-762-2370","actual":1,"date last confirmed":"2011-01-31","plus4":null,"longitude":-87.9324956,"groups with access code":"Public - see hours","state":"WI","government":0},"type":"Feature","geometry":{"type":"Point","coordinates":[-87.9324956,42.8722284]}},{"properties":{"city":"Oberlin","expected date":null,"station name":"Full Circle Fuels","zip":"44074","latitude":41.287747,"public":1,"private":0,"street address":"141 S Main St","id":"2365","station phone":"440-574-5436","actual":1,"date last confirmed":"2011-02-28","plus4":null,"longitude":-82.217184,"groups with access code":"Public - see hours","state":"OH","government":0},"type":"Feature","geometry":{"type":"Point","coordinates":[-82.217184,41.287747]}},{"properties":{"city":"Volo","expected date":null,"station name":"Thornton's #310","zip":"60073","latitude":42.3236748,"public":1,"private":0,"street address":"205 S US Highway 12","id":"2368","station phone":"815-578-9085","actual":1,"date last confirmed":"2011-02-28","plus4":null,"longitude":-88.1644571,"groups with access code":"Public - see hours","state":"IL","government":0},"type":"Feature","geometry":{"type":"Point","coordinates":[-88.1644571,42.3236748]}},{"properties":{"city":"Evansville","expected date":null,"station name":"Thornton's #88","zip":"47715","latitude":37.9948335,"public":1,"private":0,"street address":"6300 Morgan Ave","id":"2369","station phone":"812-477-4886","actual":1,"date last confirmed":"2011-02-28","plus4":null,"longitude":-87.4749939,"groups with access code":"Public - see hours","state":"IN","government":0},"type":"Feature","geometry":{"type":"Point","coordinates":[-87.4749939,37.9948335]}},{"properties":{"city":"Atlanta","expected date":null,"station name":"AM/PM BP","zip":"30312","latitude":33.8142248,"public":1,"private":0,"street address":"2193 Peachtree Rd NW","id":"2378","station phone":"404-355-3323","actual":1,"date last confirmed":"2011-06-30","plus4":null,"longitude":-84.3920568,"groups with access code":"Public - see hours","state":"GA","government":0},"type":"Feature","geometry":{"type":"Point","coordinates":[-84.3920568,33.8142248]}},{"properties":{"city":"Racine","expected date":null,"station name":"BP","zip":"53404","latitude":42.751851,"public":1,"private":0,"street address":"3502 Rapids Dr","id":"2394","station phone":"262-634-5801","actual":1,"date last confirmed":"2011-04-30","plus4":null,"longitude":-87.82101,"groups with access code":"Public - see hours","state":"WI","government":0},"type":"Feature","geometry":{"type":"Point","coordinates":[-87.82101,42.751851]}},{"properties":{"city":"Duluth","expected date":null,"station name":"Chevron Food Mart","zip":"30096","latitude":33.950201,"public":1,"private":0,"street address":"1843 Pleasant Hill Rd","id":"2402","station phone":"770-381-1585","actual":1,"date last confirmed":"2011-06-30","plus4":null,"longitude":-84.1288378,"groups with access code":"Public - see hours","state":"GA","government":0},"type":"Feature","geometry":{"type":"Point","coordinates":[-84.1288378,33.950201]}},{"properties":{"city":"Fredericksburg","expected date":null,"station name":"Liberty Gas","zip":"22405","latitude":38.3381192,"public":1,"private":0,"street address":"364 Warrenton Rd","id":"2416","station phone":"540-899-5440","actual":1,"date last confirmed":"2011-05-31","plus4":null,"longitude":-77.487071,"groups with access code":"Public - see hours","state":"VA","government":0},"type":"Feature","geometry":{"type":"Point","coordinates":[-77.487071,38.3381192]}},{"properties":{"city":"Wood Dale","expected date":null,"station name":"Thornton's Store","zip":"60191","latitude":41.992429,"public":1,"private":0,"street address":"110 W Devon Ave","id":"2421","station phone":"630-616-0993","actual":1,"date last confirmed":"2011-05-31","plus4":null,"longitude":-87.980958,"groups with access code":"Public - see hours","state":"IL","government":0},"type":"Feature","geometry":{"type":"Point","coordinates":[-87.980958,41.992429]}},{"properties":{"city":"Sunol","expected date":null,"station name":"Sunol Super Stop","zip":"94586","latitude":37.5729576,"public":1,"private":0,"street address":"3004 Andrade Rd","id":"2431","station phone":"925-862-0577","actual":1,"date last confirmed":"2011-06-30","plus4":null,"longitude":-121.884649,"groups with access code":"Public - see hours","state":"CA","government":0},"type":"Feature","geometry":{"type":"Point","coordinates":[-121.884649,37.5729576]}},{"properties":{"city":"Palos Hills","expected date":null,"station name":"Palos Hills Mart","zip":"60465","latitude":41.704046,"public":1,"private":0,"street address":"10300 S Harlem Ave","id":"2440","station phone":"708-598-2626","actual":1,"date last confirmed":"2011-06-30","plus4":null,"longitude":-87.798164,"groups with access code":"Public - see hours","state":"IL","government":0},"type":"Feature","geometry":{"type":"Point","coordinates":[-87.798164,41.704046]}},{"properties":{"city":"Lakemoor","expected date":null,"station name":"Thornton's","zip":"60051","latitude":42.328289,"public":1,"private":0,"street address":"28937 W Illinois Route 120","id":"2443","station phone":"815-344-1502","actual":1,"date last confirmed":"2011-06-30","plus4":null,"longitude":-88.197644,"groups with access code":"Public - see hours","state":"IL","government":0},"type":"Feature","geometry":{"type":"Point","coordinates":[-88.197644,42.328289]}},{"properties":{"city":"Northlake","expected date":null,"station name":"Shell - Mannheim Dickens Gas","zip":"60164","latitude":41.917381,"public":1,"private":0,"street address":"2201 N Mannheim","id":"2444","station phone":"847-288-1447","actual":1,"date last confirmed":"2011-06-30","plus4":null,"longitude":-87.883621,"groups with access code":"Public - see hours","state":"IL","government":0},"type":"Feature","geometry":{"type":"Point","coordinates":[-87.883621,41.917381]}},{"properties":{"city":"Cherryville","expected date":null,"station name":"Gasland USA","zip":"28021","latitude":35.385745,"public":1,"private":0,"street address":"1008 E Church St","id":"2457","station phone":"704-435-5770","actual":1,"date last confirmed":"2011-06-30","plus4":null,"longitude":-81.367772,"groups with access code":"Public - see hours","state":"NC","government":0},"type":"Feature","geometry":{"type":"Point","coordinates":[-81.367772,35.385745]}}],"is_temporal":false,"author":{"url":null,"metadata":null,"contact_name":null,"contact_address":null,"source":null,"contact_phone":null},"source":null,"pagination":{"sort":null,"start":0,"total":307,"limit":1000000},"state":"complete","tags":"","published":"2014-08-12T21:44:19-04:00","id":160561}