{"type":"FeatureCollection","data_type":"Dataset","url_type":null,"permissions":[{"permissions":{"download":true,"view":true},"group_id":"everyone"}],"classification":null,"title":"Alitio-Pier-Refined","count":562,"stream_id":161710,"contributor":{"url":"http://geocommons.com/users/33653","name":"MissionLocalPolitics"},"data_attributes":null,"calculation_params":null,"icon_link":null,"link":"http://geocommons.com/overlays/161710.json","extent":[-122.492,37.7217,-122.383,37.8058],"geometry_types":["point"],"unique_name":null,"name":"Alitio-Pier-Refined","feature_count":562,"description":"","next_feature":null,"is_raster":false,"short_classification":"Y","stats":{"cash":{"max":500,"mean":263.674377224199,"variance":33604.0773815188,"stdev":183.314149430748,"min":-500,"median":250}},"features":[{"properties":{"zipcode":"94102","last name":"San Francisco Apartment Association PAC","geo_score":0.714,"cash":250,"id":"0","geo_precision":"zip"},"type":"Feature","geometry":{"type":"Point","coordinates":[-122.416582,37.779278]}},{"properties":{"zipcode":"94102","last name":"Buckley","geo_score":0.714,"cash":500,"id":"1","geo_precision":"zip"},"type":"Feature","geometry":{"type":"Point","coordinates":[-122.416582,37.779278]}},{"properties":{"zipcode":"94103","last name":"Brewster","geo_score":0.714,"cash":500,"id":"2","geo_precision":"zip"},"type":"Feature","geometry":{"type":"Point","coordinates":[-122.412131,37.775678]}},{"properties":{"zipcode":"94103","last name":"U. A. Local 38 COPE Fund","geo_score":0.714,"cash":500,"id":"3","geo_precision":"zip"},"type":"Feature","geometry":{"type":"Point","coordinates":[-122.412131,37.775678]}},{"properties":{"zipcode":"94103","last name":"Mazzola","geo_score":0.714,"cash":500,"id":"4","geo_precision":"zip"},"type":"Feature","geometry":{"type":"Point","coordinates":[-122.412131,37.775678]}},{"properties":{"zipcode":"94103","last name":"Jennings","geo_score":0.714,"cash":500,"id":"5","geo_precision":"zip"},"type":"Feature","geometry":{"type":"Point","coordinates":[-122.412131,37.775678]}},{"properties":{"zipcode":"94103","last name":"Brundage","geo_score":0.714,"cash":500,"id":"6","geo_precision":"zip"},"type":"Feature","geometry":{"type":"Point","coordinates":[-122.412131,37.775678]}},{"properties":{"zipcode":"94103","last name":"San Francisco Police Officers Association PAC","geo_score":0.714,"cash":500,"id":"7","geo_precision":"zip"},"type":"Feature","geometry":{"type":"Point","coordinates":[-122.412131,37.775678]}},{"properties":{"zipcode":"94103","last name":"Stupski","geo_score":0.714,"cash":500,"id":"8","geo_precision":"zip"},"type":"Feature","geometry":{"type":"Point","coordinates":[-122.412131,37.775678]}},{"properties":{"zipcode":"94103","last name":"Stupski","geo_score":0.714,"cash":500,"id":"9","geo_precision":"zip"},"type":"Feature","geometry":{"type":"Point","coordinates":[-122.412131,37.775678]}},{"properties":{"zipcode":"94103","last name":"Sangiacomo","geo_score":0.714,"cash":250,"id":"10","geo_precision":"zip"},"type":"Feature","geometry":{"type":"Point","coordinates":[-122.412131,37.775678]}},{"properties":{"zipcode":"94103","last name":"Becker","geo_score":0.714,"cash":250,"id":"11","geo_precision":"zip"},"type":"Feature","geometry":{"type":"Point","coordinates":[-122.412131,37.775678]}},{"properties":{"zipcode":"94104","last name":"Martorana Bohegian &amp; Co. LLC","geo_score":0.714,"cash":100,"id":"12","geo_precision":"zip"},"type":"Feature","geometry":{"type":"Point","coordinates":[-122.401732,37.790728]}},{"properties":{"zipcode":"94104","last name":"Thomson","geo_score":0.714,"cash":500,"id":"13","geo_precision":"zip"},"type":"Feature","geometry":{"type":"Point","coordinates":[-122.401732,37.790728]}},{"properties":{"zipcode":"94104","last name":"Chahal","geo_score":0.714,"cash":150,"id":"14","geo_precision":"zip"},"type":"Feature","geometry":{"type":"Point","coordinates":[-122.401732,37.790728]}},{"properties":{"zipcode":"94105","last name":"Millstein &amp; Associates","geo_score":0.714,"cash":500,"id":"15","geo_precision":"zip"},"type":"Feature","geometry":{"type":"Point","coordinates":[-122.395631,37.789595]}},{"properties":{"zipcode":"94105","last name":"Chenette","geo_score":0.714,"cash":200,"id":"16","geo_precision":"zip"},"type":"Feature","geometry":{"type":"Point","coordinates":[-122.395631,37.789595]}},{"properties":{"zipcode":"94105","last name":"Pang","geo_score":0.714,"cash":250,"id":"17","geo_precision":"zip"},"type":"Feature","geometry":{"type":"Point","coordinates":[-122.395631,37.789595]}},{"properties":{"zipcode":"94107","last name":"Cohn","geo_score":0.714,"cash":200,"id":"18","geo_precision":"zip"},"type":"Feature","geometry":{"type":"Point","coordinates":[-122.393681,37.769029]}},{"properties":{"zipcode":"94107","last name":"Kim","geo_score":0.714,"cash":100,"id":"19","geo_precision":"zip"},"type":"Feature","geometry":{"type":"Point","coordinates":[-122.393681,37.769029]}},{"properties":{"zipcode":"94107","last name":"Casassa","geo_score":0.714,"cash":250,"id":"20","geo_precision":"zip"},"type":"Feature","geometry":{"type":"Point","coordinates":[-122.393681,37.769029]}},{"properties":{"zipcode":"94107","last name":"Miller","geo_score":0.714,"cash":500,"id":"21","geo_precision":"zip"},"type":"Feature","geometry":{"type":"Point","coordinates":[-122.393681,37.769029]}},{"properties":{"zipcode":"94107","last name":"Bogue","geo_score":0.714,"cash":500,"id":"22","geo_precision":"zip"},"type":"Feature","geometry":{"type":"Point","coordinates":[-122.393681,37.769029]}},{"properties":{"zipcode":"94107","last name":"Barretto","geo_score":0.714,"cash":500,"id":"23","geo_precision":"zip"},"type":"Feature","geometry":{"type":"Point","coordinates":[-122.393681,37.769029]}},{"properties":{"zipcode":"94108","last name":"Mitchell","geo_score":0.714,"cash":200,"id":"24","geo_precision":"zip"},"type":"Feature","geometry":{"type":"Point","coordinates":[-122.408582,37.796596]}},{"properties":{"zipcode":"94108","last name":"Delgushan-Oshri","geo_score":0.714,"cash":100,"id":"25","geo_precision":"zip"},"type":"Feature","geometry":{"type":"Point","coordinates":[-122.408582,37.796596]}},{"properties":{"zipcode":"94108","last name":"Lee","geo_score":0.714,"cash":250,"id":"26","geo_precision":"zip"},"type":"Feature","geometry":{"type":"Point","coordinates":[-122.408582,37.796596]}},{"properties":{"zipcode":"94108","last name":"Singer","geo_score":0.714,"cash":500,"id":"27","geo_precision":"zip"},"type":"Feature","geometry":{"type":"Point","coordinates":[-122.408582,37.796596]}},{"properties":{"zipcode":"94108","last name":"Alioto","geo_score":0.714,"cash":100,"id":"28","geo_precision":"zip"},"type":"Feature","geometry":{"type":"Point","coordinates":[-122.408582,37.796596]}},{"properties":{"zipcode":"94108","last name":"Alioto","geo_score":0.714,"cash":100,"id":"29","geo_precision":"zip"},"type":"Feature","geometry":{"type":"Point","coordinates":[-122.408582,37.796596]}},{"properties":{"zipcode":"94108","last name":"Hudson","geo_score":0.714,"cash":100,"id":"30","geo_precision":"zip"},"type":"Feature","geometry":{"type":"Point","coordinates":[-122.408582,37.796596]}},{"properties":{"zipcode":"94108","last name":"Ritchie","geo_score":0.714,"cash":100,"id":"31","geo_precision":"zip"},"type":"Feature","geometry":{"type":"Point","coordinates":[-122.408582,37.796596]}},{"properties":{"zipcode":"94108","last name":"Cope","geo_score":0.714,"cash":500,"id":"32","geo_precision":"zip"},"type":"Feature","geometry":{"type":"Point","coordinates":[-122.408582,37.796596]}},{"properties":{"zipcode":"94108","last name":"Wineroth, III","geo_score":0.714,"cash":250,"id":"33","geo_precision":"zip"},"type":"Feature","geometry":{"type":"Point","coordinates":[-122.408582,37.796596]}},{"properties":{"zipcode":"94108","last name":"Alioto","geo_score":0.714,"cash":250,"id":"34","geo_precision":"zip"},"type":"Feature","geometry":{"type":"Point","coordinates":[-122.408582,37.796596]}},{"properties":{"zipcode":"94108","last name":"Conlon","geo_score":0.714,"cash":500,"id":"35","geo_precision":"zip"},"type":"Feature","geometry":{"type":"Point","coordinates":[-122.408582,37.796596]}},{"properties":{"zipcode":"94108","last name":"Varni","geo_score":0.714,"cash":500,"id":"36","geo_precision":"zip"},"type":"Feature","geometry":{"type":"Point","coordinates":[-122.408582,37.796596]}},{"properties":{"zipcode":"94109","last name":"Larsen","geo_score":0.714,"cash":200,"id":"37","geo_precision":"zip"},"type":"Feature","geometry":{"type":"Point","coordinates":[-122.420782,37.795219]}},{"properties":{"zipcode":"94109","last name":"Keene","geo_score":0.714,"cash":100,"id":"38","geo_precision":"zip"},"type":"Feature","geometry":{"type":"Point","coordinates":[-122.420782,37.795219]}},{"properties":{"zipcode":"94109","last name":"Fried","geo_score":0.714,"cash":500,"id":"39","geo_precision":"zip"},"type":"Feature","geometry":{"type":"Point","coordinates":[-122.420782,37.795219]}},{"properties":{"zipcode":"94109","last name":"Popofsky","geo_score":0.714,"cash":250,"id":"40","geo_precision":"zip"},"type":"Feature","geometry":{"type":"Point","coordinates":[-122.420782,37.795219]}},{"properties":{"zipcode":"94109","last name":"Achilles","geo_score":0.714,"cash":500,"id":"41","geo_precision":"zip"},"type":"Feature","geometry":{"type":"Point","coordinates":[-122.420782,37.795219]}},{"properties":{"zipcode":"94109","last name":"Conway","geo_score":0.714,"cash":500,"id":"42","geo_precision":"zip"},"type":"Feature","geometry":{"type":"Point","coordinates":[-122.420782,37.795219]}},{"properties":{"zipcode":"94109","last name":"Conway","geo_score":0.714,"cash":500,"id":"43","geo_precision":"zip"},"type":"Feature","geometry":{"type":"Point","coordinates":[-122.420782,37.795219]}},{"properties":{"zipcode":"94109","last name":"Rosenberg","geo_score":0.714,"cash":100,"id":"44","geo_precision":"zip"},"type":"Feature","geometry":{"type":"Point","coordinates":[-122.420782,37.795219]}},{"properties":{"zipcode":"94109","last name":"Ughetta","geo_score":0.714,"cash":100,"id":"45","geo_precision":"zip"},"type":"Feature","geometry":{"type":"Point","coordinates":[-122.420782,37.795219]}},{"properties":{"zipcode":"94109","last name":"Odyniec","geo_score":0.714,"cash":200,"id":"46","geo_precision":"zip"},"type":"Feature","geometry":{"type":"Point","coordinates":[-122.420782,37.795219]}},{"properties":{"zipcode":"94109","last name":"Poon","geo_score":0.714,"cash":500,"id":"47","geo_precision":"zip"},"type":"Feature","geometry":{"type":"Point","coordinates":[-122.420782,37.795219]}},{"properties":{"zipcode":"94109","last name":"Hoppe","geo_score":0.714,"cash":100,"id":"48","geo_precision":"zip"},"type":"Feature","geometry":{"type":"Point","coordinates":[-122.420782,37.795219]}},{"properties":{"zipcode":"94109","last name":"Hynes","geo_score":0.714,"cash":250,"id":"49","geo_precision":"zip"},"type":"Feature","geometry":{"type":"Point","coordinates":[-122.420782,37.795219]}},{"properties":{"zipcode":"94109","last name":"Cannizzaro","geo_score":0.714,"cash":500,"id":"50","geo_precision":"zip"},"type":"Feature","geometry":{"type":"Point","coordinates":[-122.420782,37.795219]}},{"properties":{"zipcode":"94109","last name":"Frey","geo_score":0.714,"cash":100,"id":"51","geo_precision":"zip"},"type":"Feature","geometry":{"type":"Point","coordinates":[-122.420782,37.795219]}},{"properties":{"zipcode":"94109","last name":"Frey","geo_score":0.714,"cash":100,"id":"52","geo_precision":"zip"},"type":"Feature","geometry":{"type":"Point","coordinates":[-122.420782,37.795219]}},{"properties":{"zipcode":"94109","last name":"Cherin","geo_score":0.714,"cash":200,"id":"53","geo_precision":"zip"},"type":"Feature","geometry":{"type":"Point","coordinates":[-122.420782,37.795219]}},{"properties":{"zipcode":"94109","last name":"Cannata","geo_score":0.714,"cash":250,"id":"54","geo_precision":"zip"},"type":"Feature","geometry":{"type":"Point","coordinates":[-122.420782,37.795219]}},{"properties":{"zipcode":"94109","last name":"Linehan","geo_score":0.714,"cash":250,"id":"55","geo_precision":"zip"},"type":"Feature","geometry":{"type":"Point","coordinates":[-122.420782,37.795219]}},{"properties":{"zipcode":"94109","last name":"Hurley","geo_score":0.714,"cash":500,"id":"56","geo_precision":"zip"},"type":"Feature","geometry":{"type":"Point","coordinates":[-122.420782,37.795219]}},{"properties":{"zipcode":"94109","last name":"Hurley","geo_score":0.714,"cash":500,"id":"57","geo_precision":"zip"},"type":"Feature","geometry":{"type":"Point","coordinates":[-122.420782,37.795219]}},{"properties":{"zipcode":"94109","last name":"Burke","geo_score":0.714,"cash":100,"id":"58","geo_precision":"zip"},"type":"Feature","geometry":{"type":"Point","coordinates":[-122.420782,37.795219]}},{"properties":{"zipcode":"94109","last name":"Debbane","geo_score":0.714,"cash":100,"id":"59","geo_precision":"zip"},"type":"Feature","geometry":{"type":"Point","coordinates":[-122.420782,37.795219]}},{"properties":{"zipcode":"94109","last name":"Swanson","geo_score":0.714,"cash":100,"id":"60","geo_precision":"zip"},"type":"Feature","geometry":{"type":"Point","coordinates":[-122.420782,37.795219]}},{"properties":{"zipcode":"94109","last name":"Betz","geo_score":0.714,"cash":250,"id":"61","geo_precision":"zip"},"type":"Feature","geometry":{"type":"Point","coordinates":[-122.420782,37.795219]}},{"properties":{"zipcode":"94109","last name":"Hinckle","geo_score":0.714,"cash":100,"id":"62","geo_precision":"zip"},"type":"Feature","geometry":{"type":"Point","coordinates":[-122.420782,37.795219]}},{"properties":{"zipcode":"94109","last name":"Ocker","geo_score":0.714,"cash":200,"id":"63","geo_precision":"zip"},"type":"Feature","geometry":{"type":"Point","coordinates":[-122.420782,37.795219]}},{"properties":{"zipcode":"94109","last name":"Ughetta","geo_score":0.714,"cash":100,"id":"64","geo_precision":"zip"},"type":"Feature","geometry":{"type":"Point","coordinates":[-122.420782,37.795219]}},{"properties":{"zipcode":"94109","last name":"Scoma","geo_score":0.714,"cash":250,"id":"65","geo_precision":"zip"},"type":"Feature","geometry":{"type":"Point","coordinates":[-122.420782,37.795219]}},{"properties":{"zipcode":"94109","last name":"Sullivan","geo_score":0.714,"cash":250,"id":"66","geo_precision":"zip"},"type":"Feature","geometry":{"type":"Point","coordinates":[-122.420782,37.795219]}},{"properties":{"zipcode":"94109","last name":"Mendelsohn","geo_score":0.714,"cash":500,"id":"67","geo_precision":"zip"},"type":"Feature","geometry":{"type":"Point","coordinates":[-122.420782,37.795219]}},{"properties":{"zipcode":"94109","last name":"Mendelsohn","geo_score":0.714,"cash":500,"id":"68","geo_precision":"zip"},"type":"Feature","geometry":{"type":"Point","coordinates":[-122.420782,37.795219]}},{"properties":{"zipcode":"94109","last name":"Clemens","geo_score":0.714,"cash":100,"id":"69","geo_precision":"zip"},"type":"Feature","geometry":{"type":"Point","coordinates":[-122.420782,37.795219]}},{"properties":{"zipcode":"94109","last name":"Phipps","geo_score":0.714,"cash":250,"id":"70","geo_precision":"zip"},"type":"Feature","geometry":{"type":"Point","coordinates":[-122.420782,37.795219]}},{"properties":{"zipcode":"94109","last name":"Levensohn","geo_score":0.714,"cash":500,"id":"71","geo_precision":"zip"},"type":"Feature","geometry":{"type":"Point","coordinates":[-122.420782,37.795219]}},{"properties":{"zipcode":"94109","last name":"Linehan","geo_score":0.714,"cash":250,"id":"72","geo_precision":"zip"},"type":"Feature","geometry":{"type":"Point","coordinates":[-122.420782,37.795219]}},{"properties":{"zipcode":"94109","last name":"Conway","geo_score":0.714,"cash":500,"id":"73","geo_precision":"zip"},"type":"Feature","geometry":{"type":"Point","coordinates":[-122.420782,37.795219]}},{"properties":{"zipcode":"94109","last name":"Cannata","geo_score":0.714,"cash":500,"id":"74","geo_precision":"zip"},"type":"Feature","geometry":{"type":"Point","coordinates":[-122.420782,37.795219]}},{"properties":{"zipcode":"94109","last name":"Conway","geo_score":0.714,"cash":500,"id":"75","geo_precision":"zip"},"type":"Feature","geometry":{"type":"Point","coordinates":[-122.420782,37.795219]}},{"properties":{"zipcode":"94109","last name":"Presti","geo_score":0.714,"cash":500,"id":"76","geo_precision":"zip"},"type":"Feature","geometry":{"type":"Point","coordinates":[-122.420782,37.795219]}},{"properties":{"zipcode":"94109","last name":"Swanson","geo_score":0.714,"cash":100,"id":"77","geo_precision":"zip"},"type":"Feature","geometry":{"type":"Point","coordinates":[-122.420782,37.795219]}},{"properties":{"zipcode":"94109","last name":"Mosk","geo_score":0.714,"cash":100,"id":"78","geo_precision":"zip"},"type":"Feature","geometry":{"type":"Point","coordinates":[-122.420782,37.795219]}},{"properties":{"zipcode":"94109","last name":"Chiantelli","geo_score":0.714,"cash":250,"id":"79","geo_precision":"zip"},"type":"Feature","geometry":{"type":"Point","coordinates":[-122.420782,37.795219]}},{"properties":{"zipcode":"94109","last name":"Chiantelli","geo_score":0.714,"cash":250,"id":"80","geo_precision":"zip"},"type":"Feature","geometry":{"type":"Point","coordinates":[-122.420782,37.795219]}},{"properties":{"zipcode":"94109","last name":"DuVall","geo_score":0.714,"cash":100,"id":"81","geo_precision":"zip"},"type":"Feature","geometry":{"type":"Point","coordinates":[-122.420782,37.795219]}},{"properties":{"zipcode":"94109","last name":"Baird","geo_score":0.714,"cash":100,"id":"82","geo_precision":"zip"},"type":"Feature","geometry":{"type":"Point","coordinates":[-122.420782,37.795219]}},{"properties":{"zipcode":"94109","last name":"McCullagh","geo_score":0.714,"cash":250,"id":"83","geo_precision":"zip"},"type":"Feature","geometry":{"type":"Point","coordinates":[-122.420782,37.795219]}},{"properties":{"zipcode":"94109","last name":"Keene","geo_score":0.714,"cash":100,"id":"84","geo_precision":"zip"},"type":"Feature","geometry":{"type":"Point","coordinates":[-122.420782,37.795219]}},{"properties":{"zipcode":"94109","last name":"Swanson","geo_score":0.714,"cash":100,"id":"85","geo_precision":"zip"},"type":"Feature","geometry":{"type":"Point","coordinates":[-122.420782,37.795219]}},{"properties":{"zipcode":"94109","last name":"Linehan","geo_score":0.714,"cash":200,"id":"86","geo_precision":"zip"},"type":"Feature","geometry":{"type":"Point","coordinates":[-122.420782,37.795219]}},{"properties":{"zipcode":"94109","last name":"Gregory-Head","geo_score":0.714,"cash":250,"id":"87","geo_precision":"zip"},"type":"Feature","geometry":{"type":"Point","coordinates":[-122.420782,37.795219]}},{"properties":{"zipcode":"94109","last name":"Feigenbaum","geo_score":0.714,"cash":250,"id":"88","geo_precision":"zip"},"type":"Feature","geometry":{"type":"Point","coordinates":[-122.420782,37.795219]}},{"properties":{"zipcode":"94109","last name":"Cravens","geo_score":0.714,"cash":250,"id":"89","geo_precision":"zip"},"type":"Feature","geometry":{"type":"Point","coordinates":[-122.420782,37.795219]}},{"properties":{"zipcode":"94109","last name":"Boro, Jr","geo_score":0.714,"cash":500,"id":"90","geo_precision":"zip"},"type":"Feature","geometry":{"type":"Point","coordinates":[-122.420782,37.795219]}},{"properties":{"zipcode":"94109","last name":"Dinner","geo_score":0.714,"cash":250,"id":"91","geo_precision":"zip"},"type":"Feature","geometry":{"type":"Point","coordinates":[-122.420782,37.795219]}},{"properties":{"zipcode":"94109","last name":"Hall","geo_score":0.714,"cash":100,"id":"92","geo_precision":"zip"},"type":"Feature","geometry":{"type":"Point","coordinates":[-122.420782,37.795219]}},{"properties":{"zipcode":"94110","last name":"Reeds","geo_score":0.714,"cash":500,"id":"93","geo_precision":"zip"},"type":"Feature","geometry":{"type":"Point","coordinates":[-122.416281,37.748932]}},{"properties":{"zipcode":"94110","last name":"Farrah","geo_score":0.714,"cash":250,"id":"94","geo_precision":"zip"},"type":"Feature","geometry":{"type":"Point","coordinates":[-122.416281,37.748932]}},{"properties":{"zipcode":"94110","last name":"Clemens","geo_score":0.714,"cash":100,"id":"95","geo_precision":"zip"},"type":"Feature","geometry":{"type":"Point","coordinates":[-122.416281,37.748932]}},{"properties":{"zipcode":"94110","last name":"Rossi","geo_score":0.714,"cash":100,"id":"96","geo_precision":"zip"},"type":"Feature","geometry":{"type":"Point","coordinates":[-122.416281,37.748932]}},{"properties":{"zipcode":"94110","last name":"Costello","geo_score":0.714,"cash":250,"id":"97","geo_precision":"zip"},"type":"Feature","geometry":{"type":"Point","coordinates":[-122.416281,37.748932]}},{"properties":{"zipcode":"94110","last name":"Van Dommelen","geo_score":0.714,"cash":100,"id":"98","geo_precision":"zip"},"type":"Feature","geometry":{"type":"Point","coordinates":[-122.416281,37.748932]}},{"properties":{"zipcode":"94110","last name":"Clemens","geo_score":0.714,"cash":100,"id":"99","geo_precision":"zip"},"type":"Feature","geometry":{"type":"Point","coordinates":[-122.416281,37.748932]}},{"properties":{"zipcode":"94110","last name":"Franco","geo_score":0.714,"cash":100,"id":"100","geo_precision":"zip"},"type":"Feature","geometry":{"type":"Point","coordinates":[-122.416281,37.748932]}},{"properties":{"zipcode":"94110","last name":"Novak","geo_score":0.714,"cash":500,"id":"101","geo_precision":"zip"},"type":"Feature","geometry":{"type":"Point","coordinates":[-122.416281,37.748932]}},{"properties":{"zipcode":"94110","last name":"Franco","geo_score":0.714,"cash":100,"id":"102","geo_precision":"zip"},"type":"Feature","geometry":{"type":"Point","coordinates":[-122.416281,37.748932]}},{"properties":{"zipcode":"94110","last name":"Stannard","geo_score":0.714,"cash":250,"id":"103","geo_precision":"zip"},"type":"Feature","geometry":{"type":"Point","coordinates":[-122.416281,37.748932]}},{"properties":{"zipcode":"94110","last name":"Nelson","geo_score":0.714,"cash":250,"id":"104","geo_precision":"zip"},"type":"Feature","geometry":{"type":"Point","coordinates":[-122.416281,37.748932]}},{"properties":{"zipcode":"94110","last name":"Davis","geo_score":0.714,"cash":500,"id":"105","geo_precision":"zip"},"type":"Feature","geometry":{"type":"Point","coordinates":[-122.416281,37.748932]}},{"properties":{"zipcode":"94111","last name":"Coates","geo_score":0.714,"cash":500,"id":"106","geo_precision":"zip"},"type":"Feature","geometry":{"type":"Point","coordinates":[-122.405331,37.773579]}},{"properties":{"zipcode":"94111","last name":"Villano","geo_score":0.714,"cash":200,"id":"107","geo_precision":"zip"},"type":"Feature","geometry":{"type":"Point","coordinates":[-122.405331,37.773579]}},{"properties":{"zipcode":"94111","last name":"Scott","geo_score":0.714,"cash":250,"id":"108","geo_precision":"zip"},"type":"Feature","geometry":{"type":"Point","coordinates":[-122.405331,37.773579]}},{"properties":{"zipcode":"94111","last name":"Brown","geo_score":0.714,"cash":500,"id":"109","geo_precision":"zip"},"type":"Feature","geometry":{"type":"Point","coordinates":[-122.405331,37.773579]}},{"properties":{"zipcode":"94111","last name":"Veronese","geo_score":0.714,"cash":250,"id":"110","geo_precision":"zip"},"type":"Feature","geometry":{"type":"Point","coordinates":[-122.405331,37.773579]}},{"properties":{"zipcode":"94111","last name":"Comerica Incorporated Political Action Committee","geo_score":0.714,"cash":500,"id":"111","geo_precision":"zip"},"type":"Feature","geometry":{"type":"Point","coordinates":[-122.405331,37.773579]}},{"properties":{"zipcode":"94111","last name":"Veronese","geo_score":0.714,"cash":100,"id":"112","geo_precision":"zip"},"type":"Feature","geometry":{"type":"Point","coordinates":[-122.405331,37.773579]}},{"properties":{"zipcode":"94111","last name":"Farber","geo_score":0.714,"cash":100,"id":"113","geo_precision":"zip"},"type":"Feature","geometry":{"type":"Point","coordinates":[-122.405331,37.773579]}},{"properties":{"zipcode":"94111","last name":"Franchey","geo_score":0.714,"cash":100,"id":"114","geo_precision":"zip"},"type":"Feature","geometry":{"type":"Point","coordinates":[-122.405331,37.773579]}},{"properties":{"zipcode":"94112","last name":"Murio","geo_score":0.714,"cash":375,"id":"115","geo_precision":"zip"},"type":"Feature","geometry":{"type":"Point","coordinates":[-122.439382,37.721981]}},{"properties":{"zipcode":"94112","last name":"Kaprosch","geo_score":0.714,"cash":100,"id":"116","geo_precision":"zip"},"type":"Feature","geometry":{"type":"Point","coordinates":[-122.439382,37.721981]}},{"properties":{"zipcode":"94112","last name":"Leung","geo_score":0.714,"cash":500,"id":"117","geo_precision":"zip"},"type":"Feature","geometry":{"type":"Point","coordinates":[-122.439382,37.721981]}},{"properties":{"zipcode":"94112","last name":"Williams","geo_score":0.714,"cash":100,"id":"118","geo_precision":"zip"},"type":"Feature","geometry":{"type":"Point","coordinates":[-122.439382,37.721981]}},{"properties":{"zipcode":"94114","last name":"Young","geo_score":0.714,"cash":500,"id":"119","geo_precision":"zip"},"type":"Feature","geometry":{"type":"Point","coordinates":[-122.439332,37.758279]}},{"properties":{"zipcode":"94114","last name":"Moss","geo_score":0.714,"cash":100,"id":"120","geo_precision":"zip"},"type":"Feature","geometry":{"type":"Point","coordinates":[-122.439332,37.758279]}},{"properties":{"zipcode":"94114","last name":"Dolan","geo_score":0.714,"cash":500,"id":"121","geo_precision":"zip"},"type":"Feature","geometry":{"type":"Point","coordinates":[-122.439332,37.758279]}},{"properties":{"zipcode":"94114","last name":"English","geo_score":0.714,"cash":250,"id":"122","geo_precision":"zip"},"type":"Feature","geometry":{"type":"Point","coordinates":[-122.439332,37.758279]}},{"properties":{"zipcode":"94114","last name":"Stetzler","geo_score":0.714,"cash":100,"id":"123","geo_precision":"zip"},"type":"Feature","geometry":{"type":"Point","coordinates":[-122.439332,37.758279]}},{"properties":{"zipcode":"94114","last name":"Crowder","geo_score":0.714,"cash":250,"id":"124","geo_precision":"zip"},"type":"Feature","geometry":{"type":"Point","coordinates":[-122.439332,37.758279]}},{"properties":{"zipcode":"94114","last name":"LaPointe","geo_score":0.714,"cash":500,"id":"125","geo_precision":"zip"},"type":"Feature","geometry":{"type":"Point","coordinates":[-122.439332,37.758279]}},{"properties":{"zipcode":"94114","last name":"Gianaras","geo_score":0.714,"cash":100,"id":"126","geo_precision":"zip"},"type":"Feature","geometry":{"type":"Point","coordinates":[-122.439332,37.758279]}},{"properties":{"zipcode":"94114","last name":"Ryan","geo_score":0.714,"cash":100,"id":"127","geo_precision":"zip"},"type":"Feature","geometry":{"type":"Point","coordinates":[-122.439332,37.758279]}},{"properties":{"zipcode":"94114","last name":"Long","geo_score":0.714,"cash":100,"id":"128","geo_precision":"zip"},"type":"Feature","geometry":{"type":"Point","coordinates":[-122.439332,37.758279]}},{"properties":{"zipcode":"94114","last name":"Prozan","geo_score":0.714,"cash":150,"id":"129","geo_precision":"zip"},"type":"Feature","geometry":{"type":"Point","coordinates":[-122.439332,37.758279]}},{"properties":{"zipcode":"94114","last name":"Laufenberg","geo_score":0.714,"cash":250,"id":"130","geo_precision":"zip"},"type":"Feature","geometry":{"type":"Point","coordinates":[-122.439332,37.758279]}},{"properties":{"zipcode":"94114","last name":"Scott","geo_score":0.714,"cash":250,"id":"131","geo_precision":"zip"},"type":"Feature","geometry":{"type":"Point","coordinates":[-122.439332,37.758279]}},{"properties":{"zipcode":"94114","last name":"Talmus","geo_score":0.714,"cash":500,"id":"132","geo_precision":"zip"},"type":"Feature","geometry":{"type":"Point","coordinates":[-122.439332,37.758279]}},{"properties":{"zipcode":"94114","last name":"Schlackman","geo_score":0.714,"cash":500,"id":"133","geo_precision":"zip"},"type":"Feature","geometry":{"type":"Point","coordinates":[-122.439332,37.758279]}},{"properties":{"zipcode":"94114","last name":"McDonald","geo_score":0.714,"cash":250,"id":"134","geo_precision":"zip"},"type":"Feature","geometry":{"type":"Point","coordinates":[-122.439332,37.758279]}},{"properties":{"zipcode":"94114","last name":"McDonald","geo_score":0.714,"cash":250,"id":"135","geo_precision":"zip"},"type":"Feature","geometry":{"type":"Point","coordinates":[-122.439332,37.758279]}},{"properties":{"zipcode":"94114","last name":"Ayala","geo_score":0.714,"cash":100,"id":"136","geo_precision":"zip"},"type":"Feature","geometry":{"type":"Point","coordinates":[-122.439332,37.758279]}},{"properties":{"zipcode":"94115","last name":"Walker","geo_score":0.714,"cash":500,"id":"137","geo_precision":"zip"},"type":"Feature","geometry":{"type":"Point","coordinates":[-122.437032,37.786028]}},{"properties":{"zipcode":"94115","last name":"Wilsey","geo_score":0.714,"cash":500,"id":"138","geo_precision":"zip"},"type":"Feature","geometry":{"type":"Point","coordinates":[-122.437032,37.786028]}},{"properties":{"zipcode":"94115","last name":"Roumeliotes","geo_score":0.714,"cash":100,"id":"139","geo_precision":"zip"},"type":"Feature","geometry":{"type":"Point","coordinates":[-122.437032,37.786028]}},{"properties":{"zipcode":"94115","last name":"Ehrlich","geo_score":0.714,"cash":100,"id":"140","geo_precision":"zip"},"type":"Feature","geometry":{"type":"Point","coordinates":[-122.437032,37.786028]}},{"properties":{"zipcode":"94115","last name":"Familet","geo_score":0.714,"cash":200,"id":"141","geo_precision":"zip"},"type":"Feature","geometry":{"type":"Point","coordinates":[-122.437032,37.786028]}},{"properties":{"zipcode":"94115","last name":"Alioto-Grace","geo_score":0.714,"cash":500,"id":"142","geo_precision":"zip"},"type":"Feature","geometry":{"type":"Point","coordinates":[-122.437032,37.786028]}},{"properties":{"zipcode":"94115","last name":"Southwick","geo_score":0.714,"cash":100,"id":"143","geo_precision":"zip"},"type":"Feature","geometry":{"type":"Point","coordinates":[-122.437032,37.786028]}},{"properties":{"zipcode":"94115","last name":"Cash","geo_score":0.714,"cash":500,"id":"144","geo_precision":"zip"},"type":"Feature","geometry":{"type":"Point","coordinates":[-122.437032,37.786028]}},{"properties":{"zipcode":"94115","last name":"Cash","geo_score":0.714,"cash":500,"id":"145","geo_precision":"zip"},"type":"Feature","geometry":{"type":"Point","coordinates":[-122.437032,37.786028]}},{"properties":{"zipcode":"94115","last name":"Rafael","geo_score":0.714,"cash":100,"id":"146","geo_precision":"zip"},"type":"Feature","geometry":{"type":"Point","coordinates":[-122.437032,37.786028]}},{"properties":{"zipcode":"94115","last name":"Rafael","geo_score":0.714,"cash":100,"id":"147","geo_precision":"zip"},"type":"Feature","geometry":{"type":"Point","coordinates":[-122.437032,37.786028]}},{"properties":{"zipcode":"94115","last name":"Tucker","geo_score":0.714,"cash":250,"id":"148","geo_precision":"zip"},"type":"Feature","geometry":{"type":"Point","coordinates":[-122.437032,37.786028]}},{"properties":{"zipcode":"94115","last name":"Williams","geo_score":0.714,"cash":100,"id":"149","geo_precision":"zip"},"type":"Feature","geometry":{"type":"Point","coordinates":[-122.437032,37.786028]}},{"properties":{"zipcode":"94115","last name":"Zaandam","geo_score":0.714,"cash":250,"id":"150","geo_precision":"zip"},"type":"Feature","geometry":{"type":"Point","coordinates":[-122.437032,37.786028]}},{"properties":{"zipcode":"94115","last name":"Traina Public Relations","geo_score":0.714,"cash":100,"id":"151","geo_precision":"zip"},"type":"Feature","geometry":{"type":"Point","coordinates":[-122.437032,37.786028]}},{"properties":{"zipcode":"94115","last name":"Kim","geo_score":0.714,"cash":500,"id":"152","geo_precision":"zip"},"type":"Feature","geometry":{"type":"Point","coordinates":[-122.437032,37.786028]}},{"properties":{"zipcode":"94115","last name":"Norton","geo_score":0.714,"cash":100,"id":"153","geo_precision":"zip"},"type":"Feature","geometry":{"type":"Point","coordinates":[-122.437032,37.786028]}},{"properties":{"zipcode":"94115","last name":"Kim","geo_score":0.714,"cash":500,"id":"154","geo_precision":"zip"},"type":"Feature","geometry":{"type":"Point","coordinates":[-122.437032,37.786028]}},{"properties":{"zipcode":"94115","last name":"Niehaus","geo_score":0.714,"cash":500,"id":"155","geo_precision":"zip"},"type":"Feature","geometry":{"type":"Point","coordinates":[-122.437032,37.786028]}},{"properties":{"zipcode":"94115","last name":"Niehaus","geo_score":0.714,"cash":500,"id":"156","geo_precision":"zip"},"type":"Feature","geometry":{"type":"Point","coordinates":[-122.437032,37.786028]}},{"properties":{"zipcode":"94115","last name":"Arslaner","geo_score":0.714,"cash":100,"id":"157","geo_precision":"zip"},"type":"Feature","geometry":{"type":"Point","coordinates":[-122.437032,37.786028]}},{"properties":{"zipcode":"94115","last name":"Dha","geo_score":0.714,"cash":100,"id":"158","geo_precision":"zip"},"type":"Feature","geometry":{"type":"Point","coordinates":[-122.437032,37.786028]}},{"properties":{"zipcode":"94115","last name":"Tejada","geo_score":0.714,"cash":100,"id":"159","geo_precision":"zip"},"type":"Feature","geometry":{"type":"Point","coordinates":[-122.437032,37.786028]}},{"properties":{"zipcode":"94115","last name":"Monahan","geo_score":0.714,"cash":500,"id":"160","geo_precision":"zip"},"type":"Feature","geometry":{"type":"Point","coordinates":[-122.437032,37.786028]}},{"properties":{"zipcode":"94115","last name":"Monahan","geo_score":0.714,"cash":500,"id":"161","geo_precision":"zip"},"type":"Feature","geometry":{"type":"Point","coordinates":[-122.437032,37.786028]}},{"properties":{"zipcode":"94115","last name":"Thalheimer","geo_score":0.714,"cash":250,"id":"162","geo_precision":"zip"},"type":"Feature","geometry":{"type":"Point","coordinates":[-122.437032,37.786028]}},{"properties":{"zipcode":"94115","last name":"Carpenter","geo_score":0.714,"cash":500,"id":"163","geo_precision":"zip"},"type":"Feature","geometry":{"type":"Point","coordinates":[-122.437032,37.786028]}},{"properties":{"zipcode":"94115","last name":"Gardner","geo_score":0.714,"cash":500,"id":"164","geo_precision":"zip"},"type":"Feature","geometry":{"type":"Point","coordinates":[-122.437032,37.786028]}},{"properties":{"zipcode":"94115","last name":"Thalheimer","geo_score":0.714,"cash":100,"id":"165","geo_precision":"zip"},"type":"Feature","geometry":{"type":"Point","coordinates":[-122.437032,37.786028]}},{"properties":{"zipcode":"94115","last name":"Zaretsky","geo_score":0.714,"cash":100,"id":"166","geo_precision":"zip"},"type":"Feature","geometry":{"type":"Point","coordinates":[-122.437032,37.786028]}},{"properties":{"zipcode":"94115","last name":"Zaretsky","geo_score":0.714,"cash":250,"id":"167","geo_precision":"zip"},"type":"Feature","geometry":{"type":"Point","coordinates":[-122.437032,37.786028]}},{"properties":{"zipcode":"94115","last name":"Shea, Jr.","geo_score":0.714,"cash":500,"id":"168","geo_precision":"zip"},"type":"Feature","geometry":{"type":"Point","coordinates":[-122.437032,37.786028]}},{"properties":{"zipcode":"94115","last name":"Shea","geo_score":0.714,"cash":500,"id":"169","geo_precision":"zip"},"type":"Feature","geometry":{"type":"Point","coordinates":[-122.437032,37.786028]}},{"properties":{"zipcode":"94115","last name":"Thalheimer","geo_score":0.714,"cash":500,"id":"170","geo_precision":"zip"},"type":"Feature","geometry":{"type":"Point","coordinates":[-122.437032,37.786028]}},{"properties":{"zipcode":"94115","last name":"Thalheimer","geo_score":0.714,"cash":-500,"id":"171","geo_precision":"zip"},"type":"Feature","geometry":{"type":"Point","coordinates":[-122.437032,37.786028]}},{"properties":{"zipcode":"94115","last name":"Giarman","geo_score":0.714,"cash":100,"id":"172","geo_precision":"zip"},"type":"Feature","geometry":{"type":"Point","coordinates":[-122.437032,37.786028]}},{"properties":{"zipcode":"94115","last name":"Thalheimer","geo_score":0.714,"cash":150,"id":"173","geo_precision":"zip"},"type":"Feature","geometry":{"type":"Point","coordinates":[-122.437032,37.786028]}},{"properties":{"zipcode":"94115","last name":"Mack","geo_score":0.714,"cash":250,"id":"174","geo_precision":"zip"},"type":"Feature","geometry":{"type":"Point","coordinates":[-122.437032,37.786028]}},{"properties":{"zipcode":"94115","last name":"Lenihan","geo_score":0.714,"cash":500,"id":"175","geo_precision":"zip"},"type":"Feature","geometry":{"type":"Point","coordinates":[-122.437032,37.786028]}},{"properties":{"zipcode":"94115","last name":"Goggio","geo_score":0.714,"cash":500,"id":"176","geo_precision":"zip"},"type":"Feature","geometry":{"type":"Point","coordinates":[-122.437032,37.786028]}},{"properties":{"zipcode":"94115","last name":"Goodyear","geo_score":0.714,"cash":250,"id":"177","geo_precision":"zip"},"type":"Feature","geometry":{"type":"Point","coordinates":[-122.437032,37.786028]}},{"properties":{"zipcode":"94115","last name":"Redmond","geo_score":0.714,"cash":500,"id":"178","geo_precision":"zip"},"type":"Feature","geometry":{"type":"Point","coordinates":[-122.437032,37.786028]}},{"properties":{"zipcode":"94115","last name":"Segal","geo_score":0.714,"cash":500,"id":"179","geo_precision":"zip"},"type":"Feature","geometry":{"type":"Point","coordinates":[-122.437032,37.786028]}},{"properties":{"zipcode":"94115","last name":"Lawton","geo_score":0.714,"cash":500,"id":"180","geo_precision":"zip"},"type":"Feature","geometry":{"type":"Point","coordinates":[-122.437032,37.786028]}},{"properties":{"zipcode":"94115","last name":"Soderborg","geo_score":0.714,"cash":100,"id":"181","geo_precision":"zip"},"type":"Feature","geometry":{"type":"Point","coordinates":[-122.437032,37.786028]}},{"properties":{"zipcode":"94115","last name":"Scarampi","geo_score":0.714,"cash":100,"id":"182","geo_precision":"zip"},"type":"Feature","geometry":{"type":"Point","coordinates":[-122.437032,37.786028]}},{"properties":{"zipcode":"94115","last name":"Kanbar","geo_score":0.714,"cash":500,"id":"183","geo_precision":"zip"},"type":"Feature","geometry":{"type":"Point","coordinates":[-122.437032,37.786028]}},{"properties":{"zipcode":"94115","last name":"O'Connor","geo_score":0.714,"cash":100,"id":"184","geo_precision":"zip"},"type":"Feature","geometry":{"type":"Point","coordinates":[-122.437032,37.786028]}},{"properties":{"zipcode":"94115","last name":"Jewett","geo_score":0.714,"cash":500,"id":"185","geo_precision":"zip"},"type":"Feature","geometry":{"type":"Point","coordinates":[-122.437032,37.786028]}},{"properties":{"zipcode":"94115","last name":"Caen","geo_score":0.714,"cash":200,"id":"186","geo_precision":"zip"},"type":"Feature","geometry":{"type":"Point","coordinates":[-122.437032,37.786028]}},{"properties":{"zipcode":"94115","last name":"Weaver","geo_score":0.714,"cash":100,"id":"187","geo_precision":"zip"},"type":"Feature","geometry":{"type":"Point","coordinates":[-122.437032,37.786028]}},{"properties":{"zipcode":"94115","last name":"Baughman","geo_score":0.714,"cash":500,"id":"188","geo_precision":"zip"},"type":"Feature","geometry":{"type":"Point","coordinates":[-122.437032,37.786028]}},{"properties":{"zipcode":"94115","last name":"Sofaer","geo_score":0.714,"cash":100,"id":"189","geo_precision":"zip"},"type":"Feature","geometry":{"type":"Point","coordinates":[-122.437032,37.786028]}},{"properties":{"zipcode":"94115","last name":"Dondero","geo_score":0.714,"cash":100,"id":"190","geo_precision":"zip"},"type":"Feature","geometry":{"type":"Point","coordinates":[-122.437032,37.786028]}},{"properties":{"zipcode":"94115","last name":"Segal","geo_score":0.714,"cash":150,"id":"191","geo_precision":"zip"},"type":"Feature","geometry":{"type":"Point","coordinates":[-122.437032,37.786028]}},{"properties":{"zipcode":"94115","last name":"Saunders","geo_score":0.714,"cash":100,"id":"192","geo_precision":"zip"},"type":"Feature","geometry":{"type":"Point","coordinates":[-122.437032,37.786028]}},{"properties":{"zipcode":"94115","last name":"McInerney","geo_score":0.714,"cash":100,"id":"193","geo_precision":"zip"},"type":"Feature","geometry":{"type":"Point","coordinates":[-122.437032,37.786028]}},{"properties":{"zipcode":"94115","last name":"McInerney","geo_score":0.714,"cash":100,"id":"194","geo_precision":"zip"},"type":"Feature","geometry":{"type":"Point","coordinates":[-122.437032,37.786028]}},{"properties":{"zipcode":"94115","last name":"Salter","geo_score":0.714,"cash":100,"id":"195","geo_precision":"zip"},"type":"Feature","geometry":{"type":"Point","coordinates":[-122.437032,37.786028]}},{"properties":{"zipcode":"94115","last name":"Pritzker","geo_score":0.714,"cash":500,"id":"196","geo_precision":"zip"},"type":"Feature","geometry":{"type":"Point","coordinates":[-122.437032,37.786028]}},{"properties":{"zipcode":"94115","last name":"Segal","geo_score":0.714,"cash":100,"id":"197","geo_precision":"zip"},"type":"Feature","geometry":{"type":"Point","coordinates":[-122.437032,37.786028]}},{"properties":{"zipcode":"94115","last name":"Bridges","geo_score":0.714,"cash":100,"id":"198","geo_precision":"zip"},"type":"Feature","geometry":{"type":"Point","coordinates":[-122.437032,37.786028]}},{"properties":{"zipcode":"94115","last name":"Zaretsky","geo_score":0.714,"cash":150,"id":"199","geo_precision":"zip"},"type":"Feature","geometry":{"type":"Point","coordinates":[-122.437032,37.786028]}},{"properties":{"zipcode":"94115","last name":"Lewis","geo_score":0.714,"cash":100,"id":"200","geo_precision":"zip"},"type":"Feature","geometry":{"type":"Point","coordinates":[-122.437032,37.786028]}},{"properties":{"zipcode":"94115","last name":"Madson","geo_score":0.714,"cash":100,"id":"201","geo_precision":"zip"},"type":"Feature","geometry":{"type":"Point","coordinates":[-122.437032,37.786028]}},{"properties":{"zipcode":"94115","last name":"Chang","geo_score":0.714,"cash":250,"id":"202","geo_precision":"zip"},"type":"Feature","geometry":{"type":"Point","coordinates":[-122.437032,37.786028]}},{"properties":{"zipcode":"94115","last name":"Beldock","geo_score":0.714,"cash":250,"id":"203","geo_precision":"zip"},"type":"Feature","geometry":{"type":"Point","coordinates":[-122.437032,37.786028]}},{"properties":{"zipcode":"94115","last name":"Stone","geo_score":0.714,"cash":200,"id":"204","geo_precision":"zip"},"type":"Feature","geometry":{"type":"Point","coordinates":[-122.437032,37.786028]}},{"properties":{"zipcode":"94115","last name":"Tulley","geo_score":0.714,"cash":500,"id":"205","geo_precision":"zip"},"type":"Feature","geometry":{"type":"Point","coordinates":[-122.437032,37.786028]}},{"properties":{"zipcode":"94116","last name":"Perkins","geo_score":0.714,"cash":100,"id":"206","geo_precision":"zip"},"type":"Feature","geometry":{"type":"Point","coordinates":[-122.483232,37.743857]}},{"properties":{"zipcode":"94116","last name":"Murphy","geo_score":0.714,"cash":100,"id":"207","geo_precision":"zip"},"type":"Feature","geometry":{"type":"Point","coordinates":[-122.483232,37.743857]}},{"properties":{"zipcode":"94116","last name":"McGovern","geo_score":0.714,"cash":100,"id":"208","geo_precision":"zip"},"type":"Feature","geometry":{"type":"Point","coordinates":[-122.483232,37.743857]}},{"properties":{"zipcode":"94116","last name":"Martin","geo_score":0.714,"cash":100,"id":"209","geo_precision":"zip"},"type":"Feature","geometry":{"type":"Point","coordinates":[-122.483232,37.743857]}},{"properties":{"zipcode":"94117","last name":"Larson","geo_score":0.714,"cash":100,"id":"210","geo_precision":"zip"},"type":"Feature","geometry":{"type":"Point","coordinates":[-122.443882,37.769079]}},{"properties":{"zipcode":"94117","last name":"Alex Volberding for DCCC 2010","geo_score":0.714,"cash":200,"id":"211","geo_precision":"zip"},"type":"Feature","geometry":{"type":"Point","coordinates":[-122.443882,37.769079]}},{"properties":{"zipcode":"94117","last name":"Williams","geo_score":0.714,"cash":100,"id":"212","geo_precision":"zip"},"type":"Feature","geometry":{"type":"Point","coordinates":[-122.443882,37.769079]}},{"properties":{"zipcode":"94117","last name":"Van Aelstyn","geo_score":0.714,"cash":100,"id":"213","geo_precision":"zip"},"type":"Feature","geometry":{"type":"Point","coordinates":[-122.443882,37.769079]}},{"properties":{"zipcode":"94117","last name":"Blanc","geo_score":0.714,"cash":500,"id":"214","geo_precision":"zip"},"type":"Feature","geometry":{"type":"Point","coordinates":[-122.443882,37.769079]}},{"properties":{"zipcode":"94117","last name":"Dhillon","geo_score":0.714,"cash":500,"id":"215","geo_precision":"zip"},"type":"Feature","geometry":{"type":"Point","coordinates":[-122.443882,37.769079]}},{"properties":{"zipcode":"94117","last name":"Santori","geo_score":0.714,"cash":250,"id":"216","geo_precision":"zip"},"type":"Feature","geometry":{"type":"Point","coordinates":[-122.443882,37.769079]}},{"properties":{"zipcode":"94117","last name":"Bartlett","geo_score":0.714,"cash":250,"id":"217","geo_precision":"zip"},"type":"Feature","geometry":{"type":"Point","coordinates":[-122.443882,37.769079]}},{"properties":{"zipcode":"94117","last name":"Wrightson","geo_score":0.714,"cash":200,"id":"218","geo_precision":"zip"},"type":"Feature","geometry":{"type":"Point","coordinates":[-122.443882,37.769079]}},{"properties":{"zipcode":"94117","last name":"Fix","geo_score":0.714,"cash":100,"id":"219","geo_precision":"zip"},"type":"Feature","geometry":{"type":"Point","coordinates":[-122.443882,37.769079]}},{"properties":{"zipcode":"94117","last name":"Larson","geo_score":0.714,"cash":150,"id":"220","geo_precision":"zip"},"type":"Feature","geometry":{"type":"Point","coordinates":[-122.443882,37.769079]}},{"properties":{"zipcode":"94117","last name":"Becker","geo_score":0.714,"cash":100,"id":"221","geo_precision":"zip"},"type":"Feature","geometry":{"type":"Point","coordinates":[-122.443882,37.769079]}},{"properties":{"zipcode":"94117","last name":"New","geo_score":0.714,"cash":100,"id":"222","geo_precision":"zip"},"type":"Feature","geometry":{"type":"Point","coordinates":[-122.443882,37.769079]}},{"properties":{"zipcode":"94117","last name":"Growney","geo_score":0.714,"cash":200,"id":"223","geo_precision":"zip"},"type":"Feature","geometry":{"type":"Point","coordinates":[-122.443882,37.769079]}},{"properties":{"zipcode":"94117","last name":"Gladstone","geo_score":0.714,"cash":250,"id":"224","geo_precision":"zip"},"type":"Feature","geometry":{"type":"Point","coordinates":[-122.443882,37.769079]}},{"properties":{"zipcode":"94118","last name":"Tandler","geo_score":0.714,"cash":500,"id":"225","geo_precision":"zip"},"type":"Feature","geometry":{"type":"Point","coordinates":[-122.459982,37.778779]}},{"properties":{"zipcode":"94118","last name":"Belmonte","geo_score":0.714,"cash":500,"id":"226","geo_precision":"zip"},"type":"Feature","geometry":{"type":"Point","coordinates":[-122.459982,37.778779]}},{"properties":{"zipcode":"94118","last name":"Belmonte","geo_score":0.714,"cash":500,"id":"227","geo_precision":"zip"},"type":"Feature","geometry":{"type":"Point","coordinates":[-122.459982,37.778779]}},{"properties":{"zipcode":"94118","last name":"Morris","geo_score":0.714,"cash":500,"id":"228","geo_precision":"zip"},"type":"Feature","geometry":{"type":"Point","coordinates":[-122.459982,37.778779]}},{"properties":{"zipcode":"94118","last name":"Ferguson","geo_score":0.714,"cash":500,"id":"229","geo_precision":"zip"},"type":"Feature","geometry":{"type":"Point","coordinates":[-122.459982,37.778779]}},{"properties":{"zipcode":"94118","last name":"Pell","geo_score":0.714,"cash":500,"id":"230","geo_precision":"zip"},"type":"Feature","geometry":{"type":"Point","coordinates":[-122.459982,37.778779]}},{"properties":{"zipcode":"94118","last name":"Pell","geo_score":0.714,"cash":500,"id":"231","geo_precision":"zip"},"type":"Feature","geometry":{"type":"Point","coordinates":[-122.459982,37.778779]}},{"properties":{"zipcode":"94118","last name":"Ball","geo_score":0.714,"cash":500,"id":"232","geo_precision":"zip"},"type":"Feature","geometry":{"type":"Point","coordinates":[-122.459982,37.778779]}},{"properties":{"zipcode":"94118","last name":"Marshall","geo_score":0.714,"cash":200,"id":"233","geo_precision":"zip"},"type":"Feature","geometry":{"type":"Point","coordinates":[-122.459982,37.778779]}},{"properties":{"zipcode":"94118","last name":"Ball","geo_score":0.714,"cash":100,"id":"234","geo_precision":"zip"},"type":"Feature","geometry":{"type":"Point","coordinates":[-122.459982,37.778779]}},{"properties":{"zipcode":"94118","last name":"Davis","geo_score":0.714,"cash":500,"id":"235","geo_precision":"zip"},"type":"Feature","geometry":{"type":"Point","coordinates":[-122.459982,37.778779]}},{"properties":{"zipcode":"94118","last name":"Davis","geo_score":0.714,"cash":500,"id":"236","geo_precision":"zip"},"type":"Feature","geometry":{"type":"Point","coordinates":[-122.459982,37.778779]}},{"properties":{"zipcode":"94118","last name":"Bradley","geo_score":0.714,"cash":250,"id":"237","geo_precision":"zip"},"type":"Feature","geometry":{"type":"Point","coordinates":[-122.459982,37.778779]}},{"properties":{"zipcode":"94118","last name":"Corrado","geo_score":0.714,"cash":100,"id":"238","geo_precision":"zip"},"type":"Feature","geometry":{"type":"Point","coordinates":[-122.459982,37.778779]}},{"properties":{"zipcode":"94118","last name":"Newman","geo_score":0.714,"cash":100,"id":"239","geo_precision":"zip"},"type":"Feature","geometry":{"type":"Point","coordinates":[-122.459982,37.778779]}},{"properties":{"zipcode":"94118","last name":"Sklar","geo_score":0.714,"cash":250,"id":"240","geo_precision":"zip"},"type":"Feature","geometry":{"type":"Point","coordinates":[-122.459982,37.778779]}},{"properties":{"zipcode":"94118","last name":"Collins","geo_score":0.714,"cash":100,"id":"241","geo_precision":"zip"},"type":"Feature","geometry":{"type":"Point","coordinates":[-122.459982,37.778779]}},{"properties":{"zipcode":"94118","last name":"Bechtle","geo_score":0.714,"cash":500,"id":"242","geo_precision":"zip"},"type":"Feature","geometry":{"type":"Point","coordinates":[-122.459982,37.778779]}},{"properties":{"zipcode":"94118","last name":"Camahort","geo_score":0.714,"cash":100,"id":"243","geo_precision":"zip"},"type":"Feature","geometry":{"type":"Point","coordinates":[-122.459982,37.778779]}},{"properties":{"zipcode":"94118","last name":"Link Properties","geo_score":0.714,"cash":100,"id":"244","geo_precision":"zip"},"type":"Feature","geometry":{"type":"Point","coordinates":[-122.459982,37.778779]}},{"properties":{"zipcode":"94118","last name":"Lopez","geo_score":0.714,"cash":200,"id":"245","geo_precision":"zip"},"type":"Feature","geometry":{"type":"Point","coordinates":[-122.459982,37.778779]}},{"properties":{"zipcode":"94118","last name":"Sacks","geo_score":0.714,"cash":500,"id":"246","geo_precision":"zip"},"type":"Feature","geometry":{"type":"Point","coordinates":[-122.459982,37.778779]}},{"properties":{"zipcode":"94118","last name":"Kennedy","geo_score":0.714,"cash":200,"id":"247","geo_precision":"zip"},"type":"Feature","geometry":{"type":"Point","coordinates":[-122.459982,37.778779]}},{"properties":{"zipcode":"94118","last name":"Cerchiai","geo_score":0.714,"cash":100,"id":"248","geo_precision":"zip"},"type":"Feature","geometry":{"type":"Point","coordinates":[-122.459982,37.778779]}},{"properties":{"zipcode":"94118","last name":"Coblentz","geo_score":0.714,"cash":100,"id":"249","geo_precision":"zip"},"type":"Feature","geometry":{"type":"Point","coordinates":[-122.459982,37.778779]}},{"properties":{"zipcode":"94118","last name":"Rothenberg","geo_score":0.714,"cash":100,"id":"250","geo_precision":"zip"},"type":"Feature","geometry":{"type":"Point","coordinates":[-122.459982,37.778779]}},{"properties":{"zipcode":"94118","last name":"Keller","geo_score":0.714,"cash":250,"id":"251","geo_precision":"zip"},"type":"Feature","geometry":{"type":"Point","coordinates":[-122.459982,37.778779]}},{"properties":{"zipcode":"94118","last name":"Davis","geo_score":0.714,"cash":-500,"id":"252","geo_precision":"zip"},"type":"Feature","geometry":{"type":"Point","coordinates":[-122.459982,37.778779]}},{"properties":{"zipcode":"94118","last name":"Davis","geo_score":0.714,"cash":-500,"id":"253","geo_precision":"zip"},"type":"Feature","geometry":{"type":"Point","coordinates":[-122.459982,37.778779]}},{"properties":{"zipcode":"94118","last name":"Cuddeback, III","geo_score":0.714,"cash":100,"id":"254","geo_precision":"zip"},"type":"Feature","geometry":{"type":"Point","coordinates":[-122.459982,37.778779]}},{"properties":{"zipcode":"94118","last name":"Reynolds","geo_score":0.714,"cash":250,"id":"255","geo_precision":"zip"},"type":"Feature","geometry":{"type":"Point","coordinates":[-122.459982,37.778779]}},{"properties":{"zipcode":"94118","last name":"Sergi","geo_score":0.714,"cash":500,"id":"256","geo_precision":"zip"},"type":"Feature","geometry":{"type":"Point","coordinates":[-122.459982,37.778779]}},{"properties":{"zipcode":"94118","last name":"Mehta","geo_score":0.714,"cash":500,"id":"257","geo_precision":"zip"},"type":"Feature","geometry":{"type":"Point","coordinates":[-122.459982,37.778779]}},{"properties":{"zipcode":"94118","last name":"Busch","geo_score":0.714,"cash":200,"id":"258","geo_precision":"zip"},"type":"Feature","geometry":{"type":"Point","coordinates":[-122.459982,37.778779]}},{"properties":{"zipcode":"94118","last name":"Tomao","geo_score":0.714,"cash":250,"id":"259","geo_precision":"zip"},"type":"Feature","geometry":{"type":"Point","coordinates":[-122.459982,37.778779]}},{"properties":{"zipcode":"94118","last name":"Sweeney, III","geo_score":0.714,"cash":500,"id":"260","geo_precision":"zip"},"type":"Feature","geometry":{"type":"Point","coordinates":[-122.459982,37.778779]}},{"properties":{"zipcode":"94118","last name":"Starr","geo_score":0.714,"cash":500,"id":"261","geo_precision":"zip"},"type":"Feature","geometry":{"type":"Point","coordinates":[-122.459982,37.778779]}},{"properties":{"zipcode":"94118","last name":"Morris","geo_score":0.714,"cash":500,"id":"262","geo_precision":"zip"},"type":"Feature","geometry":{"type":"Point","coordinates":[-122.459982,37.778779]}},{"properties":{"zipcode":"94118","last name":"Moncada","geo_score":0.714,"cash":250,"id":"263","geo_precision":"zip"},"type":"Feature","geometry":{"type":"Point","coordinates":[-122.459982,37.778779]}},{"properties":{"zipcode":"94118","last name":"Cooley","geo_score":0.714,"cash":500,"id":"264","geo_precision":"zip"},"type":"Feature","geometry":{"type":"Point","coordinates":[-122.459982,37.778779]}},{"properties":{"zipcode":"94118","last name":"Heffelfinger","geo_score":0.714,"cash":100,"id":"265","geo_precision":"zip"},"type":"Feature","geometry":{"type":"Point","coordinates":[-122.459982,37.778779]}},{"properties":{"zipcode":"94118","last name":"Clark","geo_score":0.714,"cash":100,"id":"266","geo_precision":"zip"},"type":"Feature","geometry":{"type":"Point","coordinates":[-122.459982,37.778779]}},{"properties":{"zipcode":"94118","last name":"Lawrence","geo_score":0.714,"cash":100,"id":"267","geo_precision":"zip"},"type":"Feature","geometry":{"type":"Point","coordinates":[-122.459982,37.778779]}},{"properties":{"zipcode":"94118","last name":"Case","geo_score":0.714,"cash":250,"id":"268","geo_precision":"zip"},"type":"Feature","geometry":{"type":"Point","coordinates":[-122.459982,37.778779]}},{"properties":{"zipcode":"94118","last name":"Cohan","geo_score":0.714,"cash":500,"id":"269","geo_precision":"zip"},"type":"Feature","geometry":{"type":"Point","coordinates":[-122.459982,37.778779]}},{"properties":{"zipcode":"94118","last name":"Pringle","geo_score":0.714,"cash":250,"id":"270","geo_precision":"zip"},"type":"Feature","geometry":{"type":"Point","coordinates":[-122.459982,37.778779]}},{"properties":{"zipcode":"94118","last name":"Kingsland","geo_score":0.714,"cash":500,"id":"271","geo_precision":"zip"},"type":"Feature","geometry":{"type":"Point","coordinates":[-122.459982,37.778779]}},{"properties":{"zipcode":"94118","last name":"Cohan","geo_score":0.714,"cash":500,"id":"272","geo_precision":"zip"},"type":"Feature","geometry":{"type":"Point","coordinates":[-122.459982,37.778779]}},{"properties":{"zipcode":"94118","last name":"Papale","geo_score":0.714,"cash":250,"id":"273","geo_precision":"zip"},"type":"Feature","geometry":{"type":"Point","coordinates":[-122.459982,37.778779]}},{"properties":{"zipcode":"94118","last name":"Barth","geo_score":0.714,"cash":250,"id":"274","geo_precision":"zip"},"type":"Feature","geometry":{"type":"Point","coordinates":[-122.459982,37.778779]}},{"properties":{"zipcode":"94118","last name":"Tartakovsky","geo_score":0.714,"cash":200,"id":"275","geo_precision":"zip"},"type":"Feature","geometry":{"type":"Point","coordinates":[-122.459982,37.778779]}},{"properties":{"zipcode":"94118","last name":"Papale","geo_score":0.714,"cash":100,"id":"276","geo_precision":"zip"},"type":"Feature","geometry":{"type":"Point","coordinates":[-122.459982,37.778779]}},{"properties":{"zipcode":"94118","last name":"Renfrew","geo_score":0.714,"cash":100,"id":"277","geo_precision":"zip"},"type":"Feature","geometry":{"type":"Point","coordinates":[-122.459982,37.778779]}},{"properties":{"zipcode":"94118","last name":"Schier","geo_score":0.714,"cash":100,"id":"278","geo_precision":"zip"},"type":"Feature","geometry":{"type":"Point","coordinates":[-122.459982,37.778779]}},{"properties":{"zipcode":"94118","last name":"Myers","geo_score":0.714,"cash":100,"id":"279","geo_precision":"zip"},"type":"Feature","geometry":{"type":"Point","coordinates":[-122.459982,37.778779]}},{"properties":{"zipcode":"94118","last name":"Glynn","geo_score":0.714,"cash":150,"id":"280","geo_precision":"zip"},"type":"Feature","geometry":{"type":"Point","coordinates":[-122.459982,37.778779]}},{"properties":{"zipcode":"94118","last name":"Faggioli","geo_score":0.714,"cash":100,"id":"281","geo_precision":"zip"},"type":"Feature","geometry":{"type":"Point","coordinates":[-122.459982,37.778779]}},{"properties":{"zipcode":"94118","last name":"Carroll","geo_score":0.714,"cash":100,"id":"282","geo_precision":"zip"},"type":"Feature","geometry":{"type":"Point","coordinates":[-122.459982,37.778779]}},{"properties":{"zipcode":"94118","last name":"Gumina","geo_score":0.714,"cash":250,"id":"283","geo_precision":"zip"},"type":"Feature","geometry":{"type":"Point","coordinates":[-122.459982,37.778779]}},{"properties":{"zipcode":"94118","last name":"Rozis","geo_score":0.714,"cash":500,"id":"284","geo_precision":"zip"},"type":"Feature","geometry":{"type":"Point","coordinates":[-122.459982,37.778779]}},{"properties":{"zipcode":"94118","last name":"Flood Eklund","geo_score":0.714,"cash":250,"id":"285","geo_precision":"zip"},"type":"Feature","geometry":{"type":"Point","coordinates":[-122.459982,37.778779]}},{"properties":{"zipcode":"94118","last name":"Trendell","geo_score":0.714,"cash":250,"id":"286","geo_precision":"zip"},"type":"Feature","geometry":{"type":"Point","coordinates":[-122.459982,37.778779]}},{"properties":{"zipcode":"94118","last name":"Marshall","geo_score":0.714,"cash":100,"id":"287","geo_precision":"zip"},"type":"Feature","geometry":{"type":"Point","coordinates":[-122.459982,37.778779]}},{"properties":{"zipcode":"94118","last name":"Farrell","geo_score":0.714,"cash":500,"id":"288","geo_precision":"zip"},"type":"Feature","geometry":{"type":"Point","coordinates":[-122.459982,37.778779]}},{"properties":{"zipcode":"94118","last name":"Levitan","geo_score":0.714,"cash":100,"id":"289","geo_precision":"zip"},"type":"Feature","geometry":{"type":"Point","coordinates":[-122.459982,37.778779]}},{"properties":{"zipcode":"94118","last name":"Tandler","geo_score":0.714,"cash":250,"id":"290","geo_precision":"zip"},"type":"Feature","geometry":{"type":"Point","coordinates":[-122.459982,37.778779]}},{"properties":{"zipcode":"94118","last name":"Tandler","geo_score":0.714,"cash":-250,"id":"291","geo_precision":"zip"},"type":"Feature","geometry":{"type":"Point","coordinates":[-122.459982,37.778779]}},{"properties":{"zipcode":"94118","last name":"Collins","geo_score":0.714,"cash":25,"id":"292","geo_precision":"zip"},"type":"Feature","geometry":{"type":"Point","coordinates":[-122.459982,37.778779]}},{"properties":{"zipcode":"94118","last name":"Papale","geo_score":0.714,"cash":500,"id":"293","geo_precision":"zip"},"type":"Feature","geometry":{"type":"Point","coordinates":[-122.459982,37.778779]}},{"properties":{"zipcode":"94118","last name":"Black","geo_score":0.714,"cash":125,"id":"294","geo_precision":"zip"},"type":"Feature","geometry":{"type":"Point","coordinates":[-122.459982,37.778779]}},{"properties":{"zipcode":"94118","last name":"Papale","geo_score":0.714,"cash":50,"id":"295","geo_precision":"zip"},"type":"Feature","geometry":{"type":"Point","coordinates":[-122.459982,37.778779]}},{"properties":{"zipcode":"94118","last name":"Gumina","geo_score":0.714,"cash":250,"id":"296","geo_precision":"zip"},"type":"Feature","geometry":{"type":"Point","coordinates":[-122.459982,37.778779]}},{"properties":{"zipcode":"94118","last name":"Harroch","geo_score":0.714,"cash":500,"id":"297","geo_precision":"zip"},"type":"Feature","geometry":{"type":"Point","coordinates":[-122.459982,37.778779]}},{"properties":{"zipcode":"94118","last name":"Cerchiai","geo_score":0.714,"cash":400,"id":"298","geo_precision":"zip"},"type":"Feature","geometry":{"type":"Point","coordinates":[-122.459982,37.778779]}},{"properties":{"zipcode":"94118","last name":"Slinn","geo_score":0.714,"cash":250,"id":"299","geo_precision":"zip"},"type":"Feature","geometry":{"type":"Point","coordinates":[-122.459982,37.778779]}},{"properties":{"zipcode":"94118","last name":"Lane","geo_score":0.714,"cash":500,"id":"300","geo_precision":"zip"},"type":"Feature","geometry":{"type":"Point","coordinates":[-122.459982,37.778779]}},{"properties":{"zipcode":"94118","last name":"Randol","geo_score":0.714,"cash":250,"id":"301","geo_precision":"zip"},"type":"Feature","geometry":{"type":"Point","coordinates":[-122.459982,37.778779]}},{"properties":{"zipcode":"94118","last name":"Righetti","geo_score":0.714,"cash":250,"id":"302","geo_precision":"zip"},"type":"Feature","geometry":{"type":"Point","coordinates":[-122.459982,37.778779]}},{"properties":{"zipcode":"94105","last name":"NorthPoint Investors","geo_score":0.714,"cash":250,"id":"303","geo_precision":"zip"},"type":"Feature","geometry":{"type":"Point","coordinates":[-122.395631,37.789595]}},{"properties":{"zipcode":"94105","last name":"Karnilowicz","geo_score":0.714,"cash":100,"id":"304","geo_precision":"zip"},"type":"Feature","geometry":{"type":"Point","coordinates":[-122.395631,37.789595]}},{"properties":{"zipcode":"94121","last name":"Lawson-Curry","geo_score":0.714,"cash":250,"id":"305","geo_precision":"zip"},"type":"Feature","geometry":{"type":"Point","coordinates":[-122.491682,37.777129]}},{"properties":{"zipcode":"94121","last name":"Young","geo_score":0.714,"cash":500,"id":"306","geo_precision":"zip"},"type":"Feature","geometry":{"type":"Point","coordinates":[-122.491682,37.777129]}},{"properties":{"zipcode":"94121","last name":"Anisimov","geo_score":0.714,"cash":100,"id":"307","geo_precision":"zip"},"type":"Feature","geometry":{"type":"Point","coordinates":[-122.491682,37.777129]}},{"properties":{"zipcode":"94121","last name":"Dana","geo_score":0.714,"cash":500,"id":"308","geo_precision":"zip"},"type":"Feature","geometry":{"type":"Point","coordinates":[-122.491682,37.777129]}},{"properties":{"zipcode":"94121","last name":"Parcella","geo_score":0.714,"cash":250,"id":"309","geo_precision":"zip"},"type":"Feature","geometry":{"type":"Point","coordinates":[-122.491682,37.777129]}},{"properties":{"zipcode":"94121","last name":"Parcella","geo_score":0.714,"cash":100,"id":"310","geo_precision":"zip"},"type":"Feature","geometry":{"type":"Point","coordinates":[-122.491682,37.777129]}},{"properties":{"zipcode":"94121","last name":"Olinger","geo_score":0.714,"cash":500,"id":"311","geo_precision":"zip"},"type":"Feature","geometry":{"type":"Point","coordinates":[-122.491682,37.777129]}},{"properties":{"zipcode":"94121","last name":"Alioto","geo_score":0.714,"cash":100,"id":"312","geo_precision":"zip"},"type":"Feature","geometry":{"type":"Point","coordinates":[-122.491682,37.777129]}},{"properties":{"zipcode":"94121","last name":"Molfino","geo_score":0.714,"cash":100,"id":"313","geo_precision":"zip"},"type":"Feature","geometry":{"type":"Point","coordinates":[-122.491682,37.777129]}},{"properties":{"zipcode":"94121","last name":"Neal","geo_score":0.714,"cash":200,"id":"314","geo_precision":"zip"},"type":"Feature","geometry":{"type":"Point","coordinates":[-122.491682,37.777129]}},{"properties":{"zipcode":"94121","last name":"Tellini","geo_score":0.714,"cash":250,"id":"315","geo_precision":"zip"},"type":"Feature","geometry":{"type":"Point","coordinates":[-122.491682,37.777129]}},{"properties":{"zipcode":"94121","last name":"Yanowitch","geo_score":0.714,"cash":200,"id":"316","geo_precision":"zip"},"type":"Feature","geometry":{"type":"Point","coordinates":[-122.491682,37.777129]}},{"properties":{"zipcode":"94121","last name":"Wintroub","geo_score":0.714,"cash":200,"id":"317","geo_precision":"zip"},"type":"Feature","geometry":{"type":"Point","coordinates":[-122.491682,37.777129]}},{"properties":{"zipcode":"94121","last name":"Dalzell","geo_score":0.714,"cash":250,"id":"318","geo_precision":"zip"},"type":"Feature","geometry":{"type":"Point","coordinates":[-122.491682,37.777129]}},{"properties":{"zipcode":"94121","last name":"Ryan","geo_score":0.714,"cash":250,"id":"319","geo_precision":"zip"},"type":"Feature","geometry":{"type":"Point","coordinates":[-122.491682,37.777129]}},{"properties":{"zipcode":"94121","last name":"Levensohn","geo_score":0.714,"cash":500,"id":"320","geo_precision":"zip"},"type":"Feature","geometry":{"type":"Point","coordinates":[-122.491682,37.777129]}},{"properties":{"zipcode":"94121","last name":"Lalanne","geo_score":0.714,"cash":100,"id":"321","geo_precision":"zip"},"type":"Feature","geometry":{"type":"Point","coordinates":[-122.491682,37.777129]}},{"properties":{"zipcode":"94121","last name":"Levensohn","geo_score":0.714,"cash":500,"id":"322","geo_precision":"zip"},"type":"Feature","geometry":{"type":"Point","coordinates":[-122.491682,37.777129]}},{"properties":{"zipcode":"94121","last name":"Tsapayev","geo_score":0.714,"cash":250,"id":"323","geo_precision":"zip"},"type":"Feature","geometry":{"type":"Point","coordinates":[-122.491682,37.777129]}},{"properties":{"zipcode":"94121","last name":"Ryan","geo_score":0.714,"cash":250,"id":"324","geo_precision":"zip"},"type":"Feature","geometry":{"type":"Point","coordinates":[-122.491682,37.777129]}},{"properties":{"zipcode":"94121","last name":"Boone, Jr.","geo_score":0.714,"cash":500,"id":"325","geo_precision":"zip"},"type":"Feature","geometry":{"type":"Point","coordinates":[-122.491682,37.777129]}},{"properties":{"zipcode":"94121","last name":"King","geo_score":0.714,"cash":500,"id":"326","geo_precision":"zip"},"type":"Feature","geometry":{"type":"Point","coordinates":[-122.491682,37.777129]}},{"properties":{"zipcode":"94121","last name":"Harbert","geo_score":0.714,"cash":250,"id":"327","geo_precision":"zip"},"type":"Feature","geometry":{"type":"Point","coordinates":[-122.491682,37.777129]}},{"properties":{"zipcode":"94121","last name":"Ebarle","geo_score":0.714,"cash":250,"id":"328","geo_precision":"zip"},"type":"Feature","geometry":{"type":"Point","coordinates":[-122.491682,37.777129]}},{"properties":{"zipcode":"94121","last name":"Lawson-Curry","geo_score":0.714,"cash":250,"id":"329","geo_precision":"zip"},"type":"Feature","geometry":{"type":"Point","coordinates":[-122.491682,37.777129]}},{"properties":{"zipcode":"94121","last name":"Neal","geo_score":0.714,"cash":50,"id":"330","geo_precision":"zip"},"type":"Feature","geometry":{"type":"Point","coordinates":[-122.491682,37.777129]}},{"properties":{"zipcode":"94121","last name":"Zazzal","geo_score":0.714,"cash":100,"id":"331","geo_precision":"zip"},"type":"Feature","geometry":{"type":"Point","coordinates":[-122.491682,37.777129]}},{"properties":{"zipcode":"94121","last name":"Patterson","geo_score":0.714,"cash":500,"id":"332","geo_precision":"zip"},"type":"Feature","geometry":{"type":"Point","coordinates":[-122.491682,37.777129]}},{"properties":{"zipcode":"94121","last name":"Hobbs","geo_score":0.714,"cash":250,"id":"333","geo_precision":"zip"},"type":"Feature","geometry":{"type":"Point","coordinates":[-122.491682,37.777129]}},{"properties":{"zipcode":"94121","last name":"Ackroyd","geo_score":0.714,"cash":250,"id":"334","geo_precision":"zip"},"type":"Feature","geometry":{"type":"Point","coordinates":[-122.491682,37.777129]}},{"properties":{"zipcode":"94122","last name":"Kraal","geo_score":0.714,"cash":100,"id":"335","geo_precision":"zip"},"type":"Feature","geometry":{"type":"Point","coordinates":[-122.475732,37.761179]}},{"properties":{"zipcode":"94122","last name":"Ohanessian","geo_score":0.714,"cash":100,"id":"336","geo_precision":"zip"},"type":"Feature","geometry":{"type":"Point","coordinates":[-122.475732,37.761179]}},{"properties":{"zipcode":"94122","last name":"Nevin","geo_score":0.714,"cash":100,"id":"337","geo_precision":"zip"},"type":"Feature","geometry":{"type":"Point","coordinates":[-122.475732,37.761179]}},{"properties":{"zipcode":"94122","last name":"Callan, Jr.","geo_score":0.714,"cash":500,"id":"338","geo_precision":"zip"},"type":"Feature","geometry":{"type":"Point","coordinates":[-122.475732,37.761179]}},{"properties":{"zipcode":"94122","last name":"Taylor","geo_score":0.714,"cash":250,"id":"339","geo_precision":"zip"},"type":"Feature","geometry":{"type":"Point","coordinates":[-122.475732,37.761179]}},{"properties":{"zipcode":"94122","last name":"Hetzel","geo_score":0.714,"cash":500,"id":"340","geo_precision":"zip"},"type":"Feature","geometry":{"type":"Point","coordinates":[-122.475732,37.761179]}},{"properties":{"zipcode":"94122","last name":"McCormick","geo_score":0.714,"cash":250,"id":"341","geo_precision":"zip"},"type":"Feature","geometry":{"type":"Point","coordinates":[-122.475732,37.761179]}},{"properties":{"zipcode":"94122","last name":"Devlin","geo_score":0.714,"cash":500,"id":"342","geo_precision":"zip"},"type":"Feature","geometry":{"type":"Point","coordinates":[-122.475732,37.761179]}},{"properties":{"zipcode":"94122","last name":"Minninger","geo_score":0.714,"cash":200,"id":"343","geo_precision":"zip"},"type":"Feature","geometry":{"type":"Point","coordinates":[-122.475732,37.761179]}},{"properties":{"zipcode":"94122","last name":"McDonnell","geo_score":0.714,"cash":500,"id":"344","geo_precision":"zip"},"type":"Feature","geometry":{"type":"Point","coordinates":[-122.475732,37.761179]}},{"properties":{"zipcode":"94122","last name":"Brasso","geo_score":0.714,"cash":500,"id":"345","geo_precision":"zip"},"type":"Feature","geometry":{"type":"Point","coordinates":[-122.475732,37.761179]}},{"properties":{"zipcode":"94122","last name":"Link","geo_score":0.714,"cash":150,"id":"346","geo_precision":"zip"},"type":"Feature","geometry":{"type":"Point","coordinates":[-122.475732,37.761179]}},{"properties":{"zipcode":"94122","last name":"Ginsburg","geo_score":0.714,"cash":200,"id":"347","geo_precision":"zip"},"type":"Feature","geometry":{"type":"Point","coordinates":[-122.475732,37.761179]}},{"properties":{"zipcode":"94123","last name":"Werdel","geo_score":0.714,"cash":100,"id":"348","geo_precision":"zip"},"type":"Feature","geometry":{"type":"Point","coordinates":[-122.435732,37.79967]}},{"properties":{"zipcode":"94123","last name":"Pellegrini","geo_score":0.714,"cash":100,"id":"349","geo_precision":"zip"},"type":"Feature","geometry":{"type":"Point","coordinates":[-122.435732,37.79967]}},{"properties":{"zipcode":"94123","last name":"Loveless","geo_score":0.714,"cash":100,"id":"350","geo_precision":"zip"},"type":"Feature","geometry":{"type":"Point","coordinates":[-122.435732,37.79967]}},{"properties":{"zipcode":"94123","last name":"Houts","geo_score":0.714,"cash":100,"id":"351","geo_precision":"zip"},"type":"Feature","geometry":{"type":"Point","coordinates":[-122.435732,37.79967]}},{"properties":{"zipcode":"94123","last name":"Goldyne","geo_score":0.714,"cash":500,"id":"352","geo_precision":"zip"},"type":"Feature","geometry":{"type":"Point","coordinates":[-122.435732,37.79967]}},{"properties":{"zipcode":"94123","last name":"Bancroft","geo_score":0.714,"cash":500,"id":"353","geo_precision":"zip"},"type":"Feature","geometry":{"type":"Point","coordinates":[-122.435732,37.79967]}},{"properties":{"zipcode":"94123","last name":"Pinard","geo_score":0.714,"cash":250,"id":"354","geo_precision":"zip"},"type":"Feature","geometry":{"type":"Point","coordinates":[-122.435732,37.79967]}},{"properties":{"zipcode":"94123","last name":"Coates","geo_score":0.714,"cash":500,"id":"355","geo_precision":"zip"},"type":"Feature","geometry":{"type":"Point","coordinates":[-122.435732,37.79967]}},{"properties":{"zipcode":"94123","last name":"Silverman","geo_score":0.714,"cash":250,"id":"356","geo_precision":"zip"},"type":"Feature","geometry":{"type":"Point","coordinates":[-122.435732,37.79967]}},{"properties":{"zipcode":"94123","last name":"Robinson","geo_score":0.714,"cash":500,"id":"357","geo_precision":"zip"},"type":"Feature","geometry":{"type":"Point","coordinates":[-122.435732,37.79967]}},{"properties":{"zipcode":"94123","last name":"Labagh","geo_score":0.714,"cash":500,"id":"358","geo_precision":"zip"},"type":"Feature","geometry":{"type":"Point","coordinates":[-122.435732,37.79967]}},{"properties":{"zipcode":"94123","last name":"Labagh","geo_score":0.714,"cash":500,"id":"359","geo_precision":"zip"},"type":"Feature","geometry":{"type":"Point","coordinates":[-122.435732,37.79967]}},{"properties":{"zipcode":"94123","last name":"Wright","geo_score":0.714,"cash":100,"id":"360","geo_precision":"zip"},"type":"Feature","geometry":{"type":"Point","coordinates":[-122.435732,37.79967]}},{"properties":{"zipcode":"94123","last name":"Klein","geo_score":0.714,"cash":200,"id":"361","geo_precision":"zip"},"type":"Feature","geometry":{"type":"Point","coordinates":[-122.435732,37.79967]}},{"properties":{"zipcode":"94123","last name":"Besser","geo_score":0.714,"cash":250,"id":"362","geo_precision":"zip"},"type":"Feature","geometry":{"type":"Point","coordinates":[-122.435732,37.79967]}},{"properties":{"zipcode":"94123","last name":"Brooke","geo_score":0.714,"cash":500,"id":"363","geo_precision":"zip"},"type":"Feature","geometry":{"type":"Point","coordinates":[-122.435732,37.79967]}},{"properties":{"zipcode":"94123","last name":"Moore","geo_score":0.714,"cash":10,"id":"364","geo_precision":"zip"},"type":"Feature","geometry":{"type":"Point","coordinates":[-122.435732,37.79967]}},{"properties":{"zipcode":"94123","last name":"Moore","geo_score":0.714,"cash":100,"id":"365","geo_precision":"zip"},"type":"Feature","geometry":{"type":"Point","coordinates":[-122.435732,37.79967]}},{"properties":{"zipcode":"94123","last name":"Gallivan","geo_score":0.714,"cash":100,"id":"366","geo_precision":"zip"},"type":"Feature","geometry":{"type":"Point","coordinates":[-122.435732,37.79967]}},{"properties":{"zipcode":"94123","last name":"Smith, Jr.","geo_score":0.714,"cash":100,"id":"367","geo_precision":"zip"},"type":"Feature","geometry":{"type":"Point","coordinates":[-122.435732,37.79967]}},{"properties":{"zipcode":"94123","last name":"Tournahu","geo_score":0.714,"cash":250,"id":"368","geo_precision":"zip"},"type":"Feature","geometry":{"type":"Point","coordinates":[-122.435732,37.79967]}},{"properties":{"zipcode":"94123","last name":"Cannata","geo_score":0.714,"cash":500,"id":"369","geo_precision":"zip"},"type":"Feature","geometry":{"type":"Point","coordinates":[-122.435732,37.79967]}},{"properties":{"zipcode":"94123","last name":"Cannata","geo_score":0.714,"cash":50,"id":"370","geo_precision":"zip"},"type":"Feature","geometry":{"type":"Point","coordinates":[-122.435732,37.79967]}},{"properties":{"zipcode":"94123","last name":"Heldfond","geo_score":0.714,"cash":500,"id":"371","geo_precision":"zip"},"type":"Feature","geometry":{"type":"Point","coordinates":[-122.435732,37.79967]}},{"properties":{"zipcode":"94123","last name":"Seropan Enterprises","geo_score":0.714,"cash":250,"id":"372","geo_precision":"zip"},"type":"Feature","geometry":{"type":"Point","coordinates":[-122.435732,37.79967]}},{"properties":{"zipcode":"94123","last name":"Geoff Wood &amp; Partners","geo_score":0.714,"cash":100,"id":"373","geo_precision":"zip"},"type":"Feature","geometry":{"type":"Point","coordinates":[-122.435732,37.79967]}},{"properties":{"zipcode":"94123","last name":"Stefani","geo_score":0.714,"cash":100,"id":"374","geo_precision":"zip"},"type":"Feature","geometry":{"type":"Point","coordinates":[-122.435732,37.79967]}},{"properties":{"zipcode":"94123","last name":"Nagpal","geo_score":0.714,"cash":100,"id":"375","geo_precision":"zip"},"type":"Feature","geometry":{"type":"Point","coordinates":[-122.435732,37.79967]}},{"properties":{"zipcode":"94123","last name":"Kaus","geo_score":0.714,"cash":500,"id":"376","geo_precision":"zip"},"type":"Feature","geometry":{"type":"Point","coordinates":[-122.435732,37.79967]}},{"properties":{"zipcode":"94123","last name":"Kaiser","geo_score":0.714,"cash":200,"id":"377","geo_precision":"zip"},"type":"Feature","geometry":{"type":"Point","coordinates":[-122.435732,37.79967]}},{"properties":{"zipcode":"94123","last name":"Kaus","geo_score":0.714,"cash":500,"id":"378","geo_precision":"zip"},"type":"Feature","geometry":{"type":"Point","coordinates":[-122.435732,37.79967]}},{"properties":{"zipcode":"94123","last name":"Gallivan","geo_score":0.714,"cash":500,"id":"379","geo_precision":"zip"},"type":"Feature","geometry":{"type":"Point","coordinates":[-122.435732,37.79967]}},{"properties":{"zipcode":"94123","last name":"Chandler","geo_score":0.714,"cash":500,"id":"380","geo_precision":"zip"},"type":"Feature","geometry":{"type":"Point","coordinates":[-122.435732,37.79967]}},{"properties":{"zipcode":"94123","last name":"Hall","geo_score":0.714,"cash":100,"id":"381","geo_precision":"zip"},"type":"Feature","geometry":{"type":"Point","coordinates":[-122.435732,37.79967]}},{"properties":{"zipcode":"94123","last name":"Fleishhacker","geo_score":0.714,"cash":100,"id":"382","geo_precision":"zip"},"type":"Feature","geometry":{"type":"Point","coordinates":[-122.435732,37.79967]}},{"properties":{"zipcode":"94123","last name":"Gallivan","geo_score":0.714,"cash":500,"id":"383","geo_precision":"zip"},"type":"Feature","geometry":{"type":"Point","coordinates":[-122.435732,37.79967]}},{"properties":{"zipcode":"94123","last name":"Avila","geo_score":0.714,"cash":250,"id":"384","geo_precision":"zip"},"type":"Feature","geometry":{"type":"Point","coordinates":[-122.435732,37.79967]}},{"properties":{"zipcode":"94123","last name":"Callan","geo_score":0.714,"cash":250,"id":"385","geo_precision":"zip"},"type":"Feature","geometry":{"type":"Point","coordinates":[-122.435732,37.79967]}},{"properties":{"zipcode":"94123","last name":"Bankovitch","geo_score":0.714,"cash":100,"id":"386","geo_precision":"zip"},"type":"Feature","geometry":{"type":"Point","coordinates":[-122.435732,37.79967]}},{"properties":{"zipcode":"94123","last name":"Gallivan","geo_score":0.714,"cash":-500,"id":"387","geo_precision":"zip"},"type":"Feature","geometry":{"type":"Point","coordinates":[-122.435732,37.79967]}},{"properties":{"zipcode":"94123","last name":"Farrell","geo_score":0.714,"cash":500,"id":"388","geo_precision":"zip"},"type":"Feature","geometry":{"type":"Point","coordinates":[-122.435732,37.79967]}},{"properties":{"zipcode":"94123","last name":"Farrell","geo_score":0.714,"cash":500,"id":"389","geo_precision":"zip"},"type":"Feature","geometry":{"type":"Point","coordinates":[-122.435732,37.79967]}},{"properties":{"zipcode":"94123","last name":"Sabharwal","geo_score":0.714,"cash":500,"id":"390","geo_precision":"zip"},"type":"Feature","geometry":{"type":"Point","coordinates":[-122.435732,37.79967]}},{"properties":{"zipcode":"94123","last name":"Ghisini","geo_score":0.714,"cash":200,"id":"391","geo_precision":"zip"},"type":"Feature","geometry":{"type":"Point","coordinates":[-122.435732,37.79967]}},{"properties":{"zipcode":"94123","last name":"Ornstil","geo_score":0.714,"cash":500,"id":"392","geo_precision":"zip"},"type":"Feature","geometry":{"type":"Point","coordinates":[-122.435732,37.79967]}},{"properties":{"zipcode":"94123","last name":"Gallivan","geo_score":0.714,"cash":400,"id":"393","geo_precision":"zip"},"type":"Feature","geometry":{"type":"Point","coordinates":[-122.435732,37.79967]}},{"properties":{"zipcode":"94123","last name":"Gorman","geo_score":0.714,"cash":250,"id":"394","geo_precision":"zip"},"type":"Feature","geometry":{"type":"Point","coordinates":[-122.435732,37.79967]}},{"properties":{"zipcode":"94123","last name":"Maionchi","geo_score":0.714,"cash":200,"id":"395","geo_precision":"zip"},"type":"Feature","geometry":{"type":"Point","coordinates":[-122.435732,37.79967]}},{"properties":{"zipcode":"94123","last name":"David","geo_score":0.714,"cash":100,"id":"396","geo_precision":"zip"},"type":"Feature","geometry":{"type":"Point","coordinates":[-122.435732,37.79967]}},{"properties":{"zipcode":"94123","last name":"Poole","geo_score":0.714,"cash":100,"id":"397","geo_precision":"zip"},"type":"Feature","geometry":{"type":"Point","coordinates":[-122.435732,37.79967]}},{"properties":{"zipcode":"94123","last name":"Werdel","geo_score":0.714,"cash":100,"id":"398","geo_precision":"zip"},"type":"Feature","geometry":{"type":"Point","coordinates":[-122.435732,37.79967]}},{"properties":{"zipcode":"94123","last name":"Gardner","geo_score":0.714,"cash":500,"id":"399","geo_precision":"zip"},"type":"Feature","geometry":{"type":"Point","coordinates":[-122.435732,37.79967]}},{"properties":{"zipcode":"94123","last name":"Punian","geo_score":0.714,"cash":250,"id":"400","geo_precision":"zip"},"type":"Feature","geometry":{"type":"Point","coordinates":[-122.435732,37.79967]}},{"properties":{"zipcode":"94123","last name":"Ungerleider","geo_score":0.714,"cash":500,"id":"401","geo_precision":"zip"},"type":"Feature","geometry":{"type":"Point","coordinates":[-122.435732,37.79967]}},{"properties":{"zipcode":"94123","last name":"Campbell","geo_score":0.714,"cash":500,"id":"402","geo_precision":"zip"},"type":"Feature","geometry":{"type":"Point","coordinates":[-122.435732,37.79967]}},{"properties":{"zipcode":"94123","last name":"Glynn","geo_score":0.714,"cash":100,"id":"403","geo_precision":"zip"},"type":"Feature","geometry":{"type":"Point","coordinates":[-122.435732,37.79967]}},{"properties":{"zipcode":"94123","last name":"Payne","geo_score":0.714,"cash":100,"id":"404","geo_precision":"zip"},"type":"Feature","geometry":{"type":"Point","coordinates":[-122.435732,37.79967]}},{"properties":{"zipcode":"94123","last name":"Houts","geo_score":0.714,"cash":100,"id":"405","geo_precision":"zip"},"type":"Feature","geometry":{"type":"Point","coordinates":[-122.435732,37.79967]}},{"properties":{"zipcode":"94123","last name":"Hubbard","geo_score":0.714,"cash":500,"id":"406","geo_precision":"zip"},"type":"Feature","geometry":{"type":"Point","coordinates":[-122.435732,37.79967]}},{"properties":{"zipcode":"94123","last name":"Farrell","geo_score":0.714,"cash":150,"id":"407","geo_precision":"zip"},"type":"Feature","geometry":{"type":"Point","coordinates":[-122.435732,37.79967]}},{"properties":{"zipcode":"94123","last name":"Farrell","geo_score":0.714,"cash":150,"id":"408","geo_precision":"zip"},"type":"Feature","geometry":{"type":"Point","coordinates":[-122.435732,37.79967]}},{"properties":{"zipcode":"94123","last name":"La Rocca","geo_score":0.714,"cash":100,"id":"409","geo_precision":"zip"},"type":"Feature","geometry":{"type":"Point","coordinates":[-122.435732,37.79967]}},{"properties":{"zipcode":"94123","last name":"Cucalon","geo_score":0.714,"cash":100,"id":"410","geo_precision":"zip"},"type":"Feature","geometry":{"type":"Point","coordinates":[-122.435732,37.79967]}},{"properties":{"zipcode":"94123","last name":"Benedetti","geo_score":0.714,"cash":100,"id":"411","geo_precision":"zip"},"type":"Feature","geometry":{"type":"Point","coordinates":[-122.435732,37.79967]}},{"properties":{"zipcode":"94123","last name":"Alioto","geo_score":0.714,"cash":500,"id":"412","geo_precision":"zip"},"type":"Feature","geometry":{"type":"Point","coordinates":[-122.435732,37.79967]}},{"properties":{"zipcode":"94123","last name":"Conway","geo_score":0.714,"cash":500,"id":"413","geo_precision":"zip"},"type":"Feature","geometry":{"type":"Point","coordinates":[-122.435732,37.79967]}},{"properties":{"zipcode":"94123","last name":"Conway","geo_score":0.714,"cash":500,"id":"414","geo_precision":"zip"},"type":"Feature","geometry":{"type":"Point","coordinates":[-122.435732,37.79967]}},{"properties":{"zipcode":"94123","last name":"Schlarb","geo_score":0.714,"cash":200,"id":"415","geo_precision":"zip"},"type":"Feature","geometry":{"type":"Point","coordinates":[-122.435732,37.79967]}},{"properties":{"zipcode":"94123","last name":"Cannata","geo_score":0.714,"cash":500,"id":"416","geo_precision":"zip"},"type":"Feature","geometry":{"type":"Point","coordinates":[-122.435732,37.79967]}},{"properties":{"zipcode":"94123","last name":"Andrews, Jr.","geo_score":0.714,"cash":100,"id":"417","geo_precision":"zip"},"type":"Feature","geometry":{"type":"Point","coordinates":[-122.435732,37.79967]}},{"properties":{"zipcode":"94123","last name":"Gervasi","geo_score":0.714,"cash":250,"id":"418","geo_precision":"zip"},"type":"Feature","geometry":{"type":"Point","coordinates":[-122.435732,37.79967]}},{"properties":{"zipcode":"94123","last name":"Lippi","geo_score":0.714,"cash":500,"id":"419","geo_precision":"zip"},"type":"Feature","geometry":{"type":"Point","coordinates":[-122.435732,37.79967]}},{"properties":{"zipcode":"94123","last name":"Witherill","geo_score":0.714,"cash":250,"id":"420","geo_precision":"zip"},"type":"Feature","geometry":{"type":"Point","coordinates":[-122.435732,37.79967]}},{"properties":{"zipcode":"94123","last name":"Mindel","geo_score":0.714,"cash":100,"id":"421","geo_precision":"zip"},"type":"Feature","geometry":{"type":"Point","coordinates":[-122.435732,37.79967]}},{"properties":{"zipcode":"94123","last name":"Riehle","geo_score":0.714,"cash":150,"id":"422","geo_precision":"zip"},"type":"Feature","geometry":{"type":"Point","coordinates":[-122.435732,37.79967]}},{"properties":{"zipcode":"94123","last name":"Ames","geo_score":0.714,"cash":100,"id":"423","geo_precision":"zip"},"type":"Feature","geometry":{"type":"Point","coordinates":[-122.435732,37.79967]}},{"properties":{"zipcode":"94123","last name":"Cannata","geo_score":0.714,"cash":50,"id":"424","geo_precision":"zip"},"type":"Feature","geometry":{"type":"Point","coordinates":[-122.435732,37.79967]}},{"properties":{"zipcode":"94123","last name":"Stamatopoulos","geo_score":0.714,"cash":500,"id":"425","geo_precision":"zip"},"type":"Feature","geometry":{"type":"Point","coordinates":[-122.435732,37.79967]}},{"properties":{"zipcode":"94123","last name":"Bankovitch","geo_score":0.714,"cash":200,"id":"426","geo_precision":"zip"},"type":"Feature","geometry":{"type":"Point","coordinates":[-122.435732,37.79967]}},{"properties":{"zipcode":"94123","last name":"Stefani","geo_score":0.714,"cash":100,"id":"427","geo_precision":"zip"},"type":"Feature","geometry":{"type":"Point","coordinates":[-122.435732,37.79967]}},{"properties":{"zipcode":"94123","last name":"Gridley","geo_score":0.714,"cash":200,"id":"428","geo_precision":"zip"},"type":"Feature","geometry":{"type":"Point","coordinates":[-122.435732,37.79967]}},{"properties":{"zipcode":"94123","last name":"Silverman","geo_score":0.714,"cash":250,"id":"429","geo_precision":"zip"},"type":"Feature","geometry":{"type":"Point","coordinates":[-122.435732,37.79967]}},{"properties":{"zipcode":"94123","last name":"Houts","geo_score":0.714,"cash":100,"id":"430","geo_precision":"zip"},"type":"Feature","geometry":{"type":"Point","coordinates":[-122.435732,37.79967]}},{"properties":{"zipcode":"94123","last name":"Alioto","geo_score":0.714,"cash":500,"id":"431","geo_precision":"zip"},"type":"Feature","geometry":{"type":"Point","coordinates":[-122.435732,37.79967]}},{"properties":{"zipcode":"94123","last name":"Conner","geo_score":0.714,"cash":250,"id":"432","geo_precision":"zip"},"type":"Feature","geometry":{"type":"Point","coordinates":[-122.435732,37.79967]}},{"properties":{"zipcode":"94123","last name":"Kelley","geo_score":0.714,"cash":500,"id":"433","geo_precision":"zip"},"type":"Feature","geometry":{"type":"Point","coordinates":[-122.435732,37.79967]}},{"properties":{"zipcode":"94123","last name":"Seropan Enterprises","geo_score":0.714,"cash":250,"id":"434","geo_precision":"zip"},"type":"Feature","geometry":{"type":"Point","coordinates":[-122.435732,37.79967]}},{"properties":{"zipcode":"94123","last name":"Salma","geo_score":0.714,"cash":100,"id":"435","geo_precision":"zip"},"type":"Feature","geometry":{"type":"Point","coordinates":[-122.435732,37.79967]}},{"properties":{"zipcode":"94123","last name":"Boragno","geo_score":0.714,"cash":100,"id":"436","geo_precision":"zip"},"type":"Feature","geometry":{"type":"Point","coordinates":[-122.435732,37.79967]}},{"properties":{"zipcode":"94123","last name":"Saveri","geo_score":0.714,"cash":500,"id":"437","geo_precision":"zip"},"type":"Feature","geometry":{"type":"Point","coordinates":[-122.435732,37.79967]}},{"properties":{"zipcode":"94123","last name":"Stefani","geo_score":0.714,"cash":25,"id":"438","geo_precision":"zip"},"type":"Feature","geometry":{"type":"Point","coordinates":[-122.435732,37.79967]}},{"properties":{"zipcode":"94123","last name":"Mohun","geo_score":0.714,"cash":100,"id":"439","geo_precision":"zip"},"type":"Feature","geometry":{"type":"Point","coordinates":[-122.435732,37.79967]}},{"properties":{"zipcode":"94123","last name":"Yakominich","geo_score":0.714,"cash":200,"id":"440","geo_precision":"zip"},"type":"Feature","geometry":{"type":"Point","coordinates":[-122.435732,37.79967]}},{"properties":{"zipcode":"94123","last name":"Novich","geo_score":0.714,"cash":500,"id":"441","geo_precision":"zip"},"type":"Feature","geometry":{"type":"Point","coordinates":[-122.435732,37.79967]}},{"properties":{"zipcode":"94124","last name":"Booker","geo_score":0.714,"cash":100,"id":"442","geo_precision":"zip"},"type":"Feature","geometry":{"type":"Point","coordinates":[-122.382857,37.73123]}},{"properties":{"zipcode":"94124","last name":"Sheppard","geo_score":0.714,"cash":150,"id":"443","geo_precision":"zip"},"type":"Feature","geometry":{"type":"Point","coordinates":[-122.382857,37.73123]}},{"properties":{"zipcode":"94127","last name":"Murray","geo_score":0.714,"cash":100,"id":"444","geo_precision":"zip"},"type":"Feature","geometry":{"type":"Point","coordinates":[-122.458632,37.73403]}},{"properties":{"zipcode":"94127","last name":"Nicolai","geo_score":0.714,"cash":150,"id":"445","geo_precision":"zip"},"type":"Feature","geometry":{"type":"Point","coordinates":[-122.458632,37.73403]}},{"properties":{"zipcode":"94127","last name":"Douglas","geo_score":0.714,"cash":250,"id":"446","geo_precision":"zip"},"type":"Feature","geometry":{"type":"Point","coordinates":[-122.458632,37.73403]}},{"properties":{"zipcode":"94127","last name":"Farrah","geo_score":0.714,"cash":100,"id":"447","geo_precision":"zip"},"type":"Feature","geometry":{"type":"Point","coordinates":[-122.458632,37.73403]}},{"properties":{"zipcode":"94127","last name":"Sangiacomo","geo_score":0.714,"cash":500,"id":"448","geo_precision":"zip"},"type":"Feature","geometry":{"type":"Point","coordinates":[-122.458632,37.73403]}},{"properties":{"zipcode":"94127","last name":"Toboni","geo_score":0.714,"cash":500,"id":"449","geo_precision":"zip"},"type":"Feature","geometry":{"type":"Point","coordinates":[-122.458632,37.73403]}},{"properties":{"zipcode":"94127","last name":"Toboni","geo_score":0.714,"cash":500,"id":"450","geo_precision":"zip"},"type":"Feature","geometry":{"type":"Point","coordinates":[-122.458632,37.73403]}},{"properties":{"zipcode":"94127","last name":"Bloom","geo_score":0.714,"cash":100,"id":"451","geo_precision":"zip"},"type":"Feature","geometry":{"type":"Point","coordinates":[-122.458632,37.73403]}},{"properties":{"zipcode":"94127","last name":"Monfredini","geo_score":0.714,"cash":100,"id":"452","geo_precision":"zip"},"type":"Feature","geometry":{"type":"Point","coordinates":[-122.458632,37.73403]}},{"properties":{"zipcode":"94127","last name":"Papalexopoulos","geo_score":0.714,"cash":100,"id":"453","geo_precision":"zip"},"type":"Feature","geometry":{"type":"Point","coordinates":[-122.458632,37.73403]}},{"properties":{"zipcode":"94127","last name":"Moore","geo_score":0.714,"cash":500,"id":"454","geo_precision":"zip"},"type":"Feature","geometry":{"type":"Point","coordinates":[-122.458632,37.73403]}},{"properties":{"zipcode":"94127","last name":"Moore","geo_score":0.714,"cash":500,"id":"455","geo_precision":"zip"},"type":"Feature","geometry":{"type":"Point","coordinates":[-122.458632,37.73403]}},{"properties":{"zipcode":"94127","last name":"Revetria","geo_score":0.714,"cash":100,"id":"456","geo_precision":"zip"},"type":"Feature","geometry":{"type":"Point","coordinates":[-122.458632,37.73403]}},{"properties":{"zipcode":"94127","last name":"Revetria","geo_score":0.714,"cash":100,"id":"457","geo_precision":"zip"},"type":"Feature","geometry":{"type":"Point","coordinates":[-122.458632,37.73403]}},{"properties":{"zipcode":"94127","last name":"Monfredini","geo_score":0.714,"cash":100,"id":"458","geo_precision":"zip"},"type":"Feature","geometry":{"type":"Point","coordinates":[-122.458632,37.73403]}},{"properties":{"zipcode":"94127","last name":"Moore","geo_score":0.714,"cash":200,"id":"459","geo_precision":"zip"},"type":"Feature","geometry":{"type":"Point","coordinates":[-122.458632,37.73403]}},{"properties":{"zipcode":"94127","last name":"Moore","geo_score":0.714,"cash":-200,"id":"460","geo_precision":"zip"},"type":"Feature","geometry":{"type":"Point","coordinates":[-122.458632,37.73403]}},{"properties":{"zipcode":"94127","last name":"Toboni, IV","geo_score":0.714,"cash":100,"id":"461","geo_precision":"zip"},"type":"Feature","geometry":{"type":"Point","coordinates":[-122.458632,37.73403]}},{"properties":{"zipcode":"94127","last name":"Lahren","geo_score":0.714,"cash":200,"id":"462","geo_precision":"zip"},"type":"Feature","geometry":{"type":"Point","coordinates":[-122.458632,37.73403]}},{"properties":{"zipcode":"94127","last name":"Ryan, Jr.","geo_score":0.714,"cash":500,"id":"463","geo_precision":"zip"},"type":"Feature","geometry":{"type":"Point","coordinates":[-122.458632,37.73403]}},{"properties":{"zipcode":"94127","last name":"O'Keefe, Jr.","geo_score":0.714,"cash":500,"id":"464","geo_precision":"zip"},"type":"Feature","geometry":{"type":"Point","coordinates":[-122.458632,37.73403]}},{"properties":{"zipcode":"94127","last name":"Farrah","geo_score":0.714,"cash":500,"id":"465","geo_precision":"zip"},"type":"Feature","geometry":{"type":"Point","coordinates":[-122.458632,37.73403]}},{"properties":{"zipcode":"94127","last name":"Peterson","geo_score":0.714,"cash":250,"id":"466","geo_precision":"zip"},"type":"Feature","geometry":{"type":"Point","coordinates":[-122.458632,37.73403]}},{"properties":{"zipcode":"94127","last name":"Nicolai","geo_score":0.714,"cash":250,"id":"467","geo_precision":"zip"},"type":"Feature","geometry":{"type":"Point","coordinates":[-122.458632,37.73403]}},{"properties":{"zipcode":"94127","last name":"Burke","geo_score":0.714,"cash":100,"id":"468","geo_precision":"zip"},"type":"Feature","geometry":{"type":"Point","coordinates":[-122.458632,37.73403]}},{"properties":{"zipcode":"94127","last name":"Costello","geo_score":0.714,"cash":500,"id":"469","geo_precision":"zip"},"type":"Feature","geometry":{"type":"Point","coordinates":[-122.458632,37.73403]}},{"properties":{"zipcode":"94127","last name":"Nicolai","geo_score":0.714,"cash":100,"id":"470","geo_precision":"zip"},"type":"Feature","geometry":{"type":"Point","coordinates":[-122.458632,37.73403]}},{"properties":{"zipcode":"94127","last name":"Sangiacomo","geo_score":0.714,"cash":500,"id":"471","geo_precision":"zip"},"type":"Feature","geometry":{"type":"Point","coordinates":[-122.458632,37.73403]}},{"properties":{"zipcode":"94127","last name":"Sangiacomo","geo_score":0.714,"cash":250,"id":"472","geo_precision":"zip"},"type":"Feature","geometry":{"type":"Point","coordinates":[-122.458632,37.73403]}},{"properties":{"zipcode":"94127","last name":"Clark","geo_score":0.714,"cash":100,"id":"473","geo_precision":"zip"},"type":"Feature","geometry":{"type":"Point","coordinates":[-122.458632,37.73403]}},{"properties":{"zipcode":"94127","last name":"Monfredini","geo_score":0.714,"cash":250,"id":"474","geo_precision":"zip"},"type":"Feature","geometry":{"type":"Point","coordinates":[-122.458632,37.73403]}},{"properties":{"zipcode":"94127","last name":"Merin-O'Glove","geo_score":0.714,"cash":100,"id":"475","geo_precision":"zip"},"type":"Feature","geometry":{"type":"Point","coordinates":[-122.458632,37.73403]}},{"properties":{"zipcode":"94127","last name":"Squeri","geo_score":0.714,"cash":100,"id":"476","geo_precision":"zip"},"type":"Feature","geometry":{"type":"Point","coordinates":[-122.458632,37.73403]}},{"properties":{"zipcode":"94127","last name":"Spiers","geo_score":0.714,"cash":100,"id":"477","geo_precision":"zip"},"type":"Feature","geometry":{"type":"Point","coordinates":[-122.458632,37.73403]}},{"properties":{"zipcode":"94127","last name":"Legarza","geo_score":0.714,"cash":100,"id":"478","geo_precision":"zip"},"type":"Feature","geometry":{"type":"Point","coordinates":[-122.458632,37.73403]}},{"properties":{"zipcode":"94127","last name":"Farrah","geo_score":0.714,"cash":100,"id":"479","geo_precision":"zip"},"type":"Feature","geometry":{"type":"Point","coordinates":[-122.458632,37.73403]}},{"properties":{"zipcode":"94127","last name":"Nayman","geo_score":0.714,"cash":100,"id":"480","geo_precision":"zip"},"type":"Feature","geometry":{"type":"Point","coordinates":[-122.458632,37.73403]}},{"properties":{"zipcode":"94127","last name":"O'Meara, III","geo_score":0.714,"cash":250,"id":"481","geo_precision":"zip"},"type":"Feature","geometry":{"type":"Point","coordinates":[-122.458632,37.73403]}},{"properties":{"zipcode":"94127","last name":"Ikeda","geo_score":0.714,"cash":500,"id":"482","geo_precision":"zip"},"type":"Feature","geometry":{"type":"Point","coordinates":[-122.458632,37.73403]}},{"properties":{"zipcode":"94127","last name":"Papalexopoulos","geo_score":0.714,"cash":100,"id":"483","geo_precision":"zip"},"type":"Feature","geometry":{"type":"Point","coordinates":[-122.458632,37.73403]}},{"properties":{"zipcode":"94127","last name":"Ragland","geo_score":0.714,"cash":100,"id":"484","geo_precision":"zip"},"type":"Feature","geometry":{"type":"Point","coordinates":[-122.458632,37.73403]}},{"properties":{"zipcode":"94127","last name":"Cronan","geo_score":0.714,"cash":200,"id":"485","geo_precision":"zip"},"type":"Feature","geometry":{"type":"Point","coordinates":[-122.458632,37.73403]}},{"properties":{"zipcode":"94127","last name":"Rossi","geo_score":0.714,"cash":500,"id":"486","geo_precision":"zip"},"type":"Feature","geometry":{"type":"Point","coordinates":[-122.458632,37.73403]}},{"properties":{"zipcode":"94127","last name":"Sweet","geo_score":0.714,"cash":250,"id":"487","geo_precision":"zip"},"type":"Feature","geometry":{"type":"Point","coordinates":[-122.458632,37.73403]}},{"properties":{"zipcode":"94127","last name":"Kearney","geo_score":0.714,"cash":100,"id":"488","geo_precision":"zip"},"type":"Feature","geometry":{"type":"Point","coordinates":[-122.458632,37.73403]}},{"properties":{"zipcode":"94127","last name":"Kim","geo_score":0.714,"cash":100,"id":"489","geo_precision":"zip"},"type":"Feature","geometry":{"type":"Point","coordinates":[-122.458632,37.73403]}},{"properties":{"zipcode":"94127","last name":"Kelly","geo_score":0.714,"cash":200,"id":"490","geo_precision":"zip"},"type":"Feature","geometry":{"type":"Point","coordinates":[-122.458632,37.73403]}},{"properties":{"zipcode":"94127","last name":"Toboni, IV","geo_score":0.714,"cash":50,"id":"491","geo_precision":"zip"},"type":"Feature","geometry":{"type":"Point","coordinates":[-122.458632,37.73403]}},{"properties":{"zipcode":"94127","last name":"Merin-O'Glove","geo_score":0.714,"cash":100,"id":"492","geo_precision":"zip"},"type":"Feature","geometry":{"type":"Point","coordinates":[-122.458632,37.73403]}},{"properties":{"zipcode":"94127","last name":"Callan","geo_score":0.714,"cash":500,"id":"493","geo_precision":"zip"},"type":"Feature","geometry":{"type":"Point","coordinates":[-122.458632,37.73403]}},{"properties":{"zipcode":"94127","last name":"Sher","geo_score":0.714,"cash":500,"id":"494","geo_precision":"zip"},"type":"Feature","geometry":{"type":"Point","coordinates":[-122.458632,37.73403]}},{"properties":{"zipcode":"94127","last name":"Callan","geo_score":0.714,"cash":200,"id":"495","geo_precision":"zip"},"type":"Feature","geometry":{"type":"Point","coordinates":[-122.458632,37.73403]}},{"properties":{"zipcode":"94127","last name":"Cronan","geo_score":0.714,"cash":250,"id":"496","geo_precision":"zip"},"type":"Feature","geometry":{"type":"Point","coordinates":[-122.458632,37.73403]}},{"properties":{"zipcode":"94127","last name":"Farris","geo_score":0.714,"cash":250,"id":"497","geo_precision":"zip"},"type":"Feature","geometry":{"type":"Point","coordinates":[-122.458632,37.73403]}},{"properties":{"zipcode":"94127","last name":"Lancellotti","geo_score":0.714,"cash":100,"id":"498","geo_precision":"zip"},"type":"Feature","geometry":{"type":"Point","coordinates":[-122.458632,37.73403]}},{"properties":{"zipcode":"94127","last name":"Donohoe","geo_score":0.714,"cash":100,"id":"499","geo_precision":"zip"},"type":"Feature","geometry":{"type":"Point","coordinates":[-122.458632,37.73403]}},{"properties":{"zipcode":"94127","last name":"Ikeda","geo_score":0.714,"cash":500,"id":"500","geo_precision":"zip"},"type":"Feature","geometry":{"type":"Point","coordinates":[-122.458632,37.73403]}},{"properties":{"zipcode":"94127","last name":"Renstrom","geo_score":0.714,"cash":500,"id":"501","geo_precision":"zip"},"type":"Feature","geometry":{"type":"Point","coordinates":[-122.458632,37.73403]}},{"properties":{"zipcode":"94127","last name":"Farrah","geo_score":0.714,"cash":500,"id":"502","geo_precision":"zip"},"type":"Feature","geometry":{"type":"Point","coordinates":[-122.458632,37.73403]}},{"properties":{"zipcode":"94127","last name":"Goodman","geo_score":0.714,"cash":250,"id":"503","geo_precision":"zip"},"type":"Feature","geometry":{"type":"Point","coordinates":[-122.458632,37.73403]}},{"properties":{"zipcode":"94127","last name":"Nicolai","geo_score":0.714,"cash":100,"id":"504","geo_precision":"zip"},"type":"Feature","geometry":{"type":"Point","coordinates":[-122.458632,37.73403]}},{"properties":{"zipcode":"94127","last name":"Provenzale","geo_score":0.714,"cash":250,"id":"505","geo_precision":"zip"},"type":"Feature","geometry":{"type":"Point","coordinates":[-122.458632,37.73403]}},{"properties":{"zipcode":"94127","last name":"Cirillo","geo_score":0.714,"cash":250,"id":"506","geo_precision":"zip"},"type":"Feature","geometry":{"type":"Point","coordinates":[-122.458632,37.73403]}},{"properties":{"zipcode":"94129","last name":"Leider","geo_score":0.714,"cash":500,"id":"507","geo_precision":"zip"},"type":"Feature","geometry":{"type":"Point","coordinates":[-122.473583,37.801596]}},{"properties":{"zipcode":"94129","last name":"Wendt","geo_score":0.714,"cash":100,"id":"508","geo_precision":"zip"},"type":"Feature","geometry":{"type":"Point","coordinates":[-122.473583,37.801596]}},{"properties":{"zipcode":"94129","last name":"Leider","geo_score":0.714,"cash":100,"id":"509","geo_precision":"zip"},"type":"Feature","geometry":{"type":"Point","coordinates":[-122.473583,37.801596]}},{"properties":{"zipcode":"94129","last name":"Rike","geo_score":0.714,"cash":100,"id":"510","geo_precision":"zip"},"type":"Feature","geometry":{"type":"Point","coordinates":[-122.473583,37.801596]}},{"properties":{"zipcode":"94131","last name":"Bonthron","geo_score":0.714,"cash":200,"id":"511","geo_precision":"zip"},"type":"Feature","geometry":{"type":"Point","coordinates":[-122.443182,37.74363]}},{"properties":{"zipcode":"94131","last name":"Friedberg","geo_score":0.714,"cash":100,"id":"512","geo_precision":"zip"},"type":"Feature","geometry":{"type":"Point","coordinates":[-122.443182,37.74363]}},{"properties":{"zipcode":"94131","last name":"Murad","geo_score":0.714,"cash":250,"id":"513","geo_precision":"zip"},"type":"Feature","geometry":{"type":"Point","coordinates":[-122.443182,37.74363]}},{"properties":{"zipcode":"94131","last name":"Boffi","geo_score":0.714,"cash":100,"id":"514","geo_precision":"zip"},"type":"Feature","geometry":{"type":"Point","coordinates":[-122.443182,37.74363]}},{"properties":{"zipcode":"94131","last name":"Gibran","geo_score":0.714,"cash":100,"id":"515","geo_precision":"zip"},"type":"Feature","geometry":{"type":"Point","coordinates":[-122.443182,37.74363]}},{"properties":{"zipcode":"94131","last name":"Mills","geo_score":0.714,"cash":200,"id":"516","geo_precision":"zip"},"type":"Feature","geometry":{"type":"Point","coordinates":[-122.443182,37.74363]}},{"properties":{"zipcode":"94131","last name":"Ghotbi","geo_score":0.714,"cash":500,"id":"517","geo_precision":"zip"},"type":"Feature","geometry":{"type":"Point","coordinates":[-122.443182,37.74363]}},{"properties":{"zipcode":"94131","last name":"Martin","geo_score":0.714,"cash":200,"id":"518","geo_precision":"zip"},"type":"Feature","geometry":{"type":"Point","coordinates":[-122.443182,37.74363]}},{"properties":{"zipcode":"94131","last name":"Cain","geo_score":0.714,"cash":250,"id":"519","geo_precision":"zip"},"type":"Feature","geometry":{"type":"Point","coordinates":[-122.443182,37.74363]}},{"properties":{"zipcode":"94131","last name":"Perkins","geo_score":0.714,"cash":100,"id":"520","geo_precision":"zip"},"type":"Feature","geometry":{"type":"Point","coordinates":[-122.443182,37.74363]}},{"properties":{"zipcode":"94131","last name":"Murad","geo_score":0.714,"cash":250,"id":"521","geo_precision":"zip"},"type":"Feature","geometry":{"type":"Point","coordinates":[-122.443182,37.74363]}},{"properties":{"zipcode":"94131","last name":"Mills","geo_score":0.714,"cash":25,"id":"522","geo_precision":"zip"},"type":"Feature","geometry":{"type":"Point","coordinates":[-122.443182,37.74363]}},{"properties":{"zipcode":"94131","last name":"Mills","geo_score":0.714,"cash":100,"id":"523","geo_precision":"zip"},"type":"Feature","geometry":{"type":"Point","coordinates":[-122.443182,37.74363]}},{"properties":{"zipcode":"94131","last name":"Karras","geo_score":0.714,"cash":250,"id":"524","geo_precision":"zip"},"type":"Feature","geometry":{"type":"Point","coordinates":[-122.443182,37.74363]}},{"properties":{"zipcode":"94132","last name":"Chrisman","geo_score":0.714,"cash":200,"id":"525","geo_precision":"zip"},"type":"Feature","geometry":{"type":"Point","coordinates":[-122.482483,37.722631]}},{"properties":{"zipcode":"94132","last name":"Mazzola, Jr.","geo_score":0.714,"cash":500,"id":"526","geo_precision":"zip"},"type":"Feature","geometry":{"type":"Point","coordinates":[-122.482483,37.722631]}},{"properties":{"zipcode":"94132","last name":"Guzzetta","geo_score":0.714,"cash":500,"id":"527","geo_precision":"zip"},"type":"Feature","geometry":{"type":"Point","coordinates":[-122.482483,37.722631]}},{"properties":{"zipcode":"94132","last name":"Antonini","geo_score":0.714,"cash":100,"id":"528","geo_precision":"zip"},"type":"Feature","geometry":{"type":"Point","coordinates":[-122.482483,37.722631]}},{"properties":{"zipcode":"94132","last name":"Rizzo","geo_score":0.714,"cash":500,"id":"529","geo_precision":"zip"},"type":"Feature","geometry":{"type":"Point","coordinates":[-122.482483,37.722631]}},{"properties":{"zipcode":"94132","last name":"Rizzo","geo_score":0.714,"cash":500,"id":"530","geo_precision":"zip"},"type":"Feature","geometry":{"type":"Point","coordinates":[-122.482483,37.722631]}},{"properties":{"zipcode":"94132","last name":"Vaisberg","geo_score":0.714,"cash":100,"id":"531","geo_precision":"zip"},"type":"Feature","geometry":{"type":"Point","coordinates":[-122.482483,37.722631]}},{"properties":{"zipcode":"94132","last name":"Davies","geo_score":0.714,"cash":200,"id":"532","geo_precision":"zip"},"type":"Feature","geometry":{"type":"Point","coordinates":[-122.482483,37.722631]}},{"properties":{"zipcode":"94132","last name":"Duggan","geo_score":0.714,"cash":500,"id":"533","geo_precision":"zip"},"type":"Feature","geometry":{"type":"Point","coordinates":[-122.482483,37.722631]}},{"properties":{"zipcode":"94132","last name":"Cerchiai","geo_score":0.714,"cash":100,"id":"534","geo_precision":"zip"},"type":"Feature","geometry":{"type":"Point","coordinates":[-122.482483,37.722631]}},{"properties":{"zipcode":"94132","last name":"Papa","geo_score":0.714,"cash":100,"id":"535","geo_precision":"zip"},"type":"Feature","geometry":{"type":"Point","coordinates":[-122.482483,37.722631]}},{"properties":{"zipcode":"94132","last name":"Chrisman","geo_score":0.714,"cash":75,"id":"536","geo_precision":"zip"},"type":"Feature","geometry":{"type":"Point","coordinates":[-122.482483,37.722631]}},{"properties":{"zipcode":"94133","last name":"Bugatto","geo_score":0.714,"cash":500,"id":"537","geo_precision":"zip"},"type":"Feature","geometry":{"type":"Point","coordinates":[-122.412193,37.805762]}},{"properties":{"zipcode":"94133","last name":"McDonell","geo_score":0.714,"cash":500,"id":"538","geo_precision":"zip"},"type":"Feature","geometry":{"type":"Point","coordinates":[-122.412193,37.805762]}},{"properties":{"zipcode":"94133","last name":"McDonell","geo_score":0.714,"cash":500,"id":"539","geo_precision":"zip"},"type":"Feature","geometry":{"type":"Point","coordinates":[-122.412193,37.805762]}},{"properties":{"zipcode":"94133","last name":"Pier 39 Limited Partnership","geo_score":0.714,"cash":500,"id":"540","geo_precision":"zip"},"type":"Feature","geometry":{"type":"Point","coordinates":[-122.412193,37.805762]}},{"properties":{"zipcode":"94133","last name":"Gumina","geo_score":0.714,"cash":100,"id":"541","geo_precision":"zip"},"type":"Feature","geometry":{"type":"Point","coordinates":[-122.412193,37.805762]}},{"properties":{"zipcode":"94133","last name":"Stanton","geo_score":0.714,"cash":350,"id":"542","geo_precision":"zip"},"type":"Feature","geometry":{"type":"Point","coordinates":[-122.412193,37.805762]}},{"properties":{"zipcode":"94133","last name":"Baker","geo_score":0.714,"cash":500,"id":"543","geo_precision":"zip"},"type":"Feature","geometry":{"type":"Point","coordinates":[-122.412193,37.805762]}},{"properties":{"zipcode":"94133","last name":"Klotz","geo_score":0.714,"cash":500,"id":"544","geo_precision":"zip"},"type":"Feature","geometry":{"type":"Point","coordinates":[-122.412193,37.805762]}},{"properties":{"zipcode":"94133","last name":"Bowles","geo_score":0.714,"cash":100,"id":"545","geo_precision":"zip"},"type":"Feature","geometry":{"type":"Point","coordinates":[-122.412193,37.805762]}},{"properties":{"zipcode":"94133","last name":"Skelton","geo_score":0.714,"cash":500,"id":"546","geo_precision":"zip"},"type":"Feature","geometry":{"type":"Point","coordinates":[-122.412193,37.805762]}},{"properties":{"zipcode":"94133","last name":"Selbach","geo_score":0.714,"cash":500,"id":"547","geo_precision":"zip"},"type":"Feature","geometry":{"type":"Point","coordinates":[-122.412193,37.805762]}},{"properties":{"zipcode":"94133","last name":"Cohen","geo_score":0.714,"cash":325,"id":"548","geo_precision":"zip"},"type":"Feature","geometry":{"type":"Point","coordinates":[-122.412193,37.805762]}},{"properties":{"zipcode":"94133","last name":"Nelle, Jr.","geo_score":0.714,"cash":200,"id":"549","geo_precision":"zip"},"type":"Feature","geometry":{"type":"Point","coordinates":[-122.412193,37.805762]}},{"properties":{"zipcode":"94133","last name":"Foreman &amp; Brasso","geo_score":0.714,"cash":500,"id":"550","geo_precision":"zip"},"type":"Feature","geometry":{"type":"Point","coordinates":[-122.412193,37.805762]}},{"properties":{"zipcode":"94133","last name":"Renstrom","geo_score":0.714,"cash":200,"id":"551","geo_precision":"zip"},"type":"Feature","geometry":{"type":"Point","coordinates":[-122.412193,37.805762]}},{"properties":{"zipcode":"94133","last name":"Utrecht","geo_score":0.714,"cash":500,"id":"552","geo_precision":"zip"},"type":"Feature","geometry":{"type":"Point","coordinates":[-122.412193,37.805762]}},{"properties":{"zipcode":"94133","last name":"Crocker","geo_score":0.714,"cash":250,"id":"553","geo_precision":"zip"},"type":"Feature","geometry":{"type":"Point","coordinates":[-122.412193,37.805762]}},{"properties":{"zipcode":"94133","last name":"La Tour","geo_score":0.714,"cash":250,"id":"554","geo_precision":"zip"},"type":"Feature","geometry":{"type":"Point","coordinates":[-122.412193,37.805762]}},{"properties":{"zipcode":"94133","last name":"Anderlini","geo_score":0.714,"cash":250,"id":"555","geo_precision":"zip"},"type":"Feature","geometry":{"type":"Point","coordinates":[-122.412193,37.805762]}},{"properties":{"zipcode":"94133","last name":"Shaheen","geo_score":0.714,"cash":100,"id":"556","geo_precision":"zip"},"type":"Feature","geometry":{"type":"Point","coordinates":[-122.412193,37.805762]}},{"properties":{"zipcode":"94133","last name":"Ward","geo_score":0.714,"cash":100,"id":"557","geo_precision":"zip"},"type":"Feature","geometry":{"type":"Point","coordinates":[-122.412193,37.805762]}},{"properties":{"zipcode":"94133","last name":"Brandenburger","geo_score":0.714,"cash":100,"id":"558","geo_precision":"zip"},"type":"Feature","geometry":{"type":"Point","coordinates":[-122.412193,37.805762]}},{"properties":{"zipcode":"94133","last name":"Flynn","geo_score":0.714,"cash":500,"id":"559","geo_precision":"zip"},"type":"Feature","geometry":{"type":"Point","coordinates":[-122.412193,37.805762]}},{"properties":{"zipcode":"94133","last name":"Anderlini","geo_score":0.714,"cash":250,"id":"560","geo_precision":"zip"},"type":"Feature","geometry":{"type":"Point","coordinates":[-122.412193,37.805762]}},{"properties":{"zipcode":"94134","last name":"Herneff-Cohen","geo_score":0.714,"cash":100,"id":"561","geo_precision":"zip"},"type":"Feature","geometry":{"type":"Point","coordinates":[-122.410832,37.72168]}}],"is_temporal":false,"author":{"url":"","metadata":"","contact_name":"","contact_address":"","source":"","contact_phone":""},"source":"","pagination":{"sort":null,"start":0,"total":562,"limit":1000000},"state":"complete","tags":"","published":"2014-08-12T23:45:04-04:00","id":161710}