{"type":"FeatureCollection","data_type":"Dataset","url_type":null,"permissions":[{"permissions":{"download":true,"view":true},"group_id":"everyone"}],"classification":null,"title":"COS Foreclosure Feb 2009","count":293,"stream_id":16216,"contributor":{"url":"http://geocommons.com/users/8589","name":"satspy"},"data_attributes":null,"calculation_params":null,"icon_link":null,"link":"http://geocommons.com/overlays/16216.json","extent":[-105.224,38.2836,-102.482,39.7267],"geometry_types":["point"],"unique_name":null,"name":"COS Foreclosure Feb 2009","feature_count":293,"description":"","next_feature":null,"is_raster":false,"short_classification":"Y","stats":{"zipcode":{"max":81008.0,"mean":80874.1198630137,"variance":20837.3360989502,"stdev":144.351432618281,"min":80132.0,"median":80911.0},"geo_score":{"max":0.902,"mean":0.792382252559723,"variance":0.030635278040114,"stdev":0.175029363365448,"min":0.0,"median":0.902}},"features":[{"properties":{"city":"Colorado Springs","name":"1005 Norwood Ave Colorado Springs CO 80906","zipcode":80906.0,"geo_score":0.902,"id":"a64k20oz9mnn","geo_precision":"range","address":"1005 Norwood Ave","state":"CO"},"type":"Feature","geometry":{"type":"Point","coordinates":[-104.816199,38.799929]}},{"properties":{"city":"Colorado Springs","name":"1007 North Chelton Road Colorado Springs CO 80909","zipcode":80909.0,"geo_score":0.902,"id":"a64k2100qc6j","geo_precision":"range","address":"1007 North Chelton Road","state":"CO"},"type":"Feature","geometry":{"type":"Point","coordinates":[-104.766573,38.84713]}},{"properties":{"city":"COLORADO SPRINGS","name":"1022 SOUTH TEJON STREET COLORADO SPRINGS CO 80903","zipcode":80903.0,"geo_score":0.902,"id":"a64k20rr8ify","geo_precision":"range","address":"1022 SOUTH TEJON STREET","state":"CO"},"type":"Feature","geometry":{"type":"Point","coordinates":[-104.824271,38.819535]}},{"properties":{"city":"Colorado Springs","name":"1026 East Costilla Street Colorado Springs CO 80903","zipcode":80903.0,"geo_score":0.902,"id":"a64k20vuy47c","geo_precision":"range","address":"1026 East Costilla Street","state":"CO"},"type":"Feature","geometry":{"type":"Point","coordinates":[-104.805379,38.827616]}},{"properties":{"city":"Fountain","name":"1040 Bromefield Drive Fountain CO 80817","zipcode":80817.0,"geo_score":0.902,"id":"a64k20khgvwz","geo_precision":"range","address":"1040 Bromefield Drive","state":"CO"},"type":"Feature","geometry":{"type":"Point","coordinates":[-104.67094,38.666931]}},{"properties":{"city":"Peyton","name":"10418 Pictured Rocks Drive Peyton CO 80831","zipcode":80831.0,"geo_score":0.507,"id":"a64k20rpaos3","geo_precision":"city","address":"10418 Pictured Rocks Drive","state":"CO"},"type":"Feature","geometry":{"type":"Point","coordinates":[-104.526328,38.984206]}},{"properties":{"city":"Colorado Springs","name":"1056 Florence Ave Colorado Springs CO 80906","zipcode":80906.0,"geo_score":0.902,"id":"a64k20tvoz17","geo_precision":"range","address":"1056 Florence Ave","state":"CO"},"type":"Feature","geometry":{"type":"Point","coordinates":[-104.812632,38.798795]}},{"properties":{"city":"COLORADO SPRINGS","name":"106 LAWRENCE AVE COLORADO SPRINGS CO 80909","zipcode":80909.0,"geo_score":0.902,"id":"a64k20wvero3","geo_precision":"range","address":"106 LAWRENCE AVE","state":"CO"},"type":"Feature","geometry":{"type":"Point","coordinates":[-104.783133,38.834163]}},{"properties":{"city":"Colorado Springs","name":"1093 Wernimont Circle Colorado Springs CO 80916","zipcode":80916.0,"geo_score":0.902,"id":"a64k20spjq7g","geo_precision":"range","address":"1093 Wernimont Circle","state":"CO"},"type":"Feature","geometry":{"type":"Point","coordinates":[-104.734316,38.816971]}},{"properties":{"city":"COLORADO SPRINGS","name":"110 CORNELL STREET COLORADO SPRINGS CO 80911","zipcode":80911.0,"geo_score":0.902,"id":"a64k20m09ha1","geo_precision":"range","address":"110 CORNELL STREET","state":"CO"},"type":"Feature","geometry":{"type":"Point","coordinates":[-104.722953,38.736011]}},{"properties":{"city":"Monument","name":"1124 Walters Point Monument CO 80132","zipcode":80132.0,"geo_score":0.434,"id":"a64k20ok3bp2","geo_precision":"street","address":"1124 Walters Point","state":"CO"},"type":"Feature","geometry":{"type":"Point","coordinates":[-104.975927,39.559373]}},{"properties":{"city":"COLORADO SPRINGS","name":"1126 SERVER DRIVE COLORADO SPRINGS CO 80910","zipcode":80910.0,"geo_score":0.902,"id":"a64k20wgpwe1","geo_precision":"range","address":"1126 SERVER DRIVE","state":"CO"},"type":"Feature","geometry":{"type":"Point","coordinates":[-104.772891,38.81505]}},{"properties":{"city":"Colorado Springs","name":"1127 Florence Avenue Colorado Springs CO 80906","zipcode":80906.0,"geo_score":0.902,"id":"a64k20uugr8z","geo_precision":"range","address":"1127 Florence Avenue","state":"CO"},"type":"Feature","geometry":{"type":"Point","coordinates":[-104.808763,38.798863]}},{"properties":{"city":"Colorado Springs","name":"1128 Mazatlan Circle Colorado Springs CO 80910","zipcode":80910.0,"geo_score":0.902,"id":"a64k20zdavyd","geo_precision":"range","address":"1128 Mazatlan Circle","state":"CO"},"type":"Feature","geometry":{"type":"Point","coordinates":[-104.768834,38.816367]}},{"properties":{"city":"Fountain","name":"1156 White Stone Way Fountain CO 80817","zipcode":80817.0,"geo_score":0.708,"id":"a64k20yyvyit","geo_precision":"street","address":"1156 White Stone Way","state":"CO"},"type":"Feature","geometry":{"type":"Point","coordinates":[-104.690664,38.705846]}},{"properties":{"city":"MONUMENT","name":"1165 CAMBROOK COURT MONUMENT CO 80132","zipcode":80132.0,"geo_score":0.902,"id":"a64k20nvnbi6","geo_precision":"range","address":"1165 CAMBROOK COURT","state":"CO"},"type":"Feature","geometry":{"type":"Point","coordinates":[-104.812158,39.082572]}},{"properties":{"city":"Colorado Springs","name":"11730 Timberlane Court Colorado Springs CO 80908","zipcode":80908.0,"geo_score":0.902,"id":"a64k20y5kq4e","geo_precision":"range","address":"11730 Timberlane Court","state":"CO"},"type":"Feature","geometry":{"type":"Point","coordinates":[-104.749711,39.003658]}},{"properties":{"city":"PEYTON","name":"11847 E. HIGHWAY 24 PEYTON CO 80831","zipcode":80831.0,"geo_score":0.634,"id":"a64k20vf2cjg","geo_precision":"street","address":"11847 E. HIGHWAY 24","state":"CO"},"type":"Feature","geometry":{"type":"Point","coordinates":[-104.62669,38.913491]}},{"properties":{"city":"COLORADO SPRINGS","name":"121 GRINNELL STREET COLORADO SPRINGS CO 80911","zipcode":80911.0,"geo_score":0.902,"id":"a64k20tlu1fh","geo_precision":"range","address":"121 GRINNELL STREET","state":"CO"},"type":"Feature","geometry":{"type":"Point","coordinates":[-104.71929,38.735261]}},{"properties":{"city":"COLORADO SPRINGS","name":"1215 BRISTOL AVENUE COLORADO SPRINGS CO 80906","zipcode":80906.0,"geo_score":0.902,"id":"a64k20xcgn9c","geo_precision":"range","address":"1215 BRISTOL AVENUE","state":"CO"},"type":"Feature","geometry":{"type":"Point","coordinates":[-104.806208,38.801778]}},{"properties":{"city":"Colorado Springs","name":"1215 N Murray Blvd Colorado Springs CO 80915","zipcode":80915.0,"geo_score":0.902,"id":"a64k20m49opc","geo_precision":"range","address":"1215 N Murray Blvd","state":"CO"},"type":"Feature","geometry":{"type":"Point","coordinates":[-104.747944,38.849732]}},{"properties":{"city":"Colorado Springs","name":"1229 Hartford Street Colorado Springs CO 80906","zipcode":80906.0,"geo_score":0.902,"id":"a64k20kvbnb5","geo_precision":"range","address":"1229 Hartford Street","state":"CO"},"type":"Feature","geometry":{"type":"Point","coordinates":[-104.77664,38.770122]}},{"properties":{"city":"Peyton","name":"12471 Riggin Court Peyton CO 80831","zipcode":80831.0,"geo_score":0.902,"id":"a64k20wgnb6n","geo_precision":"range","address":"12471 Riggin Court","state":"CO"},"type":"Feature","geometry":{"type":"Point","coordinates":[-104.594395,38.950105]}},{"properties":{"city":"Colorado Springs","name":"1274 Amsterdam Drive Colorado Springs CO 80907","zipcode":80907.0,"geo_score":0.902,"id":"a64k20nalywl","geo_precision":"range","address":"1274 Amsterdam Drive","state":"CO"},"type":"Feature","geometry":{"type":"Point","coordinates":[-104.846332,38.887797]}},{"properties":{"city":"Peyton","name":"12947 Casa De Campo Road Peyton CO 80831","zipcode":80831.0,"geo_score":0.385,"id":"a64k20omlt5z","geo_precision":"street","address":"12947 Casa De Campo Road","state":"CO"},"type":"Feature","geometry":{"type":"Point","coordinates":[-102.481556,39.726704]}},{"properties":{"city":"COLORADO SPRINGS","name":"1302 RACE ST COLORADO SPRINGS CO 80904","zipcode":80904.0,"geo_score":0.902,"id":"a64k20qwk2gd","geo_precision":"range","address":"1302 RACE ST","state":"CO"},"type":"Feature","geometry":{"type":"Point","coordinates":[-104.868178,38.83705]}},{"properties":{"city":"Colorado Springs","name":"1304 Maxwell Street Colorado Springs CO 80906","zipcode":80906.0,"geo_score":0.902,"id":"a64k20ut48ao","geo_precision":"range","address":"1304 Maxwell Street","state":"CO"},"type":"Feature","geometry":{"type":"Point","coordinates":[-104.772711,38.767893]}},{"properties":{"city":"COLORADO SPRINGS","name":"1309 SOARING EAGLE DRIVE COLORADO SPRINGS CO 80915","zipcode":80915.0,"geo_score":0.902,"id":"a64k20kzpr7e","geo_precision":"range","address":"1309 SOARING EAGLE DRIVE","state":"CO"},"type":"Feature","geometry":{"type":"Point","coordinates":[-104.702832,38.850651]}},{"properties":{"city":"MONUMENT","name":"1347 WALTERS POINT MONUMENT CO 80132","zipcode":80132.0,"geo_score":0.434,"id":"a64k20y9f6ls","geo_precision":"street","address":"1347 WALTERS POINT","state":"CO"},"type":"Feature","geometry":{"type":"Point","coordinates":[-104.975927,39.559373]}},{"properties":{"city":"Colorado Springs","name":"1350 Ride Ln Colorado Springs CO 80916","zipcode":80916.0,"geo_score":0.902,"id":"a64k20wlfe7a","geo_precision":"range","address":"1350 Ride Ln","state":"CO"},"type":"Feature","geometry":{"type":"Point","coordinates":[-104.741882,38.812822]}},{"properties":{"city":"COLORADO SPRINGS","name":"13722 FIREFALL COURT COLORADO SPRINGS CO 80921","zipcode":80921.0,"geo_score":0.59,"id":"a64k20ot5ku6","geo_precision":"street","address":"13722 FIREFALL COURT","state":"CO"},"type":"Feature","geometry":{"type":"Point","coordinates":[-104.748113,38.812595]}},{"properties":{"city":"MONUMENT","name":"1375 BUCKWOOD LANE MONUMENT CO 80132","zipcode":80132.0,"geo_score":0.902,"id":"a64k20x4kf6q","geo_precision":"range","address":"1375 BUCKWOOD LANE","state":"CO"},"type":"Feature","geometry":{"type":"Point","coordinates":[-104.852183,39.113441]}},{"properties":{"city":"COLORADO SPRINGS","name":"13932 SIERRA STAR COURT COLORADO SPRINGS CO 80921","zipcode":80921.0,"geo_score":0.585,"id":"a64k20mgbifk","geo_precision":"street","address":"13932 SIERRA STAR COURT","state":"CO"},"type":"Feature","geometry":{"type":"Point","coordinates":[-104.729639,38.87243]}},{"properties":{"city":"COLORADO SPRINGS","name":"14 W NAVAJO ST COLORADO SPRINGS CO 80906","zipcode":80906.0,"geo_score":0.902,"id":"a64k20m6ri86","geo_precision":"range","address":"14 W NAVAJO ST","state":"CO"},"type":"Feature","geometry":{"type":"Point","coordinates":[-104.82716,38.811444]}},{"properties":{"city":"CALHAN","name":"14115 NORTH ELLICOTT HIGHWAY CALHAN CO 80808","zipcode":80808.0,"geo_score":0.902,"id":"a64k20qo0dtb","geo_precision":"range","address":"14115 NORTH ELLICOTT HIGHWAY","state":"CO"},"type":"Feature","geometry":{"type":"Point","coordinates":[-104.386376,39.034405]}},{"properties":{"city":"Colorado Springs","name":"1412 Edith Lane Colorado Springs CO 80909","zipcode":80909.0,"geo_score":0.902,"id":"a64k20oq13g4","geo_precision":"range","address":"1412 Edith Lane","state":"CO"},"type":"Feature","geometry":{"type":"Point","coordinates":[-104.772698,38.852251]}},{"properties":{"city":"Colorado Springs","name":"1415 Territory Trail Colorado Springs CO 80919","zipcode":80919.0,"geo_score":0.902,"id":"a64k20uxz5pq","geo_precision":"range","address":"1415 Territory Trail","state":"CO"},"type":"Feature","geometry":{"type":"Point","coordinates":[-104.851326,38.905037]}},{"properties":{"city":"Colorado Springs","name":"1419 Roseville Drive Colorado Springs CO 80911","zipcode":80911.0,"geo_score":0.902,"id":"a64k20y5mp7f","geo_precision":"range","address":"1419 Roseville Drive","state":"CO"},"type":"Feature","geometry":{"type":"Point","coordinates":[-104.722079,38.75766]}},{"properties":{"city":"YODER","name":"1425 RAMAH HWY YODER CO 80864","zipcode":80864.0,"geo_score":0.707,"id":"a64k20r0s887","geo_precision":"street","address":"1425 RAMAH HWY","state":"CO"},"type":"Feature","geometry":{"type":"Point","coordinates":[-104.147608,38.882868]}},{"properties":{"city":"FOUNTAIN","name":"1429 SOUTHMOOR DRIVE FOUNTAIN CO 80817","zipcode":80817.0,"geo_score":0.902,"id":"a64k20jxe3r9","geo_precision":"range","address":"1429 SOUTHMOOR DRIVE","state":"CO"},"type":"Feature","geometry":{"type":"Point","coordinates":[-104.731604,38.732732]}},{"properties":{"city":"COLORADO SPRINGS","name":"147 HAYES DRIVE COLORADO SPRINGS CO 80911","zipcode":80911.0,"geo_score":0.902,"id":"a64k20k1tbqr","geo_precision":"range","address":"147 HAYES DRIVE","state":"CO"},"type":"Feature","geometry":{"type":"Point","coordinates":[-104.733655,38.743489]}},{"properties":{"city":"Colorado Springs","name":"1481 Keith Drive Colorado Springs CO 80916","zipcode":80916.0,"geo_score":0.902,"id":"a64k20xmmtgd","geo_precision":"range","address":"1481 Keith Drive","state":"CO"},"type":"Feature","geometry":{"type":"Point","coordinates":[-104.737284,38.810919]}},{"properties":{"city":"Colorado Springs","name":"15335 Steinbeck Ln Colorado Springs CO 80921","zipcode":80921.0,"geo_score":0.902,"id":"a64k20mxhwe7","geo_precision":"range","address":"15335 Steinbeck Ln","state":"CO"},"type":"Feature","geometry":{"type":"Point","coordinates":[-104.824738,39.051686]}},{"properties":{"city":"COLORADO SPRINGS","name":"1540 GYPSY COURT COLORADO SPRINGS CO 80906","zipcode":80906.0,"geo_score":0.902,"id":"a64k20w3ow3w","geo_precision":"range","address":"1540 GYPSY COURT","state":"CO"},"type":"Feature","geometry":{"type":"Point","coordinates":[-104.799822,38.770624]}},{"properties":{"city":"COLORADO SPRINGS","name":"1542 SANDERSON AVENUE COLORADO SPRINGS CO 80915","zipcode":80915.0,"geo_score":0.902,"id":"a64k20qqjux1","geo_precision":"range","address":"1542 SANDERSON AVENUE","state":"CO"},"type":"Feature","geometry":{"type":"Point","coordinates":[-104.734455,38.855307]}},{"properties":{"city":"Colorado Springs","name":"1576 Territory Trl Colorado Springs CO 80919","zipcode":80919.0,"geo_score":0.902,"id":"a64k20yv58c9","geo_precision":"range","address":"1576 Territory Trl","state":"CO"},"type":"Feature","geometry":{"type":"Point","coordinates":[-104.851461,38.905045]}},{"properties":{"city":"Colorado Springs","name":"1601 Reilly Grove Colorado Springs CO 80915","zipcode":80915.0,"geo_score":0.521,"id":"a64k20qsra9p","geo_precision":"street","address":"1601 Reilly Grove","state":"CO"},"type":"Feature","geometry":{"type":"Point","coordinates":[-104.774037,38.955284]}},{"properties":{"city":"COLORADO SPRINGS","name":"16244 POLE PINE POINT COLORADO SPRINGS CO 80908","zipcode":80908.0,"geo_score":0.561,"id":"a64k20wgwqcc","geo_precision":"street","address":"16244 POLE PINE POINT","state":"CO"},"type":"Feature","geometry":{"type":"Point","coordinates":[-104.806408,38.77758]}},{"properties":{"city":"COLORADO SPRINGS","name":"1625 N. MURRAY BLVD. UNIT 121 COLORADO SPRINGS CO 80918","zipcode":80918.0,"geo_score":0.789,"id":"a64k20u6iry9","geo_precision":"range","address":"1625 N. MURRAY BLVD. UNIT 121","state":"CO"},"type":"Feature","geometry":{"type":"Point","coordinates":[-104.747911,38.856238]}},{"properties":{"city":"Colorado Springs","name":"1625 Reilly Grove Colorado Springs CO 80915","zipcode":80915.0,"geo_score":0.521,"id":"a64k20wxongz","geo_precision":"street","address":"1625 Reilly Grove","state":"CO"},"type":"Feature","geometry":{"type":"Point","coordinates":[-104.774037,38.955284]}},{"properties":{"city":"MONUMENT","name":"17143 BLUE MIST GROVE MONUMENT CO 80132","zipcode":80132.0,"geo_score":0.46,"id":"a64k20w9jnmk","geo_precision":"street","address":"17143 BLUE MIST GROVE","state":"CO"},"type":"Feature","geometry":{"type":"Point","coordinates":[-104.831133,39.058099]}},{"properties":{"city":"Colorado Springs","name":"1720 West Cucharras Street Colorado Springs CO 80904","zipcode":80904.0,"geo_score":0.902,"id":"a64k20y4rto1","geo_precision":"range","address":"1720 West Cucharras Street","state":"CO"},"type":"Feature","geometry":{"type":"Point","coordinates":[-104.85248,38.839977]}},{"properties":{"city":"Colorado Springs","name":"1803 Saint Elmo Court Unit 1 Colorado Springs CO 80906","zipcode":80906.0,"geo_score":0.811,"id":"a64k20v817zo","geo_precision":"range","address":"1803 Saint Elmo Court Unit 1","state":"CO"},"type":"Feature","geometry":{"type":"Point","coordinates":[-104.823803,38.808228]}},{"properties":{"city":"COLORADO SPRINGS","name":"1805 STARSTONE COURT COLORADO SPRINGS CO 80919","zipcode":80919.0,"geo_score":0.902,"id":"a64k20xiwbni","geo_precision":"range","address":"1805 STARSTONE COURT","state":"CO"},"type":"Feature","geometry":{"type":"Point","coordinates":[-104.860372,38.943087]}},{"properties":{"city":"FOUNTAIN","name":"1808 RIVER DRIVE FOUNTAIN CO 80817","zipcode":80817.0,"geo_score":0.819,"id":"a64k20obceda","geo_precision":"range","address":"1808 RIVER DRIVE","state":"CO"},"type":"Feature","geometry":{"type":"Point","coordinates":[-104.729078,38.727358]}},{"properties":{"city":"PEYTON","name":"18105 SAGECREST ROAD PEYTON CO 80831","zipcode":80831.0,"geo_score":0.902,"id":"a64k20m4a96m","geo_precision":"range","address":"18105 SAGECREST ROAD","state":"CO"},"type":"Feature","geometry":{"type":"Point","coordinates":[-104.500788,38.894272]}},{"properties":{"city":"Peyton","name":"18115 Ranch Hand Road Peyton CO 80831","zipcode":80831.0,"geo_score":0.902,"id":"a64k20y3r1le","geo_precision":"range","address":"18115 Ranch Hand Road","state":"CO"},"type":"Feature","geometry":{"type":"Point","coordinates":[-104.508439,39.097808]}},{"properties":{"city":"COLORADO SPRINGS","name":"1815 MONTEREY ROAD COLORADO SPRINGS CO 80910","zipcode":80910.0,"geo_score":0.902,"id":"a64k20r8k26p","geo_precision":"range","address":"1815 MONTEREY ROAD","state":"CO"},"type":"Feature","geometry":{"type":"Point","coordinates":[-104.776216,38.805872]}},{"properties":{"city":"PEYTON","name":"18180 RANCH HAND ROAD PEYTON CO 80831","zipcode":80831.0,"geo_score":0.902,"id":"a64k20v4o5ih","geo_precision":"range","address":"18180 RANCH HAND ROAD","state":"CO"},"type":"Feature","geometry":{"type":"Point","coordinates":[-104.508399,39.09851]}},{"properties":{"city":"Colorado Springs","name":"1819 North Nevada Avenue Colorado Springs CO 80907","zipcode":80907.0,"geo_score":0.902,"id":"a64k20sdg8ld","geo_precision":"range","address":"1819 North Nevada Avenue","state":"CO"},"type":"Feature","geometry":{"type":"Point","coordinates":[-104.820249,38.859362]}},{"properties":{"city":"Colorado Springs","name":"1840 Olympic Dr Colorado Springs CO 80910","zipcode":80910.0,"geo_score":0.902,"id":"a64k20v7ntvw","geo_precision":"range","address":"1840 Olympic Dr","state":"CO"},"type":"Feature","geometry":{"type":"Point","coordinates":[-104.772822,38.806122]}},{"properties":{"city":"Colorado Springs","name":"1878 Sheringham Drive Colorado Springs CO 80915","zipcode":80915.0,"geo_score":0.528,"id":"a64k20qcje73","geo_precision":"city","address":"1878 Sheringham Drive","state":"CO"},"type":"Feature","geometry":{"type":"Point","coordinates":[-104.857828,38.861469]}},{"properties":{"city":"Fountain","name":"1880 River Drive Fountain CO 80817","zipcode":80817.0,"geo_score":0.819,"id":"a64k20vnz3u2","geo_precision":"range","address":"1880 River Drive","state":"CO"},"type":"Feature","geometry":{"type":"Point","coordinates":[-104.727535,38.727214]}},{"properties":{"city":"Colorado Springs","name":"1890 Capital Drive Colorado Springs CO 80951","zipcode":80951.0,"geo_score":0.708,"id":"a64k20opwmbt","geo_precision":"street","address":"1890 Capital Drive","state":"CO"},"type":"Feature","geometry":{"type":"Point","coordinates":[-104.675754,38.868127]}},{"properties":{"city":"Colorado Springs","name":"1906 South Institute Avenue Colorado Springs CO 80906","zipcode":80906.0,"geo_score":0.902,"id":"a64k20keutch","geo_precision":"range","address":"1906 South Institute Avenue","state":"CO"},"type":"Feature","geometry":{"type":"Point","coordinates":[-104.808542,38.806606]}},{"properties":{"city":"MONUMENT","name":"19205 SIXPENNY LANE MONUMENT CO 80132","zipcode":80132.0,"geo_score":0.902,"id":"a64k20sy50az","geo_precision":"range","address":"19205 SIXPENNY LANE","state":"CO"},"type":"Feature","geometry":{"type":"Point","coordinates":[-104.799031,39.113249]}},{"properties":{"city":"Colorado Springs","name":"1924 Mt. Washington Ave Colorado Springs CO 80906","zipcode":80906.0,"geo_score":0.902,"id":"a64k20ype6ab","geo_precision":"range","address":"1924 Mt. Washington Ave","state":"CO"},"type":"Feature","geometry":{"type":"Point","coordinates":[-104.825578,38.805654]}},{"properties":{"city":"COLORADO SPRINGS","name":"1925 HAMPTON SOUTH COLORADO SPRINGS CO 80906","zipcode":80906.0,"geo_score":0.902,"id":"a64k20lcx2bi","geo_precision":"range","address":"1925 HAMPTON SOUTH","state":"CO"},"type":"Feature","geometry":{"type":"Point","coordinates":[-104.79237,38.770416]}},{"properties":{"city":"COLORADO SPRINGS","name":"1925 MONDI COURT COLORADO SPRINGS CO 80919","zipcode":80919.0,"geo_score":0.902,"id":"a64k20tf56um","geo_precision":"range","address":"1925 MONDI COURT","state":"CO"},"type":"Feature","geometry":{"type":"Point","coordinates":[-104.864486,38.923633]}},{"properties":{"city":"Colorado Springs","name":"1939 Mid Road Colorado Springs CO 80906","zipcode":80906.0,"geo_score":0.902,"id":"a64k20r2jm2b","geo_precision":"range","address":"1939 Mid Road","state":"CO"},"type":"Feature","geometry":{"type":"Point","coordinates":[-104.861695,38.791833]}},{"properties":{"city":"COLORADO SPRINGS","name":"1965 TANAGER WAY COLORADO SPRINGS CO 80906","zipcode":80906.0,"geo_score":0.902,"id":"a64k21020i91","geo_precision":"range","address":"1965 TANAGER WAY","state":"CO"},"type":"Feature","geometry":{"type":"Point","coordinates":[-104.791708,38.772916]}},{"properties":{"city":"Colorado Springs","name":"2003 Creekridge Point Colorado Springs CO 80910","zipcode":80910.0,"geo_score":0.528,"id":"a64k20w3vhfr","geo_precision":"city","address":"2003 Creekridge Point","state":"CO"},"type":"Feature","geometry":{"type":"Point","coordinates":[-104.857828,38.861469]}},{"properties":{"city":"Pueblo","name":"20140 El Valle View Pueblo CO 81008","zipcode":81008.0,"geo_score":0.902,"id":"a64k20s68swu","geo_precision":"range","address":"20140 El Valle View","state":"CO"},"type":"Feature","geometry":{"type":"Point","coordinates":[-104.66622,38.534643]}},{"properties":{"city":"COLORADO SPRINGS","name":"2029 EAGLE VIEW DRIVE COLORADO SPRINGS CO 80909","zipcode":80909.0,"geo_score":0.849,"id":"a64k20w71syg","geo_precision":"range","address":"2029 EAGLE VIEW DRIVE","state":"CO"},"type":"Feature","geometry":{"type":"Point","coordinates":[-104.788438,38.860524]}},{"properties":{"city":"COLORADO SPRINGS","name":"2045 GROSBEAR LANE COLORADO SPRINGS CO 80916","zipcode":80916.0,"geo_score":0.902,"id":"a64k20tb1xg5","geo_precision":"range","address":"2045 GROSBEAR LANE","state":"CO"},"type":"Feature","geometry":{"type":"Point","coordinates":[-104.737416,38.802806]}},{"properties":{"city":"Colorado Springs","name":"205 Henley Lane Colorado Springs CO 80916","zipcode":80916.0,"geo_score":0.902,"id":"a64k20whfkq4","geo_precision":"range","address":"205 Henley Lane","state":"CO"},"type":"Feature","geometry":{"type":"Point","coordinates":[-104.740159,38.830081]}},{"properties":{"city":"COLORADO SPRINGS","name":"2055 FARNSWORTH DRIVE COLORADO SPRINGS CO 80916","zipcode":80916.0,"geo_score":0.902,"id":"a64k20wipxw9","geo_precision":"range","address":"2055 FARNSWORTH DRIVE","state":"CO"},"type":"Feature","geometry":{"type":"Point","coordinates":[-104.738256,38.802846]}},{"properties":{"city":"COLORADO SPRINGS","name":"2059 S. CORONA AVE. COLORADO SPRINGS CO 80906","zipcode":80906.0,"geo_score":0.902,"id":"a64k20ss76c9","geo_precision":"range","address":"2059 S. CORONA AVE.","state":"CO"},"type":"Feature","geometry":{"type":"Point","coordinates":[-104.813878,38.803466]}},{"properties":{"city":"Pueblo","name":"20680 Boca Chica Heights Pueblo CO 81008","zipcode":81008.0,"geo_score":0.902,"id":"a64k20q0fhqm","geo_precision":"range","address":"20680 Boca Chica Heights","state":"CO"},"type":"Feature","geometry":{"type":"Point","coordinates":[-104.672402,38.525261]}},{"properties":{"city":"Pueblo","name":"20785 El Niro Point Pueblo CO 81008","zipcode":81008.0,"geo_score":0.512,"id":"a64k20po4vxt","geo_precision":"city","address":"20785 El Niro Point","state":"CO"},"type":"Feature","geometry":{"type":"Point","coordinates":[-104.427776,38.344117]}},{"properties":{"city":"Colorado Springs","name":"2081 Springside Drive Colorado Springs CO 80915","zipcode":80915.0,"geo_score":0.709,"id":"a64k20kkd0ey","geo_precision":"street","address":"2081 Springside Drive","state":"CO"},"type":"Feature","geometry":{"type":"Point","coordinates":[-104.672699,38.865152]}},{"properties":{"city":"PEYTON","name":"2115 TERRI LEE DRIVE PEYTON CO 80831","zipcode":80831.0,"geo_score":0.493,"id":"a64k20si6wq9","geo_precision":"street","address":"2115 TERRI LEE DRIVE","state":"CO"},"type":"Feature","geometry":{"type":"Point","coordinates":[-105.072134,39.002127]}},{"properties":{"city":"PEYTON","name":"21165 OASIS AVENUE PEYTON CO 80831","zipcode":80831.0,"geo_score":0.902,"id":"a64k20tclr9v","geo_precision":"range","address":"21165 OASIS AVENUE","state":"CO"},"type":"Feature","geometry":{"type":"Point","coordinates":[-104.44457,38.92792]}},{"properties":{"city":"Colorado Springs","name":"2122 E Monterey Rd Colorado Springs CO 80910","zipcode":80910.0,"geo_score":0.876,"id":"a64k20jvlnf1","geo_precision":"range","address":"2122 E Monterey Rd","state":"CO"},"type":"Feature","geometry":{"type":"Point","coordinates":[-104.770665,38.801103]}},{"properties":{"city":"MONUMENT","name":"2126 CREEK VALLEY CIRCLE MONUMENT CO 80132","zipcode":80132.0,"geo_score":0.477,"id":"a64k20xinvq9","geo_precision":"street","address":"2126 CREEK VALLEY CIRCLE","state":"CO"},"type":"Feature","geometry":{"type":"Point","coordinates":[-104.831496,39.059084]}},{"properties":{"city":"Colorado Springs","name":"2135 Leoti Dr Colorado Springs CO 80915","zipcode":80915.0,"geo_score":0.902,"id":"a64k20p4z58g","geo_precision":"range","address":"2135 Leoti Dr","state":"CO"},"type":"Feature","geometry":{"type":"Point","coordinates":[-104.703659,38.862968]}},{"properties":{"city":"MONUMENT","name":"2136 CREEK VALLEY CIRCLE MONUMENT CO 80132","zipcode":80132.0,"geo_score":0.477,"id":"a64k20v9f64m","geo_precision":"street","address":"2136 CREEK VALLEY CIRCLE","state":"CO"},"type":"Feature","geometry":{"type":"Point","coordinates":[-104.831496,39.059084]}},{"properties":{"city":"Colorado Springs","name":"2141 Legacy Ridge View #105 Colorado Springs CO 80910","zipcode":80910.0,"geo_score":0.657,"id":"a64k20wny5yk","geo_precision":"street","address":"2141 Legacy Ridge View #105","state":"CO"},"type":"Feature","geometry":{"type":"Point","coordinates":[-104.778456,38.804484]}},{"properties":{"city":"MONUMENT","name":"2146 CREEK VALLEY CIRCLE MONUMENT CO 80132","zipcode":80132.0,"geo_score":0.477,"id":"a64k20ohosrr","geo_precision":"street","address":"2146 CREEK VALLEY CIRCLE","state":"CO"},"type":"Feature","geometry":{"type":"Point","coordinates":[-104.831496,39.059084]}},{"properties":{"city":"Fountain","name":"2152 Calle Fontana Fountain CO 80817","zipcode":80817.0,"geo_score":0.902,"id":"a64k20pkonzd","geo_precision":"range","address":"2152 Calle Fontana","state":"CO"},"type":"Feature","geometry":{"type":"Point","coordinates":[-104.699921,38.707473]}},{"properties":{"city":"COLORADO SPRINGS","name":"2215 BULA DR COLORADO SPRINGS CO 80915","zipcode":80915.0,"geo_score":0.902,"id":"a64k20y2futw","geo_precision":"range","address":"2215 BULA DR","state":"CO"},"type":"Feature","geometry":{"type":"Point","coordinates":[-104.725033,38.864438]}},{"properties":{"city":"Colorado Springs","name":"222 N Institute St Colorado Springs CO 80903","zipcode":80903.0,"geo_score":0.902,"id":"a64k20to8qqi","geo_precision":"range","address":"222 N Institute St","state":"CO"},"type":"Feature","geometry":{"type":"Point","coordinates":[-104.808088,38.836215]}},{"properties":{"city":"Colorado Springs","name":"2274 St Paul Drive Colorado Springs CO 80910","zipcode":80910.0,"geo_score":0.561,"id":"a64k20tcjqvy","geo_precision":"street","address":"2274 St Paul Drive","state":"CO"},"type":"Feature","geometry":{"type":"Point","coordinates":[-104.765785,38.901712]}},{"properties":{"city":"COLORADO SPRINGS","name":"2294 SAINT PAUL DRIVE COLORADO SPRINGS CO 80910","zipcode":80910.0,"geo_score":0.548,"id":"a64k20mcay6f","geo_precision":"street","address":"2294 SAINT PAUL DRIVE","state":"CO"},"type":"Feature","geometry":{"type":"Point","coordinates":[-104.765785,38.901712]}},{"properties":{"city":"Colorado Springs","name":"2335 Carmel Drive Colorado Springs CO 80910","zipcode":80910.0,"geo_score":0.902,"id":"a64k20wsymbn","geo_precision":"range","address":"2335 Carmel Drive","state":"CO"},"type":"Feature","geometry":{"type":"Point","coordinates":[-104.775478,38.798407]}},{"properties":{"city":"CALHAN","name":"23905 PAINTED HORSE CIRCLE CALHAN CO 80808","zipcode":80808.0,"geo_score":0.902,"id":"a64k20l3n447","geo_precision":"range","address":"23905 PAINTED HORSE CIRCLE","state":"CO"},"type":"Feature","geometry":{"type":"Point","coordinates":[-104.384985,39.02332]}},{"properties":{"city":"Colorado Springs","name":"2450 Nadine Dr Colorado Springs CO 80916","zipcode":80916.0,"geo_score":0.902,"id":"a64k20u1xx9o","geo_precision":"range","address":"2450 Nadine Dr","state":"CO"},"type":"Feature","geometry":{"type":"Point","coordinates":[-104.745462,38.797915]}},{"properties":{"city":"Colorado Springs","name":"2506 Obsidian Forest View Colorado Springs CO 80915","zipcode":80915.0,"geo_score":0.543,"id":"a64k20sfwm8k","geo_precision":"street","address":"2506 Obsidian Forest View","state":"CO"},"type":"Feature","geometry":{"type":"Point","coordinates":[-104.720477,38.983978]}},{"properties":{"city":"COLORADO SPRINGS","name":"2518 OBSIDIAN FOREST VIEW COLORADO SPRINGS CO 80915","zipcode":80915.0,"geo_score":0.543,"id":"a64k20vtuht0","geo_precision":"street","address":"2518 OBSIDIAN FOREST VIEW","state":"CO"},"type":"Feature","geometry":{"type":"Point","coordinates":[-104.720477,38.983978]}},{"properties":{"city":"Colorado Springs","name":"2524 Obsidian Forest View Colorado Springs CO 80915","zipcode":80915.0,"geo_score":0.543,"id":"a64k20o7gyou","geo_precision":"street","address":"2524 Obsidian Forest View","state":"CO"},"type":"Feature","geometry":{"type":"Point","coordinates":[-104.720477,38.983978]}},{"properties":{"city":"Colorado Springs","name":"2530 Obsidian Forest View Colorado Springs CO 80915","zipcode":80915.0,"geo_score":0.543,"id":"a64k20kbkpks","geo_precision":"street","address":"2530 Obsidian Forest View","state":"CO"},"type":"Feature","geometry":{"type":"Point","coordinates":[-104.720477,38.983978]}},{"properties":{"city":"COLORADO SPRINGS","name":"2539 WESTON RD. COLORADO SPRINGS CO 80910","zipcode":80910.0,"geo_score":0.866,"id":"a64k20ucqrzu","geo_precision":"range","address":"2539 WESTON RD.","state":"CO"},"type":"Feature","geometry":{"type":"Point","coordinates":[-104.778073,38.795295]}},{"properties":{"city":"COLORADO SPRINGS","name":"2610 HAYSTACK DRIVE COLORADO SPRINGS CO 80922","zipcode":80922.0,"geo_score":0.902,"id":"a64k20me61bz","geo_precision":"range","address":"2610 HAYSTACK DRIVE","state":"CO"},"type":"Feature","geometry":{"type":"Point","coordinates":[-104.709246,38.872298]}},{"properties":{"city":"Colorado Springs","name":"2625 E Monument St Colorado Springs CO 80909","zipcode":80909.0,"geo_score":0.902,"id":"a64k20xrruk0","geo_precision":"range","address":"2625 E Monument St","state":"CO"},"type":"Feature","geometry":{"type":"Point","coordinates":[-104.779875,38.842254]}},{"properties":{"city":"Colorado Springs","name":"2656 Thrush Grove Colorado Springs CO 80920","zipcode":80920.0,"geo_score":0.902,"id":"a64k20k58xq5","geo_precision":"range","address":"2656 Thrush Grove","state":"CO"},"type":"Feature","geometry":{"type":"Point","coordinates":[-104.775537,38.947104]}},{"properties":{"city":"Colorado Springs","name":"2660 Leoti Drive Colorado Springs CO 80922","zipcode":80922.0,"geo_score":0.902,"id":"a64k20xnxxdz","geo_precision":"range","address":"2660 Leoti Drive","state":"CO"},"type":"Feature","geometry":{"type":"Point","coordinates":[-104.703976,38.869855]}},{"properties":{"city":"Colorado Springs","name":"2670 El Capitan Drive Colorado Springs CO 80918","zipcode":80918.0,"geo_score":0.902,"id":"a64k20obufhb","geo_precision":"range","address":"2670 El Capitan Drive","state":"CO"},"type":"Feature","geometry":{"type":"Point","coordinates":[-104.777522,38.907828]}},{"properties":{"city":"COLO. SPRINGS","name":"2706 W. PIKES PEAK AVENUE COLO. SPRINGS CO 80904","zipcode":80904.0,"geo_score":0.488,"id":"a64k20ulf2mm","geo_precision":"street","address":"2706 W. PIKES PEAK AVENUE","state":"CO"},"type":"Feature","geometry":{"type":"Point","coordinates":[-104.58617,38.283629]}},{"properties":{"city":"Colorado Springs","name":"2707 Main Street Colorado Springs CO 80907","zipcode":80907.0,"geo_score":0.902,"id":"a64k20v3knst","geo_precision":"range","address":"2707 Main Street","state":"CO"},"type":"Feature","geometry":{"type":"Point","coordinates":[-104.82961,38.871289]}},{"properties":{"city":"COLORADO SPRINGS","name":"2712 SCOTCHBROOM POINT COLORADO SPRINGS CO 80910","zipcode":80910.0,"geo_score":0.527,"id":"a64k20qgsj8e","geo_precision":"city","address":"2712 SCOTCHBROOM POINT","state":"CO"},"type":"Feature","geometry":{"type":"Point","coordinates":[-104.857828,38.861469]}},{"properties":{"city":"Colorado Springs","name":"2727 Lear Drive Colorado Springs CO 80920","zipcode":80920.0,"geo_score":0.902,"id":"a64k20zniwed","geo_precision":"range","address":"2727 Lear Drive","state":"CO"},"type":"Feature","geometry":{"type":"Point","coordinates":[-104.777509,38.946584]}},{"properties":{"city":"Colorado Springs","name":"2734 Tumblewood Grove Colorado Springs CO 80910","zipcode":80910.0,"geo_score":0.59,"id":"a64k20oixaen","geo_precision":"street","address":"2734 Tumblewood Grove","state":"CO"},"type":"Feature","geometry":{"type":"Point","coordinates":[-104.781051,38.890077]}},{"properties":{"city":"Colorado Springs","name":"2745 Lavarie Dr Colorado Springs CO 80917","zipcode":80917.0,"geo_score":0.902,"id":"a64k20owk6nq","geo_precision":"range","address":"2745 Lavarie Dr","state":"CO"},"type":"Feature","geometry":{"type":"Point","coordinates":[-104.724874,38.8711]}},{"properties":{"city":"Colorado Springs","name":"2771 Scotchbroom Point Colorado Springs CO 80910","zipcode":80910.0,"geo_score":0.527,"id":"a64k20kwh9zb","geo_precision":"city","address":"2771 Scotchbroom Point","state":"CO"},"type":"Feature","geometry":{"type":"Point","coordinates":[-104.857828,38.861469]}},{"properties":{"city":"COLORADO SPRINGS","name":"2843 CARMEL CIRCLE COLORADO SPRINGS CO 80910","zipcode":80910.0,"geo_score":0.902,"id":"a64k20suysri","geo_precision":"range","address":"2843 CARMEL CIRCLE","state":"CO"},"type":"Feature","geometry":{"type":"Point","coordinates":[-104.774972,38.804167]}},{"properties":{"city":"Colorado Springs","name":"285 Audubon Drive Colorado Springs CO 80910","zipcode":80910.0,"geo_score":0.534,"id":"a64k20u6wmdb","geo_precision":"city","address":"285 Audubon Drive","state":"CO"},"type":"Feature","geometry":{"type":"Point","coordinates":[-104.857828,38.861469]}},{"properties":{"city":"Colorado Springs","name":"2875 Wyatt Street Colorado Springs CO 80916","zipcode":80916.0,"geo_score":0.902,"id":"a64k20u5k9tj","geo_precision":"range","address":"2875 Wyatt Street","state":"CO"},"type":"Feature","geometry":{"type":"Point","coordinates":[-104.748904,38.79053]}},{"properties":{"city":"COLORADO SPRINGS","name":"2885 HAYSTACK DRIVE COLORADO SPRINGS CO 80922","zipcode":80922.0,"geo_score":0.902,"id":"a64k20s1y4so","geo_precision":"range","address":"2885 HAYSTACK DRIVE","state":"CO"},"type":"Feature","geometry":{"type":"Point","coordinates":[-104.708325,38.873978]}},{"properties":{"city":"COLORADO SPRINGS","name":"2890 WYATT STREET COLORADO SPRINGS CO 80916","zipcode":80916.0,"geo_score":0.902,"id":"a64k20t2nktl","geo_precision":"range","address":"2890 WYATT STREET","state":"CO"},"type":"Feature","geometry":{"type":"Point","coordinates":[-104.749066,38.790348]}},{"properties":{"city":"COLORADO SPRINGS","name":"2901 WEST UNITAH STREET COLORADO SPRINGS CO 80904","zipcode":80904.0,"geo_score":0.837,"id":"a64k20y9m2pa","geo_precision":"range","address":"2901 WEST UNITAH STREET","state":"CO"},"type":"Feature","geometry":{"type":"Point","coordinates":[-104.86522,38.854224]}},{"properties":{"city":"Colorado Springs","name":"2906 Garland Terrace Colorado Springs CO 80910","zipcode":80910.0,"geo_score":0.902,"id":"a64k20tkxbf9","geo_precision":"range","address":"2906 Garland Terrace","state":"CO"},"type":"Feature","geometry":{"type":"Point","coordinates":[-104.773985,38.831688]}},{"properties":{"city":"COLORADO SPRINGS","name":"2908 TEMPLETON GAP ROAD COLORADO SPRINGS CO 80907","zipcode":80907.0,"geo_score":0.902,"id":"a64k20uqr771","geo_precision":"range","address":"2908 TEMPLETON GAP ROAD","state":"CO"},"type":"Feature","geometry":{"type":"Point","coordinates":[-104.800374,38.872812]}},{"properties":{"city":"COLORADO SPRINGS","name":"2910 CORTINA DRIVE COLORADO SPRINGS CO 80918","zipcode":80918.0,"geo_score":0.902,"id":"a64k20t35p0x","geo_precision":"range","address":"2910 CORTINA DRIVE","state":"CO"},"type":"Feature","geometry":{"type":"Point","coordinates":[-104.773545,38.911684]}},{"properties":{"city":"Colorado Springs","name":"2921 Tumblewood Grove Colorado Springs CO 80910","zipcode":80910.0,"geo_score":0.59,"id":"a64k20k39do5","geo_precision":"street","address":"2921 Tumblewood Grove","state":"CO"},"type":"Feature","geometry":{"type":"Point","coordinates":[-104.781051,38.890077]}},{"properties":{"city":"Colorado Springs","name":"2940 Mirage Drive Colorado Springs CO 80920","zipcode":80920.0,"geo_score":0.902,"id":"a64k20x73va5","geo_precision":"range","address":"2940 Mirage Drive","state":"CO"},"type":"Feature","geometry":{"type":"Point","coordinates":[-104.771533,38.945855]}},{"properties":{"city":"Colorado Springs","name":"3055 Dublin Boulevard Colorado Springs CO 80918","zipcode":80918.0,"geo_score":0.902,"id":"a64k20psad33","geo_precision":"range","address":"3055 Dublin Boulevard","state":"CO"},"type":"Feature","geometry":{"type":"Point","coordinates":[-104.770594,38.925393]}},{"properties":{"city":"COLORADO SPRINGS","name":"3074 STARLIGHT CIRCLE COLORADO SPRINGS CO 80916","zipcode":80916.0,"geo_score":0.902,"id":"a64k20ya67dt","geo_precision":"range","address":"3074 STARLIGHT CIRCLE","state":"CO"},"type":"Feature","geometry":{"type":"Point","coordinates":[-104.752736,38.788162]}},{"properties":{"city":"COLORADO SPRINGS","name":"308 N WALNUT ST. COLORADO SPRINGS CO 80905","zipcode":80905.0,"geo_score":0.902,"id":"a64k20vh91ad","geo_precision":"range","address":"308 N WALNUT ST.","state":"CO"},"type":"Feature","geometry":{"type":"Point","coordinates":[-104.834246,38.838475]}},{"properties":{"city":"Colorado Springs","name":"309 Jewel Street Colorado Springs CO 80910","zipcode":80910.0,"geo_score":0.866,"id":"a64k20w152cp","geo_precision":"range","address":"309 Jewel Street","state":"CO"},"type":"Feature","geometry":{"type":"Point","coordinates":[-104.775343,38.827673]}},{"properties":{"city":"COLORADO SPRINGS","name":"3114 PENNSYLVANIA AVENUE COLORADO SPRINGS CO 80907","zipcode":80907.0,"geo_score":0.902,"id":"a64k20lsj2ew","geo_precision":"range","address":"3114 PENNSYLVANIA AVENUE","state":"CO"},"type":"Feature","geometry":{"type":"Point","coordinates":[-104.805527,38.877151]}},{"properties":{"city":"Colorado Springs","name":"3120 Escapardo Ct Colorado Springs CO 80917","zipcode":80917.0,"geo_score":0.902,"id":"a64k20p226k5","geo_precision":"range","address":"3120 Escapardo Ct","state":"CO"},"type":"Feature","geometry":{"type":"Point","coordinates":[-104.728637,38.876355]}},{"properties":{"city":"COLORADO SPRINGS","name":"3130-D VAN TEYLINGEN DRIVE COLORADO SPRINGS CO 80917","zipcode":80917.0,"geo_score":0.883,"id":"a64k20xfkvwn","geo_precision":"range","address":"3130-D VAN TEYLINGEN DRIVE","state":"CO"},"type":"Feature","geometry":{"type":"Point","coordinates":[-104.761266,38.877334]}},{"properties":{"city":"Fountain","name":"314 Lyckman Place Fountain CO 80817","zipcode":80817.0,"geo_score":0.902,"id":"a64k20osgreq","geo_precision":"range","address":"314 Lyckman Place","state":"CO"},"type":"Feature","geometry":{"type":"Point","coordinates":[-104.706555,38.693911]}},{"properties":{"city":"Colorado Springs","name":"315 Sunbird Cliffs Ln W Colorado Springs CO 80919","zipcode":80919.0,"geo_score":0.902,"id":"a64k20mvsndj","geo_precision":"range","address":"315 Sunbird Cliffs Ln W","state":"CO"},"type":"Feature","geometry":{"type":"Point","coordinates":[-104.833925,38.90465]}},{"properties":{"city":"COLORADO SPRINGS","name":"3245 FLYING HORSE ROAD COLORADO SPRINGS CO 80922","zipcode":80922.0,"geo_score":0.902,"id":"a64k20wdw1h7","geo_precision":"range","address":"3245 FLYING HORSE ROAD","state":"CO"},"type":"Feature","geometry":{"type":"Point","coordinates":[-104.703237,38.880147]}},{"properties":{"city":"Colorado Springs","name":"3275 Galleria Terrace Colorado Springs CO 80916","zipcode":80916.0,"geo_score":0.902,"id":"a64k20uwkuzh","geo_precision":"range","address":"3275 Galleria Terrace","state":"CO"},"type":"Feature","geometry":{"type":"Point","coordinates":[-104.742282,38.783802]}},{"properties":{"city":"COLORADO SPRINGS","name":"3304 JON ST COLORADO SPRINGS CO 80907","zipcode":80907.0,"geo_score":0.902,"id":"a64k20vop50x","geo_precision":"range","address":"3304 JON ST","state":"CO"},"type":"Feature","geometry":{"type":"Point","coordinates":[-104.80851,38.880552]}},{"properties":{"city":"COLORADO SPRINGS","name":"3311 PENNSYLVANIA AVE. COLORADO SPRINGS CO 80907","zipcode":80907.0,"geo_score":0.902,"id":"a64k20svkajz","geo_precision":"range","address":"3311 PENNSYLVANIA AVE.","state":"CO"},"type":"Feature","geometry":{"type":"Point","coordinates":[-104.804933,38.880641]}},{"properties":{"city":"Colorado Springs","name":"3322 Heather Glen Drive Colorado Springs CO 80922","zipcode":80922.0,"geo_score":0.902,"id":"a64k20yccbmu","geo_precision":"range","address":"3322 Heather Glen Drive","state":"CO"},"type":"Feature","geometry":{"type":"Point","coordinates":[-104.699393,38.881437]}},{"properties":{"city":"COLORADO SPRINGS","name":"3325 KIRKWOOD DR COLORADO SPRINGS CO 80916","zipcode":80916.0,"geo_score":0.902,"id":"a64k20q1jme9","geo_precision":"range","address":"3325 KIRKWOOD DR","state":"CO"},"type":"Feature","geometry":{"type":"Point","coordinates":[-104.739485,38.783811]}},{"properties":{"city":"Colorado Springs","name":"333 Sherri Dr Colorado Springs CO 80911","zipcode":80911.0,"geo_score":0.902,"id":"a64k20ogi01o","geo_precision":"range","address":"333 Sherri Dr","state":"CO"},"type":"Feature","geometry":{"type":"Point","coordinates":[-104.741721,38.763054]}},{"properties":{"city":"Colorado Springs","name":"3420 Cathedral Spires Drive Colorado Springs CO 80904","zipcode":80904.0,"geo_score":0.902,"id":"a64k20x34qaf","geo_precision":"range","address":"3420 Cathedral Spires Drive","state":"CO"},"type":"Feature","geometry":{"type":"Point","coordinates":[-104.902073,38.879365]}},{"properties":{"city":"Yoder","name":"34225 Highway 94 Yoder CO 80864","zipcode":80864.0,"geo_score":0.756,"id":"a64k20w1nt7u","geo_precision":"range","address":"34225 Highway 94","state":"CO"},"type":"Feature","geometry":{"type":"Point","coordinates":[-104.194795,38.839463]}},{"properties":{"city":"YODER","name":"34410 TRUCKTON RD YODER CO 80864","zipcode":80864.0,"geo_score":0.902,"id":"a64k20ss7g06","geo_precision":"range","address":"34410 TRUCKTON RD","state":"CO"},"type":"Feature","geometry":{"type":"Point","coordinates":[-104.189794,38.738315]}},{"properties":{"city":"Colorado Springs","name":"3448 Spotted Tail Drive Colorado Springs CO 80916","zipcode":80916.0,"geo_score":0.902,"id":"a64k20zo6288","geo_precision":"range","address":"3448 Spotted Tail Drive","state":"CO"},"type":"Feature","geometry":{"type":"Point","coordinates":[-104.734597,38.782576]}},{"properties":{"city":"COLORADO SPRINGS","name":"3495 CHARWOOD LANE COLORADO SPRINGS CO 80910","zipcode":80910.0,"geo_score":0.902,"id":"a64k20r54qq0","geo_precision":"range","address":"3495 CHARWOOD LANE","state":"CO"},"type":"Feature","geometry":{"type":"Point","coordinates":[-104.763716,38.805905]}},{"properties":{"city":"Colorado Springs","name":"3510 Murifield Colorado Springs CO 80907","zipcode":80907.0,"geo_score":0.796,"id":"a64k20rstfst","geo_precision":"range","address":"3510 Murifield","state":"CO"},"type":"Feature","geometry":{"type":"Point","coordinates":[-104.786079,38.883106]}},{"properties":{"city":"Colorado Springs","name":"3530 Parkmoor Village Dr # C Colorado Springs CO 80917","zipcode":80917.0,"geo_score":0.886,"id":"a64k20rhr439","geo_precision":"range","address":"3530 Parkmoor Village Dr # C","state":"CO"},"type":"Feature","geometry":{"type":"Point","coordinates":[-104.761615,38.876972]}},{"properties":{"city":"Colorado Springs","name":"3606 Meadowland Blvd. Colorado Springs CO 80918","zipcode":80918.0,"geo_score":0.902,"id":"a64k20v0ivia","geo_precision":"range","address":"3606 Meadowland Blvd.","state":"CO"},"type":"Feature","geometry":{"type":"Point","coordinates":[-104.766487,38.892379]}},{"properties":{"city":"Colorado Springs","name":"3612 Indianpipe Circle Colorado Springs CO 80918","zipcode":80918.0,"geo_score":0.902,"id":"a64k20ql3gix","geo_precision":"range","address":"3612 Indianpipe Circle","state":"CO"},"type":"Feature","geometry":{"type":"Point","coordinates":[-104.764542,38.891676]}},{"properties":{"city":"Colorado Springs","name":"3726 High Street W Colorado Springs CO 80904","zipcode":80904.0,"geo_score":0.666,"id":"a64k20y5cimf","geo_precision":"street","address":"3726 High Street W","state":"CO"},"type":"Feature","geometry":{"type":"Point","coordinates":[-104.814119,38.835626]}},{"properties":{"city":"COLORADO SPRINGS","name":"3732 RIVERA GROVE UNIT 202 COLORADO SPRINGS CO 80922","zipcode":80922.0,"geo_score":0.772,"id":"a64k20wyhso3","geo_precision":"range","address":"3732 RIVERA GROVE UNIT 202","state":"CO"},"type":"Feature","geometry":{"type":"Point","coordinates":[-104.70419,38.887713]}},{"properties":{"city":"COLORADO SPRINGS","name":"3732 RIVIERA GROVE #203 COLORADO SPRINGS CO 80922","zipcode":80922.0,"geo_score":0.844,"id":"a64k20yqz1s5","geo_precision":"range","address":"3732 RIVIERA GROVE #203","state":"CO"},"type":"Feature","geometry":{"type":"Point","coordinates":[-104.70419,38.887713]}},{"properties":{"city":"Colorado Springs","name":"3765 Windmill Court Colorado Springs CO 80907","zipcode":80907.0,"geo_score":0.902,"id":"a64k20ndditk","geo_precision":"range","address":"3765 Windmill Court","state":"CO"},"type":"Feature","geometry":{"type":"Point","coordinates":[-104.848616,38.885235]}},{"properties":{"city":"COLORADO SPRINGS","name":"3769 RED BARON DRIVE COLORADO SPRINGS CO 80911","zipcode":80911.0,"geo_score":0.59,"id":"a64k20tqlbbi","geo_precision":"street","address":"3769 RED BARON DRIVE","state":"CO"},"type":"Feature","geometry":{"type":"Point","coordinates":[-104.748129,38.831769]}},{"properties":{"city":"Colorado Springs","name":"3827 Topsail Drive Colorado Springs CO 80918","zipcode":80918.0,"geo_score":0.902,"id":"a64k20n3g5cv","geo_precision":"range","address":"3827 Topsail Drive","state":"CO"},"type":"Feature","geometry":{"type":"Point","coordinates":[-104.754595,38.924069]}},{"properties":{"city":"Colorado Springs","name":"3884 Swainson Drive Colorado Springs CO 80922","zipcode":80922.0,"geo_score":0.531,"id":"a64k20lvesu8","geo_precision":"city","address":"3884 Swainson Drive","state":"CO"},"type":"Feature","geometry":{"type":"Point","coordinates":[-104.857828,38.861469]}},{"properties":{"city":"COLORADO SPRINGS","name":"3914 ASPEN LEAF POINT COLORADO SPRINGS CO 80917","zipcode":80917.0,"geo_score":0.902,"id":"a64k20omax2q","geo_precision":"range","address":"3914 ASPEN LEAF POINT","state":"CO"},"type":"Feature","geometry":{"type":"Point","coordinates":[-104.760877,38.888282]}},{"properties":{"city":"Colorado Springs","name":"3970 Red Cedar Drive Colorado Springs CO 80906","zipcode":80906.0,"geo_score":0.902,"id":"a64k20nrac8d","geo_precision":"range","address":"3970 Red Cedar Drive","state":"CO"},"type":"Feature","geometry":{"type":"Point","coordinates":[-104.803245,38.774015]}},{"properties":{"city":"COLORADO SPRINGS","name":"4005 SIFERD BOULEVARD COLORADO SPRINGS CO 80917","zipcode":80917.0,"geo_score":0.74,"id":"a64k20kezkhm","geo_precision":"street","address":"4005 SIFERD BOULEVARD","state":"CO"},"type":"Feature","geometry":{"type":"Point","coordinates":[-104.753276,38.889972]}},{"properties":{"city":"COLORADO SPRINGS","name":"401-499 WOODMEN CIRCLE COLORADO SPRINGS CO 80918","zipcode":80918.0,"geo_score":0.432,"id":"a64k20pp1c15","geo_precision":"street","address":"401-499 WOODMEN CIRCLE","state":"CO"},"type":"Feature","geometry":{"type":"Point","coordinates":[-104.824685,38.937374]}},{"properties":{"city":"COLORADO SPRINGS","name":"4020 JET WING PL COLORADO SPRINGS CO 80916","zipcode":80916.0,"geo_score":0.902,"id":"a64k20r4vejy","geo_precision":"range","address":"4020 JET WING PL","state":"CO"},"type":"Feature","geometry":{"type":"Point","coordinates":[-104.754668,38.798528]}},{"properties":{"city":"COLORADO SPRINGS","name":"4061 GRAY FOX HEIGHTS COLORADO SPRINGS CO 80922","zipcode":80922.0,"geo_score":0.902,"id":"a64k20krvlgr","geo_precision":"range","address":"4061 GRAY FOX HEIGHTS","state":"CO"},"type":"Feature","geometry":{"type":"Point","coordinates":[-104.686975,38.897132]}},{"properties":{"city":"Colorado Springs","name":"4085 Jet Wing Place Colorado Springs CO 80916","zipcode":80916.0,"geo_score":0.902,"id":"a64k20rxd25g","geo_precision":"range","address":"4085 Jet Wing Place","state":"CO"},"type":"Feature","geometry":{"type":"Point","coordinates":[-104.754207,38.798281]}},{"properties":{"city":"Colorado Springs","name":"4135 Brightside Court Colorado Springs CO 80916","zipcode":80916.0,"geo_score":0.902,"id":"a64k20uocbyz","geo_precision":"range","address":"4135 Brightside Court","state":"CO"},"type":"Feature","geometry":{"type":"Point","coordinates":[-104.750057,38.799054]}},{"properties":{"city":"COLORADO SPRINGS","name":"4158 SIFERD BOULEVARD COLORADO SPRINGS CO 80917","zipcode":80917.0,"geo_score":0.712,"id":"a64k20qmiae7","geo_precision":"street","address":"4158 SIFERD BOULEVARD","state":"CO"},"type":"Feature","geometry":{"type":"Point","coordinates":[-104.753276,38.889972]}},{"properties":{"city":"COLORADO SPRINGS","name":"4215 IRON HORSE TRAIL COLORADO SPRINGS CO 80917","zipcode":80917.0,"geo_score":0.902,"id":"a64k20q5mvr4","geo_precision":"range","address":"4215 IRON HORSE TRAIL","state":"CO"},"type":"Feature","geometry":{"type":"Point","coordinates":[-104.73394,38.892838]}},{"properties":{"city":"Colorado Springs","name":"4237 Hunting Meadows Circle Colorado Springs CO 80916","zipcode":80916.0,"geo_score":0.902,"id":"a64k20u1l0x3","geo_precision":"range","address":"4237 Hunting Meadows Circle","state":"CO"},"type":"Feature","geometry":{"type":"Point","coordinates":[-104.751063,38.804096]}},{"properties":{"city":"COLORADO SPRINGS","name":"4244 MOONBEAM DRIVE COLORADO SPRINGS CO 80916","zipcode":80916.0,"geo_score":0.902,"id":"a64k20qwnb2j","geo_precision":"range","address":"4244 MOONBEAM DRIVE","state":"CO"},"type":"Feature","geometry":{"type":"Point","coordinates":[-104.751146,38.787431]}},{"properties":{"city":"Colorado Springs","name":"4264 Hunting Meadows Circle Colorado Springs CO 80916","zipcode":80916.0,"geo_score":0.902,"id":"a64k2103zj6j","geo_precision":"range","address":"4264 Hunting Meadows Circle","state":"CO"},"type":"Feature","geometry":{"type":"Point","coordinates":[-104.750789,38.803397]}},{"properties":{"city":"Colorado Springs","name":"4271 Saunter Drive Colorado Springs CO 80920","zipcode":80920.0,"geo_score":0.902,"id":"a64k20w615c6","geo_precision":"range","address":"4271 Saunter Drive","state":"CO"},"type":"Feature","geometry":{"type":"Point","coordinates":[-104.745649,38.956703]}},{"properties":{"city":"Cascade","name":"4325 Out Post Road Cascade CO 80809","zipcode":80809.0,"geo_score":0.902,"id":"a64k20kvq4fa","geo_precision":"range","address":"4325 Out Post Road","state":"CO"},"type":"Feature","geometry":{"type":"Point","coordinates":[-104.966543,38.895676]}},{"properties":{"city":"Colorado Springs","name":"4327 Hawks Lookout Lane Colorado Springs CO 80916","zipcode":80916.0,"geo_score":0.902,"id":"a64k20yoen1o","geo_precision":"range","address":"4327 Hawks Lookout Lane","state":"CO"},"type":"Feature","geometry":{"type":"Point","coordinates":[-104.750523,38.803999]}},{"properties":{"city":"COLORADO SPRINGS","name":"4420 ALLISON DR. COLORADO SPRINGS CO 80916","zipcode":80916.0,"geo_score":0.902,"id":"a64k20wno20f","geo_precision":"range","address":"4420 ALLISON DR.","state":"CO"},"type":"Feature","geometry":{"type":"Point","coordinates":[-104.7467,38.787037]}},{"properties":{"city":"Colorado Springs","name":"4435 East Anvil Drive Colorado Springs CO 80925","zipcode":80925.0,"geo_score":0.902,"id":"a64k20p8s56j","geo_precision":"range","address":"4435 East Anvil Drive","state":"CO"},"type":"Feature","geometry":{"type":"Point","coordinates":[-104.652355,38.765447]}},{"properties":{"city":"Colorado Springs","name":"4449 Fenton Road Colorado Springs CO 80916","zipcode":80916.0,"geo_score":0.902,"id":"a64k20xbi6b9","geo_precision":"range","address":"4449 Fenton Road","state":"CO"},"type":"Feature","geometry":{"type":"Point","coordinates":[-104.745035,38.807981]}},{"properties":{"city":"COLORADO SPRINGS","name":"445 RANGELY DRIVE COLORADO SPRINGS CO 80921","zipcode":80921.0,"geo_score":0.902,"id":"a64k20zer61n","geo_precision":"range","address":"445 RANGELY DRIVE","state":"CO"},"type":"Feature","geometry":{"type":"Point","coordinates":[-104.818074,39.049305]}},{"properties":{"city":"COLORADO SPRINGS","name":"4513 LAMPLIGHTER CIRCLE COLORADO SPRINGS CO 80916","zipcode":80916.0,"geo_score":0.902,"id":"a64k20qrdu99","geo_precision":"range","address":"4513 LAMPLIGHTER CIRCLE","state":"CO"},"type":"Feature","geometry":{"type":"Point","coordinates":[-104.744341,38.797799]}},{"properties":{"city":"Colorado Springs","name":"4520 Beaumont Road Colorado Springs CO 80916","zipcode":80916.0,"geo_score":0.902,"id":"a64k20m7o3t5","geo_precision":"range","address":"4520 Beaumont Road","state":"CO"},"type":"Feature","geometry":{"type":"Point","coordinates":[-104.744287,38.79146]}},{"properties":{"city":"Colorado Springs","name":"4520 Debonair Circle Colorado Springs CO 80917","zipcode":80917.0,"geo_score":0.902,"id":"a64k20q2uiy1","geo_precision":"range","address":"4520 Debonair Circle","state":"CO"},"type":"Feature","geometry":{"type":"Point","coordinates":[-104.742642,38.87998]}},{"properties":{"city":"Colorado Springs","name":"4535 Gatewood Dr Colorado Springs CO 80916","zipcode":80916.0,"geo_score":0.902,"id":"a64k20wfujw9","geo_precision":"range","address":"4535 Gatewood Dr","state":"CO"},"type":"Feature","geometry":{"type":"Point","coordinates":[-104.74486,38.800837]}},{"properties":{"city":"PEYTON","name":"4560 WINDMILL FLATS COURT PEYTON 80831","zipcode":null,"geo_score":0.434,"id":"a64k20q0gr8t","geo_precision":"street","address":"4560 WINDMILL FLATS COURT","state":"80831"},"type":"Feature","geometry":{"type":"Point","coordinates":[-104.546006,39.057237]}},{"properties":{"city":"COLORADO SPRINGS","name":"4645 PICTURESQUE DRIVE COLORADO SPRINGS CO 80917","zipcode":80917.0,"geo_score":0.902,"id":"a64k20mk41fp","geo_precision":"range","address":"4645 PICTURESQUE DRIVE","state":"CO"},"type":"Feature","geometry":{"type":"Point","coordinates":[-104.740281,38.887329]}},{"properties":{"city":"Colorado Springs","name":"4674 Witches Hollow Ln Colorado Springs CO 80911","zipcode":80911.0,"geo_score":0.902,"id":"a64k20w03z4k","geo_precision":"range","address":"4674 Witches Hollow Ln","state":"CO"},"type":"Feature","geometry":{"type":"Point","coordinates":[-104.743398,38.766852]}},{"properties":{"city":"Colorado Springs","name":"4763 Poleplant Drive Colorado Springs CO 80918","zipcode":80918.0,"geo_score":0.902,"id":"a64k20u1ylcz","geo_precision":"range","address":"4763 Poleplant Drive","state":"CO"},"type":"Feature","geometry":{"type":"Point","coordinates":[-104.735026,38.915129]}},{"properties":{"city":"COLORADO SPRINGS","name":"4765 S SPLENDID CIRCLE COLORADO SPRINGS CO 80917","zipcode":80917.0,"geo_score":0.902,"id":"a64k20ygit20","geo_precision":"range","address":"4765 S SPLENDID CIRCLE","state":"CO"},"type":"Feature","geometry":{"type":"Point","coordinates":[-104.739232,38.891778]}},{"properties":{"city":"COLORADO SPRINGS","name":"4790 PICTURESQUE DRIVE COLORADO SPRINGS CO 80917","zipcode":80917.0,"geo_score":0.902,"id":"a64k20ne67c1","geo_precision":"range","address":"4790 PICTURESQUE DRIVE","state":"CO"},"type":"Feature","geometry":{"type":"Point","coordinates":[-104.738686,38.888065]}},{"properties":{"city":"COLORADO SPRINGS","name":"4853 CHAPARRAL RD. COLORADO SPRINGS CO 80917","zipcode":80917.0,"geo_score":0.902,"id":"a64k20xqbxqc","geo_precision":"range","address":"4853 CHAPARRAL RD.","state":"CO"},"type":"Feature","geometry":{"type":"Point","coordinates":[-104.727906,38.901046]}},{"properties":{"city":"Colorado Springs","name":"487 Pyrite Ter Colorado Springs CO 80904","zipcode":80904.0,"geo_score":0.902,"id":"a64k20pzsfud","geo_precision":"range","address":"487 Pyrite Ter","state":"CO"},"type":"Feature","geometry":{"type":"Point","coordinates":[-104.85275,38.825685]}},{"properties":{"city":"COLORADO SPRINGS","name":"4910 WINESKIN CIRCLE COLORADO SPRINGS CO 80916","zipcode":80916.0,"geo_score":0.902,"id":"a64k20warq7u","geo_precision":"range","address":"4910 WINESKIN CIRCLE","state":"CO"},"type":"Feature","geometry":{"type":"Point","coordinates":[-104.73528,38.80226]}},{"properties":{"city":"Colorado Springs","name":"4918 Rusty Nail Point Colorado Springs CO 80916","zipcode":80916.0,"geo_score":0.521,"id":"a64k20k9tmij","geo_precision":"street","address":"4918 Rusty Nail Point","state":"CO"},"type":"Feature","geometry":{"type":"Point","coordinates":[-104.868956,38.952732]}},{"properties":{"city":"Colorado Springs","name":"4924 Painted Sky View Colorado Springs CO 80916","zipcode":80916.0,"geo_score":0.582,"id":"a64k20kekoko","geo_precision":"street","address":"4924 Painted Sky View","state":"CO"},"type":"Feature","geometry":{"type":"Point","coordinates":[-104.761056,38.967566]}},{"properties":{"city":"Colorado Springs","name":"4927 Galena Drive Colorado Springs CO 80918","zipcode":80918.0,"geo_score":0.902,"id":"a64k20y7tffc","geo_precision":"range","address":"4927 Galena Drive","state":"CO"},"type":"Feature","geometry":{"type":"Point","coordinates":[-104.763322,38.903131]}},{"properties":{"city":"Colorado Springs","name":"4927 Rusty Nail Point Colorado Springs CO 80916","zipcode":80916.0,"geo_score":0.521,"id":"a64k20ktmzls","geo_precision":"street","address":"4927 Rusty Nail Point","state":"CO"},"type":"Feature","geometry":{"type":"Point","coordinates":[-104.868956,38.952732]}},{"properties":{"city":"Colorado Springs","name":"5005 Old Fountain Boulevard Colorado Springs CO 80916","zipcode":80916.0,"geo_score":0.902,"id":"a64k20za5wix","geo_precision":"range","address":"5005 Old Fountain Boulevard","state":"CO"},"type":"Feature","geometry":{"type":"Point","coordinates":[-104.734642,38.810011]}},{"properties":{"city":"Colorado Springs","name":"5020 Hunters Run Colorado Springs CO 80911","zipcode":80911.0,"geo_score":0.902,"id":"a64k20yda2mi","geo_precision":"range","address":"5020 Hunters Run","state":"CO"},"type":"Feature","geometry":{"type":"Point","coordinates":[-104.735855,38.763234]}},{"properties":{"city":"Peyton","name":"5035 Wileys Road Peyton CO 80831","zipcode":80831.0,"geo_score":0.902,"id":"a64k20tkk2rc","geo_precision":"range","address":"5035 Wileys Road","state":"CO"},"type":"Feature","geometry":{"type":"Point","coordinates":[-104.537166,38.904944]}},{"properties":{"city":"COLORADO SPRINGS","name":"5049 MIRA LOMA CIR COLORADO SPRINGS CO 80918","zipcode":80918.0,"geo_score":0.902,"id":"a64k20rcv82d","geo_precision":"range","address":"5049 MIRA LOMA CIR","state":"CO"},"type":"Feature","geometry":{"type":"Point","coordinates":[-104.762862,38.905991]}},{"properties":{"city":"Colorado Springs","name":"522 Shady Crest Drive Colorado Springs CO 80916","zipcode":80916.0,"geo_score":0.835,"id":"a64k20xpb8t1","geo_precision":"range","address":"522 Shady Crest Drive","state":"CO"},"type":"Feature","geometry":{"type":"Point","coordinates":[-104.745499,38.824888]}},{"properties":{"city":"COLORADO SPRINGS","name":"5295 SUBURBAN DRIVE COLORADO SPRINGS CO 80911","zipcode":80911.0,"geo_score":0.902,"id":"a64k20t831qm","geo_precision":"range","address":"5295 SUBURBAN DRIVE","state":"CO"},"type":"Feature","geometry":{"type":"Point","coordinates":[-104.730195,38.759405]}},{"properties":{"city":"Colorado Springs","name":"5310 Balsam St Colorado Springs CO 80918","zipcode":80918.0,"geo_score":0.902,"id":"a64k20vyyyut","geo_precision":"range","address":"5310 Balsam St","state":"CO"},"type":"Feature","geometry":{"type":"Point","coordinates":[-104.726985,38.924272]}},{"properties":{"city":"COLORADO SPRINGS","name":"5315 STANDARD DRIVE COLORADO SPRINGS CO 80922","zipcode":80922.0,"geo_score":0.504,"id":"a64k20mbx2nz","geo_precision":"street","address":"5315 STANDARD DRIVE","state":"CO"},"type":"Feature","geometry":{"type":"Point","coordinates":[-104.588057,38.319542]}},{"properties":{"city":"Colorado Springs","name":"5316 Balsam St Colorado Springs CO 80918","zipcode":80918.0,"geo_score":0.902,"id":"a64k20qdmewr","geo_precision":"range","address":"5316 Balsam St","state":"CO"},"type":"Feature","geometry":{"type":"Point","coordinates":[-104.726926,38.924319]}},{"properties":{"city":"Colorado Springs","name":"5360 Tupper Court Colorado Springs CO 80918","zipcode":80918.0,"geo_score":0.902,"id":"a64k20lia00u","geo_precision":"range","address":"5360 Tupper Court","state":"CO"},"type":"Feature","geometry":{"type":"Point","coordinates":[-104.723796,38.920568]}},{"properties":{"city":"Colorado Springs","name":"5537 Timepiece Point Colorado Springs CO 80915","zipcode":80915.0,"geo_score":0.53,"id":"a64k20qp7r1k","geo_precision":"city","address":"5537 Timepiece Point","state":"CO"},"type":"Feature","geometry":{"type":"Point","coordinates":[-104.857828,38.861469]}},{"properties":{"city":"Colorado Springs","name":"5714 Cassina Drive Colorado Springs CO 80922","zipcode":80922.0,"geo_score":0.577,"id":"a64k20q6g04n","geo_precision":"street","address":"5714 Cassina Drive","state":"CO"},"type":"Feature","geometry":{"type":"Point","coordinates":[-104.855494,38.942624]}},{"properties":{"city":"Colorado Springs","name":"5745 Industrial Place Colorado Springs CO 80916","zipcode":80916.0,"geo_score":0.902,"id":"a64k20nbsk3n","geo_precision":"range","address":"5745 Industrial Place","state":"CO"},"type":"Feature","geometry":{"type":"Point","coordinates":[-104.721785,38.823673]}},{"properties":{"city":"COLORADO SPRINGS","name":"5756 RED ONION WAY COLORADO SPRINGS CO 80918","zipcode":80918.0,"geo_score":0.902,"id":"a64k20rkzzg5","geo_precision":"range","address":"5756 RED ONION WAY","state":"CO"},"type":"Feature","geometry":{"type":"Point","coordinates":[-104.766551,38.915969]}},{"properties":{"city":"COLORADO SPRINGS","name":"5837 HARNEY DRIVE COLORADO SPRINGS CO 80920","zipcode":80920.0,"geo_score":0.545,"id":"a64k20osn62z","geo_precision":"street","address":"5837 HARNEY DRIVE","state":"CO"},"type":"Feature","geometry":{"type":"Point","coordinates":[-104.83864,38.892375]}},{"properties":{"city":"Colorado Springs","name":"5906 Instone Circle Colorado Springs CO 80922","zipcode":80922.0,"geo_score":0.902,"id":"a64k20qbl341","geo_precision":"range","address":"5906 Instone Circle","state":"CO"},"type":"Feature","geometry":{"type":"Point","coordinates":[-104.707311,38.899209]}},{"properties":{"city":"Colorado Springs","name":"5917 Corinth Drive Colorado Springs CO 80918","zipcode":80918.0,"geo_score":0.902,"id":"a64k20ner5nm","geo_precision":"range","address":"5917 Corinth Drive","state":"CO"},"type":"Feature","geometry":{"type":"Point","coordinates":[-104.73169,38.920645]}},{"properties":{"city":"COLORADO SPRINGS","name":"6002 VALLECITO DR. COLORADO SPRINGS CO 80922","zipcode":80922.0,"geo_score":0.902,"id":"a64k20pa0uql","geo_precision":"range","address":"6002 VALLECITO DR.","state":"CO"},"type":"Feature","geometry":{"type":"Point","coordinates":[-104.714123,38.91753]}},{"properties":{"city":"Colorado Springs","name":"601 Huron Road Colorado Springs CO 80910","zipcode":80910.0,"geo_score":0.902,"id":"a64k20x3cuyi","geo_precision":"range","address":"601 Huron Road","state":"CO"},"type":"Feature","geometry":{"type":"Point","coordinates":[-104.791525,38.823614]}},{"properties":{"city":"COLORADO SPRINGS","name":"6046 SIERRA GRANDE POINT COLORADO SPRINGS CO 80922","zipcode":80922.0,"geo_score":0.561,"id":"a64k20q6tgro","geo_precision":"street","address":"6046 SIERRA GRANDE POINT","state":"CO"},"type":"Feature","geometry":{"type":"Point","coordinates":[-104.729639,38.87243]}},{"properties":{"city":"COLORADO SPRINGS","name":"6125 HEMINGWAY RD COLORADO SPRINGS CO 80930","zipcode":80930.0,"geo_score":0.878,"id":"a64k20xh1yzl","geo_precision":"range","address":"6125 HEMINGWAY RD","state":"CO"},"type":"Feature","geometry":{"type":"Point","coordinates":[-104.496806,38.752939]}},{"properties":{"city":"Colorado Springs","name":"613 Bickley Street Colorado Springs CO 80911","zipcode":80911.0,"geo_score":0.902,"id":"a64k20va6jjm","geo_precision":"range","address":"613 Bickley Street","state":"CO"},"type":"Feature","geometry":{"type":"Point","coordinates":[-104.71408,38.728684]}},{"properties":{"city":"Colorado Springs","name":"620 Bonfoy Avenue Colorado Springs CO 80909","zipcode":80909.0,"geo_score":0.902,"id":"a64k20jyaohj","geo_precision":"range","address":"620 Bonfoy Avenue","state":"CO"},"type":"Feature","geometry":{"type":"Point","coordinates":[-104.79286,38.841228]}},{"properties":{"city":"Colorado Springs","name":"630 Dove Place Colorado Springs CO 80906","zipcode":80906.0,"geo_score":0.902,"id":"a64k20qrxdts","geo_precision":"range","address":"630 Dove Place","state":"CO"},"type":"Feature","geometry":{"type":"Point","coordinates":[-104.793082,38.775338]}},{"properties":{"city":"Colorado Springs","name":"6364 Casual Drive Colorado Springs CO 80922","zipcode":80922.0,"geo_score":0.902,"id":"a64k20kq5998","geo_precision":"range","address":"6364 Casual Drive","state":"CO"},"type":"Feature","geometry":{"type":"Point","coordinates":[-104.702581,38.92364]}},{"properties":{"city":"COLORADO SPRINGS","name":"6475 COOL MOUNTAIN DR COLORADO SPRINGS CO 80922","zipcode":80922.0,"geo_score":0.902,"id":"a64k20yo65xb","geo_precision":"range","address":"6475 COOL MOUNTAIN DR","state":"CO"},"type":"Feature","geometry":{"type":"Point","coordinates":[-104.703476,38.917876]}},{"properties":{"city":"COLORADO SPRINGS","name":"6524 THISTLEWOOD STREET COLORADO SPRINGS CO 80923","zipcode":80923.0,"geo_score":0.526,"id":"a64k20uwkrz6","geo_precision":"city","address":"6524 THISTLEWOOD STREET","state":"CO"},"type":"Feature","geometry":{"type":"Point","coordinates":[-104.857828,38.861469]}},{"properties":{"city":"Colorado Springs","name":"6542 Trenton Street Colorado Springs CO 80922","zipcode":80922.0,"geo_score":0.531,"id":"a64k20xzlpag","geo_precision":"city","address":"6542 Trenton Street","state":"CO"},"type":"Feature","geometry":{"type":"Point","coordinates":[-104.857828,38.861469]}},{"properties":{"city":"Colorado Springs","name":"6627 Cabana Circle Colorado Springs CO 80922","zipcode":80922.0,"geo_score":0.902,"id":"a64k20oxdxef","geo_precision":"range","address":"6627 Cabana Circle","state":"CO"},"type":"Feature","geometry":{"type":"Point","coordinates":[-104.704385,38.921576]}},{"properties":{"city":"COLORADO SPRINGS","name":"6629 STANDING ROCK PLACE COLORADO SPRINGS CO 80918","zipcode":80918.0,"geo_score":0.902,"id":"a64k20pe24bo","geo_precision":"range","address":"6629 STANDING ROCK PLACE","state":"CO"},"type":"Feature","geometry":{"type":"Point","coordinates":[-104.749228,38.93476]}},{"properties":{"city":"Colorado Springs","name":"6661 Proud Eagle Court Colorado Springs CO 80915","zipcode":80915.0,"geo_score":0.902,"id":"a64k20nt3hcd","geo_precision":"range","address":"6661 Proud Eagle Court","state":"CO"},"type":"Feature","geometry":{"type":"Point","coordinates":[-104.703166,38.851627]}},{"properties":{"city":"Colorado Springs","name":"6664 Abbeywood Drive Colorado Springs CO 80922","zipcode":80922.0,"geo_score":0.53,"id":"a64k20v6qmav","geo_precision":"city","address":"6664 Abbeywood Drive","state":"CO"},"type":"Feature","geometry":{"type":"Point","coordinates":[-104.857828,38.861469]}},{"properties":{"city":"COLORADO SPRINGS","name":"6735 DREAM WEAVER DR COLORADO SPRINGS CO 80923","zipcode":80923.0,"geo_score":0.902,"id":"a64k20pf3s5q","geo_precision":"range","address":"6735 DREAM WEAVER DR","state":"CO"},"type":"Feature","geometry":{"type":"Point","coordinates":[-104.747106,38.935312]}},{"properties":{"city":"Colorado Springs","name":"6735 Nokomis Circle Colorado Springs CO 80915","zipcode":80915.0,"geo_score":0.902,"id":"a64k20obu53a","geo_precision":"range","address":"6735 Nokomis Circle","state":"CO"},"type":"Feature","geometry":{"type":"Point","coordinates":[-104.703424,38.855735]}},{"properties":{"city":"Colorado Springs","name":"6737 Fowler Dr Colorado Springs CO 80922","zipcode":80922.0,"geo_score":0.561,"id":"a64k20m0ezmu","geo_precision":"street","address":"6737 Fowler Dr","state":"CO"},"type":"Feature","geometry":{"type":"Point","coordinates":[-104.76603,38.938525]}},{"properties":{"city":"Colorado Springs","name":"6755 Burrows Road Colorado Springs CO 80908","zipcode":80908.0,"geo_score":0.902,"id":"a64k20o7dykm","geo_precision":"range","address":"6755 Burrows Road","state":"CO"},"type":"Feature","geometry":{"type":"Point","coordinates":[-104.701224,39.002522]}},{"properties":{"city":"COLORADO SPRINGS","name":"6790 CONNAUGHT DRIVE COLORADO SPRINGS CO 80908","zipcode":80908.0,"geo_score":0.548,"id":"a64k20k7lo6j","geo_precision":"street","address":"6790 CONNAUGHT DRIVE","state":"CO"},"type":"Feature","geometry":{"type":"Point","coordinates":[-104.698313,38.870158]}},{"properties":{"city":"COLORADO SPRINGS","name":"6833 HARRIER DRIVE COLORADO SPRINGS CO 80922","zipcode":80922.0,"geo_score":0.532,"id":"a64k20ju71ii","geo_precision":"city","address":"6833 HARRIER DRIVE","state":"CO"},"type":"Feature","geometry":{"type":"Point","coordinates":[-104.857828,38.861469]}},{"properties":{"city":"Colorado Springs","name":"6925 Hazelwood Lane Colorado Springs CO 80918","zipcode":80918.0,"geo_score":0.902,"id":"a64k20oyig9a","geo_precision":"range","address":"6925 Hazelwood Lane","state":"CO"},"type":"Feature","geometry":{"type":"Point","coordinates":[-104.762124,38.933333]}},{"properties":{"city":"Colorado Springs","name":"6960 Ashley Drive Colorado Springs CO 80922","zipcode":80922.0,"geo_score":0.902,"id":"a64k20nfwhw9","geo_precision":"range","address":"6960 Ashley Drive","state":"CO"},"type":"Feature","geometry":{"type":"Point","coordinates":[-104.701155,38.897449]}},{"properties":{"city":"Fountain","name":"6963 Maram Way Fountain CO 80817","zipcode":80817.0,"geo_score":0.707,"id":"a64k20l13kiu","geo_precision":"street","address":"6963 Maram Way","state":"CO"},"type":"Feature","geometry":{"type":"Point","coordinates":[-104.702005,38.71168]}},{"properties":{"city":"Colorado Springs","name":"6992 Big Timber Drive Colorado Springs CO 80918","zipcode":80918.0,"geo_score":0.902,"id":"a64k20qqpqwt","geo_precision":"range","address":"6992 Big Timber Drive","state":"CO"},"type":"Feature","geometry":{"type":"Point","coordinates":[-104.744647,38.938917]}},{"properties":{"city":"COLORADO SPRINGS","name":"702 DEAN DRIVE COLORADO SPRINGS CO 80911","zipcode":80911.0,"geo_score":0.902,"id":"a64k20w748j3","geo_precision":"range","address":"702 DEAN DRIVE","state":"CO"},"type":"Feature","geometry":{"type":"Point","coordinates":[-104.717719,38.734219]}},{"properties":{"city":"FOUNTAIN","name":"7041 YAMPA RIVER HEIGHTS FOUNTAIN CO 80817","zipcode":80817.0,"geo_score":0.468,"id":"a64k20zgl2to","geo_precision":"street","address":"7041 YAMPA RIVER HEIGHTS","state":"CO"},"type":"Feature","geometry":{"type":"Point","coordinates":[-104.726922,38.727326]}},{"properties":{"city":"Colorado Springs","name":"7045 Coolidge Court Colorado Springs CO 80911","zipcode":80911.0,"geo_score":0.902,"id":"a64k20ocfa0b","geo_precision":"range","address":"7045 Coolidge Court","state":"CO"},"type":"Feature","geometry":{"type":"Point","coordinates":[-104.702047,38.729445]}},{"properties":{"city":"COLORADO SPRINGS","name":"7061 CLEVELAND COURT COLORADO SPRINGS CO 80911","zipcode":80911.0,"geo_score":0.902,"id":"a64k20wlg40z","geo_precision":"range","address":"7061 CLEVELAND COURT","state":"CO"},"type":"Feature","geometry":{"type":"Point","coordinates":[-104.705225,38.729539]}},{"properties":{"city":"COLORADO SPRINGS","name":"71 RISING SUN TERRACE COLORADO SPRINGS CO 80921","zipcode":80921.0,"geo_score":0.902,"id":"a64k20ntbx4m","geo_precision":"range","address":"71 RISING SUN TERRACE","state":"CO"},"type":"Feature","geometry":{"type":"Point","coordinates":[-104.827896,39.032846]}},{"properties":{"city":"Fountain","name":"7113 Yampa River Heights Fountain CO 80817","zipcode":80817.0,"geo_score":0.468,"id":"a64k20s17gwj","geo_precision":"street","address":"7113 Yampa River Heights","state":"CO"},"type":"Feature","geometry":{"type":"Point","coordinates":[-104.726922,38.727326]}},{"properties":{"city":"COLORADO SPRINGS","name":"7120 CANYON CREEK PT COLORADO SPRINGS CO 80922","zipcode":80922.0,"geo_score":0.902,"id":"a64k20ps2sip","geo_precision":"range","address":"7120 CANYON CREEK PT","state":"CO"},"type":"Feature","geometry":{"type":"Point","coordinates":[-104.698532,38.876239]}},{"properties":{"city":"Fountain","name":"715 Baling Wire Way Fountain CO 80817","zipcode":80817.0,"geo_score":0.518,"id":"a64k20sru6ve","geo_precision":"city","address":"715 Baling Wire Way","state":"CO"},"type":"Feature","geometry":{"type":"Point","coordinates":[-104.652221,38.663856]}},{"properties":{"city":"Colorado Springs","name":"717 Andover Street Colorado Springs CO 80911","zipcode":80911.0,"geo_score":0.902,"id":"a64k20waumkl","geo_precision":"range","address":"717 Andover Street","state":"CO"},"type":"Feature","geometry":{"type":"Point","coordinates":[-104.709035,38.724387]}},{"properties":{"city":"Colorado Springs","name":"72 Sherri Drive Colorado Springs CO 80911","zipcode":80911.0,"geo_score":0.902,"id":"a64k20vf87jn","geo_precision":"range","address":"72 Sherri Drive","state":"CO"},"type":"Feature","geometry":{"type":"Point","coordinates":[-104.746654,38.75673]}},{"properties":{"city":"COLORADO SPRINGS","name":"7215 HERMITS HOLLOW COURT COLORADO SPRINGS CO 80911","zipcode":80911.0,"geo_score":0.863,"id":"a64k20snhbgx","geo_precision":"range","address":"7215 HERMITS HOLLOW COURT","state":"CO"},"type":"Feature","geometry":{"type":"Point","coordinates":[-104.700111,38.726019]}},{"properties":{"city":"FOUNTAIN","name":"7251 BENTWATER DRIVE FOUNTAIN CO 80817","zipcode":80817.0,"geo_score":0.516,"id":"a64k20qjmdvb","geo_precision":"city","address":"7251 BENTWATER DRIVE","state":"CO"},"type":"Feature","geometry":{"type":"Point","coordinates":[-104.652221,38.663856]}},{"properties":{"city":"Peyton","name":"7261 Maybeck View Peyton CO 80831","zipcode":80831.0,"geo_score":0.513,"id":"a64k20xno53f","geo_precision":"city","address":"7261 Maybeck View","state":"CO"},"type":"Feature","geometry":{"type":"Point","coordinates":[-104.526328,38.984206]}},{"properties":{"city":"COLORADO SPRINGS","name":"7274 EDGEBROOK DR. COLORADO SPRINGS CO 80922","zipcode":80922.0,"geo_score":0.534,"id":"a64k20krl938","geo_precision":"city","address":"7274 EDGEBROOK DR.","state":"CO"},"type":"Feature","geometry":{"type":"Point","coordinates":[-104.857828,38.861469]}},{"properties":{"city":"COLORADO SPRINGS","name":"730 SAN FERNANDO PLACE COLORADO SPRINGS CO 80906","zipcode":80906.0,"geo_score":0.902,"id":"a64k20x6dp04","geo_precision":"range","address":"730 SAN FERNANDO PLACE","state":"CO"},"type":"Feature","geometry":{"type":"Point","coordinates":[-104.814976,38.777869]}},{"properties":{"city":"COLORADO SPRINGS","name":"7350 ASPEN GLEN LN COLORADO SPRINGS CO 80919","zipcode":80919.0,"geo_score":0.902,"id":"a64k20v6rou9","geo_precision":"range","address":"7350 ASPEN GLEN LN","state":"CO"},"type":"Feature","geometry":{"type":"Point","coordinates":[-104.872616,38.935467]}},{"properties":{"city":"COLORADO SPRINGS","name":"7385 PRYTHANIA PARK DRIVE COLORADO SPRINGS CO 80921","zipcode":80921.0,"geo_score":0.902,"id":"a64k20y286qk","geo_precision":"range","address":"7385 PRYTHANIA PARK DRIVE","state":"CO"},"type":"Feature","geometry":{"type":"Point","coordinates":[-104.689693,38.915701]}},{"properties":{"city":"Peyton","name":"7395 Beinecke Point Peyton CO 80831","zipcode":80831.0,"geo_score":0.463,"id":"a64k20zbac6g","geo_precision":"street","address":"7395 Beinecke Point","state":"CO"},"type":"Feature","geometry":{"type":"Point","coordinates":[-105.05562,38.946846]}},{"properties":{"city":"Colorado Springs","name":"7428 Falconer VW Colorado Springs CO 80922","zipcode":80922.0,"geo_score":0.561,"id":"a64k20sg7k3h","geo_precision":"street","address":"7428 Falconer VW","state":"CO"},"type":"Feature","geometry":{"type":"Point","coordinates":[-104.755466,38.794772]}},{"properties":{"city":"Colorado Springs","name":"7430 Woodstock Street Colorado Springs CO 80911","zipcode":80911.0,"geo_score":0.902,"id":"a64k20rk0a0a","geo_precision":"range","address":"7430 Woodstock Street","state":"CO"},"type":"Feature","geometry":{"type":"Point","coordinates":[-104.690165,38.728121]}},{"properties":{"city":"COLORADO SPRINGS","name":"744 E KIOWA ST. COLORADO SPRINGS CO 80903","zipcode":80903.0,"geo_score":0.902,"id":"a64k20oqb8rm","geo_precision":"range","address":"744 E KIOWA ST.","state":"CO"},"type":"Feature","geometry":{"type":"Point","coordinates":[-104.811997,38.834885]}},{"properties":{"city":"Monument","name":"745 El Dorado Way Monument CO 80132","zipcode":80132.0,"geo_score":0.902,"id":"a64k20tf4agl","geo_precision":"range","address":"745 El Dorado Way","state":"CO"},"type":"Feature","geometry":{"type":"Point","coordinates":[-104.841584,39.100925]}},{"properties":{"city":"Fountain","name":"7459 Middle Bay Way Fountain CO 80817","zipcode":80817.0,"geo_score":0.415,"id":"a64k20mdwqj4","geo_precision":"street","address":"7459 Middle Bay Way","state":"CO"},"type":"Feature","geometry":{"type":"Point","coordinates":[-104.593565,38.960927]}},{"properties":{"city":"COLORADO SPRINGS","name":"7490 TREASURE TRAIL COLORADO SPRINGS CO 80911","zipcode":80911.0,"geo_score":0.531,"id":"a64k20vur4ht","geo_precision":"city","address":"7490 TREASURE TRAIL","state":"CO"},"type":"Feature","geometry":{"type":"Point","coordinates":[-104.857828,38.861469]}},{"properties":{"city":"Peyton","name":"7507 Soane Grove Peyton CO 80831","zipcode":80831.0,"geo_score":0.351,"id":"a64k20wuwv3c","geo_precision":"street","address":"7507 Soane Grove","state":"CO"},"type":"Feature","geometry":{"type":"Point","coordinates":[-104.566081,38.964842]}},{"properties":{"city":"FOUNTAIN","name":"7518 SANDY SPRINGS POINT FOUNTAIN CO 80817","zipcode":80817.0,"geo_score":0.485,"id":"a64k20nytcmi","geo_precision":"street","address":"7518 SANDY SPRINGS POINT","state":"CO"},"type":"Feature","geometry":{"type":"Point","coordinates":[-104.973458,38.899763]}},{"properties":{"city":"PEYTON","name":"7578 SOANE GRV PEYTON CO 80831","zipcode":80831.0,"geo_score":0.488,"id":"a64k20usou2w","geo_precision":"street","address":"7578 SOANE GRV","state":"CO"},"type":"Feature","geometry":{"type":"Point","coordinates":[-104.566081,38.964842]}},{"properties":{"city":"COLORADO SPRINGS","name":"758 CIMA VISTA POINT COLORADO SPRINGS CO 80916","zipcode":80916.0,"geo_score":0.531,"id":"a64k20qr370l","geo_precision":"city","address":"758 CIMA VISTA POINT","state":"CO"},"type":"Feature","geometry":{"type":"Point","coordinates":[-104.857828,38.861469]}},{"properties":{"city":"Fountain","name":"7660 Ramaglia Lane Fountain CO 80817","zipcode":80817.0,"geo_score":0.518,"id":"a64k20zoz9tq","geo_precision":"city","address":"7660 Ramaglia Lane","state":"CO"},"type":"Feature","geometry":{"type":"Point","coordinates":[-104.652221,38.663856]}},{"properties":{"city":"Fountain","name":"7661 Artisan Place Fountain CO 80817","zipcode":80817.0,"geo_score":0.518,"id":"a64k20ky2kpu","geo_precision":"city","address":"7661 Artisan Place","state":"CO"},"type":"Feature","geometry":{"type":"Point","coordinates":[-104.652221,38.663856]}},{"properties":{"city":"FOUNTAIN","name":"7662 BARN OWL DRIVE FOUNTAIN CO 80817","zipcode":80817.0,"geo_score":0.707,"id":"a64k20q2twnf","geo_precision":"street","address":"7662 BARN OWL DRIVE","state":"CO"},"type":"Feature","geometry":{"type":"Point","coordinates":[-104.677489,38.671026]}},{"properties":{"city":"Fountain","name":"7672 Fiona Lane Fountain CO 80817","zipcode":80817.0,"geo_score":0.456,"id":"a64k20z5vwy2","geo_precision":"street","address":"7672 Fiona Lane","state":"CO"},"type":"Feature","geometry":{"type":"Point","coordinates":[-104.699396,38.68645]}},{"properties":{"city":"Colorado Springs","name":"77 Jasper Drive Colorado Springs CO 80911","zipcode":80911.0,"geo_score":0.902,"id":"a64k20wh9r58","geo_precision":"range","address":"77 Jasper Drive","state":"CO"},"type":"Feature","geometry":{"type":"Point","coordinates":[-104.749259,38.759637]}},{"properties":{"city":"FOUNTAIN","name":"7721 MONTE CHRISTO BAY COURT FOUNTAIN CO 80817","zipcode":80817.0,"geo_score":0.421,"id":"a64k20w51cza","geo_precision":"street","address":"7721 MONTE CHRISTO BAY COURT","state":"CO"},"type":"Feature","geometry":{"type":"Point","coordinates":[-104.924969,38.867774]}},{"properties":{"city":"Colorado Springs","name":"7735 Valley Quail Point Colorado Springs CO 80922","zipcode":80922.0,"geo_score":0.902,"id":"a64k20kr35s4","geo_precision":"range","address":"7735 Valley Quail Point","state":"CO"},"type":"Feature","geometry":{"type":"Point","coordinates":[-104.684445,38.897968]}},{"properties":{"city":"Peyton","name":"7824 Tompkins Road Peyton CO 80831","zipcode":80831.0,"geo_score":0.902,"id":"a64k20tr45jf","geo_precision":"range","address":"7824 Tompkins Road","state":"CO"},"type":"Feature","geometry":{"type":"Point","coordinates":[-104.60036,38.947252]}},{"properties":{"city":"COLORADO SPRINGS","name":"7910 BLACK FOREST ROAD COLORADO SPRINGS CO 80908","zipcode":80908.0,"geo_score":0.902,"id":"a64k20tyymc0","geo_precision":"range","address":"7910 BLACK FOREST ROAD","state":"CO"},"type":"Feature","geometry":{"type":"Point","coordinates":[-104.700922,38.945508]}},{"properties":{"city":"Colorado Springs","name":"7917 French Rd Colorado Springs CO 80920","zipcode":80920.0,"geo_score":0.902,"id":"a64k20ss2oxq","geo_precision":"range","address":"7917 French Rd","state":"CO"},"type":"Feature","geometry":{"type":"Point","coordinates":[-104.727236,38.946284]}},{"properties":{"city":"COLORADO SPRINGS","name":"809 EAST VERMIJO AVENUE COLORADO SPRINGS CO 80903","zipcode":80903.0,"geo_score":0.902,"id":"a64k20m7duec","geo_precision":"range","address":"809 EAST VERMIJO AVENUE","state":"CO"},"type":"Feature","geometry":{"type":"Point","coordinates":[-104.810467,38.829239]}},{"properties":{"city":"COLORADO SPRINGS","name":"815 SKYWAY BLVD COLORADO SPRINGS CO 80906","zipcode":80906.0,"geo_score":0.844,"id":"a64k20snuiux","geo_precision":"range","address":"815 SKYWAY BLVD","state":"CO"},"type":"Feature","geometry":{"type":"Point","coordinates":[-104.846027,38.813013]}},{"properties":{"city":"FOUNTAIN","name":"8181 SNOW BOWL HEIGHTS FOUNTAIN CO 80817","zipcode":80817.0,"geo_score":0.346,"id":"a64k20t2okc3","geo_precision":"street","address":"8181 SNOW BOWL HEIGHTS","state":"CO"},"type":"Feature","geometry":{"type":"Point","coordinates":[-104.70665,38.676559]}},{"properties":{"city":"PEYTON","name":"8191 TOMPKINS ROAD PEYTON CO 80831","zipcode":80831.0,"geo_score":0.902,"id":"a64k20tteq9m","geo_precision":"range","address":"8191 TOMPKINS ROAD","state":"CO"},"type":"Feature","geometry":{"type":"Point","coordinates":[-104.604718,38.952776]}},{"properties":{"city":"Black Forest","name":"8330 Mustang Place Black Forest CO 80908","zipcode":80908.0,"geo_score":0.902,"id":"a64k20wt7e4v","geo_precision":"range","address":"8330 Mustang Place","state":"CO"},"type":"Feature","geometry":{"type":"Point","coordinates":[-104.673715,38.953403]}},{"properties":{"city":"Colorado Springs","name":"838 Zion Drive Colorado Springs CO 80910","zipcode":80910.0,"geo_score":0.902,"id":"a64k20msfd5z","geo_precision":"range","address":"838 Zion Drive","state":"CO"},"type":"Feature","geometry":{"type":"Point","coordinates":[-104.781617,38.819981]}},{"properties":{"city":"COLORADO SPRINGS","name":"84 KATHI CIRCLE COLORADO SPRINGS CO 80911","zipcode":80911.0,"geo_score":0.902,"id":"a64k20x1u59i","geo_precision":"range","address":"84 KATHI CIRCLE","state":"CO"},"type":"Feature","geometry":{"type":"Point","coordinates":[-104.743949,38.753633]}},{"properties":{"city":"COLORADO SPRINGS","name":"8403 CHANCELLOR DR COLORADO SPRINGS CO 80920","zipcode":80920.0,"geo_score":0.902,"id":"a64k20l3ex6x","geo_precision":"range","address":"8403 CHANCELLOR DR","state":"CO"},"type":"Feature","geometry":{"type":"Point","coordinates":[-104.736292,38.953527]}},{"properties":{"city":"FOUNTAIN","name":"8430 MEADOWCREST FOUNTAIN CO 80817","zipcode":80817.0,"geo_score":0.519,"id":"a64k20npera8","geo_precision":"city","address":"8430 MEADOWCREST","state":"CO"},"type":"Feature","geometry":{"type":"Point","coordinates":[-104.652221,38.663856]}},{"properties":{"city":"Fountian","name":"8515 Dassel Drive Fountian CO 80817","zipcode":80817.0,"geo_score":0.0,"id":"a64k20yh7qrv","geo_precision":"unmatched","address":"8515 Dassel Drive","state":"CO"},"type":"Feature","geometry":null},{"properties":{"city":"FOUNTAIN","name":"8516 DASSEL DR FOUNTAIN CO 80817","zipcode":80817.0,"geo_score":0.523,"id":"a64k20xr4uy4","geo_precision":"city","address":"8516 DASSEL DR","state":"CO"},"type":"Feature","geometry":{"type":"Point","coordinates":[-104.652221,38.663856]}},{"properties":{"city":"Colorado Springs","name":"92 Sherri Drive Colorado Springs CO 80911","zipcode":80911.0,"geo_score":0.902,"id":"a64k20kngkrh","geo_precision":"range","address":"92 Sherri Drive","state":"CO"},"type":"Feature","geometry":{"type":"Point","coordinates":[-104.746337,38.756863]}},{"properties":{"city":"COLORADO SPRINGS","name":"927 E CIMARRON ST COLORADO SPRINGS CO 80903","zipcode":80903.0,"geo_score":0.902,"id":"a64k20l6sasg","geo_precision":"range","address":"927 E CIMARRON ST","state":"CO"},"type":"Feature","geometry":{"type":"Point","coordinates":[-104.807674,38.826363]}},{"properties":{"city":"COLORADO SPRINGS","name":"930 S. PROSPECT STREET COLORADO SPRINGS CO 80903","zipcode":80903.0,"geo_score":0.902,"id":"a64k20xxoznm","geo_precision":"range","address":"930 S. PROSPECT STREET","state":"CO"},"type":"Feature","geometry":{"type":"Point","coordinates":[-104.810816,38.820679]}},{"properties":{"city":"Colorado Springs","name":"934 Old Dutch Mill Road Colorado Springs CO 80907","zipcode":80907.0,"geo_score":0.902,"id":"a64k20rbjuo9","geo_precision":"range","address":"934 Old Dutch Mill Road","state":"CO"},"type":"Feature","geometry":{"type":"Point","coordinates":[-104.838007,38.894988]}},{"properties":{"city":"COLORADO SPRINGS","name":"9343 STONEGLEN DRIVE COLORADO SPRINGS CO 80920","zipcode":80920.0,"geo_score":0.709,"id":"a64k20v4kjjm","geo_precision":"street","address":"9343 STONEGLEN DRIVE","state":"CO"},"type":"Feature","geometry":{"type":"Point","coordinates":[-104.76626,38.9676]}},{"properties":{"city":"Colorado Springs","name":"9359 Daystar Ter Colorado Springs CO 80925","zipcode":80925.0,"geo_score":0.902,"id":"a64k20qmzdd4","geo_precision":"range","address":"9359 Daystar Ter","state":"CO"},"type":"Feature","geometry":{"type":"Point","coordinates":[-104.651318,38.772091]}},{"properties":{"city":"Fountain","name":"993 Square Dance Lane Fountain CO 80817","zipcode":80817.0,"geo_score":0.35,"id":"a64k20l1kc6l","geo_precision":"street","address":"993 Square Dance Lane","state":"CO"},"type":"Feature","geometry":{"type":"Point","coordinates":[-105.223811,38.913447]}},{"properties":{"city":"COLORADO SPRINGS","name":"VACANT LAND COLORADO SPRINGS CO 80907","zipcode":80907.0,"geo_score":0.557,"id":"a64k20qr4px3","geo_precision":"street","address":"VACANT LAND","state":"CO"},"type":"Feature","geometry":{"type":"Point","coordinates":[-104.726053,38.741386]}}],"is_temporal":false,"author":{"url":"","metadata":"","contact_name":"","contact_address":"","source":"","contact_phone":""},"source":"","pagination":{"sort":null,"start":0,"total":293,"limit":1000000},"state":"complete","tags":"cos,foreclosure","published":"2009-09-19T12:00:00Z","id":16216}