{"type":"FeatureCollection","data_type":"Dataset","url_type":null,"permissions":[{"permissions":{"download":true,"view":true},"group_id":"everyone"}],"classification":null,"title":"20090128 POST SALE LIST","count":43,"stream_id":16224,"contributor":{"url":"http://geocommons.com/users/8589","name":"satspy"},"data_attributes":null,"calculation_params":null,"icon_link":null,"link":"http://geocommons.com/overlays/16224.json","extent":[-105.402,37.2356,-103.085,39.2513],"geometry_types":["point"],"unique_name":null,"name":"20090128 POST SALE LIST","feature_count":43,"description":"","next_feature":null,"is_raster":false,"short_classification":"Y","stats":{"zipcode":{"max":80951.0,"mean":80897.8837209302,"variance":1288.34330011074,"stdev":35.893499412996,"min":80817.0,"median":80910.0},"geo_score":{"max":0.902,"mean":0.798162790697675,"variance":0.030222472868217,"stdev":0.173846118358211,"min":0.258,"median":0.902}},"features":[{"properties":{"city":"Colorado Springs","name":"1111 E BOULDER STREETColorado Springs CO 80903","zipcode":80903.0,"geo_score":0.902,"id":"a673di3ex5yb","geo_precision":"range","address":"1111 E BOULDER STREET","state":"CO"},"type":"Feature","geometry":{"type":"Point","coordinates":[-104.80484,38.838947]}},{"properties":{"city":"Colorado Springs","name":"1195 Vondelpark DriveColorado Springs CO 80907","zipcode":80907.0,"geo_score":0.902,"id":"a673dib3k7oc","geo_precision":"range","address":"1195 Vondelpark Drive","state":"CO"},"type":"Feature","geometry":{"type":"Point","coordinates":[-104.84431,38.888403]}},{"properties":{"city":"Colorado Springs","name":"1207 North Union Blvd.Colorado Springs CO 80909","zipcode":80909.0,"geo_score":0.902,"id":"a673digfg564","geo_precision":"range","address":"1207 North Union Blvd.","state":"CO"},"type":"Feature","geometry":{"type":"Point","coordinates":[-104.794199,38.849128]}},{"properties":{"city":"PEYTON","name":"12574 PINE VALLEY CIRCLE PEYTON CO 80831","zipcode":80831.0,"geo_score":0.52,"id":"a673difrm8i9","geo_precision":"street","address":"12574 PINE VALLEY CIRCLE","state":"CO"},"type":"Feature","geometry":{"type":"Point","coordinates":[-105.401693,38.883803]}},{"properties":{"city":"Colorado Springs","name":"1348 SARATOGA DRColorado Springs CO 80910","zipcode":80910.0,"geo_score":0.78,"id":"a673dif9zw45","geo_precision":"range","address":"1348 SARATOGA DR","state":"CO"},"type":"Feature","geometry":{"type":"Point","coordinates":[-104.769373,38.81259]}},{"properties":{"city":"Colorado Springs","name":"1447 WOOLSEY HEIGHTSColorado Springs CO 80915","zipcode":80915.0,"geo_score":0.503,"id":"a673dif1znld","geo_precision":"street","address":"1447 WOOLSEY HEIGHTS","state":"CO"},"type":"Feature","geometry":{"type":"Point","coordinates":[-104.733993,38.747871]}},{"properties":{"city":"Peyton","name":"15819 Spencer Road Peyton CO 80831","zipcode":80831.0,"geo_score":0.902,"id":"a673didg9nu1","geo_precision":"range","address":"15819 Spencer Road","state":"CO"},"type":"Feature","geometry":{"type":"Point","coordinates":[-104.533784,38.983702]}},{"properties":{"city":"Colorado Springs","name":"1709 North Chestnut StreetColorado Springs CO 80907","zipcode":80907.0,"geo_score":0.902,"id":"a673di6xwjjb","geo_precision":"range","address":"1709 North Chestnut Street","state":"CO"},"type":"Feature","geometry":{"type":"Point","coordinates":[-104.835804,38.858266]}},{"properties":{"city":"Colorado Springs","name":"1907 Cadillac AveColorado Springs CO 80909","zipcode":80909.0,"geo_score":0.902,"id":"a673di60fluj","geo_precision":"range","address":"1907 Cadillac Ave","state":"CO"},"type":"Feature","geometry":{"type":"Point","coordinates":[-104.771595,38.859424]}},{"properties":{"city":"Fountain","name":"20795 Deputy Point Fountain CO 80817","zipcode":80817.0,"geo_score":0.518,"id":"a673dice029t","geo_precision":"city","address":"20795 Deputy Point","state":"CO"},"type":"Feature","geometry":{"type":"Point","coordinates":[-104.652221,38.663856]}},{"properties":{"city":"Colorado Springs","name":"2080 POTEAE CIRColorado Springs CO 80915","zipcode":80915.0,"geo_score":0.902,"id":"a673di1yg9fx","geo_precision":"range","address":"2080 POTEAE CIR","state":"CO"},"type":"Feature","geometry":{"type":"Point","coordinates":[-104.696203,38.862393]}},{"properties":{"city":"Colorado Springs","name":"214 Bassett DriveColorado Springs CO 80910","zipcode":80910.0,"geo_score":0.902,"id":"a673di0f4c4l","geo_precision":"range","address":"214 Bassett Drive","state":"CO"},"type":"Feature","geometry":{"type":"Point","coordinates":[-104.778781,38.828315]}},{"properties":{"city":"Colorado Springs","name":"2145 BUCOLO AVENUEColorado Springs CO 80951","zipcode":80951.0,"geo_score":0.512,"id":"a673dibgm281","geo_precision":"street","address":"2145 BUCOLO AVENUE","state":"CO"},"type":"Feature","geometry":{"type":"Point","coordinates":[-104.770438,38.925363]}},{"properties":{"city":"Colorado Springs","name":"2185 Alicia Point Unit 202Colorado Springs CO 80919","zipcode":80919.0,"geo_score":0.766,"id":"a673di159ek2","geo_precision":"range","address":"2185 Alicia Point Unit 202","state":"CO"},"type":"Feature","geometry":{"type":"Point","coordinates":[-104.865364,38.927379]}},{"properties":{"city":"Colorado Springs","name":"2226 Streambank DriveColorado Springs CO 80915","zipcode":80915.0,"geo_score":0.528,"id":"a673di2kcxie","geo_precision":"city","address":"2226 Streambank Drive","state":"CO"},"type":"Feature","geometry":{"type":"Point","coordinates":[-104.857828,38.861469]}},{"properties":{"city":"Colorado Springs","name":"2370 LEXINGTON VILLAGE LANEColorado Springs CO 80916","zipcode":80916.0,"geo_score":0.902,"id":"a673dicjk9xq","geo_precision":"range","address":"2370 LEXINGTON VILLAGE LANE","state":"CO"},"type":"Feature","geometry":{"type":"Point","coordinates":[-104.743801,38.798755]}},{"properties":{"city":"Colorado Springs","name":"2455 Shawnee DriveColorado Springs CO 80915","zipcode":80915.0,"geo_score":0.902,"id":"a673die6b23y","geo_precision":"range","address":"2455 Shawnee Drive","state":"CO"},"type":"Feature","geometry":{"type":"Point","coordinates":[-104.693923,38.868089]}},{"properties":{"city":"Colorado Springs","name":"2468 HATCH CIRCLEColorado Springs CO 80918","zipcode":80918.0,"geo_score":0.902,"id":"a673di9hcvmv","geo_precision":"range","address":"2468 HATCH CIRCLE","state":"CO"},"type":"Feature","geometry":{"type":"Point","coordinates":[-104.78083,38.93266]}},{"properties":{"city":"Colorado Springs","name":"2595 WOODDALE ROAD #55Colorado Springs CO 80906","zipcode":80906.0,"geo_score":0.854,"id":"a673di71fikr","geo_precision":"range","address":"2595 WOODDALE ROAD #55","state":"CO"},"type":"Feature","geometry":{"type":"Point","coordinates":[-104.779297,38.775775]}},{"properties":{"city":"Colorado Springs","name":"3118 Mission StreetColorado Springs CO 80909","zipcode":80909.0,"geo_score":0.902,"id":"a673di0x51sz","geo_precision":"range","address":"3118 Mission Street","state":"CO"},"type":"Feature","geometry":{"type":"Point","coordinates":[-104.772513,38.844742]}},{"properties":{"city":"Colorado Springs","name":"3122 HUDSON STREETColorado Springs CO 80910","zipcode":80910.0,"geo_score":0.902,"id":"a673dhzy80wd","geo_precision":"range","address":"3122 HUDSON STREET","state":"CO"},"type":"Feature","geometry":{"type":"Point","coordinates":[-104.771418,38.830322]}},{"properties":{"city":"Colorado Springs","name":"3830 POINT OF THE ROCKS DRIVEColorado Springs CO 80918","zipcode":80918.0,"geo_score":0.258,"id":"a673di4b48f8","geo_precision":"street","address":"3830 POINT OF THE ROCKS DRIVE","state":"CO"},"type":"Feature","geometry":{"type":"Point","coordinates":[-103.085127,37.235644]}},{"properties":{"city":"Colorado Springs","name":"4044 Sleepy Creek DriveColorado Springs CO 80925","zipcode":80925.0,"geo_score":0.902,"id":"a673dia7m96a","geo_precision":"range","address":"4044 Sleepy Creek Drive","state":"CO"},"type":"Feature","geometry":{"type":"Point","coordinates":[-104.64787,38.77234]}},{"properties":{"city":"Colorado Springs","name":"4555 SUNNYHILL DRIVEColorado Springs CO 80916","zipcode":80916.0,"geo_score":0.902,"id":"a673difnglsb","geo_precision":"range","address":"4555 SUNNYHILL DRIVE","state":"CO"},"type":"Feature","geometry":{"type":"Point","coordinates":[-104.743817,38.782662]}},{"properties":{"city":"Colorado Springs","name":"4592 HENNINGS DRIVEColorado Springs CO 80911","zipcode":80911.0,"geo_score":0.902,"id":"a673di95i14x","geo_precision":"range","address":"4592 HENNINGS DRIVE","state":"CO"},"type":"Feature","geometry":{"type":"Point","coordinates":[-104.749111,38.765677]}},{"properties":{"city":"Colorado Springs","name":"5140 HEARTHSTONEColorado Springs CO 80919","zipcode":80919.0,"geo_score":0.857,"id":"a673di8d89gs","geo_precision":"range","address":"5140 HEARTHSTONE","state":"CO"},"type":"Feature","geometry":{"type":"Point","coordinates":[-104.875243,38.907447]}},{"properties":{"city":"Colorado Springs","name":"515 Obyrne CtColorado Springs CO 80903-4454","zipcode":80903.0,"geo_score":0.902,"id":"a673di8lsqpp","geo_precision":"range","address":"515 Obyrne Ct","state":"CO"},"type":"Feature","geometry":{"type":"Point","coordinates":[-104.815494,38.82564]}},{"properties":{"city":"Colorado Springs","name":"5885 DEL REY DRIVEColorado Springs CO 80918","zipcode":80918.0,"geo_score":0.902,"id":"a673di2zd81w","geo_precision":"range","address":"5885 DEL REY DRIVE","state":"CO"},"type":"Feature","geometry":{"type":"Point","coordinates":[-104.771062,38.916799]}},{"properties":{"city":"Colorado Springs","name":"6040 SAILING COURTColorado Springs CO 80918","zipcode":80918.0,"geo_score":0.902,"id":"a673di7c2x70","geo_precision":"range","address":"6040 SAILING COURT","state":"CO"},"type":"Feature","geometry":{"type":"Point","coordinates":[-104.76055,38.919055]}},{"properties":{"city":"Colorado Springs","name":"6112 SCOTTS BLUFF DRColorado Springs CO 80922","zipcode":80922.0,"geo_score":0.902,"id":"a673difxrati","geo_precision":"range","address":"6112 SCOTTS BLUFF DR","state":"CO"},"type":"Feature","geometry":{"type":"Point","coordinates":[-104.715774,38.920116]}},{"properties":{"city":"Colorado Springs","name":"626 Sequoia DriveColorado Springs CO 80910","zipcode":80910.0,"geo_score":0.902,"id":"a673di95i0jj","geo_precision":"range","address":"626 Sequoia Drive","state":"CO"},"type":"Feature","geometry":{"type":"Point","coordinates":[-104.783531,38.823277]}},{"properties":{"city":"Colorado Springs","name":"6820 SNEAD STREETColorado Springs CO 80911","zipcode":80911.0,"geo_score":0.902,"id":"a673diesv8r2","geo_precision":"range","address":"6820 SNEAD STREET","state":"CO"},"type":"Feature","geometry":{"type":"Point","coordinates":[-104.705202,38.732617]}},{"properties":{"city":"Colorado Springs","name":"710 SOUTH EL PASO STREETColorado Springs CO 80903","zipcode":80903.0,"geo_score":0.902,"id":"a673di8orx2e","geo_precision":"range","address":"710 SOUTH EL PASO STREET","state":"CO"},"type":"Feature","geometry":{"type":"Point","coordinates":[-104.813381,38.823995]}},{"properties":{"city":"FOUNTAIN","name":"7190 CREEKFRONT DRIVE FOUNTAIN CO 80817","zipcode":80817.0,"geo_score":0.515,"id":"a673difyk069","geo_precision":"city","address":"7190 CREEKFRONT DRIVE","state":"CO"},"type":"Feature","geometry":{"type":"Point","coordinates":[-104.652221,38.663856]}},{"properties":{"city":"Colorado Springs","name":"7193 Arrowroot AvenueColorado Springs CO 80922","zipcode":80922.0,"geo_score":0.902,"id":"a673di8vrgl0","geo_precision":"range","address":"7193 Arrowroot Avenue","state":"CO"},"type":"Feature","geometry":{"type":"Point","coordinates":[-104.692989,38.910063]}},{"properties":{"city":"Falcon","name":"7234 Antelope Meadows Circle Falcon CO 80831","zipcode":80831.0,"geo_score":0.496,"id":"a673difrc2z7","geo_precision":"street","address":"7234 Antelope Meadows Circle","state":"CO"},"type":"Feature","geometry":{"type":"Point","coordinates":[-105.298391,38.998644]}},{"properties":{"city":"Colorado Springs","name":"7410 NEOTA WAYColorado Springs CO 80908","zipcode":80908.0,"geo_score":0.902,"id":"a673di409ioi","geo_precision":"range","address":"7410 NEOTA WAY","state":"CO"},"type":"Feature","geometry":{"type":"Point","coordinates":[-104.686464,39.07745]}},{"properties":{"city":"Peyton","name":"7505 Gallard Heights Peyton CO 80831","zipcode":80831.0,"geo_score":0.571,"id":"a673di7tqrty","geo_precision":"range","address":"7505 Gallard Heights","state":"CO"},"type":"Feature","geometry":{"type":"Point","coordinates":[-103.694922,39.251326]}},{"properties":{"city":"Colorado Springs","name":"8121 STEADMAN DRIVEColorado Springs CO 80920","zipcode":80920.0,"geo_score":0.805,"id":"a673dichht4l","geo_precision":"street","address":"8121 STEADMAN DRIVE","state":"CO"},"type":"Feature","geometry":{"type":"Point","coordinates":[-104.737593,38.951846]}},{"properties":{"city":"Colorado Springs","name":"82 Watson BlvdColorado Springs CO 80911","zipcode":80911.0,"geo_score":0.902,"id":"a673di57g5wx","geo_precision":"range","address":"82 Watson Blvd","state":"CO"},"type":"Feature","geometry":{"type":"Point","coordinates":[-104.726053,38.741386]}},{"properties":{"city":"PEYTON","name":"8389 TIBBS ROAD PEYTON CO 80831","zipcode":80831.0,"geo_score":0.902,"id":"a673di5abe6l","geo_precision":"range","address":"8389 TIBBS ROAD","state":"CO"},"type":"Feature","geometry":{"type":"Point","coordinates":[-104.593781,38.952986]}},{"properties":{"city":"Fountain","name":"854 Desert Circle Fountain CO 80817","zipcode":80817.0,"geo_score":0.902,"id":"a673di2j9cjq","geo_precision":"range","address":"854 Desert Circle","state":"CO"},"type":"Feature","geometry":{"type":"Point","coordinates":[-104.702142,38.696208]}},{"properties":{"city":"Colorado Springs","name":"8718 Quinn PointColorado Springs CO 80924","zipcode":80924.0,"geo_score":0.582,"id":"a673dicd9z4s","geo_precision":"street","address":"8718 Quinn Point","state":"CO"},"type":"Feature","geometry":{"type":"Point","coordinates":[-104.863405,38.857828]}}],"is_temporal":false,"author":{"url":"","metadata":"","contact_name":"","contact_address":"","source":"","contact_phone":""},"source":"","pagination":{"sort":null,"start":0,"total":43,"limit":1000000},"state":"complete","tags":"foreclosure","published":"2014-08-10T21:24:51-04:00","id":16224}