{"type":"FeatureCollection","data_type":"Dataset","url_type":null,"permissions":[{"permissions":{"download":true,"view":true},"group_id":"everyone"}],"classification":null,"title":"qq08","count":117,"stream_id":16327,"contributor":{"url":"http://geocommons.com/users/8619","name":"dchoe"},"data_attributes":null,"calculation_params":null,"icon_link":null,"link":"http://geocommons.com/overlays/16327.json","extent":[-105.853,25.9741,-86.5199,38.8852],"geometry_types":["point"],"unique_name":null,"name":"qq08","feature_count":117,"description":"","next_feature":null,"is_raster":false,"short_classification":"Y","stats":{"latitude":{"max":38.8851891,"mean":30.2189098282051,"variance":2.29193502835117,"stdev":1.51391381140116,"min":25.9740611,"median":29.7801889},"visits":{"max":38.0,"mean":3.43589743589744,"variance":30.8859416445623,"stdev":5.55751218123382,"min":1.0,"median":1.0},"longitude":{"max":-86.5198651,"mean":-95.7523471418803,"variance":2.77056276178592,"stdev":1.66450075451648,"min":-105.8525154,"median":-95.509247}},"features":[{"properties":{"city":"Arab","latitude":34.3483541,"zip":"35016","longitude":-86.5198651,"visits":1.0,"id":"a6696xcj334n"},"type":"Feature","geometry":{"type":"Point","coordinates":[-86.5198651,34.3483541]}},{"properties":{"city":null,"latitude":35.2256463,"zip":"38133","longitude":-89.7849127,"visits":1.0,"id":"a6696x6697ka"},"type":"Feature","geometry":{"type":"Point","coordinates":[-89.7849127,35.2256463]}},{"properties":{"city":"Lawrence","latitude":38.8851891,"zip":"66047","longitude":-95.3730176,"visits":1.0,"id":"a6696x51dwtn"},"type":"Feature","geometry":{"type":"Point","coordinates":[-95.3730176,38.8851891]}},{"properties":{"city":"Russellville","latitude":35.3305527,"zip":"72802","longitude":-93.0375914,"visits":1.0,"id":"a6696x7dj29b"},"type":"Feature","geometry":{"type":"Point","coordinates":[-93.0375914,35.3305527]}},{"properties":{"city":"Plano","latitude":33.0787152,"zip":"75024","longitude":-96.8083063,"visits":1.0,"id":"a6696x7lhvmd"},"type":"Feature","geometry":{"type":"Point","coordinates":[-96.8083063,33.0787152]}},{"properties":{"city":null,"latitude":33.0313883,"zip":"75028","longitude":-97.0552218,"visits":1.0,"id":"a6696x67fb7f"},"type":"Feature","geometry":{"type":"Point","coordinates":[-97.0552218,33.0313883]}},{"properties":{"city":"Frisco","latitude":33.1423417,"zip":"75035","longitude":-96.7708138,"visits":1.0,"id":"a6696xfxigq5"},"type":"Feature","geometry":{"type":"Point","coordinates":[-96.7708138,33.1423417]}},{"properties":{"city":"Dallas","latitude":32.8668443,"zip":"75225","longitude":-96.7868794,"visits":2.0,"id":"a6696xfs5g5p"},"type":"Feature","geometry":{"type":"Point","coordinates":[-96.7868794,32.8668443]}},{"properties":{"city":null,"latitude":32.2549724,"zip":"75631","longitude":-94.4593791,"visits":1.0,"id":"a6696xfnkmba"},"type":"Feature","geometry":{"type":"Point","coordinates":[-94.4593791,32.2549724]}},{"properties":{"city":"Benbrook","latitude":32.6623667,"zip":"76132","longitude":-97.4219122,"visits":1.0,"id":"a6696xa5p0zf"},"type":"Feature","geometry":{"type":"Point","coordinates":[-97.4219122,32.6623667]}},{"properties":{"city":null,"latitude":33.120724,"zip":"76226","longitude":-97.1574784,"visits":1.0,"id":"a6696x5gk7bz"},"type":"Feature","geometry":{"type":"Point","coordinates":[-97.1574784,33.120724]}},{"properties":{"city":"Houston","latitude":29.7476265,"zip":"77003","longitude":-95.3494719,"visits":1.0,"id":"a6696x7pwz3f"},"type":"Feature","geometry":{"type":"Point","coordinates":[-95.3494719,29.7476265]}},{"properties":{"city":null,"latitude":29.7183467,"zip":"77005","longitude":-95.4306141,"visits":25.0,"id":"a6696x628b35"},"type":"Feature","geometry":{"type":"Point","coordinates":[-95.4306141,29.7183467]}},{"properties":{"city":"Houston","latitude":29.7431508,"zip":"77006","longitude":-95.38872,"visits":3.0,"id":"a6696x3pedya"},"type":"Feature","geometry":{"type":"Point","coordinates":[-95.38872,29.7431508]}},{"properties":{"city":"Houston","latitude":29.7769344,"zip":"77007","longitude":-95.4096633,"visits":3.0,"id":"a6696xd31wd3"},"type":"Feature","geometry":{"type":"Point","coordinates":[-95.4096633,29.7769344]}},{"properties":{"city":"Houston","latitude":29.7995924,"zip":"77008","longitude":-95.4201377,"visits":4.0,"id":"a6696x710h2k"},"type":"Feature","geometry":{"type":"Point","coordinates":[-95.4201377,29.7995924]}},{"properties":{"city":"Houston","latitude":29.7901812,"zip":"77009","longitude":-95.3677844,"visits":5.0,"id":"a6696xgys348"},"type":"Feature","geometry":{"type":"Point","coordinates":[-95.3677844,29.7901812]}},{"properties":{"city":"Houston","latitude":29.9824128,"zip":"77014","longitude":-95.4620545,"visits":1.0,"id":"a6696xbllxud"},"type":"Feature","geometry":{"type":"Point","coordinates":[-95.4620545,29.9824128]}},{"properties":{"city":"Houston","latitude":29.6964209,"zip":"77017","longitude":-95.2579968,"visits":1.0,"id":"a6696xeu3kw8"},"type":"Feature","geometry":{"type":"Point","coordinates":[-95.2579968,29.6964209]}},{"properties":{"city":"Houston","latitude":29.8282298,"zip":"77018","longitude":-95.4253757,"visits":3.0,"id":"a6696x3hlno4"},"type":"Feature","geometry":{"type":"Point","coordinates":[-95.4253757,29.8282298]}},{"properties":{"city":"Houston","latitude":29.7538445,"zip":"77019","longitude":-95.4096633,"visits":11.0,"id":"a6696xbdg4rd"},"type":"Feature","geometry":{"type":"Point","coordinates":[-95.4096633,29.7538445]}},{"properties":{"city":null,"latitude":29.7726138,"zip":"77024","longitude":-95.514493,"visits":38.0,"id":"a6696x7bg6f3"},"type":"Feature","geometry":{"type":"Point","coordinates":[-95.514493,29.7726138]}},{"properties":{"city":null,"latitude":29.6832677,"zip":"77025","longitude":-95.4410924,"visits":8.0,"id":"a6696xbdpql9"},"type":"Feature","geometry":{"type":"Point","coordinates":[-95.4410924,29.6832677]}},{"properties":{"city":"Houston","latitude":29.740582,"zip":"77027","longitude":-95.4515725,"visits":5.0,"id":"a6696xbojrrx"},"type":"Feature","geometry":{"type":"Point","coordinates":[-95.4515725,29.740582]}},{"properties":{"city":"Houston","latitude":29.7597385,"zip":"77029","longitude":-95.2632201,"visits":1.0,"id":"a6696x5ncuy4"},"type":"Feature","geometry":{"type":"Point","coordinates":[-95.2632201,29.7597385]}},{"properties":{"city":"Houston","latitude":29.7080797,"zip":"77030","longitude":-95.3991907,"visits":4.0,"id":"a6696xg40w2i"},"type":"Feature","geometry":{"type":"Point","coordinates":[-95.3991907,29.7080797]}},{"properties":{"city":"Houston","latitude":29.6124152,"zip":"77034","longitude":-95.1901384,"visits":1.0,"id":"a6696xcmmh3e"},"type":"Feature","geometry":{"type":"Point","coordinates":[-95.1901384,29.6124152]}},{"properties":{"city":"Houston","latitude":29.6464527,"zip":"77035","longitude":-95.4935119,"visits":3.0,"id":"a6696xbs2u9u"},"type":"Feature","geometry":{"type":"Point","coordinates":[-95.4935119,29.6464527]}},{"properties":{"city":"Houston","latitude":29.8673877,"zip":"77041","longitude":-95.593239,"visits":2.0,"id":"a6696x7d7zig"},"type":"Feature","geometry":{"type":"Point","coordinates":[-95.593239,29.8673877]}},{"properties":{"city":"Houston","latitude":29.7362281,"zip":"77042","longitude":-95.5564777,"visits":1.0,"id":"a6696xhw78qa"},"type":"Feature","geometry":{"type":"Point","coordinates":[-95.5564777,29.7362281]}},{"properties":{"city":"Houston","latitude":29.8050424,"zip":"77043","longitude":-95.5669786,"visits":2.0,"id":"a6696xdp4i9p"},"type":"Feature","geometry":{"type":"Point","coordinates":[-95.5669786,29.8050424]}},{"properties":{"city":"Houston","latitude":29.8390871,"zip":"77049","longitude":-95.1536327,"visits":1.0,"id":"a6696xd9ma36"},"type":"Feature","geometry":{"type":"Point","coordinates":[-95.1536327,29.8390871]}},{"properties":{"city":"Houston","latitude":29.5895374,"zip":"77053","longitude":-95.4725384,"visits":1.0,"id":"a6696x7x2wf5"},"type":"Feature","geometry":{"type":"Point","coordinates":[-95.4725384,29.5895374]}},{"properties":{"city":"Houston","latitude":29.684552,"zip":"77054","longitude":-95.4096633,"visits":1.0,"id":"a6696x8otf36"},"type":"Feature","geometry":{"type":"Point","coordinates":[-95.4096633,29.684552]}},{"properties":{"city":"Houston","latitude":29.7965697,"zip":"77055","longitude":-95.4935119,"visits":2.0,"id":"a6696xcbpvum"},"type":"Feature","geometry":{"type":"Point","coordinates":[-95.4935119,29.7965697]}},{"properties":{"city":"Houston","latitude":29.7484861,"zip":"77056","longitude":-95.4699173,"visits":9.0,"id":"a6696xbcc1f2"},"type":"Feature","geometry":{"type":"Point","coordinates":[-95.4699173,29.7484861]}},{"properties":{"city":"Houston","latitude":29.7503969,"zip":"77057","longitude":-95.4935119,"visits":12.0,"id":"a6696x53v84o"},"type":"Feature","geometry":{"type":"Point","coordinates":[-95.4935119,29.7503969]}},{"properties":{"city":"Houston","latitude":29.915288,"zip":"77064","longitude":-95.551228,"visits":2.0,"id":"a6696xcnricu"},"type":"Feature","geometry":{"type":"Point","coordinates":[-95.551228,29.915288]}},{"properties":{"city":"Houston","latitude":29.935683,"zip":"77065","longitude":-95.6142558,"visits":2.0,"id":"a6696x556731"},"type":"Feature","geometry":{"type":"Point","coordinates":[-95.6142558,29.935683]}},{"properties":{"city":"Houston","latitude":29.991318,"zip":"77069","longitude":-95.5249863,"visits":2.0,"id":"a6696xj313ty"},"type":"Feature","geometry":{"type":"Point","coordinates":[-95.5249863,29.991318]}},{"properties":{"city":"Houston","latitude":29.9835689,"zip":"77070","longitude":-95.5722297,"visits":2.0,"id":"a6696xfmz898"},"type":"Feature","geometry":{"type":"Point","coordinates":[-95.5722297,29.9835689]}},{"properties":{"city":"Houston","latitude":29.6917896,"zip":"77074","longitude":-95.514493,"visits":1.0,"id":"a6696x913pdy"},"type":"Feature","geometry":{"type":"Point","coordinates":[-95.514493,29.6917896]}},{"properties":{"city":"Houston","latitude":29.7455614,"zip":"77077","longitude":-95.6090009,"visits":1.0,"id":"a6696x5xu0hf"},"type":"Feature","geometry":{"type":"Point","coordinates":[-95.6090009,29.7455614]}},{"properties":{"city":"Houston","latitude":29.7801889,"zip":"77079","longitude":-95.6090009,"visits":4.0,"id":"a6696xhyw1fl"},"type":"Feature","geometry":{"type":"Point","coordinates":[-95.6090009,29.7801889]}},{"properties":{"city":"Houston","latitude":29.8183406,"zip":"77080","longitude":-95.5249863,"visits":2.0,"id":"a6696xhsi5pq"},"type":"Feature","geometry":{"type":"Point","coordinates":[-95.5249863,29.8183406]}},{"properties":{"city":"Houston","latitude":29.7161912,"zip":"77081","longitude":-95.4830243,"visits":3.0,"id":"a6696x5f0p58"},"type":"Feature","geometry":{"type":"Point","coordinates":[-95.4830243,29.7161912]}},{"properties":{"city":"Houston","latitude":29.7220267,"zip":"77082","longitude":-95.6195112,"visits":2.0,"id":"a6696x595015"},"type":"Feature","geometry":{"type":"Point","coordinates":[-95.6195112,29.7220267]}},{"properties":{"city":"Houston","latitude":29.8296506,"zip":"77084","longitude":-95.6668306,"visits":2.0,"id":"a6696xbfwk69"},"type":"Feature","geometry":{"type":"Point","coordinates":[-95.6668306,29.8296506]}},{"properties":{"city":"Houston","latitude":29.8265052,"zip":"77092","longitude":-95.4672962,"visits":1.0,"id":"a6696xiwfgaa"},"type":"Feature","geometry":{"type":"Point","coordinates":[-95.4672962,29.8265052]}},{"properties":{"city":"Houston","latitude":29.8547143,"zip":"77093","longitude":-95.3416255,"visits":2.0,"id":"a6696xjbsytb"},"type":"Feature","geometry":{"type":"Point","coordinates":[-95.3416255,29.8547143]}},{"properties":{"city":"Houston","latitude":29.7484236,"zip":"77094","longitude":-95.6773512,"visits":3.0,"id":"a6696xemcz9c"},"type":"Feature","geometry":{"type":"Point","coordinates":[-95.6773512,29.7484236]}},{"properties":{"city":"Houston","latitude":29.9108312,"zip":"77095","longitude":-95.6563119,"visits":5.0,"id":"a6696xi0sotk"},"type":"Feature","geometry":{"type":"Point","coordinates":[-95.6563119,29.9108312]}},{"properties":{"city":"Houston","latitude":29.6699914,"zip":"77096","longitude":-95.4830243,"visits":19.0,"id":"a6696xj9uf6e"},"type":"Feature","geometry":{"type":"Point","coordinates":[-95.4830243,29.6699914]}},{"properties":{"city":"Houston","latitude":29.7333171,"zip":"77098","longitude":-95.417519,"visits":2.0,"id":"a6696x8c3lfg"},"type":"Feature","geometry":{"type":"Point","coordinates":[-95.417519,29.7333171]}},{"properties":{"city":"Houston","latitude":29.7632,"zip":"77248","longitude":-95.3633,"visits":1.0,"id":"a6696xipbw4c"},"type":"Feature","geometry":{"type":"Point","coordinates":[-95.3633,29.7632]}},{"properties":{"city":"Houston","latitude":29.7632,"zip":"77268","longitude":-95.3633,"visits":1.0,"id":"a6696xfednde"},"type":"Feature","geometry":{"type":"Point","coordinates":[-95.3633,29.7632]}},{"properties":{"city":"Montgomery","latitude":30.3344712,"zip":"77316","longitude":-95.7089241,"visits":1.0,"id":"a6696x81wpx3"},"type":"Feature","geometry":{"type":"Point","coordinates":[-95.7089241,30.3344712]}},{"properties":{"city":"Willis","latitude":30.4336128,"zip":"77318","longitude":-95.5407299,"visits":1.0,"id":"a6696xee7vpa"},"type":"Feature","geometry":{"type":"Point","coordinates":[-95.5407299,30.4336128]}},{"properties":{"city":"Cleveland","latitude":30.3792489,"zip":"77328","longitude":-95.1849219,"visits":1.0,"id":"a6696xbb8ass"},"type":"Feature","geometry":{"type":"Point","coordinates":[-95.1849219,30.3792489]}},{"properties":{"city":null,"latitude":30.0379935,"zip":"77336","longitude":-95.0806918,"visits":2.0,"id":"a6696x70xjxs"},"type":"Feature","geometry":{"type":"Point","coordinates":[-95.0806918,30.0379935]}},{"properties":{"city":"Humble","latitude":30.0442264,"zip":"77339","longitude":-95.2162283,"visits":4.0,"id":"a6696x9yplib"},"type":"Feature","geometry":{"type":"Point","coordinates":[-95.2162283,30.0442264]}},{"properties":{"city":null,"latitude":30.0633614,"zip":"77345","longitude":-95.1692752,"visits":2.0,"id":"a6696x8vufr6"},"type":"Feature","geometry":{"type":"Point","coordinates":[-95.1692752,30.0633614]}},{"properties":{"city":"Humble","latitude":29.9997656,"zip":"77346","longitude":-95.1744903,"visits":2.0,"id":"a6696xi0jpe5"},"type":"Feature","geometry":{"type":"Point","coordinates":[-95.1744903,29.9997656]}},{"properties":{"city":"Magnolia","latitude":30.2001196,"zip":"77354","longitude":-95.624767,"visits":1.0,"id":"a6696xhdrzcg"},"type":"Feature","geometry":{"type":"Point","coordinates":[-95.624767,30.2001196]}},{"properties":{"city":"Montgomery","latitude":30.4502629,"zip":"77356","longitude":-95.6878736,"visits":1.0,"id":"a6696xgmt9h5"},"type":"Feature","geometry":{"type":"Point","coordinates":[-95.6878736,30.4502629]}},{"properties":{"city":"Spring","latitude":30.0605454,"zip":"77373","longitude":-95.3834854,"visits":2.0,"id":"a6696xjgj08s"},"type":"Feature","geometry":{"type":"Point","coordinates":[-95.3834854,30.0605454]}},{"properties":{"city":"Tomball","latitude":30.1098349,"zip":"77375","longitude":-95.5827334,"visits":2.0,"id":"a6696xaeby5u"},"type":"Feature","geometry":{"type":"Point","coordinates":[-95.5827334,30.1098349]}},{"properties":{"city":"Tomball","latitude":30.0712446,"zip":"77377","longitude":-95.6773512,"visits":1.0,"id":"a6696x3fgoz5"},"type":"Feature","geometry":{"type":"Point","coordinates":[-95.6773512,30.0712446]}},{"properties":{"city":"Spring","latitude":30.0314279,"zip":"77379","longitude":-95.5302337,"visits":8.0,"id":"a6696x87q3jr"},"type":"Feature","geometry":{"type":"Point","coordinates":[-95.5302337,30.0314279]}},{"properties":{"city":null,"latitude":30.1704912,"zip":"77381","longitude":-95.509247,"visits":1.0,"id":"a6696xdlku2n"},"type":"Feature","geometry":{"type":"Point","coordinates":[-95.509247,30.1704912]}},{"properties":{"city":null,"latitude":30.1977163,"zip":"77382","longitude":-95.5459787,"visits":5.0,"id":"a6696x96ij34"},"type":"Feature","geometry":{"type":"Point","coordinates":[-95.5459787,30.1977163]}},{"properties":{"city":null,"latitude":30.2404085,"zip":"77384","longitude":-95.4882679,"visits":1.0,"id":"a6696xc74w8r"},"type":"Feature","geometry":{"type":"Point","coordinates":[-95.4882679,30.2404085]}},{"properties":{"city":"Spring","latitude":30.1185635,"zip":"77386","longitude":-95.3730176,"visits":2.0,"id":"a6696x4q3h8t"},"type":"Feature","geometry":{"type":"Point","coordinates":[-95.3730176,30.1185635]}},{"properties":{"city":"Spring","latitude":30.1244455,"zip":"77389","longitude":-95.509247,"visits":1.0,"id":"a6696xf6c8ae"},"type":"Feature","geometry":{"type":"Point","coordinates":[-95.509247,30.1244455]}},{"properties":{"city":"Bellaire","latitude":29.7055074,"zip":"77401","longitude":-95.4620545,"visits":26.0,"id":"a6696x8xpw08"},"type":"Feature","geometry":{"type":"Point","coordinates":[-95.4620545,29.7055074]}},{"properties":{"city":null,"latitude":29.6773427,"zip":"77407","longitude":-95.7194522,"visits":1.0,"id":"a6696x95w60w"},"type":"Feature","geometry":{"type":"Point","coordinates":[-95.7194522,29.6773427]}},{"properties":{"city":null,"latitude":29.8147644,"zip":"77423","longitude":-96.0044121,"visits":1.0,"id":"a6696xhf8yi7"},"type":"Feature","geometry":{"type":"Point","coordinates":[-96.0044121,29.8147644]}},{"properties":{"city":null,"latitude":30.0141064,"zip":"77429","longitude":-95.6668306,"visits":9.0,"id":"a6696x4hkval"},"type":"Feature","geometry":{"type":"Point","coordinates":[-95.6668306,30.0141064]}},{"properties":{"city":null,"latitude":29.920097,"zip":"77433","longitude":-95.7089241,"visits":1.0,"id":"a6696x7pdjdx"},"type":"Feature","geometry":{"type":"Point","coordinates":[-95.7089241,29.920097]}},{"properties":{"city":"Katy","latitude":29.83801,"zip":"77449","longitude":-95.7405139,"visits":2.0,"id":"a6696x6an0ou"},"type":"Feature","geometry":{"type":"Point","coordinates":[-95.7405139,29.83801]}},{"properties":{"city":"Katy","latitude":29.7226173,"zip":"77450","longitude":-95.7405139,"visits":10.0,"id":"a6696xi3r9wg"},"type":"Feature","geometry":{"type":"Point","coordinates":[-95.7405139,29.7226173]}},{"properties":{"city":"Missouri City","latitude":29.5235688,"zip":"77459","longitude":-95.5302337,"visits":20.0,"id":"a6696xcqgv4b"},"type":"Feature","geometry":{"type":"Point","coordinates":[-95.5302337,29.5235688]}},{"properties":{"city":null,"latitude":29.3601936,"zip":"77461","longitude":-95.8353837,"visits":1.0,"id":"a6696xcw288g"},"type":"Feature","geometry":{"type":"Point","coordinates":[-95.8353837,29.3601936]}},{"properties":{"city":null,"latitude":29.4600078,"zip":"77469","longitude":-95.6668306,"visits":1.0,"id":"a6696xbour4a"},"type":"Feature","geometry":{"type":"Point","coordinates":[-95.6668306,29.4600078]}},{"properties":{"city":"Stafford","latitude":29.6202873,"zip":"77477","longitude":-95.5669786,"visits":2.0,"id":"a6696x4z8vad"},"type":"Feature","geometry":{"type":"Point","coordinates":[-95.5669786,29.6202873]}},{"properties":{"city":"Sugar Land","latitude":29.6185208,"zip":"77478","longitude":-95.6090009,"visits":7.0,"id":"a6696xjkulf4"},"type":"Feature","geometry":{"type":"Point","coordinates":[-95.6090009,29.6185208]}},{"properties":{"city":"Sugar Land","latitude":29.5654066,"zip":"77479","longitude":-95.6352801,"visits":17.0,"id":"a6696xg3tb4d"},"type":"Feature","geometry":{"type":"Point","coordinates":[-95.6352801,29.5654066]}},{"properties":{"city":"Waller","latitude":30.0471471,"zip":"77484","longitude":-95.9621106,"visits":1.0,"id":"a6696xh2glkx"},"type":"Feature","geometry":{"type":"Point","coordinates":[-95.9621106,30.0471471]}},{"properties":{"city":"Missouri City","latitude":29.5938012,"zip":"77489","longitude":-95.509247,"visits":1.0,"id":"a6696xdoe8w8"},"type":"Feature","geometry":{"type":"Point","coordinates":[-95.509247,29.5938012]}},{"properties":{"city":"Katy","latitude":29.7300195,"zip":"77494","longitude":-95.8353837,"visits":3.0,"id":"a6696x5qpap4"},"type":"Feature","geometry":{"type":"Point","coordinates":[-95.8353837,29.7300195]}},{"properties":{"city":"Pasadena","latitude":29.6813519,"zip":"77502","longitude":-95.2005729,"visits":1.0,"id":"a6696xitd6c8"},"type":"Feature","geometry":{"type":"Point","coordinates":[-95.2005729,29.6813519]}},{"properties":{"city":"Alvin","latitude":29.3845708,"zip":"77511","longitude":-95.2475518,"visits":6.0,"id":"a6696xiry3ac"},"type":"Feature","geometry":{"type":"Point","coordinates":[-95.2475518,29.3845708]}},{"properties":{"city":null,"latitude":29.7291996,"zip":"77520","longitude":-95.0078451,"visits":1.0,"id":"a6696xg5ii2k"},"type":"Feature","geometry":{"type":"Point","coordinates":[-95.0078451,29.7291996]}},{"properties":{"city":null,"latitude":29.7688846,"zip":"77523","longitude":-94.8728093,"visits":1.0,"id":"a6696xhbw779"},"type":"Feature","geometry":{"type":"Point","coordinates":[-94.8728093,29.7688846]}},{"properties":{"city":"Crosby","latitude":29.9473469,"zip":"77532","longitude":-95.0390536,"visits":1.0,"id":"a6696xafqgg6"},"type":"Feature","geometry":{"type":"Point","coordinates":[-95.0390536,29.9473469]}},{"properties":{"city":"Fresno","latitude":29.5492923,"zip":"77545","longitude":-95.4672962,"visits":1.0,"id":"a6696xbxcb2e"},"type":"Feature","geometry":{"type":"Point","coordinates":[-95.4672962,29.5492923]}},{"properties":{"city":"Friendswood","latitude":29.5434428,"zip":"77546","longitude":-95.1797058,"visits":2.0,"id":"a6696xctb2dp"},"type":"Feature","geometry":{"type":"Point","coordinates":[-95.1797058,29.5434428]}},{"properties":{"city":"Galveston","latitude":29.2787953,"zip":"77551","longitude":-94.8261424,"visits":1.0,"id":"a6696xbpz3my"},"type":"Feature","geometry":{"type":"Point","coordinates":[-94.8261424,29.2787953]}},{"properties":{"city":"League City","latitude":29.4947986,"zip":"77573","longitude":-95.0911062,"visits":5.0,"id":"a6696xavaymi"},"type":"Feature","geometry":{"type":"Point","coordinates":[-95.0911062,29.4947986]}},{"properties":{"city":"Manvel","latitude":29.4841585,"zip":"77578","longitude":-95.3625516,"visits":2.0,"id":"a6696x44gjk8"},"type":"Feature","geometry":{"type":"Point","coordinates":[-95.3625516,29.4841585]}},{"properties":{"city":"Pearland","latitude":29.5800207,"zip":"77581","longitude":-95.2788926,"visits":3.0,"id":"a6696x75ho8j"},"type":"Feature","geometry":{"type":"Point","coordinates":[-95.2788926,29.5800207]}},{"properties":{"city":"Pearland","latitude":29.5535522,"zip":"77584","longitude":-95.3625516,"visits":3.0,"id":"a6696x3iu6em"},"type":"Feature","geometry":{"type":"Point","coordinates":[-95.3625516,29.5535522]}},{"properties":{"city":"Seabrook","latitude":29.5897112,"zip":"77586","longitude":-95.0286488,"visits":1.0,"id":"a6696xfdohsw"},"type":"Feature","geometry":{"type":"Point","coordinates":[-95.0286488,29.5897112]}},{"properties":{"city":null,"latitude":29.2785091,"zip":"77995","longitude":-97.0498442,"visits":2.0,"id":"a6696xcx3hl0"},"type":"Feature","geometry":{"type":"Point","coordinates":[-97.0498442,29.2785091]}},{"properties":{"city":"Floresville","latitude":29.1218718,"zip":"78114","longitude":-98.1775638,"visits":1.0,"id":"a6696xibjrih"},"type":"Feature","geometry":{"type":"Point","coordinates":[-98.1775638,29.1218718]}},{"properties":{"city":"Poth","latitude":29.0591721,"zip":"78147","longitude":-98.068343,"visits":1.0,"id":"a6696xc9pjqc"},"type":"Feature","geometry":{"type":"Point","coordinates":[-98.068343,29.0591721]}},{"properties":{"city":"Schertz","latitude":29.587207,"zip":"78154","longitude":-98.2978951,"visits":1.0,"id":"a6696x8a9ho3"},"type":"Feature","geometry":{"type":"Point","coordinates":[-98.2978951,29.587207]}},{"properties":{"city":"San Antonio","latitude":29.4854054,"zip":"78209","longitude":-98.4513272,"visits":1.0,"id":"a6696xbe14i2"},"type":"Feature","geometry":{"type":"Point","coordinates":[-98.4513272,29.4854054]}},{"properties":{"city":"San Antonio","latitude":29.580333,"zip":"78231","longitude":-98.5418899,"visits":1.0,"id":"a6696xh7uka7"},"type":"Feature","geometry":{"type":"Point","coordinates":[-98.5418899,29.580333]}},{"properties":{"city":"San Antonio","latitude":29.6451457,"zip":"78258","longitude":-98.4732718,"visits":1.0,"id":"a6696x6zgfjm"},"type":"Feature","geometry":{"type":"Point","coordinates":[-98.4732718,29.6451457]}},{"properties":{"city":null,"latitude":25.9740611,"zip":"78520","longitude":-97.5572231,"visits":1.0,"id":"a6696xfy5s7i"},"type":"Feature","geometry":{"type":"Point","coordinates":[-97.5572231,25.9740611]}},{"properties":{"city":null,"latitude":30.2319316,"zip":"78620","longitude":-98.090174,"visits":1.0,"id":"a6696x3u7w37"},"type":"Feature","geometry":{"type":"Point","coordinates":[-98.090174,30.2319316]}},{"properties":{"city":null,"latitude":30.1270728,"zip":"78652","longitude":-97.8340757,"visits":1.0,"id":"a6696x6p7n1g"},"type":"Feature","geometry":{"type":"Point","coordinates":[-97.8340757,30.1270728]}},{"properties":{"city":"Austin","latitude":30.2915328,"zip":"78703","longitude":-97.7688358,"visits":2.0,"id":"a6696xapj4oh"},"type":"Feature","geometry":{"type":"Point","coordinates":[-97.7688358,30.2915328]}},{"properties":{"city":"Austin","latitude":30.4244596,"zip":"78726","longitude":-97.8449549,"visits":1.0,"id":"a6696x9o6b7g"},"type":"Feature","geometry":{"type":"Point","coordinates":[-97.8449549,30.4244596]}},{"properties":{"city":"Austin","latitude":30.401356,"zip":"78759","longitude":-97.7525352,"visits":1.0,"id":"a6696xfi4fyp"},"type":"Feature","geometry":{"type":"Point","coordinates":[-97.7525352,30.401356]}},{"properties":{"city":"Santa Fe","latitude":35.616067,"zip":"87505","longitude":-105.8525154,"visits":1.0,"id":"a6696xj47j30"},"type":"Feature","geometry":{"type":"Point","coordinates":[-105.8525154,35.616067]}}],"is_temporal":false,"author":{"url":"","metadata":"","contact_name":"","contact_address":"","source":"","contact_phone":""},"source":"","pagination":{"sort":null,"start":0,"total":117,"limit":1000000},"state":"complete","tags":"","published":"2014-08-10T21:32:19-04:00","id":16327}