{"type":"FeatureCollection","data_type":"Dataset","url_type":null,"permissions":[{"permissions":{"download":true,"view":true},"group_id":"everyone"}],"classification":null,"title":"postcodes_platform_4","count":246,"stream_id":164497,"contributor":{"url":"http://geocommons.com/users/32741","name":"info@xtrax.org.uk"},"data_attributes":null,"calculation_params":null,"icon_link":null,"link":"http://geocommons.com/overlays/164497.json","extent":[0.0,0.0,0.0,0.0],"geometry_types":[],"unique_name":null,"name":"postcodes_platform_4","feature_count":246,"description":"","next_feature":null,"is_raster":false,"short_classification":"Y","stats":{},"features":[{"properties":{"postcode":"M16 8BW","geo_score":0.0,"country":"United Kindom","id":"a6ih4vumtges","geo_precision":"unmatched"},"type":"Feature","geometry":null},{"properties":{"postcode":"M14","geo_score":0.0,"country":"United Kindom","id":"a6ih4vmfahq6","geo_precision":"unmatched"},"type":"Feature","geometry":null},{"properties":{"postcode":"M21 8BB","geo_score":0.0,"country":"United Kindom","id":"a6ih4vt1bzlo","geo_precision":"unmatched"},"type":"Feature","geometry":null},{"properties":{"postcode":"M19","geo_score":0.0,"country":"United Kindom","id":"a6ih4vqvvyn9","geo_precision":"unmatched"},"type":"Feature","geometry":null},{"properties":{"postcode":"M50","geo_score":0.0,"country":"United Kindom","id":"a6ih4vkk4aho","geo_precision":"unmatched"},"type":"Feature","geometry":null},{"properties":{"postcode":"M16","geo_score":0.0,"country":"United Kindom","id":"a6ih4vmx5q7s","geo_precision":"unmatched"},"type":"Feature","geometry":null},{"properties":{"postcode":"WA14 5EY","geo_score":0.0,"country":"United Kindom","id":"a6ih4vpmhnx3","geo_precision":"unmatched"},"type":"Feature","geometry":null},{"properties":{"postcode":"M20","geo_score":0.0,"country":"United Kindom","id":"a6ih4vj2mir8","geo_precision":"unmatched"},"type":"Feature","geometry":null},{"properties":{"postcode":"M15 4AQ","geo_score":0.0,"country":"United Kindom","id":"a6ih4vf7tvrg","geo_precision":"unmatched"},"type":"Feature","geometry":null},{"properties":{"postcode":"BU","geo_score":0.0,"country":"United Kindom","id":"a6ih4vjpv2w0","geo_precision":"unmatched"},"type":"Feature","geometry":null},{"properties":{"postcode":"M9","geo_score":0.0,"country":"United Kindom","id":"a6ih4vsfy7e5","geo_precision":"unmatched"},"type":"Feature","geometry":null},{"properties":{"postcode":"M33","geo_score":0.0,"country":"United Kindom","id":"a6ih4vi9vpq2","geo_precision":"unmatched"},"type":"Feature","geometry":null},{"properties":{"postcode":"M33","geo_score":0.0,"country":"United Kindom","id":"a6ih4vh37qo0","geo_precision":"unmatched"},"type":"Feature","geometry":null},{"properties":{"postcode":"M33","geo_score":0.0,"country":"United Kindom","id":"a6ih4vimkj26","geo_precision":"unmatched"},"type":"Feature","geometry":null},{"properties":{"postcode":"M145J5","geo_score":0.0,"country":"United Kindom","id":"a6ih4vp7tkyh","geo_precision":"unmatched"},"type":"Feature","geometry":null},{"properties":{"postcode":"M21 ONG","geo_score":0.0,"country":"United Kindom","id":"a6ih4vqe9usc","geo_precision":"unmatched"},"type":"Feature","geometry":null},{"properties":{"postcode":"M15 4HS","geo_score":0.0,"country":"United Kindom","id":"a6ih4vib6gga","geo_precision":"unmatched"},"type":"Feature","geometry":null},{"properties":{"postcode":"M1 3WE","geo_score":0.0,"country":"United Kindom","id":"a6ih4vfhlpy3","geo_precision":"unmatched"},"type":"Feature","geometry":null},{"properties":{"postcode":"SK14 SRE","geo_score":0.0,"country":"United Kindom","id":"a6ih4vl50vb9","geo_precision":"unmatched"},"type":"Feature","geometry":null},{"properties":{"postcode":"SK7","geo_score":0.0,"country":"United Kindom","id":"a6ih4vtqakd1","geo_precision":"unmatched"},"type":"Feature","geometry":null},{"properties":{"postcode":"M32 9A2","geo_score":0.0,"country":"United Kindom","id":"a6ih4vl87ixc","geo_precision":"unmatched"},"type":"Feature","geometry":null},{"properties":{"postcode":"M32 9A2","geo_score":0.0,"country":"United Kindom","id":"a6ih4vra27tp","geo_precision":"unmatched"},"type":"Feature","geometry":null},{"properties":{"postcode":"M34","geo_score":0.0,"country":"United Kindom","id":"a6ih4vo2szwq","geo_precision":"unmatched"},"type":"Feature","geometry":null},{"properties":{"postcode":"M16","geo_score":0.0,"country":"United Kindom","id":"a6ih4vmu2ll8","geo_precision":"unmatched"},"type":"Feature","geometry":null},{"properties":{"postcode":"M1 6LG","geo_score":0.0,"country":"United Kindom","id":"a6ih4vu496cy","geo_precision":"unmatched"},"type":"Feature","geometry":null},{"properties":{"postcode":"M6 5LW","geo_score":0.0,"country":"United Kindom","id":"a6ih4vtx1nv7","geo_precision":"unmatched"},"type":"Feature","geometry":null},{"properties":{"postcode":"SK8 6AX","geo_score":0.0,"country":"United Kindom","id":"a6ih4vnzphjr","geo_precision":"unmatched"},"type":"Feature","geometry":null},{"properties":{"postcode":"M20 3FG","geo_score":0.0,"country":"United Kindom","id":"a6ih4vhma6dg","geo_precision":"unmatched"},"type":"Feature","geometry":null},{"properties":{"postcode":"MI6","geo_score":0.0,"country":"United Kindom","id":"a6ih4vp287jx","geo_precision":"unmatched"},"type":"Feature","geometry":null},{"properties":{"postcode":"OL16 IUT","geo_score":0.0,"country":"United Kindom","id":"a6ih4vuqbz9q","geo_precision":"unmatched"},"type":"Feature","geometry":null},{"properties":{"postcode":"M9 4EX","geo_score":0.0,"country":"United Kindom","id":"a6ih4vrxuzj8","geo_precision":"unmatched"},"type":"Feature","geometry":null},{"properties":{"postcode":"M16","geo_score":0.0,"country":"United Kindom","id":"a6ih4vp9qj5p","geo_precision":"unmatched"},"type":"Feature","geometry":null},{"properties":{"postcode":"046 IUT","geo_score":0.0,"country":"United Kindom","id":"a6ih4vtnu7gn","geo_precision":"unmatched"},"type":"Feature","geometry":null},{"properties":{"postcode":"M16 8QJ","geo_score":0.0,"country":"United Kindom","id":"a6ih4vrwbsum","geo_precision":"unmatched"},"type":"Feature","geometry":null},{"properties":{"postcode":"M21 8TW","geo_score":0.0,"country":"United Kindom","id":"a6ih4vj1eksk","geo_precision":"unmatched"},"type":"Feature","geometry":null},{"properties":{"postcode":"M21 8TH","geo_score":0.0,"country":"United Kindom","id":"a6ih4vgb9uci","geo_precision":"unmatched"},"type":"Feature","geometry":null},{"properties":{"postcode":"M32 BDH","geo_score":0.0,"country":"United Kindom","id":"a6ih4vfhoeqw","geo_precision":"unmatched"},"type":"Feature","geometry":null},{"properties":{"postcode":"M32 8DP","geo_score":0.0,"country":"United Kindom","id":"a6ih4vrjg2l8","geo_precision":"unmatched"},"type":"Feature","geometry":null},{"properties":{"postcode":"M14","geo_score":0.0,"country":"United Kindom","id":"a6ih4vobr4ag","geo_precision":"unmatched"},"type":"Feature","geometry":null},{"properties":{"postcode":"M20","geo_score":0.0,"country":"United Kindom","id":"a6ih4vsk483k","geo_precision":"unmatched"},"type":"Feature","geometry":null},{"properties":{"postcode":"M14","geo_score":0.0,"country":"United Kindom","id":"a6ih4vkhxb3l","geo_precision":"unmatched"},"type":"Feature","geometry":null},{"properties":{"postcode":"M16 8NS","geo_score":0.0,"country":"United Kindom","id":"a6ih4vstbmoe","geo_precision":"unmatched"},"type":"Feature","geometry":null},{"properties":{"postcode":"OL16 1UT","geo_score":0.0,"country":"United Kindom","id":"a6ih4vn9m0c3","geo_precision":"unmatched"},"type":"Feature","geometry":null},{"properties":{"postcode":"M21 8AA","geo_score":0.0,"country":"United Kindom","id":"a6ih4vjbhmus","geo_precision":"unmatched"},"type":"Feature","geometry":null},{"properties":{"postcode":"M14 5TA","geo_score":0.0,"country":"United Kindom","id":"a6ih4vi9hui2","geo_precision":"unmatched"},"type":"Feature","geometry":null},{"properties":{"postcode":"M20 455","geo_score":0.0,"country":"United Kindom","id":"a6ih4vqimjdf","geo_precision":"unmatched"},"type":"Feature","geometry":null},{"properties":{"postcode":"M21 9HD","geo_score":0.0,"country":"United Kindom","id":"a6ih4vtgexma","geo_precision":"unmatched"},"type":"Feature","geometry":null},{"properties":{"postcode":"M21","geo_score":0.0,"country":"United Kindom","id":"a6ih4vq9uu1n","geo_precision":"unmatched"},"type":"Feature","geometry":null},{"properties":{"postcode":"M20 4XR","geo_score":0.0,"country":"United Kindom","id":"a6ih4vfk5rg2","geo_precision":"unmatched"},"type":"Feature","geometry":null},{"properties":{"postcode":"M1 6BE","geo_score":0.0,"country":"United Kindom","id":"a6ih4vipiijg","geo_precision":"unmatched"},"type":"Feature","geometry":null},{"properties":{"postcode":"M1","geo_score":0.0,"country":"United Kindom","id":"a6ih4vor7cvh","geo_precision":"unmatched"},"type":"Feature","geometry":null},{"properties":{"postcode":"M13","geo_score":0.0,"country":"United Kindom","id":"a6ih4vjojopv","geo_precision":"unmatched"},"type":"Feature","geometry":null},{"properties":{"postcode":"M16 OBT","geo_score":0.0,"country":"United Kindom","id":"a6ih4viiip7a","geo_precision":"unmatched"},"type":"Feature","geometry":null},{"properties":{"postcode":"BL1 4QD","geo_score":0.0,"country":"United Kindom","id":"a6ih4vfidzmy","geo_precision":"unmatched"},"type":"Feature","geometry":null},{"properties":{"postcode":"M15 5WB","geo_score":0.0,"country":"United Kindom","id":"a6ih4vffc3yi","geo_precision":"unmatched"},"type":"Feature","geometry":null},{"properties":{"postcode":"BN2 4PS","geo_score":0.0,"country":"United Kindom","id":"a6ih4vnve928","geo_precision":"unmatched"},"type":"Feature","geometry":null},{"properties":{"postcode":"M16 OHB","geo_score":0.0,"country":"United Kindom","id":"a6ih4vqdk787","geo_precision":"unmatched"},"type":"Feature","geometry":null},{"properties":{"postcode":"BB4 7TW","geo_score":0.0,"country":"United Kindom","id":"a6ih4vpgwax3","geo_precision":"unmatched"},"type":"Feature","geometry":null},{"properties":{"postcode":"M14","geo_score":0.0,"country":"United Kindom","id":"a6ih4vt70yef","geo_precision":"unmatched"},"type":"Feature","geometry":null},{"properties":{"postcode":"BL9 SNJ","geo_score":0.0,"country":"United Kindom","id":"a6ih4vq24du5","geo_precision":"unmatched"},"type":"Feature","geometry":null},{"properties":{"postcode":"M14","geo_score":0.0,"country":"United Kindom","id":"a6ih4vn10wm4","geo_precision":"unmatched"},"type":"Feature","geometry":null},{"properties":{"postcode":"WA11 8BL","geo_score":0.0,"country":"United Kindom","id":"a6ih4vs6pqzc","geo_precision":"unmatched"},"type":"Feature","geometry":null},{"properties":{"postcode":"M8 OSE","geo_score":0.0,"country":"United Kindom","id":"a6ih4vh13r9q","geo_precision":"unmatched"},"type":"Feature","geometry":null},{"properties":{"postcode":"S11 9SQ","geo_score":0.0,"country":"United Kindom","id":"a6ih4vf86937","geo_precision":"unmatched"},"type":"Feature","geometry":null},{"properties":{"postcode":"S1 2LN","geo_score":0.0,"country":"United Kindom","id":"a6ih4vfskenr","geo_precision":"unmatched"},"type":"Feature","geometry":null},{"properties":{"postcode":"S61 2SU","geo_score":0.0,"country":"United Kindom","id":"a6ih4vgoek7q","geo_precision":"unmatched"},"type":"Feature","geometry":null},{"properties":{"postcode":"M11 3BH","geo_score":0.0,"country":"United Kindom","id":"a6ih4vpj6hxy","geo_precision":"unmatched"},"type":"Feature","geometry":null},{"properties":{"postcode":"M3 3AJ","geo_score":0.0,"country":"United Kindom","id":"a6ih4vgp04s0","geo_precision":"unmatched"},"type":"Feature","geometry":null},{"properties":{"postcode":"DD4 6DG","geo_score":0.0,"country":"United Kindom","id":"a6ih4vns1sb9","geo_precision":"unmatched"},"type":"Feature","geometry":null},{"properties":{"postcode":"M45 7NN","geo_score":0.0,"country":"United Kindom","id":"a6ih4vfuj5f0","geo_precision":"unmatched"},"type":"Feature","geometry":null},{"properties":{"postcode":"CH65","geo_score":0.0,"country":"United Kindom","id":"a6ih4vpzxd4z","geo_precision":"unmatched"},"type":"Feature","geometry":null},{"properties":{"postcode":"CH65","geo_score":0.0,"country":"United Kindom","id":"a6ih4vj6zgff","geo_precision":"unmatched"},"type":"Feature","geometry":null},{"properties":{"postcode":"EX37","geo_score":0.0,"country":"United Kindom","id":"a6ih4vozry8g","geo_precision":"unmatched"},"type":"Feature","geometry":null},{"properties":{"postcode":"M15","geo_score":0.0,"country":"United Kindom","id":"a6ih4vujdlc0","geo_precision":"unmatched"},"type":"Feature","geometry":null},{"properties":{"postcode":"L26 OXE","geo_score":0.0,"country":"United Kindom","id":"a6ih4vf81ff6","geo_precision":"unmatched"},"type":"Feature","geometry":null},{"properties":{"postcode":"M14 5HR","geo_score":0.0,"country":"United Kindom","id":"a6ih4vj6evhl","geo_precision":"unmatched"},"type":"Feature","geometry":null},{"properties":{"postcode":"M21","geo_score":0.0,"country":"United Kindom","id":"a6ih4vmeg4im","geo_precision":"unmatched"},"type":"Feature","geometry":null},{"properties":{"postcode":"M21 9D2","geo_score":0.0,"country":"United Kindom","id":"a6ih4vhoky68","geo_precision":"unmatched"},"type":"Feature","geometry":null},{"properties":{"postcode":"M21 9QN","geo_score":0.0,"country":"United Kindom","id":"a6ih4vij9hul","geo_precision":"unmatched"},"type":"Feature","geometry":null},{"properties":{"postcode":"M20 2NB","geo_score":0.0,"country":"United Kindom","id":"a6ih4vimkjql","geo_precision":"unmatched"},"type":"Feature","geometry":null},{"properties":{"postcode":"M21 8VV","geo_score":0.0,"country":"United Kindom","id":"a6ih4vjfqefh","geo_precision":"unmatched"},"type":"Feature","geometry":null},{"properties":{"postcode":"M21 ORG","geo_score":0.0,"country":"United Kindom","id":"a6ih4vnqeql0","geo_precision":"unmatched"},"type":"Feature","geometry":null},{"properties":{"postcode":"SK15 3DT","geo_score":0.0,"country":"United Kindom","id":"a6ih4vsg0tx9","geo_precision":"unmatched"},"type":"Feature","geometry":null},{"properties":{"postcode":"M3 1NN","geo_score":0.0,"country":"United Kindom","id":"a6ih4vtpxzvq","geo_precision":"unmatched"},"type":"Feature","geometry":null},{"properties":{"postcode":"M14 49Q","geo_score":0.0,"country":"United Kindom","id":"a6ih4vk3wnsb","geo_precision":"unmatched"},"type":"Feature","geometry":null},{"properties":{"postcode":"M1 2PE","geo_score":0.0,"country":"United Kindom","id":"a6ih4vl3y74y","geo_precision":"unmatched"},"type":"Feature","geometry":null},{"properties":{"postcode":"M21 8UL","geo_score":0.0,"country":"United Kindom","id":"a6ih4vr7g6rw","geo_precision":"unmatched"},"type":"Feature","geometry":null},{"properties":{"postcode":"M21","geo_score":0.0,"country":"United Kindom","id":"a6ih4vqpxm6l","geo_precision":"unmatched"},"type":"Feature","geometry":null},{"properties":{"postcode":"L26 OXE","geo_score":0.0,"country":"United Kindom","id":"a6ih4vkf1qh4","geo_precision":"unmatched"},"type":"Feature","geometry":null},{"properties":{"postcode":"WA16 6PT","geo_score":0.0,"country":"United Kindom","id":"a6ih4vn5x70y","geo_precision":"unmatched"},"type":"Feature","geometry":null},{"properties":{"postcode":"M32 9R2","geo_score":0.0,"country":"United Kindom","id":"a6ih4vum8234","geo_precision":"unmatched"},"type":"Feature","geometry":null},{"properties":{"postcode":"M19 2EQ","geo_score":0.0,"country":"United Kindom","id":"a6ih4vqmwuou","geo_precision":"unmatched"},"type":"Feature","geometry":null},{"properties":{"postcode":"M21","geo_score":0.0,"country":"United Kindom","id":"a6ih4vm6f94f","geo_precision":"unmatched"},"type":"Feature","geometry":null},{"properties":{"postcode":"mM25 1HY","geo_score":0.0,"country":"United Kindom","id":"a6ih4vqbcqam","geo_precision":"unmatched"},"type":"Feature","geometry":null},{"properties":{"postcode":"M3 6JE","geo_score":0.0,"country":"United Kindom","id":"a6ih4vk5f42v","geo_precision":"unmatched"},"type":"Feature","geometry":null},{"properties":{"postcode":"CW11 2UJ","geo_score":0.0,"country":"United Kindom","id":"a6ih4vlox86k","geo_precision":"unmatched"},"type":"Feature","geometry":null},{"properties":{"postcode":"7370","geo_score":0.0,"country":"France","id":"a6ih4vhs11lg","geo_precision":"unmatched"},"type":"Feature","geometry":null},{"properties":{"postcode":"M22 4LG","geo_score":0.0,"country":"United Kindom","id":"a6ih4vh9f8pq","geo_precision":"unmatched"},"type":"Feature","geometry":null},{"properties":{"postcode":"M1 5NP","geo_score":0.0,"country":"United Kindom","id":"a6ih4vthv9gk","geo_precision":"unmatched"},"type":"Feature","geometry":null},{"properties":{"postcode":"BL4 8RZ","geo_score":0.0,"country":"United Kindom","id":"a6ih4vp3v8ai","geo_precision":"unmatched"},"type":"Feature","geometry":null},{"properties":{"postcode":"M20 3GG","geo_score":0.0,"country":"United Kindom","id":"a6ih4vn6ucma","geo_precision":"unmatched"},"type":"Feature","geometry":null},{"properties":{"postcode":"M45 7NN","geo_score":0.0,"country":"United Kindom","id":"a6ih4vi8797v","geo_precision":"unmatched"},"type":"Feature","geometry":null},{"properties":{"postcode":"WA15","geo_score":0.0,"country":"United Kindom","id":"a6ih4vlvlxcc","geo_precision":"unmatched"},"type":"Feature","geometry":null},{"properties":{"postcode":"7LW","geo_score":0.0,"country":"United Kindom","id":"a6ih4vivdqfv","geo_precision":"unmatched"},"type":"Feature","geometry":null},{"properties":{"postcode":"SK8 3NE","geo_score":0.0,"country":"United Kindom","id":"a6ih4vm0u0oe","geo_precision":"unmatched"},"type":"Feature","geometry":null},{"properties":{"postcode":"RH15 9JP","geo_score":0.0,"country":"United Kindom","id":"a6ih4vpyi9u4","geo_precision":"unmatched"},"type":"Feature","geometry":null},{"properties":{"postcode":"M34","geo_score":0.0,"country":"United Kindom","id":"a6ih4vmvvmdi","geo_precision":"unmatched"},"type":"Feature","geometry":null},{"properties":{"postcode":"M33 2BJ","geo_score":0.0,"country":"United Kindom","id":"a6ih4vm896ej","geo_precision":"unmatched"},"type":"Feature","geometry":null},{"properties":{"postcode":"WA15","geo_score":0.0,"country":"United Kindom","id":"a6ih4vi49txc","geo_precision":"unmatched"},"type":"Feature","geometry":null},{"properties":{"postcode":"M30","geo_score":0.0,"country":"United Kindom","id":"a6ih4vrm65lm","geo_precision":"unmatched"},"type":"Feature","geometry":null},{"properties":{"postcode":"WA15 6QJ","geo_score":0.0,"country":"United Kindom","id":"a6ih4vrhk5pc","geo_precision":"unmatched"},"type":"Feature","geometry":null},{"properties":{"postcode":"Barcelona","geo_score":0.0,"country":"United Kindom","id":"a6ih4voybaoc","geo_precision":"unmatched"},"type":"Feature","geometry":null},{"properties":{"postcode":"BB4 9TE","geo_score":0.0,"country":"United Kindom","id":"a6ih4vgv4trq","geo_precision":"unmatched"},"type":"Feature","geometry":null},{"properties":{"postcode":"M14","geo_score":0.0,"country":"United Kindom","id":"a6ih4vh26h57","geo_precision":"unmatched"},"type":"Feature","geometry":null},{"properties":{"postcode":"M20 1AH","geo_score":0.0,"country":"United Kindom","id":"a6ih4vn7jkhh","geo_precision":"unmatched"},"type":"Feature","geometry":null},{"properties":{"postcode":"M14 7JH","geo_score":0.0,"country":"United Kindom","id":"a6ih4vmff2tb","geo_precision":"unmatched"},"type":"Feature","geometry":null},{"properties":{"postcode":"M20 4PU","geo_score":0.0,"country":"United Kindom","id":"a6ih4vp1pa9t","geo_precision":"unmatched"},"type":"Feature","geometry":null},{"properties":{"postcode":"M30 8HB","geo_score":0.0,"country":"United Kindom","id":"a6ih4vsv2h9x","geo_precision":"unmatched"},"type":"Feature","geometry":null},{"properties":{"postcode":"M20","geo_score":0.0,"country":"United Kindom","id":"a6ih4vretrra","geo_precision":"unmatched"},"type":"Feature","geometry":null},{"properties":{"postcode":"M21 7UH","geo_score":0.0,"country":"United Kindom","id":"a6ih4vos7sii","geo_precision":"unmatched"},"type":"Feature","geometry":null},{"properties":{"postcode":"M22","geo_score":0.0,"country":"United Kindom","id":"a6ih4vldcnzr","geo_precision":"unmatched"},"type":"Feature","geometry":null},{"properties":{"postcode":"M16 8AA","geo_score":0.0,"country":"United Kindom","id":"a6ih4vtrafbp","geo_precision":"unmatched"},"type":"Feature","geometry":null},{"properties":{"postcode":"M7","geo_score":0.0,"country":"United Kindom","id":"a6ih4vh7wm3v","geo_precision":"unmatched"},"type":"Feature","geometry":null},{"properties":{"postcode":"M14 5LS","geo_score":0.0,"country":"United Kindom","id":"a6ih4vi8gfe7","geo_precision":"unmatched"},"type":"Feature","geometry":null},{"properties":{"postcode":"M21 8XJ","geo_score":0.0,"country":"United Kindom","id":"a6ih4vigwtkz","geo_precision":"unmatched"},"type":"Feature","geometry":null},{"properties":{"postcode":"M19 2Q5","geo_score":0.0,"country":"United Kindom","id":"a6ih4vokswma","geo_precision":"unmatched"},"type":"Feature","geometry":null},{"properties":{"postcode":"M16","geo_score":0.0,"country":"United Kindom","id":"a6ih4vfxcdt6","geo_precision":"unmatched"},"type":"Feature","geometry":null},{"properties":{"postcode":"M16 0HB","geo_score":0.0,"country":"United Kindom","id":"a6ih4vp53tgr","geo_precision":"unmatched"},"type":"Feature","geometry":null},{"properties":{"postcode":"B27 7XU","geo_score":0.0,"country":"United Kindom","id":"a6ih4vqnqzei","geo_precision":"unmatched"},"type":"Feature","geometry":null},{"properties":{"postcode":"M20","geo_score":0.0,"country":"United Kindom","id":"a6ih4vu0w8uj","geo_precision":"unmatched"},"type":"Feature","geometry":null},{"properties":{"postcode":"M19","geo_score":0.0,"country":"United Kindom","id":"a6ih4vlehqa3","geo_precision":"unmatched"},"type":"Feature","geometry":null},{"properties":{"postcode":"C44 7DS","geo_score":0.0,"country":"United Kindom","id":"a6ih4vkdbndz","geo_precision":"unmatched"},"type":"Feature","geometry":null},{"properties":{"postcode":"M40 8DE","geo_score":0.0,"country":"United Kindom","id":"a6ih4vjf9llt","geo_precision":"unmatched"},"type":"Feature","geometry":null},{"properties":{"postcode":"M50 3SE","geo_score":0.0,"country":"United Kindom","id":"a6ih4vtsh2qi","geo_precision":"unmatched"},"type":"Feature","geometry":null},{"properties":{"postcode":"SK5 7AZ","geo_score":0.0,"country":"United Kindom","id":"a6ih4vjn95ys","geo_precision":"unmatched"},"type":"Feature","geometry":null},{"properties":{"postcode":"M14 7EP","geo_score":0.0,"country":"United Kindom","id":"a6ih4vm9n1mo","geo_precision":"unmatched"},"type":"Feature","geometry":null},{"properties":{"postcode":"M24 OF2","geo_score":0.0,"country":"United Kindom","id":"a6ih4vgybh3j","geo_precision":"unmatched"},"type":"Feature","geometry":null},{"properties":{"postcode":"M4","geo_score":0.0,"country":"United Kindom","id":"a6ih4vnvdzy1","geo_precision":"unmatched"},"type":"Feature","geometry":null},{"properties":{"postcode":"M22 4WI","geo_score":0.0,"country":"United Kindom","id":"a6ih4vog48qn","geo_precision":"unmatched"},"type":"Feature","geometry":null},{"properties":{"postcode":"M21","geo_score":0.0,"country":"United Kindom","id":"a6ih4vq3n5zv","geo_precision":"unmatched"},"type":"Feature","geometry":null},{"properties":{"postcode":"M20 3GE","geo_score":0.0,"country":"United Kindom","id":"a6ih4vg0jo1h","geo_precision":"unmatched"},"type":"Feature","geometry":null},{"properties":{"postcode":"M14","geo_score":0.0,"country":"United Kindom","id":"a6ih4vpi21k3","geo_precision":"unmatched"},"type":"Feature","geometry":null},{"properties":{"postcode":"MI4 7WJ","geo_score":0.0,"country":"United Kindom","id":"a6ih4vjw76ap","geo_precision":"unmatched"},"type":"Feature","geometry":null},{"properties":{"postcode":"M20 4QW","geo_score":0.0,"country":"United Kindom","id":"a6ih4vfjvz1v","geo_precision":"unmatched"},"type":"Feature","geometry":null},{"properties":{"postcode":"B33 3NG","geo_score":0.0,"country":"United Kindom","id":"a6ih4vqad2ae","geo_precision":"unmatched"},"type":"Feature","geometry":null},{"properties":{"postcode":"SK22 4DW","geo_score":0.0,"country":"United Kindom","id":"a6ih4vs02lts","geo_precision":"unmatched"},"type":"Feature","geometry":null},{"properties":{"postcode":"W6 0PF","geo_score":0.0,"country":"United Kindom","id":"a6ih4vh0i13g","geo_precision":"unmatched"},"type":"Feature","geometry":null},{"properties":{"postcode":"M20 2N2","geo_score":0.0,"country":"United Kindom","id":"a6ih4voije9l","geo_precision":"unmatched"},"type":"Feature","geometry":null},{"properties":{"postcode":"M5 4TW","geo_score":0.0,"country":"United Kindom","id":"a6ih4vgtlkv2","geo_precision":"unmatched"},"type":"Feature","geometry":null},{"properties":{"postcode":"M21 8DU","geo_score":0.0,"country":"United Kindom","id":"a6ih4vfzcifj","geo_precision":"unmatched"},"type":"Feature","geometry":null},{"properties":{"postcode":"M15 5RF","geo_score":0.0,"country":"United Kindom","id":"a6ih4vr1bc41","geo_precision":"unmatched"},"type":"Feature","geometry":null},{"properties":{"postcode":"M15","geo_score":0.0,"country":"United Kindom","id":"a6ih4vr192gd","geo_precision":"unmatched"},"type":"Feature","geometry":null},{"properties":{"postcode":"M11","geo_score":0.0,"country":"United Kindom","id":"a6ih4vkr8tr5","geo_precision":"unmatched"},"type":"Feature","geometry":null},{"properties":{"postcode":"EN1 2RX","geo_score":0.0,"country":"United Kindom","id":"a6ih4vfujs6k","geo_precision":"unmatched"},"type":"Feature","geometry":null},{"properties":{"postcode":"M21 7WH","geo_score":0.0,"country":"United Kindom","id":"a6ih4vgvkoxf","geo_precision":"unmatched"},"type":"Feature","geometry":null},{"properties":{"postcode":"SK8 2EY","geo_score":0.0,"country":"United Kindom","id":"a6ih4vomls1f","geo_precision":"unmatched"},"type":"Feature","geometry":null},{"properties":{"postcode":"EN1 2RX","geo_score":0.0,"country":"United Kindom","id":"a6ih4vswdi8b","geo_precision":"unmatched"},"type":"Feature","geometry":null},{"properties":{"postcode":"Eire","geo_score":0.0,"country":"United Kindom","id":"a6ih4vkjlkan","geo_precision":"unmatched"},"type":"Feature","geometry":null},{"properties":{"postcode":"M3 4JL","geo_score":0.0,"country":"United Kindom","id":"a6ih4vq3ntyv","geo_precision":"unmatched"},"type":"Feature","geometry":null},{"properties":{"postcode":"M40 2EQ","geo_score":0.0,"country":"United Kindom","id":"a6ih4vipfou2","geo_precision":"unmatched"},"type":"Feature","geometry":null},{"properties":{"postcode":"M15","geo_score":0.0,"country":"United Kindom","id":"a6ih4vnwoqz0","geo_precision":"unmatched"},"type":"Feature","geometry":null},{"properties":{"postcode":"M15","geo_score":0.0,"country":"United Kindom","id":"a6ih4vipyxmx","geo_precision":"unmatched"},"type":"Feature","geometry":null},{"properties":{"postcode":"M4","geo_score":0.0,"country":"United Kindom","id":"a6ih4vq9olti","geo_precision":"unmatched"},"type":"Feature","geometry":null},{"properties":{"postcode":"M12 4LQ","geo_score":0.0,"country":"United Kindom","id":"a6ih4vi1c27g","geo_precision":"unmatched"},"type":"Feature","geometry":null},{"properties":{"postcode":"M40 2NG","geo_score":0.0,"country":"United Kindom","id":"a6ih4vstofnz","geo_precision":"unmatched"},"type":"Feature","geometry":null},{"properties":{"postcode":"WAIJ 8PW","geo_score":0.0,"country":"United Kindom","id":"a6ih4vnwa0ke","geo_precision":"unmatched"},"type":"Feature","geometry":null},{"properties":{"postcode":"M15","geo_score":0.0,"country":"United Kindom","id":"a6ih4vidfhx7","geo_precision":"unmatched"},"type":"Feature","geometry":null},{"properties":{"postcode":"M70","geo_score":0.0,"country":"United Kindom","id":"a6ih4vfkd047","geo_precision":"unmatched"},"type":"Feature","geometry":null},{"properties":{"postcode":"SK7 2DD","geo_score":0.0,"country":"United Kindom","id":"a6ih4vnhvbcc","geo_precision":"unmatched"},"type":"Feature","geometry":null},{"properties":{"postcode":"SK7 1ND","geo_score":0.0,"country":"United Kindom","id":"a6ih4vn62t7b","geo_precision":"unmatched"},"type":"Feature","geometry":null},{"properties":{"postcode":"WA3 6PY","geo_score":0.0,"country":"United Kindom","id":"a6ih4vpyllys","geo_precision":"unmatched"},"type":"Feature","geometry":null},{"properties":{"postcode":"M24 4NA","geo_score":0.0,"country":"United Kindom","id":"a6ih4vn1vza1","geo_precision":"unmatched"},"type":"Feature","geometry":null},{"properties":{"postcode":"CH1 SEQ","geo_score":0.0,"country":"United Kindom","id":"a6ih4vmmicmu","geo_precision":"unmatched"},"type":"Feature","geometry":null},{"properties":{"postcode":"M4","geo_score":0.0,"country":"United Kindom","id":"a6ih4vva0knn","geo_precision":"unmatched"},"type":"Feature","geometry":null},{"properties":{"postcode":"M14 7JQ","geo_score":0.0,"country":"United Kindom","id":"a6ih4vhlatwd","geo_precision":"unmatched"},"type":"Feature","geometry":null},{"properties":{"postcode":"M24 6DQ","geo_score":0.0,"country":"United Kindom","id":"a6ih4vo7omvw","geo_precision":"unmatched"},"type":"Feature","geometry":null},{"properties":{"postcode":"M3S OJD","geo_score":0.0,"country":"United Kindom","id":"a6ih4vqhgujm","geo_precision":"unmatched"},"type":"Feature","geometry":null},{"properties":{"postcode":"M15 5EH","geo_score":0.0,"country":"United Kindom","id":"a6ih4vgedhfa","geo_precision":"unmatched"},"type":"Feature","geometry":null},{"properties":{"postcode":"OL3 7DT","geo_score":0.0,"country":"United Kindom","id":"a6ih4vv9b4w9","geo_precision":"unmatched"},"type":"Feature","geometry":null},{"properties":{"postcode":"OL6 6RY","geo_score":0.0,"country":"United Kindom","id":"a6ih4vmoqhxz","geo_precision":"unmatched"},"type":"Feature","geometry":null},{"properties":{"postcode":"M20","geo_score":0.0,"country":"United Kindom","id":"a6ih4vqjibz6","geo_precision":"unmatched"},"type":"Feature","geometry":null},{"properties":{"postcode":"BL3 2J2","geo_score":0.0,"country":"United Kindom","id":"a6ih4vn4j82m","geo_precision":"unmatched"},"type":"Feature","geometry":null},{"properties":{"postcode":"M16 9P2","geo_score":0.0,"country":"United Kindom","id":"a6ih4vsto2fk","geo_precision":"unmatched"},"type":"Feature","geometry":null},{"properties":{"postcode":"WN7 3UA","geo_score":0.0,"country":"United Kindom","id":"a6ih4vrk3q5o","geo_precision":"unmatched"},"type":"Feature","geometry":null},{"properties":{"postcode":"M33 3AT","geo_score":0.0,"country":"United Kindom","id":"a6ih4vsta9kb","geo_precision":"unmatched"},"type":"Feature","geometry":null},{"properties":{"postcode":"M27 0JY","geo_score":0.0,"country":"United Kindom","id":"a6ih4vh5hspe","geo_precision":"unmatched"},"type":"Feature","geometry":null},{"properties":{"postcode":"SK5 7DE","geo_score":0.0,"country":"United Kindom","id":"a6ih4vtjle9z","geo_precision":"unmatched"},"type":"Feature","geometry":null},{"properties":{"postcode":"WAI5 7RD","geo_score":0.0,"country":"United Kindom","id":"a6ih4vrphbnq","geo_precision":"unmatched"},"type":"Feature","geometry":null},{"properties":{"postcode":"M3 4JN","geo_score":0.0,"country":"United Kindom","id":"a6ih4vtqo6d0","geo_precision":"unmatched"},"type":"Feature","geometry":null},{"properties":{"postcode":"M4 1ED","geo_score":0.0,"country":"United Kindom","id":"a6ih4vt80ak0","geo_precision":"unmatched"},"type":"Feature","geometry":null},{"properties":{"postcode":"M15","geo_score":0.0,"country":"United Kindom","id":"a6ih4vgq45df","geo_precision":"unmatched"},"type":"Feature","geometry":null},{"properties":{"postcode":"France","geo_score":0.0,"country":"United Kindom","id":"a6ih4vstnnpd","geo_precision":"unmatched"},"type":"Feature","geometry":null},{"properties":{"postcode":"BL1 2BS","geo_score":0.0,"country":"United Kindom","id":"a6ih4vge7m0d","geo_precision":"unmatched"},"type":"Feature","geometry":null},{"properties":{"postcode":"M3 4AQ","geo_score":0.0,"country":"United Kindom","id":"a6ih4vn20fbz","geo_precision":"unmatched"},"type":"Feature","geometry":null},{"properties":{"postcode":"M4 7BL","geo_score":0.0,"country":"United Kindom","id":"a6ih4voinkao","geo_precision":"unmatched"},"type":"Feature","geometry":null},{"properties":{"postcode":"CV6 4LP","geo_score":0.0,"country":"United Kindom","id":"a6ih4vprpefb","geo_precision":"unmatched"},"type":"Feature","geometry":null},{"properties":{"postcode":"M7 2JJ","geo_score":0.0,"country":"United Kindom","id":"a6ih4vtou1y0","geo_precision":"unmatched"},"type":"Feature","geometry":null},{"properties":{"postcode":"M21","geo_score":0.0,"country":"United Kindom","id":"a6ih4vrt4fvm","geo_precision":"unmatched"},"type":"Feature","geometry":null},{"properties":{"postcode":"M3 7FG","geo_score":0.0,"country":"United Kindom","id":"a6ih4vj5iym4","geo_precision":"unmatched"},"type":"Feature","geometry":null},{"properties":{"postcode":"M23 9AW","geo_score":0.0,"country":"United Kindom","id":"a6ih4votrzkb","geo_precision":"unmatched"},"type":"Feature","geometry":null},{"properties":{"postcode":"M15 6LF","geo_score":0.0,"country":"United Kindom","id":"a6ih4vr69s0h","geo_precision":"unmatched"},"type":"Feature","geometry":null},{"properties":{"postcode":"SK9 5NQ","geo_score":0.0,"country":"United Kindom","id":"a6ih4vo3piha","geo_precision":"unmatched"},"type":"Feature","geometry":null},{"properties":{"postcode":"LA6 1BA","geo_score":0.0,"country":"United Kindom","id":"a6ih4vq7hqfb","geo_precision":"unmatched"},"type":"Feature","geometry":null},{"properties":{"postcode":"M20 2PD","geo_score":0.0,"country":"United Kindom","id":"a6ih4vg1ewqv","geo_precision":"unmatched"},"type":"Feature","geometry":null},{"properties":{"postcode":"M21 9NN","geo_score":0.0,"country":"United Kindom","id":"a6ih4vfl1hcs","geo_precision":"unmatched"},"type":"Feature","geometry":null},{"properties":{"postcode":"WA3 6PY","geo_score":0.0,"country":"United Kindom","id":"a6ih4vhggx2c","geo_precision":"unmatched"},"type":"Feature","geometry":null},{"properties":{"postcode":"WA3 6PY","geo_score":0.0,"country":"United Kindom","id":"a6ih4vivu3pk","geo_precision":"unmatched"},"type":"Feature","geometry":null},{"properties":{"postcode":"M15 6LF","geo_score":0.0,"country":"United Kindom","id":"a6ih4vhoqemx","geo_precision":"unmatched"},"type":"Feature","geometry":null},{"properties":{"postcode":"M20 4UY","geo_score":0.0,"country":"United Kindom","id":"a6ih4vhxfgb8","geo_precision":"unmatched"},"type":"Feature","geometry":null},{"properties":{"postcode":"M21 1NF","geo_score":0.0,"country":"United Kindom","id":"a6ih4vt87woh","geo_precision":"unmatched"},"type":"Feature","geometry":null},{"properties":{"postcode":"M13 2DE","geo_score":0.0,"country":"United Kindom","id":"a6ih4vlheem7","geo_precision":"unmatched"},"type":"Feature","geometry":null},{"properties":{"postcode":"M28 3RT","geo_score":0.0,"country":"United Kindom","id":"a6ih4vt2nru2","geo_precision":"unmatched"},"type":"Feature","geometry":null},{"properties":{"postcode":"M33 6WY","geo_score":0.0,"country":"United Kindom","id":"a6ih4vic9df7","geo_precision":"unmatched"},"type":"Feature","geometry":null},{"properties":{"postcode":"SL4 2PW","geo_score":0.0,"country":"United Kindom","id":"a6ih4vprbfaf","geo_precision":"unmatched"},"type":"Feature","geometry":null},{"properties":{"postcode":"HX6","geo_score":0.0,"country":"United Kindom","id":"a6ih4vfrs5nn","geo_precision":"unmatched"},"type":"Feature","geometry":null},{"properties":{"postcode":"MI6 9RE","geo_score":0.0,"country":"United Kindom","id":"a6ih4vuxqh0d","geo_precision":"unmatched"},"type":"Feature","geometry":null},{"properties":{"postcode":"NE63 8NJ","geo_score":0.0,"country":"United Kindom","id":"a6ih4vlm3258","geo_precision":"unmatched"},"type":"Feature","geometry":null},{"properties":{"postcode":"M14 7PE","geo_score":0.0,"country":"United Kindom","id":"a6ih4vpo6cqg","geo_precision":"unmatched"},"type":"Feature","geometry":null},{"properties":{"postcode":"M14 7PE","geo_score":0.0,"country":"United Kindom","id":"a6ih4vgkvtna","geo_precision":"unmatched"},"type":"Feature","geometry":null},{"properties":{"postcode":"M14 7WS","geo_score":0.0,"country":"United Kindom","id":"a6ih4voq0lke","geo_precision":"unmatched"},"type":"Feature","geometry":null},{"properties":{"postcode":"sk12","geo_score":0.0,"country":"United Kindom","id":"a6ih4vkaf53u","geo_precision":"unmatched"},"type":"Feature","geometry":null},{"properties":{"postcode":"M20 4PG","geo_score":0.0,"country":"United Kindom","id":"a6ih4vlft7l4","geo_precision":"unmatched"},"type":"Feature","geometry":null},{"properties":{"postcode":"m16 0dp","geo_score":0.0,"country":"United Kindom","id":"a6ih4vu63pm6","geo_precision":"unmatched"},"type":"Feature","geometry":null},{"properties":{"postcode":"M15 5LP","geo_score":0.0,"country":"United Kindom","id":"a6ih4vojtfvk","geo_precision":"unmatched"},"type":"Feature","geometry":null},{"properties":{"postcode":"M16 0BG","geo_score":0.0,"country":"United Kindom","id":"a6ih4vomvjn2","geo_precision":"unmatched"},"type":"Feature","geometry":null},{"properties":{"postcode":"M15 5ps","geo_score":0.0,"country":"United Kindom","id":"a6ih4vuapzrr","geo_precision":"unmatched"},"type":"Feature","geometry":null},{"properties":{"postcode":"wa3 1ep","geo_score":0.0,"country":"United Kindom","id":"a6ih4vqgcvpj","geo_precision":"unmatched"},"type":"Feature","geometry":null},{"properties":{"postcode":"m50 3yh","geo_score":0.0,"country":"United Kindom","id":"a6ih4vrmauzo","geo_precision":"unmatched"},"type":"Feature","geometry":null},{"properties":{"postcode":"M44 6HJ","geo_score":0.0,"country":"United Kindom","id":"a6ih4vt7mjli","geo_precision":"unmatched"},"type":"Feature","geometry":null},{"properties":{"postcode":"LA6 1BA","geo_score":0.0,"country":"United Kindom","id":"a6ih4vqeihu0","geo_precision":"unmatched"},"type":"Feature","geometry":null},{"properties":{"postcode":"m3 4nf","geo_score":0.0,"country":"United Kindom","id":"a6ih4vjtp2s8","geo_precision":"unmatched"},"type":"Feature","geometry":null},{"properties":{"postcode":"M21 9ET","geo_score":0.0,"country":"United Kindom","id":"a6ih4vuomq5q","geo_precision":"unmatched"},"type":"Feature","geometry":null},{"properties":{"postcode":"m239ba","geo_score":0.0,"country":"United Kindom","id":"a6ih4vfvfi82","geo_precision":"unmatched"},"type":"Feature","geometry":null},{"properties":{"postcode":"M44 6DN","geo_score":0.0,"country":"United Kindom","id":"a6ih4vt24boc","geo_precision":"unmatched"},"type":"Feature","geometry":null},{"properties":{"postcode":"M9 8GT","geo_score":0.0,"country":"United Kindom","id":"a6ih4vj91bko","geo_precision":"unmatched"},"type":"Feature","geometry":null},{"properties":{"postcode":"M20 4AW","geo_score":0.0,"country":"United Kindom","id":"a6ih4vjg28t6","geo_precision":"unmatched"},"type":"Feature","geometry":null},{"properties":{"postcode":"m16","geo_score":0.0,"country":"United Kindom","id":"a6ih4vnahek0","geo_precision":"unmatched"},"type":"Feature","geometry":null},{"properties":{"postcode":"LD7 1NY","geo_score":0.0,"country":"United Kindom","id":"a6ih4vr9t0mx","geo_precision":"unmatched"},"type":"Feature","geometry":null},{"properties":{"postcode":"M25 1PE","geo_score":0.0,"country":"United Kindom","id":"a6ih4vp1wzzj","geo_precision":"unmatched"},"type":"Feature","geometry":null},{"properties":{"postcode":"M3 7ED","geo_score":0.0,"country":"United Kindom","id":"a6ih4vp4j4hz","geo_precision":"unmatched"},"type":"Feature","geometry":null},{"properties":{"postcode":"M28 1FG","geo_score":0.0,"country":"United Kindom","id":"a6ih4vmpuarc","geo_precision":"unmatched"},"type":"Feature","geometry":null},{"properties":{"postcode":"M20 6AH","geo_score":0.0,"country":"United Kindom","id":"a6ih4vp0hhkz","geo_precision":"unmatched"},"type":"Feature","geometry":null},{"properties":{"postcode":"m16 8hn","geo_score":0.0,"country":"United Kindom","id":"a6ih4vo17g6i","geo_precision":"unmatched"},"type":"Feature","geometry":null},{"properties":{"postcode":"m16 0jh","geo_score":0.0,"country":"United Kindom","id":"a6ih4vfsqjem","geo_precision":"unmatched"},"type":"Feature","geometry":null},{"properties":{"postcode":"se15 3dd","geo_score":0.0,"country":"United Kindom","id":"a6ih4vkcae8p","geo_precision":"unmatched"},"type":"Feature","geometry":null},{"properties":{"postcode":"M3 7GE","geo_score":0.0,"country":"United Kindom","id":"a6ih4vlvcish","geo_precision":"unmatched"},"type":"Feature","geometry":null}],"is_temporal":false,"author":{"url":"","metadata":null,"contact_name":null,"contact_address":null,"source":null,"contact_phone":null},"source":"","pagination":{"sort":null,"start":0,"total":246,"limit":1000000},"state":"complete","tags":"","published":"2014-08-13T03:37:41-04:00","id":164497}