{"type":"FeatureCollection","data_type":"Dataset","url_type":null,"permissions":[{"permissions":{"download":true,"view":true},"group_id":"everyone"}],"classification":null,"title":"Location of North Korean  Diplomatic Missions","count":48,"stream_id":16507,"contributor":{"url":"http://geocommons.com/users/5673","name":"gemoore"},"data_attributes":null,"calculation_params":null,"icon_link":null,"link":"http://geocommons.com/overlays/16507.json","extent":[-99.1276,-25.7463,131.91,59.3328],"geometry_types":["point"],"unique_name":null,"name":"Location of North Korean  Diplomatic Missions","feature_count":48,"description":"","next_feature":null,"is_raster":false,"short_classification":"Y","stats":{"lat":{"max":59.3328,"mean":25.9022104166667,"variance":445.625672162229,"stdev":21.109847753175,"min":-25.7463,"median":29.3721},"long":{"max":131.9096,"mean":40.6269770833333,"variance":3206.24272128393,"stdev":56.6236939918611,"min":-99.1276,"median":36.2939}},"features":[{"properties":{"city":"Abuja","country":"Nigeria","id":"a62u9yom8eqd","lat":9.058,"embassy or consulate":"Embassy","long":7.4891},"type":"Feature","geometry":{"type":"Point","coordinates":[7.4891,9.058]}},{"properties":{"city":"Accra","country":"Ghana","id":"a62u9yq6ez0k","lat":5.5401,"embassy or consulate":"Office branch from Abuja","long":-0.2074},"type":"Feature","geometry":{"type":"Point","coordinates":[-0.2074,5.5401]}},{"properties":{"city":"Addis Ababa","country":"Ethiopia","id":"a62u9ytuvhxf","lat":9.0084,"embassy or consulate":"Embassy","long":38.7575},"type":"Feature","geometry":{"type":"Point","coordinates":[38.7575,9.0084]}},{"properties":{"city":"Bangkok","country":"Thailand","id":"a62u9yzjyl2n","lat":13.7573,"embassy or consulate":"Embassy","long":100.502},"type":"Feature","geometry":{"type":"Point","coordinates":[100.502,13.7573]}},{"properties":{"city":"Beijing","country":"China","id":"a62u9yo8f19n","lat":39.9056,"embassy or consulate":"Embassy","long":116.3958},"type":"Feature","geometry":{"type":"Point","coordinates":[116.3958,39.9056]}},{"properties":{"city":"Beirut","country":"Lebanon","id":"a62u9yqtnden","lat":33.8872,"embassy or consulate":"Embassy","long":35.5134},"type":"Feature","geometry":{"type":"Point","coordinates":[35.5134,33.8872]}},{"properties":{"city":"Berlin","country":"Germany","id":"a62u9yu4ynb4","lat":52.5235,"embassy or consulate":"Embassy","long":13.4115},"type":"Feature","geometry":{"type":"Point","coordinates":[13.4115,52.5235]}},{"properties":{"city":"Bern","country":"Switzerland","id":"a62u9yv07zzw","lat":46.948,"embassy or consulate":"Embassy","long":7.4481},"type":"Feature","geometry":{"type":"Point","coordinates":[7.4481,46.948]}},{"properties":{"city":"Brasilia","country":"Brazil","id":"a62u9z1ysp8w","lat":-15.7801,"embassy or consulate":"Embassy","long":-47.9292},"type":"Feature","geometry":{"type":"Point","coordinates":[-47.9292,-15.7801]}},{"properties":{"city":"Bucharest","country":"Romania","id":"a62u9yzrgtbi","lat":44.4479,"embassy or consulate":"Embassy","long":26.0979},"type":"Feature","geometry":{"type":"Point","coordinates":[26.0979,44.4479]}},{"properties":{"city":"Cairo","country":"Egypt","id":"a62u9yvqg1sx","lat":30.0571,"embassy or consulate":"Embassy","long":31.2272},"type":"Feature","geometry":{"type":"Point","coordinates":[31.2272,30.0571]}},{"properties":{"city":"Conakry","country":"Guinea","id":"a62u9yq7mpqc","lat":9.537,"embassy or consulate":"Embassy","long":-13.6785},"type":"Feature","geometry":{"type":"Point","coordinates":[-13.6785,9.537]}},{"properties":{"city":"Damascus","country":"Syria","id":"a62u9yu6aus8","lat":33.5158,"embassy or consulate":"Embassy","long":36.2939},"type":"Feature","geometry":{"type":"Point","coordinates":[36.2939,33.5158]}},{"properties":{"city":"Dar es Salaam","country":"Tanzania","id":"a62u9z2ds8cm","lat":-6.167,"embassy or consulate":"Embassy","long":35.7497},"type":"Feature","geometry":{"type":"Point","coordinates":[35.7497,-6.167]}},{"properties":{"city":"Dhaka","country":"Bangladesh","id":"a62u9yrkyxiz","lat":23.7106,"embassy or consulate":"Embassy","long":90.3978},"type":"Feature","geometry":{"type":"Point","coordinates":[90.3978,23.7106]}},{"properties":{"city":"Geneva","country":"Switzerland","id":"a62u9z1ba3xm","lat":46.2066,"embassy or consulate":"Permanent Mission","long":6.1391},"type":"Feature","geometry":{"type":"Point","coordinates":[6.1391,46.2066]}},{"properties":{"city":"Hanoi","country":"Vietnam","id":"a62u9ys0lgt7","lat":21.0341,"embassy or consulate":"Embassy","long":105.8372},"type":"Feature","geometry":{"type":"Point","coordinates":[105.8372,21.0341]}},{"properties":{"city":"Havana","country":"Cuba","id":"a62u9z4aie89","lat":23.1333,"embassy or consulate":"Embassy","long":-82.3667},"type":"Feature","geometry":{"type":"Point","coordinates":[-82.3667,23.1333]}},{"properties":{"city":"Hong Kong","country":"China","id":"a62u9yv8qjux","lat":22.297,"embassy or consulate":"Consulate-General","long":114.176},"type":"Feature","geometry":{"type":"Point","coordinates":[114.176,22.297]}},{"properties":{"city":"Islamabad","country":"Pakistan","id":"a62u9z2jei7d","lat":33.6751,"embassy or consulate":"Embassy","long":73.0946},"type":"Feature","geometry":{"type":"Point","coordinates":[73.0946,33.6751]}},{"properties":{"city":"Jakarta","country":"Indonesia","id":"a62u9ysccnxq","lat":-6.1862,"embassy or consulate":"Embassy","long":106.8063},"type":"Feature","geometry":{"type":"Point","coordinates":[106.8063,-6.1862]}},{"properties":{"city":"Kampala","country":"Uganda","id":"a62u9yx5xjml","lat":0.3133,"embassy or consulate":"Embassy","long":32.5714},"type":"Feature","geometry":{"type":"Point","coordinates":[32.5714,0.3133]}},{"properties":{"city":"Kathmandu","country":"Nepal","id":"a62u9yvbhnm1","lat":27.7058,"embassy or consulate":"Embassy","long":85.3157},"type":"Feature","geometry":{"type":"Point","coordinates":[85.3157,27.7058]}},{"properties":{"city":"Kuala Lumpur","country":"Malaysia","id":"a62u9z2ic2dv","lat":3.1502,"embassy or consulate":"Embassy","long":101.7077},"type":"Feature","geometry":{"type":"Point","coordinates":[101.7077,3.1502]}},{"properties":{"city":"Kuwait City","country":"Kuwait","id":"a62u9yomrko4","lat":29.3721,"embassy or consulate":"Embassy","long":47.9824},"type":"Feature","geometry":{"type":"Point","coordinates":[47.9824,29.3721]}},{"properties":{"city":"Lima","country":"Peru","id":"a62u9yomrqtf","lat":-12.0931,"embassy or consulate":"Embassy","long":-77.0465},"type":"Feature","geometry":{"type":"Point","coordinates":[-77.0465,-12.0931]}},{"properties":{"city":"London","country":"United Kingdom","id":"a62u9yurgca6","lat":51.5002,"embassy or consulate":"Embassy","long":-0.1262},"type":"Feature","geometry":{"type":"Point","coordinates":[-0.1262,51.5002]}},{"properties":{"city":"Malabo","country":"Equatorial Guinea","id":"a62u9yybwmcb","lat":3.7523,"embassy or consulate":"Embassy","long":8.7741},"type":"Feature","geometry":{"type":"Point","coordinates":[8.7741,3.7523]}},{"properties":{"city":"Mexico City","country":"Mexico","id":"a62u9yuenm0c","lat":19.4271,"embassy or consulate":"Embassy","long":-99.1276},"type":"Feature","geometry":{"type":"Point","coordinates":[-99.1276,19.4271]}},{"properties":{"city":"Moscow","country":"Russia","id":"a62u9z40telo","lat":55.7558,"embassy or consulate":"Embassy","long":37.6176},"type":"Feature","geometry":{"type":"Point","coordinates":[37.6176,55.7558]}},{"properties":{"city":"New Delhi","country":"India","id":"a62u9yot8qfm","lat":28.6353,"embassy or consulate":"Embassy","long":77.225},"type":"Feature","geometry":{"type":"Point","coordinates":[77.225,28.6353]}},{"properties":{"city":"New York","country":"United States","id":"a62u9ypnxqjo","lat":40.8124,"embassy or consulate":"Permanent Mission","long":-73.9961},"type":"Feature","geometry":{"type":"Point","coordinates":[-73.9961,40.8124]}},{"properties":{"city":"Phnom Penh","country":"Cambodia","id":"a62u9ys3dzmx","lat":11.5434,"embassy or consulate":"Embassy","long":104.8984},"type":"Feature","geometry":{"type":"Point","coordinates":[104.8984,11.5434]}},{"properties":{"city":"Prague","country":"Czech Republic","id":"a62u9yqbno4y","lat":50.0878,"embassy or consulate":"Embassy","long":50.0878},"type":"Feature","geometry":{"type":"Point","coordinates":[50.0878,50.0878]}},{"properties":{"city":"Pretoria","country":"South Africa","id":"a62u9z3lrxmc","lat":-25.7463,"embassy or consulate":"Embassy","long":28.1876},"type":"Feature","geometry":{"type":"Point","coordinates":[28.1876,-25.7463]}},{"properties":{"city":"Rome","country":"Italy","id":"a62u9ytr06rj","lat":41.8955,"embassy or consulate":"Embassy","long":12.4823},"type":"Feature","geometry":{"type":"Point","coordinates":[12.4823,41.8955]}},{"properties":{"city":"San'a","country":"Yemen","id":"a62u9yu3p8uh","lat":15.3556,"embassy or consulate":"Embassy","long":44.2081},"type":"Feature","geometry":{"type":"Point","coordinates":[44.2081,15.3556]}},{"properties":{"city":"Shenyang","country":"China","id":"a62u9yzdg2aw","lat":41.8559,"embassy or consulate":"Consulate-General","long":123.4254},"type":"Feature","geometry":{"type":"Point","coordinates":[123.4254,41.8559]}},{"properties":{"city":"Singapore","country":"Singapore","id":"a62u9z3vfqas","lat":1.2894,"embassy or consulate":"Embassy","long":103.85},"type":"Feature","geometry":{"type":"Point","coordinates":[103.85,1.2894]}},{"properties":{"city":"Sofia","country":"Bulgaria","id":"a62u9z2s426v","lat":42.7105,"embassy or consulate":"Embassy","long":23.3238},"type":"Feature","geometry":{"type":"Point","coordinates":[23.3238,42.7105]}},{"properties":{"city":"Stockholm","country":"Sweden","id":"a62u9yto18u5","lat":59.3328,"embassy or consulate":"Embassy","long":18.0645},"type":"Feature","geometry":{"type":"Point","coordinates":[18.0645,59.3328]}},{"properties":{"city":"Tashkent","country":"Uzbekistan","id":"a62u9yynooru","lat":41.3193,"embassy or consulate":"Embassy","long":69.2481},"type":"Feature","geometry":{"type":"Point","coordinates":[69.2481,41.3193]}},{"properties":{"city":"Tehran","country":"Iran","id":"a62u9ytquogw","lat":35.7061,"embassy or consulate":"Embassy","long":51.4358},"type":"Feature","geometry":{"type":"Point","coordinates":[51.4358,35.7061]}},{"properties":{"city":"Ulan Bator","country":"Mongolia","id":"a62u9yussil2","lat":47.9138,"embassy or consulate":"Embassy","long":106.922},"type":"Feature","geometry":{"type":"Point","coordinates":[106.922,47.9138]}},{"properties":{"city":"Vienna","country":"Austria","id":"a62u9yskya4w","lat":48.2092,"embassy or consulate":"Embassy","long":16.3728},"type":"Feature","geometry":{"type":"Point","coordinates":[16.3728,48.2092]}},{"properties":{"city":"Vientiane","country":"Laos","id":"a62u9yyktq9m","lat":17.9689,"embassy or consulate":"Embassy","long":102.6137},"type":"Feature","geometry":{"type":"Point","coordinates":[102.6137,17.9689]}},{"properties":{"city":"Vladivostok","country":"Russia","id":"a62u9z3nt0n3","lat":43.1938,"embassy or consulate":"Consulate-General","long":131.9096},"type":"Feature","geometry":{"type":"Point","coordinates":[131.9096,43.1938]}},{"properties":{"city":"Warsaw","country":"Poland","id":"a62u9ywclqch","lat":52.2297,"embassy or consulate":"Embassy","long":21.0122},"type":"Feature","geometry":{"type":"Point","coordinates":[21.0122,52.2297]}}],"is_temporal":false,"author":{"url":"http://en.wikipedia.org/wiki/List_of_diplomatic_missions_of_North_Korea","metadata":"http://en.wikipedia.org/wiki/List_of_diplomatic_missions_of_North_Korea","contact_name":"G. Moore","contact_address":"Herndon, VA","source":"Wikipedia Englihs","contact_phone":""},"source":"http://en.wikipedia.org/wiki/List_of_diplomatic_missions_of_North_Korea","pagination":{"sort":null,"start":0,"total":48,"limit":1000000},"state":"complete","tags":"missoins,north_korea","published":"2014-08-10T21:47:06-04:00","id":16507}