{"type":"FeatureCollection","data_type":"Dataset Analysis","url_type":null,"permissions":[{"permissions":{"download":true,"edit":true,"view":true},"group_id":32491},{"permissions":{"download":true,"view":true},"group_id":"everyone"}],"classification":null,"title":"Filtered Features of 'PO Op Dummy Data' based on 'Stores - NoVA Locations'","count":29,"stream_id":165189,"contributor":{"url":"http://geocommons.com/users/32297","name":"mglagola"},"data_attributes":null,"calculation_params":[{"calculation":"buffer_intersect","input":{"ds1":"153079","min_distance":"0","ds2":"153165","unit":"miles","distance":"2"}}],"icon_link":null,"link":"http://geocommons.com/overlays/165189.json","extent":[-77.4821,38.7517,-77.0837,38.9595],"geometry_types":["point"],"unique_name":null,"name":"Filtered Features of 'PO Op Dummy Data' based on 'Stores - NoVA Locations'","feature_count":29,"description":"Dataset created by filtering features of 'PO Op Dummy Data' that are within a buffer of 0 to 2 miles around the features in 'Stores - NoVA Locations'","next_feature":null,"is_raster":false,"short_classification":"Y","stats":{"passport apps":{"max":35,"mean":19.6896551724138,"variance":85.435960591133,"stdev":9.24315750115365,"min":2,"median":23},"foot traffic":{"max":4989,"mean":2386.41379310345,"variance":2978532.89408867,"stdev":1725.8426620317,"min":157,"median":2894},"ltrs 1,000's":{"max":148.2,"mean":70.8827586206897,"variance":2627.95915640394,"stdev":51.2636241052458,"min":4.65,"median":85.95},"geo_score":{"max":0.902,"mean":0.759275862068965,"variance":0.0153971354679803,"stdev":0.12408519439474,"min":0.424,"median":0.805},"pkgs 100's":{"max":39,"mean":22.9310344827586,"variance":96.7807881773399,"stdev":9.83772271297275,"min":3,"median":25},"sales $":{"max":79204,"mean":41256.275862069,"variance":562311567.992611,"stdev":23713.1096230041,"min":317,"median":43928},"# po boxes":{"max":300,"mean":198.275862068966,"variance":5380.84975369458,"stdev":73.3542756333575,"min":100,"median":185}},"features":[{"properties":{"passport apps":23,"foot traffic":263,"city":"Manassas","zip":"20110","ltrs 1,000's":7.8,"geo_score":0.805,"pkgs 100's":26,"office name":"Manassas Downtown Station","street address":"9108 Church Street","id":"21","geo_precision":"range","sales $":43126,"# po boxes":175,"state":"VA"},"type":"Feature","geometry":{"type":"Point","coordinates":[-77.472617,38.751733]}},{"properties":{"passport apps":32,"foot traffic":4439,"city":"Manassas","zip":"20110","ltrs 1,000's":131.85,"geo_score":0.805,"pkgs 100's":35,"office name":"Manassas Annex","street address":"9020 Euclid Avenue","id":"20","geo_precision":"range","sales $":6835,"# po boxes":245,"state":"VA"},"type":"Feature","geometry":{"type":"Point","coordinates":[-77.451287,38.762912]}},{"properties":{"passport apps":22,"foot traffic":318,"city":"Manassas","zip":"20110","ltrs 1,000's":9.45,"geo_score":0.805,"pkgs 100's":24,"office name":"Manassas Main Office","street address":"8801 Sudley Road","id":"22","geo_precision":"range","sales $":35124,"# po boxes":185,"state":"VA"},"type":"Feature","geometry":{"type":"Point","coordinates":[-77.482145,38.765688]}},{"properties":{"passport apps":17,"foot traffic":157,"city":"Manassas Park","zip":"20111","ltrs 1,000's":4.65,"geo_score":0.805,"pkgs 100's":19,"office name":"Manassas Park Branch","street address":"2049 Old Centreville Road","id":"23","geo_precision":"range","sales $":519,"# po boxes":295,"state":"VA"},"type":"Feature","geometry":{"type":"Point","coordinates":[-77.459013,38.783194]}},{"properties":{"passport apps":24,"foot traffic":253,"city":"Burke","zip":"22015","ltrs 1,000's":7.5,"geo_score":0.805,"pkgs 100's":27,"office name":"Burke Branch","street address":"9501 Burke Road","id":"4","geo_precision":"range","sales $":70927,"# po boxes":285,"state":"VA"},"type":"Feature","geometry":{"type":"Point","coordinates":[-77.271734,38.793686]}},{"properties":{"passport apps":32,"foot traffic":3055,"city":"Springfield","zip":"22152","ltrs 1,000's":90.75,"geo_score":0.61,"pkgs 100's":17,"office name":"West Springfield Branch","street address":"6200 Rolling Road","id":"48","geo_precision":"street","sales $":8135,"# po boxes":125,"state":"VA"},"type":"Feature","geometry":{"type":"Point","coordinates":[-77.246586,38.794444]}},{"properties":{"passport apps":23,"foot traffic":3015,"city":"Fairfax Station","zip":"22039","ltrs 1,000's":89.55,"geo_score":0.659,"pkgs 100's":26,"office name":"Fairfax Station Branch","street address":"5616I Ox Road","id":"12","geo_precision":"street","sales $":68126,"# po boxes":290,"state":"VA"},"type":"Feature","geometry":{"type":"Point","coordinates":[-77.324187,38.812664]}},{"properties":{"passport apps":4,"foot traffic":954,"city":"Centreville","zip":"20120","ltrs 1,000's":28.35,"geo_score":0.506,"pkgs 100's":35,"office name":"Sully Station","street address":"5003 WESTFIELDS BLVD","id":"45","geo_precision":"street","sales $":79204,"# po boxes":300,"state":"VA"},"type":"Feature","geometry":{"type":"Point","coordinates":[-77.273744,38.828194]}},{"properties":{"passport apps":28,"foot traffic":1939,"city":"Annandale","zip":"22003","ltrs 1,000's":57.6,"geo_score":0.868,"pkgs 100's":31,"office name":"Annandale Main Office","street address":"4270 John Marr Drive","id":"0","geo_precision":"range","sales $":78431,"# po boxes":155,"state":"VA"},"type":"Feature","geometry":{"type":"Point","coordinates":[-77.189897,38.830579]}},{"properties":{"passport apps":2,"foot traffic":4545,"city":"Arlington","zip":"22206","ltrs 1,000's":135.0,"geo_score":0.805,"pkgs 100's":12,"office name":"Shirlington Station","street address":"2850 S Quincy Street","id":"42","geo_precision":"range","sales $":49402,"# po boxes":285,"state":"VA"},"type":"Feature","geometry":{"type":"Point","coordinates":[-77.086776,38.840569]}},{"properties":{"passport apps":15,"foot traffic":212,"city":"Springfield","zip":"22151","ltrs 1,000's":6.3,"geo_score":0.424,"pkgs 100's":17,"office name":"North Springfield Branch","street address":"5238 Port Royal Road","id":"32","geo_precision":"street","sales $":51117,"# po boxes":120,"state":"VA"},"type":"Feature","geometry":{"type":"Point","coordinates":[-77.266791,38.847007]}},{"properties":{"passport apps":5,"foot traffic":3520,"city":"Fairfax","zip":"22030","ltrs 1,000's":104.55,"geo_score":0.835,"pkgs 100's":5,"office name":"Fairfax Main Office","street address":"3951 Chain Bridge Road","id":"11","geo_precision":"range","sales $":51605,"# po boxes":280,"state":"VA"},"type":"Feature","geometry":{"type":"Point","coordinates":[-77.306314,38.847104]}},{"properties":{"passport apps":25,"foot traffic":4333,"city":"Fairfax","zip":"22031","ltrs 1,000's":128.7,"geo_score":0.62,"pkgs 100's":35,"office name":"Turnpike Station","street address":"3601 Pickett Road","id":"46","geo_precision":"street","sales $":43928,"# po boxes":250,"state":"VA"},"type":"Feature","geometry":{"type":"Point","coordinates":[-77.317504,38.856691]}},{"properties":{"passport apps":15,"foot traffic":4989,"city":"Arlington","zip":"22204","ltrs 1,000's":148.2,"geo_score":0.805,"pkgs 100's":4,"office name":"South Station","street address":"1210 S Glebe Road","id":"43","geo_precision":"range","sales $":53617,"# po boxes":255,"state":"VA"},"type":"Feature","geometry":{"type":"Point","coordinates":[-77.09163,38.859473]}},{"properties":{"passport apps":17,"foot traffic":1399,"city":"Falls Church","zip":"22041","ltrs 1,000's":41.55,"geo_score":0.709,"pkgs 100's":19,"office name":"Baileys Crossroads Branch","street address":"6021 Leesburg Pike","id":"2","geo_precision":"street","sales $":3719,"# po boxes":275,"state":"VA"},"type":"Feature","geometry":{"type":"Point","coordinates":[-77.147751,38.86179]}},{"properties":{"passport apps":8,"foot traffic":3414,"city":"Falls Church","zip":"22042","ltrs 1,000's":101.4,"geo_score":0.805,"pkgs 100's":9,"office name":"Mosby Branch","street address":"3030 Annandale Road","id":"29","geo_precision":"range","sales $":9009,"# po boxes":245,"state":"VA"},"type":"Feature","geometry":{"type":"Point","coordinates":[-77.174675,38.867638]}},{"properties":{"passport apps":31,"foot traffic":631,"city":"Arlington","zip":"22203","ltrs 1,000's":18.75,"geo_score":0.805,"pkgs 100's":34,"office name":"Buckingham Station","street address":"235 N Glebe Road","id":"3","geo_precision":"range","sales $":31134,"# po boxes":100,"state":"VA"},"type":"Feature","geometry":{"type":"Point","coordinates":[-77.104653,38.873488]}},{"properties":{"passport apps":25,"foot traffic":480,"city":"Oakton","zip":"22124","ltrs 1,000's":14.25,"geo_score":0.902,"pkgs 100's":28,"office name":"Oakton","street address":"10449 White Granite Drive","id":"33","geo_precision":"range","sales $":48528,"# po boxes":250,"state":"VA"},"type":"Feature","geometry":{"type":"Point","coordinates":[-77.305116,38.874125]}},{"properties":{"passport apps":3,"foot traffic":823,"city":"Falls Church","zip":"22046","ltrs 1,000's":24.45,"geo_score":0.671,"pkgs 100's":3,"office name":"Falls Church Main Office","street address":"301 W Broad Street","id":"13","geo_precision":"street","sales $":77203,"# po boxes":225,"state":"VA"},"type":"Feature","geometry":{"type":"Point","coordinates":[-77.159099,38.87475]}},{"properties":{"passport apps":23,"foot traffic":4257,"city":"Fairfax","zip":"22031","ltrs 1,000's":126.45,"geo_score":0.805,"pkgs 100's":25,"office name":"Merrifield Branch","street address":"2730 Prosperity Ave","id":"27","geo_precision":"range","sales $":12725,"# po boxes":125,"state":"VA"},"type":"Feature","geometry":{"type":"Point","coordinates":[-77.232102,38.880984]}},{"properties":{"passport apps":13,"foot traffic":3575,"city":"Arlington","zip":"22205","ltrs 1,000's":106.2,"geo_score":0.785,"pkgs 100's":21,"office name":"Preston King Station","street address":"5877 Washington Boulevard","id":"36","geo_precision":"range","sales $":43614,"# po boxes":275,"state":"VA"},"type":"Feature","geometry":{"type":"Point","coordinates":[-77.141378,38.885571]}},{"properties":{"passport apps":24,"foot traffic":4060,"city":"Arlington","zip":"22210","ltrs 1,000's":120.6,"geo_score":0.785,"pkgs 100's":27,"office name":"Arlington Main Office","street address":"3118 Washington Boulevard","id":"1","geo_precision":"range","sales $":46527,"# po boxes":115,"state":"VA"},"type":"Feature","geometry":{"type":"Point","coordinates":[-77.095715,38.885954]}},{"properties":{"passport apps":27,"foot traffic":3035,"city":"Chantilly","zip":"20151","ltrs 1,000's":90.15,"geo_score":0.805,"pkgs 100's":30,"office name":"Chantilly","street address":"4410 BROOKFIELD CORPORATE DR","id":"6","geo_precision":"range","sales $":48730,"# po boxes":100,"state":"VA"},"type":"Feature","geometry":{"type":"Point","coordinates":[-77.438732,38.88618]}},{"properties":{"passport apps":23,"foot traffic":308,"city":"Arlington","zip":"22201","ltrs 1,000's":9.15,"geo_score":0.778,"pkgs 100's":25,"office name":"Court House Station","street address":"2043 Wilson Boulevard","id":"9","geo_precision":"range","sales $":41725,"# po boxes":100,"state":"VA"},"type":"Feature","geometry":{"type":"Point","coordinates":[-77.083681,38.89183]}},{"properties":{"passport apps":21,"foot traffic":1601,"city":"Herndon","zip":"22070","ltrs 1,000's":47.55,"geo_score":0.501,"pkgs 100's":23,"office name":"Herndon Main Office","street address":"590 Grove Street","id":"17","geo_precision":"street","sales $":58123,"# po boxes":150,"state":"VA"},"type":"Feature","geometry":{"type":"Point","coordinates":[-77.184525,38.895479]}},{"properties":{"passport apps":28,"foot traffic":2894,"city":"Mc Lean","zip":"22101","ltrs 1,000's":85.95,"geo_score":0.805,"pkgs 100's":31,"office name":"Mclean Main Office","street address":"6841 Elm Street","id":"25","geo_precision":"range","sales $":53331,"# po boxes":170,"state":"VA"},"type":"Feature","geometry":{"type":"Point","coordinates":[-77.180251,38.936356]}},{"properties":{"passport apps":35,"foot traffic":4601,"city":"Reston","zip":"20190","ltrs 1,000's":136.65,"geo_score":0.902,"pkgs 100's":12,"office name":"Reston Branch","street address":"11110 Sunset Hills Road","id":"39","geo_precision":"range","sales $":41439,"# po boxes":125,"state":"VA"},"type":"Feature","geometry":{"type":"Point","coordinates":[-77.330371,38.947703]}},{"properties":{"passport apps":15,"foot traffic":1308,"city":"Reston","zip":"20190","ltrs 1,000's":38.85,"geo_score":0.902,"pkgs 100's":39,"office name":"Reston Annex","street address":"1860A Michael Faraday Drive","id":"38","geo_precision":"range","sales $":317,"# po boxes":145,"state":"VA"},"type":"Feature","geometry":{"type":"Point","coordinates":[-77.332981,38.94859]}},{"properties":{"passport apps":11,"foot traffic":4828,"city":"Reston","zip":"20190","ltrs 1,000's":143.4,"geo_score":0.902,"pkgs 100's":26,"office name":"Reston Town Center Contra","street address":"11913 Freedom Drive","id":"40","geo_precision":"range","sales $":40212,"# po boxes":105,"state":"VA"},"type":"Feature","geometry":{"type":"Point","coordinates":[-77.356832,38.959519]}}],"is_temporal":false,"author":{"url":null,"metadata":null,"contact_name":null,"contact_address":null,"source":null,"contact_phone":null},"source":null,"pagination":{"sort":null,"start":0,"total":29,"limit":1000000},"state":"complete","tags":"","published":"2014-08-13T04:33:38-04:00","id":165189}