{"type":"FeatureCollection","data_type":"Dataset","url_type":null,"permissions":[{"permissions":{"download":true,"view":true},"group_id":"everyone"}],"classification":null,"title":"SCT-101211","count":12,"stream_id":165800,"contributor":{"url":"http://geocommons.com/users/34422","name":"jimalderdice"},"data_attributes":null,"calculation_params":null,"icon_link":null,"link":"http://geocommons.com/overlays/165800.json","extent":[-122.711,31.0633,-73.2134,42.8834],"geometry_types":["point"],"unique_name":null,"name":"SCT-101211","feature_count":12,"description":"","next_feature":null,"is_raster":false,"short_classification":"Y","stats":{"date":{"max":"2011/11/19 00:00:00 -0500","mean":"2011/11/09 15:35:00 -0500","variance":265367683636.364,"stdev":515138.509176283,"min":"2011/11/02 00:00:00 -0400","median":"2011/11/10 00:00:00 -0500"}},"features":[{"properties":{"city":"Little Rock","zip":null,"tour":"She's Country Tour","image url":"http://grassrootsviral.com/sct-logo-100.png","venue website":"http://revroom.com","date":{"end_time":"2011/11/03 00:00:00 -0400","original":"11/02/11","granularity":"day","time":"2011/11/02 00:00:00 -0400"},"geo_score":0.524,"venue facebook":"http://on.fb.me/revroom","venue":"Revolution Music Room (The Rev Room)","id":"a6lh32nfcabi","geo_precision":"street","address":"300 President Clinton Ave.","state":"AR"},"type":"Feature","geometry":{"type":"Point","coordinates":[-85.287009,31.190216]}},{"properties":{"city":"Grapevine","zip":null,"tour":"She's Country Tour","image url":"http://grassrootsviral.com/sct-logo-100.png","venue website":"http://glasscactusnightclub.com","date":{"end_time":"2011/11/04 00:00:00 -0400","original":"11/03/11","granularity":"day","time":"2011/11/03 00:00:00 -0400"},"geo_score":0.35,"venue facebook":"http://on.fb.me/glasscactus","venue":"Glass Cactus","id":"a6lh32ody5r6","geo_precision":"street","address":"1501 Gaylord Trail","state":"TX"},"type":"Feature","geometry":{"type":"Point","coordinates":[-122.15818,37.881567]}},{"properties":{"city":"Katy","zip":null,"tour":"She's Country Tour","image url":"http://grassrootsviral.com/sct-logo-100.png","venue website":"http://mosplacekaty.com","date":{"end_time":"2011/11/05 00:00:00 -0400","original":"11/04/11","granularity":"day","time":"2011/11/04 00:00:00 -0400"},"geo_score":0.572,"venue facebook":"http://on.fb.me/mosplace","venue":"Mo's Place","id":"a6lh32dem1rc","geo_precision":"street","address":"21940 Kingsland Blvd.","state":"TX"},"type":"Feature","geometry":{"type":"Point","coordinates":[-87.034768,32.441083]}},{"properties":{"city":"Helotes","zip":null,"tour":"She's Country Tour","image url":"http://grassrootsviral.com/sct-logo-100.png","venue website":"http://liveatfloores.com","date":{"end_time":"2011/11/06 00:00:00 -0400","original":"11/05/11","granularity":"day","time":"2011/11/05 00:00:00 -0400"},"geo_score":0.413,"venue facebook":"http://on.fb.me/floores","venue":"Floore's Country Store","id":"a6lh32o7tbji","geo_precision":"city","address":"14464 Old Bandera Rd.","state":"TX"},"type":"Feature","geometry":{"type":"Point","coordinates":[-73.213441,42.883412]}},{"properties":{"city":"Oklahoma City","zip":null,"tour":"She's Country Tour","image url":"http://grassrootsviral.com/sct-logo-100.png","venue website":"http://wormydog.com","date":{"end_time":"2011/11/07 00:00:00 -0500","original":"11/06/11","granularity":"day","time":"2011/11/06 00:00:00 -0400"},"geo_score":0.707,"venue facebook":"http://www.facebook.com/wormydog","venue":"Wormy Dog Saloon","id":"a6lh32mtybrc","geo_precision":"range","address":"311 E. Sheridan","state":"OK"},"type":"Feature","geometry":{"type":"Point","coordinates":[-122.710767,38.442011]}},{"properties":{"city":"Nashville","zip":null,"tour":"She's Country Tour","image url":"http://grassrootsviral.com/sct-logo-100.png","venue website":null,"date":{"end_time":"2011/11/10 00:00:00 -0500","original":"11/09/11","granularity":"day","time":"2011/11/09 00:00:00 -0500"},"geo_score":0.0,"venue facebook":null,"venue":"Venue TBA soon!","id":"a6lh329ukb03","geo_precision":"unmatched","address":null,"state":"TN"},"type":"Feature","geometry":null},{"properties":{"city":"Wichita Falls","zip":"76308","tour":"She's Country Tour","image url":"http://grassrootsviral.com/sct-logo-100.png","venue website":"http://denimanddiamondswichitafalls.com","date":{"end_time":"2011/11/11 00:00:00 -0500","original":"11/10/11","granularity":"day","time":"2011/11/10 00:00:00 -0500"},"geo_score":0.599,"venue facebook":"http://on.fb.me/denimwichita","venue":"Denim and Diamonds","id":"a6lh32ma8d1o","geo_precision":"street","address":"1315 Kell Blvd.","state":"TX"},"type":"Feature","geometry":{"type":"Point","coordinates":[-85.768678,31.06333]}},{"properties":{"city":"Des Moines","zip":null,"tour":"She's Country Tour","image url":"http://grassrootsviral.com/sct-logo-100.png","venue website":null,"date":{"end_time":"2011/11/12 00:00:00 -0500","original":"11/11/11","granularity":"day","time":"2011/11/11 00:00:00 -0500"},"geo_score":0.488,"venue facebook":"http://on.fb.me/qqcknN","venue":"Krazee Kafe","id":"a6lh32emyk7q","geo_precision":"city","address":"1410 Broadway","state":"IA"},"type":"Feature","geometry":{"type":"Point","coordinates":[-76.214654,41.247305]}},{"properties":{"city":"Kansas City","zip":null,"tour":"She's Country Tour","image url":"http://grassrootsviral.com/sct-logo-100.png","venue website":null,"date":{"end_time":"2011/11/13 00:00:00 -0500","original":"11/12/11","granularity":"day","time":"2011/11/12 00:00:00 -0500"},"geo_score":0.431,"venue facebook":"http://on.fb.me/rtYmeY","venue":"Denim and Diamonds","id":"a6lh32o9ciz5","geo_precision":"city","address":"1725 Swift Ave.","state":"MO"},"type":"Feature","geometry":{"type":"Point","coordinates":[-89.75425,36.329232]}},{"properties":{"city":"Starkville","zip":null,"tour":"She's Country Tour","image url":"http://grassrootsviral.com/sct-logo-100.png","venue website":"http://statetheatrestarkville.com","date":{"end_time":"2011/11/18 00:00:00 -0500","original":"11/17/11","granularity":"day","time":"2011/11/17 00:00:00 -0500"},"geo_score":0.467,"venue facebook":"http://on.fb.me/statetheatre","venue":"State Theatre","id":"a6lh32lzjjj5","geo_precision":"street","address":"213 E. Main St.","state":"MS"},"type":"Feature","geometry":{"type":"Point","coordinates":[-94.183731,36.06053]}},{"properties":{"city":"Jacksonville","zip":null,"tour":"She's Country Tour","image url":"http://grassrootsviral.com/sct-logo-100.png","venue website":"http://mavericksatthelanding.com/","date":{"end_time":"2011/11/19 00:00:00 -0500","original":"11/18/11","granularity":"day","time":"2011/11/18 00:00:00 -0500"},"geo_score":0.666,"venue facebook":"http://on.fb.me/mavericksjax","venue":"Mavericks at the Landin","id":"a6lh32ml62wk","geo_precision":"street","address":"2 Independent Dr.","state":"FL"},"type":"Feature","geometry":{"type":"Point","coordinates":[-86.641605,31.838714]}},{"properties":{"city":"Atlanta","zip":null,"tour":"She's Country Tour","image url":"http://grassrootsviral.com/sct-logo-100.png","venue website":null,"date":{"end_time":"2011/11/20 00:00:00 -0500","original":"11/19/11","granularity":"day","time":"2011/11/19 00:00:00 -0500"},"geo_score":0.0,"venue facebook":null,"venue":"Peachtree Tavern","id":"a6lh32g411lj","geo_precision":"unmatched","address":"3179 Peachtree Rd. NE","state":"GA"},"type":"Feature","geometry":null}],"is_temporal":true,"author":{"url":"","metadata":null,"contact_name":null,"contact_address":null,"source":null,"contact_phone":null},"source":"","pagination":{"sort":null,"start":0,"total":12,"limit":1000000},"state":"complete","tags":"","published":"2014-08-13T05:38:13-04:00","id":165800}