{"type":"FeatureCollection","data_type":"Dataset","url_type":null,"permissions":[{"permissions":{"download":true,"view":true},"group_id":"everyone"}],"classification":null,"title":"data_por_zip_codes","count":69,"stream_id":166629,"contributor":{"url":"http://geocommons.com/users/33544","name":"calembe"},"data_attributes":null,"calculation_params":null,"icon_link":null,"link":"http://geocommons.com/overlays/166629.json","extent":[-78.8484,40.7038,-73.7865,42.7317],"geometry_types":["point"],"unique_name":null,"name":"data_por_zip_codes","feature_count":69,"description":"","next_feature":null,"is_raster":false,"short_classification":"Y","stats":{"votantes":{"max":4365,"mean":543.710144927536,"variance":980351.267689685,"stdev":990.126894741116,"min":1,"median":64}},"features":[{"properties":{"zip codes":"10008","city":"New York","geo_score":0.857,"votantes":1,"id":"a63dvto51l05","geo_precision":"zip"},"type":"Feature","geometry":{"type":"Point","coordinates":[-73.977182,40.780751]}},{"properties":{"zip codes":"10014","city":"New York","geo_score":0.857,"votantes":6,"id":"a63dvtl57uno","geo_precision":"zip"},"type":"Feature","geometry":{"type":"Point","coordinates":[-74.005095,40.738088]}},{"properties":{"zip codes":"10019","city":"New York","geo_score":0.857,"votantes":56,"id":"a63dvtmvipl6","geo_precision":"zip"},"type":"Feature","geometry":{"type":"Point","coordinates":[-73.985443,40.765926]}},{"properties":{"zip codes":"10020","city":"New York","geo_score":0.857,"votantes":1,"id":"a63dvtm2dusw","geo_precision":"zip"},"type":"Feature","geometry":{"type":"Point","coordinates":[-73.996788,40.735449]}},{"properties":{"zip codes":"10021","city":"New York","geo_score":0.857,"votantes":9,"id":"a63dvtkx5cjj","geo_precision":"zip"},"type":"Feature","geometry":{"type":"Point","coordinates":[-73.960257,40.768823]}},{"properties":{"zip codes":"10022","city":"New York","geo_score":0.857,"votantes":4,"id":"a63dvtue628g","geo_precision":"zip"},"type":"Feature","geometry":{"type":"Point","coordinates":[-73.967842,40.758775]}},{"properties":{"zip codes":"10023","city":"New York","geo_score":0.857,"votantes":51,"id":"a63dvtl9js2n","geo_precision":"zip"},"type":"Feature","geometry":{"type":"Point","coordinates":[-73.982213,40.776765]}},{"properties":{"zip codes":"10024","city":"New York","geo_score":0.857,"votantes":78,"id":"a63dvtkcbm51","geo_precision":"zip"},"type":"Feature","geometry":{"type":"Point","coordinates":[-73.965653,40.80813]}},{"properties":{"zip codes":"10025","city":"New York","geo_score":0.857,"votantes":519,"id":"a63dvtluqxnq","geo_precision":"zip"},"type":"Feature","geometry":{"type":"Point","coordinates":[-73.967778,40.798664]}},{"properties":{"zip codes":"10026","city":"New York","geo_score":0.857,"votantes":215,"id":"a63dvtsorfdh","geo_precision":"zip"},"type":"Feature","geometry":{"type":"Point","coordinates":[-73.953107,40.802918]}},{"properties":{"zip codes":"10027","city":"New York","geo_score":0.857,"votantes":504,"id":"a63dvtvwbbg8","geo_precision":"zip"},"type":"Feature","geometry":{"type":"Point","coordinates":[-73.9532,40.812242]}},{"properties":{"zip codes":"10028","city":"New York","geo_score":0.857,"votantes":20,"id":"a63dvtpqi459","geo_precision":"zip"},"type":"Feature","geometry":{"type":"Point","coordinates":[-73.953914,40.776629]}},{"properties":{"zip codes":"10029","city":"New York","geo_score":0.857,"votantes":326,"id":"a63dvtszi7w1","geo_precision":"zip"},"type":"Feature","geometry":{"type":"Point","coordinates":[-73.943517,40.791884]}},{"properties":{"zip codes":"10030","city":"New York","geo_score":0.857,"votantes":212,"id":"a63dvtxzd5qp","geo_precision":"zip"},"type":"Feature","geometry":{"type":"Point","coordinates":[-73.94329,40.818474]}},{"properties":{"zip codes":"10031","city":"New York","geo_score":0.857,"votantes":2528,"id":"a63dvtxaflka","geo_precision":"zip"},"type":"Feature","geometry":{"type":"Point","coordinates":[-73.949039,40.823438]}},{"properties":{"zip codes":"10032","city":"New York","geo_score":0.857,"votantes":4365,"id":"a63dvtpbhtj6","geo_precision":"zip"},"type":"Feature","geometry":{"type":"Point","coordinates":[-73.942181,40.839137]}},{"properties":{"zip codes":"10033","city":"New York","geo_score":0.857,"votantes":4110,"id":"a63dvtoyhvaf","geo_precision":"zip"},"type":"Feature","geometry":{"type":"Point","coordinates":[-73.934764,40.851293]}},{"properties":{"zip codes":"10034","city":"New York","geo_score":0.755,"votantes":2725,"id":"a63dvtrmbhba","geo_precision":"zip"},"type":"Feature","geometry":{"type":"Point","coordinates":[-73.926804,40.865656]}},{"properties":{"zip codes":"10035","city":"New York","geo_score":0.857,"votantes":173,"id":"a63dvttpqqk3","geo_precision":"zip"},"type":"Feature","geometry":{"type":"Point","coordinates":[-73.9347,40.801913]}},{"properties":{"zip codes":"10036","city":"New York","geo_score":0.857,"votantes":40,"id":"a63dvtxqu2j4","geo_precision":"zip"},"type":"Feature","geometry":{"type":"Point","coordinates":[-73.989847,40.75953]}},{"properties":{"zip codes":"10037","city":"New York","geo_score":0.857,"votantes":64,"id":"a63dvtv34i3y","geo_precision":"zip"},"type":"Feature","geometry":{"type":"Point","coordinates":[-73.938498,40.813884]}},{"properties":{"zip codes":"10039","city":"New York","geo_score":0.857,"votantes":242,"id":"a63dvtwvnxop","geo_precision":"zip"},"type":"Feature","geometry":{"type":"Point","coordinates":[-73.939398,40.826736]}},{"properties":{"zip codes":"10040","city":"New York","geo_score":0.857,"votantes":2823,"id":"a63dvtrczo7x","geo_precision":"zip"},"type":"Feature","geometry":{"type":"Point","coordinates":[-73.930999,40.858692]}},{"properties":{"zip codes":"10041","city":"New York","geo_score":0.857,"votantes":2,"id":"a63dvtxwax53","geo_precision":"zip"},"type":"Feature","geometry":{"type":"Point","coordinates":[-74.009814,40.703801]}},{"properties":{"zip codes":"10043","city":"New York","geo_score":0.857,"votantes":6,"id":"a63dvttnfr63","geo_precision":"zip"},"type":"Feature","geometry":{"type":"Point","coordinates":[-73.977182,40.780751]}},{"properties":{"zip codes":"10044","city":"New York","geo_score":0.857,"votantes":9,"id":"a63dvtygheb4","geo_precision":"zip"},"type":"Feature","geometry":{"type":"Point","coordinates":[-73.950521,40.761812]}},{"properties":{"zip codes":"10045","city":"New York","geo_score":0.857,"votantes":11,"id":"a63dvtlso2cm","geo_precision":"zip"},"type":"Feature","geometry":{"type":"Point","coordinates":[-74.008687,40.70859]}},{"properties":{"zip codes":"10046","city":"New York","geo_score":0.857,"votantes":3,"id":"a63dvtmsu0uv","geo_precision":"zip"},"type":"Feature","geometry":{"type":"Point","coordinates":[-73.977182,40.780751]}},{"properties":{"zip codes":"10047","city":"New York","geo_score":0.857,"votantes":2,"id":"a63dvtl52mx0","geo_precision":"zip"},"type":"Feature","geometry":{"type":"Point","coordinates":[-73.977182,40.780751]}},{"properties":{"zip codes":"10048","city":"New York","geo_score":0.857,"votantes":5,"id":"a63dvtxyjcm6","geo_precision":"zip"},"type":"Feature","geometry":{"type":"Point","coordinates":[-74.013289,40.71254]}},{"properties":{"zip codes":"10055","city":"New York","geo_score":0.857,"votantes":2,"id":"a63dvtwwot7s","geo_precision":"zip"},"type":"Feature","geometry":{"type":"Point","coordinates":[-73.977182,40.780751]}},{"properties":{"zip codes":"10060","city":"New York","geo_score":0.857,"votantes":1,"id":"a63dvtspd67j","geo_precision":"zip"},"type":"Feature","geometry":{"type":"Point","coordinates":[-73.977182,40.780751]}},{"properties":{"zip codes":"10069","city":"New York","geo_score":0.857,"votantes":1,"id":"a63dvtz71lyp","geo_precision":"zip"},"type":"Feature","geometry":{"type":"Point","coordinates":[-73.988381,40.777952]}},{"properties":{"zip codes":"10090","city":"New York","geo_score":0.857,"votantes":1,"id":"a63dvtl89u7l","geo_precision":"zip"},"type":"Feature","geometry":{"type":"Point","coordinates":[-73.977182,40.780751]}},{"properties":{"zip codes":"10095","city":"New York","geo_score":0.857,"votantes":1,"id":"a63dvtx23ysw","geo_precision":"zip"},"type":"Feature","geometry":{"type":"Point","coordinates":[-73.988421,40.748181]}},{"properties":{"zip codes":"10096","city":"New York","geo_score":0.857,"votantes":1,"id":"a63dvtwh9nyt","geo_precision":"zip"},"type":"Feature","geometry":{"type":"Point","coordinates":[-73.977182,40.780751]}},{"properties":{"zip codes":"10099","city":"New York","geo_score":0.857,"votantes":1,"id":"a63dvtnhmavo","geo_precision":"zip"},"type":"Feature","geometry":{"type":"Point","coordinates":[-73.977182,40.780751]}},{"properties":{"zip codes":"10104","city":"New York","geo_score":0.857,"votantes":1,"id":"a63dvtosnvh8","geo_precision":"zip"},"type":"Feature","geometry":{"type":"Point","coordinates":[-73.979908,40.760943]}},{"properties":{"zip codes":"10108","city":"New York","geo_score":0.857,"votantes":1,"id":"a63dvtny3gnf","geo_precision":"zip"},"type":"Feature","geometry":{"type":"Point","coordinates":[-73.977182,40.780751]}},{"properties":{"zip codes":"10116","city":"New York","geo_score":0.857,"votantes":1,"id":"a63dvtom3jdq","geo_precision":"zip"},"type":"Feature","geometry":{"type":"Point","coordinates":[-73.977182,40.780751]}},{"properties":{"zip codes":"10120","city":"New York","geo_score":0.857,"votantes":2,"id":"a63dvtp4d1qt","geo_precision":"zip"},"type":"Feature","geometry":{"type":"Point","coordinates":[-73.989426,40.750629]}},{"properties":{"zip codes":"10128","city":"New York","geo_score":0.857,"votantes":13,"id":"a63dvtstiqi6","geo_precision":"zip"},"type":"Feature","geometry":{"type":"Point","coordinates":[-73.95158,40.780989]}},{"properties":{"zip codes":"10131","city":"New York","geo_score":0.857,"votantes":1,"id":"a63dvtq5udx8","geo_precision":"zip"},"type":"Feature","geometry":{"type":"Point","coordinates":[-73.977182,40.780751]}},{"properties":{"zip codes":"10132","city":"New York","geo_score":0.857,"votantes":1,"id":"a63dvtoe3tzd","geo_precision":"zip"},"type":"Feature","geometry":{"type":"Point","coordinates":[-73.977182,40.780751]}},{"properties":{"zip codes":"10451","city":"Bronx","geo_score":0.857,"votantes":625,"id":"a63dvtthzrtv","geo_precision":"zip"},"type":"Feature","geometry":{"type":"Point","coordinates":[-73.920355,40.819329]}},{"properties":{"zip codes":"10452","city":"Bronx","geo_score":0.723,"votantes":2300,"id":"a63dvtw09jvu","geo_precision":"zip"},"type":"Feature","geometry":{"type":"Point","coordinates":[-73.909303,40.8601]}},{"properties":{"zip codes":"10453","city":"Bronx","geo_score":0.725,"votantes":2847,"id":"a63dvtuzxtf2","geo_precision":"zip"},"type":"Feature","geometry":{"type":"Point","coordinates":[-73.919859,40.849822]}},{"properties":{"zip codes":"10454","city":"Bronx","geo_score":0.714,"votantes":360,"id":"a63dvtkrz9wt","geo_precision":"zip"},"type":"Feature","geometry":{"type":"Point","coordinates":[-73.922915,40.80899]}},{"properties":{"zip codes":"10455","city":"Bronx","geo_score":0.857,"votantes":507,"id":"a63dvtv3335c","geo_precision":"zip"},"type":"Feature","geometry":{"type":"Point","coordinates":[-73.908355,40.815029]}},{"properties":{"zip codes":"10456","city":"Bronx","geo_score":0.743,"votantes":1621,"id":"a63dvtk8maa0","geo_precision":"zip"},"type":"Feature","geometry":{"type":"Point","coordinates":[-73.906525,40.829267]}},{"properties":{"zip codes":"10457","city":"Bronx","geo_score":0.776,"votantes":1702,"id":"a63dvtln5xk7","geo_precision":"zip"},"type":"Feature","geometry":{"type":"Point","coordinates":[-73.905692,40.849545]}},{"properties":{"zip codes":"10458","city":"Bronx","geo_score":0.735,"votantes":1183,"id":"a63dvtuou8r1","geo_precision":"zip"},"type":"Feature","geometry":{"type":"Point","coordinates":[-73.898469,40.859267]}},{"properties":{"zip codes":"10459","city":"Bronx","geo_score":0.857,"votantes":706,"id":"a63dvtplwiwa","geo_precision":"zip"},"type":"Feature","geometry":{"type":"Point","coordinates":[-73.893605,40.825629]}},{"properties":{"zip codes":"10460","city":"Bronx","geo_score":0.714,"votantes":775,"id":"a63dvtmucqx2","geo_precision":"zip"},"type":"Feature","geometry":{"type":"Point","coordinates":[-73.877636,40.839823]}},{"properties":{"zip codes":"10461","city":"Bronx","geo_score":0.714,"votantes":106,"id":"a63dvtqkfj4z","geo_precision":"zip"},"type":"Feature","geometry":{"type":"Point","coordinates":[-73.85528,40.84722]}},{"properties":{"zip codes":"10462","city":"Bronx","geo_score":0.735,"votantes":349,"id":"a63dvtra9rqs","geo_precision":"zip"},"type":"Feature","geometry":{"type":"Point","coordinates":[-73.863746,40.848434]}},{"properties":{"zip codes":"10463","city":"Bronx","geo_score":0.725,"votantes":1014,"id":"a63dvtshezbp","geo_precision":"zip"},"type":"Feature","geometry":{"type":"Point","coordinates":[-73.917359,40.881211]}},{"properties":{"zip codes":"10464","city":"Bronx","geo_score":0.729,"votantes":13,"id":"a63dvtyy5gjp","geo_precision":"zip"},"type":"Feature","geometry":{"type":"Point","coordinates":[-73.786522,40.847323]}},{"properties":{"zip codes":"10465","city":"Bronx","geo_score":0.74,"votantes":81,"id":"a63dvtw9kvz2","geo_precision":"zip"},"type":"Feature","geometry":{"type":"Point","coordinates":[-73.802078,40.815934]}},{"properties":{"zip codes":"10466","city":"Bronx","geo_score":0.714,"votantes":170,"id":"a63dvtnxwe6b","geo_precision":"zip"},"type":"Feature","geometry":{"type":"Point","coordinates":[-73.852357,40.897877]}},{"properties":{"zip codes":"10467","city":"Bronx","geo_score":0.735,"votantes":594,"id":"a63dvtmoveew","geo_precision":"zip"},"type":"Feature","geometry":{"type":"Point","coordinates":[-73.866246,40.877322]}},{"properties":{"zip codes":"10468","city":"Bronx","geo_score":0.857,"votantes":2022,"id":"a63dvtl8jwqf","geo_precision":"zip"},"type":"Feature","geometry":{"type":"Point","coordinates":[-73.900505,40.870978]}},{"properties":{"zip codes":"10469","city":"Bronx","geo_score":0.729,"votantes":88,"id":"a63dvtwwfdpu","geo_precision":"zip"},"type":"Feature","geometry":{"type":"Point","coordinates":[-73.841246,40.861211]}},{"properties":{"zip codes":"10470","city":"Bronx","geo_score":0.732,"votantes":31,"id":"a63dvu0b08mn","geo_precision":"zip"},"type":"Feature","geometry":{"type":"Point","coordinates":[-73.867357,40.898155]}},{"properties":{"zip codes":"10471","city":"Bronx","geo_score":0.73,"votantes":33,"id":"a63dvtk9yc1o","geo_precision":"zip"},"type":"Feature","geometry":{"type":"Point","coordinates":[-73.90639,40.90056]}},{"properties":{"zip codes":"10472","city":"Bronx","geo_score":0.857,"votantes":728,"id":"a63dvtx0cnmu","geo_precision":"zip"},"type":"Feature","geometry":{"type":"Point","coordinates":[-73.865704,40.829529]}},{"properties":{"zip codes":"10473","city":"Bronx","geo_score":0.74,"votantes":327,"id":"a63dvtseff9a","geo_precision":"zip"},"type":"Feature","geometry":{"type":"Point","coordinates":[-73.949582,40.805656]}},{"properties":{"zip codes":"10474","city":"Bronx","geo_score":0.857,"votantes":137,"id":"a63dvttfvvf6","geo_precision":"zip"},"type":"Feature","geometry":{"type":"Point","coordinates":[-73.884104,40.813929]}},{"properties":{"zip codes":"10475","city":"Bronx","geo_score":0.729,"votantes":59,"id":"a63dvtyvxwch","geo_precision":"zip"},"type":"Feature","geometry":{"type":"Point","coordinates":[-78.848366,42.731726]}}],"is_temporal":false,"author":{"url":"","metadata":null,"contact_name":null,"contact_address":null,"source":null,"contact_phone":null},"source":"","pagination":{"sort":null,"start":0,"total":69,"limit":1000000},"state":"complete","tags":"","published":"2014-08-13T06:56:31-04:00","id":166629}