{"type":"FeatureCollection","data_type":"Dataset","url_type":null,"permissions":[{"permissions":{"download":true,"view":true},"group_id":"everyone"}],"classification":null,"title":"Dealers","count":133,"stream_id":167342,"contributor":{"url":"http://geocommons.com/users/34616","name":"spencerallen"},"data_attributes":null,"calculation_params":null,"icon_link":null,"link":"http://geocommons.com/overlays/167342.json","extent":[-122.855,25.5604,-69.5366,47.3277],"geometry_types":["point"],"unique_name":null,"name":"Dealers","feature_count":133,"description":"","next_feature":null,"is_raster":false,"short_classification":"Y","stats":{},"features":[{"properties":{"city":"Indianapolis","zipcode":"46268","geo_score":0.347,"street":"4505 W. 96th St.","account name":"Champion Chrysler Jeep Dodge","id":"a6ccq0skstzd","geo_precision":"street","state":"IN"},"type":"Feature","geometry":{"type":"Point","coordinates":[-86.158054,39.927005]}},{"properties":{"city":"Panama City","zipcode":"32401","geo_score":0.721,"street":"641 W 15th St","account name":"Bay Lincoln Mercury Dodge Hyundai","id":"a6ccq109vwlx","geo_precision":"range","state":"FL"},"type":"Feature","geometry":{"type":"Point","coordinates":[-85.666988,30.175202]}},{"properties":{"city":"Harrison","zipcode":"10528","geo_score":0.902,"street":"195 Halstead Ave","account name":"Ray Catena GEM of Westchester","id":"a6ccq0zl851e","geo_precision":"range","state":"NY"},"type":"Feature","geometry":{"type":"Point","coordinates":[-73.71628,40.966792]}},{"properties":{"city":"Gaithersburg","zipcode":"20878","geo_score":0.805,"street":"84 Bureau Dr.","account name":"Criswell Chrysler Jeep Dodge","id":"a6ccq10wye8o","geo_precision":"range","state":"MD"},"type":"Feature","geometry":{"type":"Point","coordinates":[-77.216761,39.143964]}},{"properties":{"city":"Albuquerque","zipcode":"87114","geo_score":0.717,"street":"9621 Coors NW","account name":"Melloy Dodge","id":"a6ccq1797q4v","geo_precision":"range","state":"NM"},"type":"Feature","geometry":{"type":"Point","coordinates":[-106.660659,35.188081]}},{"properties":{"city":"North Myrtle Beach","zipcode":"29582","geo_score":0.532,"street":"719 North Beach Blvd.","account name":"GEM Cars of Myrtle Beach, LLC","id":"a6ccq13wnlw1","geo_precision":"street","state":"SC"},"type":"Feature","geometry":{"type":"Point","coordinates":[-78.745859,33.785847]}},{"properties":{"city":"Canyon Lake","zipcode":"92587","geo_score":0.551,"street":"31672 Railroad Canyon Rd","account name":"Prestige Golf Cars","id":"a6ccq0w2xm78","geo_precision":"street","state":"CA"},"type":"Feature","geometry":{"type":"Point","coordinates":[-122.161387,37.90291]}},{"properties":{"city":"SWEDESBORO","zipcode":"8085","geo_score":0.708,"street":"1945 KINGS HWY","account name":"Spirit Chrysler","id":"a6ccq0sb6cwp","geo_precision":"street","state":"NJ"},"type":"Feature","geometry":{"type":"Point","coordinates":[-75.319885,39.73383]}},{"properties":{"city":"Cathedral City","zipcode":"92234","geo_score":0.902,"street":"36444 Auto Park Dr","account name":"Crystal Chrysler Jeep Dodge Center","id":"a6ccq12al7cq","geo_precision":"range","state":"CA"},"type":"Feature","geometry":{"type":"Point","coordinates":[-116.473099,33.784066]}},{"properties":{"city":"Ann Arbor","zipcode":"48103","geo_score":0.286,"street":"2060 W.Stadium Blvd","account name":"Chrysler Jeep of Ann Arbor","id":"a6ccq0tlbhg9","geo_precision":"street","state":"MI"},"type":"Feature","geometry":{"type":"Point","coordinates":[-85.888888,42.96966]}},{"properties":{"city":"Kennewick","zipcode":"99336","geo_score":0.464,"street":"6400 W. Okanogan Ave.","account name":"Paul Parish Limited","id":"a6ccq12xossk","geo_precision":"street","state":"WA"},"type":"Feature","geometry":{"type":"Point","coordinates":[-119.173244,46.220769]}},{"properties":{"city":"Heath","zipcode":"43056","geo_score":0.902,"street":"2333 Hebron Rd","account name":"Mid Ohio Golf Car Inc","id":"a6ccq0yrr3lg","geo_precision":"range","state":"OH"},"type":"Feature","geometry":{"type":"Point","coordinates":[-82.477559,39.99174]}},{"properties":{"city":"Celina","zipcode":"45822","geo_score":0.446,"street":"PO Box 256","account name":"Buds Chrysler-Dodge-Jeep, Inc.","id":"a6ccq15ncjy5","geo_precision":"street","state":"OH"},"type":"Feature","geometry":{"type":"Point","coordinates":[-83.497592,41.122729]}},{"properties":{"city":"Palatka","zipcode":"32177","geo_score":0.777,"street":"256 HWY 17 N","account name":"Beck Chrysler Dodge Jeep","id":"a6ccq0t9tsdo","geo_precision":"range","state":"FL"},"type":"Feature","geometry":{"type":"Point","coordinates":[-81.630382,29.647349]}},{"properties":{"city":"Kansas City","zipcode":"66102","geo_score":0.805,"street":"6640 State Ave","account name":"Bob Hoss Dodge Chrysler Jeep, Inc.","id":"a6ccq0rwidft","geo_precision":"range","state":"KS"},"type":"Feature","geometry":{"type":"Point","coordinates":[-94.73179,39.116767]}},{"properties":{"city":"Hendersonville","zipcode":"28792","geo_score":0.356,"street":"401 Duncan Hill Rd","account name":"Egolf Motors","id":"a6ccq155tq9c","geo_precision":"street","state":"NC"},"type":"Feature","geometry":{"type":"Point","coordinates":[-78.308968,36.42167]}},{"properties":{"city":"Pompano Beach","zipcode":"33062","geo_score":0.834,"street":"1345 S Federal Hwy","account name":"Pompano Nissan LLC","id":"a6ccq128f1lr","geo_precision":"range","state":"FL"},"type":"Feature","geometry":{"type":"Point","coordinates":[-80.101235,26.249124]}},{"properties":{"city":"Colorado Springs","zipcode":"80906","geo_score":0.805,"street":"1205 Motor City Dr","account name":"Perkins Motor Company, Incorporated","id":"a6ccq0wmqgyz","geo_precision":"range","state":"CO"},"type":"Feature","geometry":{"type":"Point","coordinates":[-104.830772,38.813998]}},{"properties":{"city":"Fort Walton Beach","zipcode":"32547","geo_score":0.415,"street":"1006 N Beal Pkwy","account name":"Quality Imports Inc","id":"a6ccq10mxbm3","geo_precision":"street","state":"FL"},"type":"Feature","geometry":{"type":"Point","coordinates":[-82.647194,30.183389]}},{"properties":{"city":"Surprise","zipcode":"85374","geo_score":0.796,"street":"12301 W Bell Rd Ste A101","account name":"The Horner Group, LLC","id":"a6ccq1573f6m","geo_precision":"range","state":"AZ"},"type":"Feature","geometry":{"type":"Point","coordinates":[-112.324777,33.638742]}},{"properties":{"city":"Cary","zipcode":"27511","geo_score":0.634,"street":"400 Auto Park Blvd","account name":"AutoPark Chrysler Jeep","id":"a6ccq17vvxqq","geo_precision":"range","state":"NC"},"type":"Feature","geometry":{"type":"Point","coordinates":[-79.46747,35.71833]}},{"properties":{"city":"Fruitland Park","zipcode":"34731","geo_score":0.805,"street":"3401 US Hwy 441/27","account name":"Bill Bryan Chrysler, Dodge, Jeep, Subaru","id":"a6ccq0t5g9g0","geo_precision":"range","state":"FL"},"type":"Feature","geometry":{"type":"Point","coordinates":[-82.637124,30.189532]}},{"properties":{"city":"Beaufort","zipcode":"29902","geo_score":0.805,"street":"1555 Salem Road","account name":"Butler Chrysler Dodge Jeep","id":"a6ccq170plwa","geo_precision":"range","state":"SC"},"type":"Feature","geometry":{"type":"Point","coordinates":[-80.709557,32.427016]}},{"properties":{"city":"Manteca","zipcode":"95337","geo_score":0.878,"street":"1115 W Yosemite Ave","account name":"Cabral Chrysler Jeep","id":"a6ccq148hp44","geo_precision":"range","state":"CA"},"type":"Feature","geometry":{"type":"Point","coordinates":[-121.200697,37.797449]}},{"properties":{"city":"Las Vegas","zipcode":"89115","geo_score":0.677,"street":"4620 Industry Center Dr","account name":"Creative Bus Sales - NV","id":"a6ccq0uys2fk","geo_precision":"range","state":"NV"},"type":"Feature","geometry":{"type":"Point","coordinates":[-115.181214,36.105671]}},{"properties":{"city":"Greenville","zipcode":"27834","geo_score":0.476,"street":"PO Box 1764","account name":"East Carolina Chrysler Dodge","id":"a6ccq0sli984","geo_precision":"street","state":"NC"},"type":"Feature","geometry":{"type":"Point","coordinates":[-80.99299,35.836633]}},{"properties":{"city":"Middlebury","zipcode":"5753","geo_score":0.286,"street":"PO BOX 499","account name":"Foster Motors Inc","id":"a6ccq12m0gjl","geo_precision":"street","state":"VT"},"type":"Feature","geometry":{"type":"Point","coordinates":[-72.960105,43.685396]}},{"properties":{"city":"Rensselaer","zipcode":"47978","geo_score":0.902,"street":"1106 N McKinley Ave","account name":"Chrysler Jeep Dodge of Rensselaer","id":"a6ccq146i6tq","geo_precision":"range","state":"IN"},"type":"Feature","geometry":{"type":"Point","coordinates":[-87.151372,40.94785]}},{"properties":{"city":"Charlevoix","zipcode":"49720","geo_score":0.533,"street":"06684 US-31 S","account name":"Fox Charlevoix","id":"a6ccq10n90nt","geo_precision":"street","state":"MI"},"type":"Feature","geometry":{"type":"Point","coordinates":[-85.285257,45.300525]}},{"properties":{"city":"Malvern","zipcode":"44644","geo_score":0.286,"street":"PO Box 547","account name":"Furey Chrysler","id":"a6ccq0zxjc3x","geo_precision":"street","state":"OH"},"type":"Feature","geometry":{"type":"Point","coordinates":[-81.118025,40.886469]}},{"properties":{"city":"Charlotte","zipcode":"28224","geo_score":0.364,"street":"PO BOX 241106","account name":"ILDERTON CONVERSION OF CHARLOTTE LLC","id":"a6ccq0wwf780","geo_precision":"street","state":"NC"},"type":"Feature","geometry":{"type":"Point","coordinates":[-80.809345,35.053139]}},{"properties":{"city":"Fargo","zipcode":"58103","geo_score":0.624,"street":"2710 32nd Ave S","account name":"GEM of Fargo","id":"a6ccq15fqjsn","geo_precision":"street","state":"ND"},"type":"Feature","geometry":{"type":"Point","coordinates":[-96.882583,46.919782]}},{"properties":{"city":"Marco Island","zipcode":"34145","geo_score":0.463,"street":"7 Blue Hill Court","account name":"GEM of Marco Island","id":"a6ccq130805c","geo_precision":"street","state":"FL"},"type":"Feature","geometry":{"type":"Point","coordinates":[-80.392082,25.56042]}},{"properties":{"city":"Glendora","zipcode":"91740","geo_score":0.805,"street":"935 S Lone Hill Ave.","account name":"Glendora Dodge Chrylser Jeep","id":"a6ccq0stnbmw","geo_precision":"range","state":"CA"},"type":"Feature","geometry":{"type":"Point","coordinates":[-117.828856,34.124694]}},{"properties":{"city":"New Smyrna Beach","zipcode":"32168","geo_score":0.339,"street":"PO Box 930","account name":"Gulf Atlantic Vehicles, Inc.","id":"a6ccq134y8sk","geo_precision":"street","state":"FL"},"type":"Feature","geometry":{"type":"Point","coordinates":[-81.4139,29.43959]}},{"properties":{"city":"Gainesville","zipcode":"30504","geo_score":0.805,"street":"3115 Frontage Rd","account name":"Hayes Chrysler Dodge Jeep of Gainesville, Inc.","id":"a6ccq1349q00","geo_precision":"range","state":"GA"},"type":"Feature","geometry":{"type":"Point","coordinates":[-83.863149,34.230556]}},{"properties":{"city":"Salt Lake City","zipcode":"84116","geo_score":0.707,"street":"1260 West North Temple","account name":"Highland Golf Cars, Inc.","id":"a6ccq0t46qwv","geo_precision":"range","state":"UT"},"type":"Feature","geometry":{"type":"Point","coordinates":[-111.926913,40.771532]}},{"properties":{"city":"High Point","zipcode":"27260","geo_score":0.902,"street":"701 S Main Street","account name":"Ilderton Dodge Chrysler Jeep","id":"a6ccq11tlc3b","geo_precision":"range","state":"NC"},"type":"Feature","geometry":{"type":"Point","coordinates":[-80.003834,35.948741]}},{"properties":{"city":"Brighton","zipcode":"80601","geo_score":0.707,"street":"12410 E 136th Ave","account name":"Johnson Auto Plaza, Inc.","id":"a6ccq0sz0t2l","geo_precision":"street","state":"CO"},"type":"Feature","geometry":{"type":"Point","coordinates":[-104.87127,39.943186]}},{"properties":{"city":"Bowling Green","zipcode":"42104","geo_score":0.692,"street":"2209 Scottsville Rd","account name":"Martin Dodge Jeep Chrylser","id":"a6ccq0v14ubz","geo_precision":"range","state":"KY"},"type":"Feature","geometry":{"type":"Point","coordinates":[-84.79596,38.001192]}},{"properties":{"city":"San Diego","zipcode":"92108","geo_score":0.805,"street":"777 Camino Del Rio S","account name":"Midway Jeep Chrysler","id":"a6ccq0z9jpoi","geo_precision":"range","state":"CA"},"type":"Feature","geometry":{"type":"Point","coordinates":[-117.157208,32.764072]}},{"properties":{"city":"Orlando","zipcode":"32808","geo_score":0.805,"street":"4101 W Colonial Dr","account name":"Orlando Dodge Chrysler Jeep","id":"a6ccq1155nzx","geo_precision":"range","state":"FL"},"type":"Feature","geometry":{"type":"Point","coordinates":[-81.42945,28.55265]}},{"properties":{"city":"Burnsville","zipcode":"55337","geo_score":0.526,"street":"1408 W Hwy 13","account name":"Park Chrysler Jeep Inc","id":"a6ccq0tnovpo","geo_precision":"street","state":"MN"},"type":"Feature","geometry":{"type":"Point","coordinates":[-94.315328,44.659493]}},{"properties":{"city":"Midway City","zipcode":"92655","geo_score":0.902,"street":"15135 Jackson St","account name":"Quality Car Company, Inc.","id":"a6ccq0xs6ext","geo_precision":"range","state":"CA"},"type":"Feature","geometry":{"type":"Point","coordinates":[-117.987431,33.743082]}},{"properties":{"city":"Jekyll Island","zipcode":"31527","geo_score":0.71,"street":"500 Riverview Dr","account name":"Red Bug Motors LLC","id":"a6ccq0vwvtbf","geo_precision":"street","state":"GA"},"type":"Feature","geometry":{"type":"Point","coordinates":[-81.425783,31.06833]}},{"properties":{"city":"Hazlet","zipcode":"7730","geo_score":0.447,"street":"3391 HWY 35 N","account name":"Straub Motors Inc.","id":"a6ccq0t2fncp","geo_precision":"street","state":"NJ"},"type":"Feature","geometry":{"type":"Point","coordinates":[-74.191898,40.422864]}},{"properties":{"city":"Sarasota","zipcode":"34231","geo_score":0.61,"street":"6826 S Tamiami Trail","account name":"Sarasota Certified Cars","id":"a6ccq116lulb","geo_precision":"street","state":"FL"},"type":"Feature","geometry":{"type":"Point","coordinates":[-82.497541,27.232999]}},{"properties":{"city":"Linton","zipcode":"58552","geo_score":0.68,"street":"101 St Paul Ave","account name":"Schumacher's Inc","id":"a6ccq0tyi3r2","geo_precision":"street","state":"ND"},"type":"Feature","geometry":{"type":"Point","coordinates":[-100.23483,46.265616]}},{"properties":{"city":"Opelousas","zipcode":"70571","geo_score":0.52,"street":"5504 I-49 North Service Rd","account name":"Sterling Chrysler Dodge Jeep","id":"a6ccq15xp119","geo_precision":"street","state":"LA"},"type":"Feature","geometry":{"type":"Point","coordinates":[-92.275512,30.252618]}},{"properties":{"city":"Coeur D'Alene","zipcode":"83815","geo_score":0.45,"street":"314 W Clayton Ave","account name":"Tom Addis Dodge","id":"a6ccq0vn0vln","geo_precision":"street","state":"ID"},"type":"Feature","geometry":{"type":"Point","coordinates":[-112.409983,42.845397]}},{"properties":{"city":"Niles","zipcode":"49120","geo_score":0.819,"street":"1102 S 11th St","account name":"Tyler Automotive","id":"a6ccq12hx3fl","geo_precision":"range","state":"MI"},"type":"Feature","geometry":{"type":"Point","coordinates":[-86.247576,41.817079]}},{"properties":{"city":"Ellisville","zipcode":"63011","geo_score":0.78,"street":"15502 Manchester Rd","account name":"Royal Gate Gem","id":"a6ccq0sxzuo8","geo_precision":"range","state":"MO"},"type":"Feature","geometry":{"type":"Point","coordinates":[-90.56434,38.59276]}},{"properties":{"city":"Gardner","zipcode":"1440","geo_score":0.902,"street":"442 W Broadway","account name":"Salvadore Chrysler Dodge","id":"a6ccq13ensfd","geo_precision":"range","state":"MA"},"type":"Feature","geometry":{"type":"Point","coordinates":[-71.996945,42.563836]}},{"properties":{"city":"Amityville","zipcode":"11701","geo_score":0.902,"street":"345 Merrick Rd","account name":"Security Dodge Chrysler GEM","id":"a6ccq0v0sjqf","geo_precision":"range","state":"NY"},"type":"Feature","geometry":{"type":"Point","coordinates":[-73.412594,40.669838]}},{"properties":{"city":"Lawrenceville","zipcode":"62439","geo_score":0.393,"street":"Rt 2 BOX 39","account name":"Westport Chrysler Dodge","id":"a6ccq0u9cuwx","geo_precision":"street","state":"IL"},"type":"Feature","geometry":{"type":"Point","coordinates":[-88.616303,39.133829]}},{"properties":{"city":"Katy","zipcode":"77450","geo_score":0.805,"street":"21777 Katy Freeway","account name":"Allen Samuels Katy Dodge","id":"a6ccq0xentco","geo_precision":"range","state":"TX"},"type":"Feature","geometry":{"type":"Point","coordinates":[-95.749784,29.78415]}},{"properties":{"city":"West Palm Beach","zipcode":"33411","geo_score":0.805,"street":"6500 Okeechobee Blvd","account name":"Arrigo Dodge Chrysler Jeep","id":"a6ccq144o4jl","geo_precision":"range","state":"FL"},"type":"Feature","geometry":{"type":"Point","coordinates":[-80.141171,26.707663]}},{"properties":{"city":"Fresno","zipcode":"93710","geo_score":0.805,"street":"5272  N Blackstone Ave","account name":"Auto Maxx","id":"a6ccq0v49kc3","geo_precision":"range","state":"CA"},"type":"Feature","geometry":{"type":"Point","coordinates":[-119.790398,36.813305]}},{"properties":{"city":"Roseville","zipcode":"95661","geo_score":0.902,"street":"230 Auto Mall Dr","account name":"Autowest Chrysler Jeep Dodge","id":"a6ccq0s45jaf","geo_precision":"range","state":"CA"},"type":"Feature","geometry":{"type":"Point","coordinates":[-121.25841,38.752227]}},{"properties":{"city":"Portales","zipcode":"88130","geo_score":0.823,"street":"1115 N Chicago","account name":"Big Valley Auto","id":"a6ccq0z2t28e","geo_precision":"range","state":"NM"},"type":"Feature","geometry":{"type":"Point","coordinates":[-103.331259,34.19179]}},{"properties":{"city":"Haverhill","zipcode":"1832","geo_score":0.805,"street":"108 Bank Rd","account name":"Bill Deluca Chrysler Jeep Dodge Inc","id":"a6ccq10ix0tf","geo_precision":"range","state":"MA"},"type":"Feature","geometry":{"type":"Point","coordinates":[-71.115893,42.76961]}},{"properties":{"city":"Chino","zipcode":"91710","geo_score":0.805,"street":"13501 Benson Ave","account name":"Creative Bus Sales - CA","id":"a6ccq0w7l6xu","geo_precision":"range","state":"CA"},"type":"Feature","geometry":{"type":"Point","coordinates":[-117.680484,34.008946]}},{"properties":{"city":"Canoga Park","zipcode":"91304","geo_score":0.776,"street":"21422 Rosco Blvd","account name":"David Ellis Chrysler Jeep","id":"a6ccq0wldd34","geo_precision":"range","state":"CA"},"type":"Feature","geometry":{"type":"Point","coordinates":[-118.597789,34.219784]}},{"properties":{"city":"Fremont","zipcode":"49412","geo_score":0.483,"street":"33 W Dayton","account name":"Deur-Speet Motors Inc","id":"a6ccq14rkc1k","geo_precision":"street","state":"MI"},"type":"Feature","geometry":{"type":"Point","coordinates":[-85.58295,42.285087]}},{"properties":{"city":"Fowlerville","zipcode":"48836","geo_score":0.902,"street":"3030 Fowlerville Rd","account name":"Dick Scott Motor Mall Inc","id":"a6ccq16dn51o","geo_precision":"range","state":"MI"},"type":"Feature","geometry":{"type":"Point","coordinates":[-84.072297,42.641667]}},{"properties":{"city":"Greece","zipcode":"14626","geo_score":0.573,"street":"4477 Ridge Rd West","account name":"Doan Dodge","id":"a6ccq0vypl50","geo_precision":"street","state":"NY"},"type":"Feature","geometry":{"type":"Point","coordinates":[-73.452106,44.979619]}},{"properties":{"city":"Riverhead","zipcode":"11901","geo_score":0.902,"street":"1320 Old Country Rd","account name":"Eagle Auto-Mall Corp","id":"a6ccq16yd3gh","geo_precision":"range","state":"NY"},"type":"Feature","geometry":{"type":"Point","coordinates":[-72.682962,40.92922]}},{"properties":{"city":"Elk Grove","zipcode":"95757","geo_score":0.497,"street":"8575 Laguna Grove Dr","account name":"Elk Grove Dodge","id":"a6ccq150yu4p","geo_precision":"street","state":"CA"},"type":"Feature","geometry":{"type":"Point","coordinates":[-122.855341,38.487635]}},{"properties":{"city":"Glendale","zipcode":"91204","geo_score":0.805,"street":"1101 S Brand Blvd","account name":"Glendale Dodge LLC","id":"a6ccq160zs7x","geo_precision":"range","state":"CA"},"type":"Feature","geometry":{"type":"Point","coordinates":[-118.25497,34.133516]}},{"properties":{"city":"Fort Worth","zipcode":"76180","geo_score":0.325,"street":"7740 NE Loop 820","account name":"Allen Samuels Dodge Hyundai - Ft Worth","id":"a6ccq0zfcfzc","geo_precision":"street","state":"TX"},"type":"Feature","geometry":{"type":"Point","coordinates":[-96.282202,31.565692]}},{"properties":{"city":"Lawrenceville","zipcode":"30045","geo_score":0.485,"street":"719 W Pike St","account name":"Hayes Chrysler Dodge Jeep, Inc","id":"a6ccq0zeqo69","geo_precision":"street","state":"GA"},"type":"Feature","geometry":{"type":"Point","coordinates":[-85.100079,33.036743]}},{"properties":{"city":"Portage","zipcode":"53901","geo_score":0.339,"street":"PO Box 406","account name":"Hill Automotive","id":"a6ccq0xy4vx9","geo_precision":"street","state":"WI"},"type":"Feature","geometry":{"type":"Point","coordinates":[-89.475355,43.624072]}},{"properties":{"city":"Amite","zipcode":"70422","geo_score":0.854,"street":"11239 HWY 16 WEST","account name":"Hood Automotive, Llc","id":"a6ccq0zlramf","geo_precision":"range","state":"LA"},"type":"Feature","geometry":{"type":"Point","coordinates":[-90.534183,30.726319]}},{"properties":{"city":"Lancaster","zipcode":"93534","geo_score":0.805,"street":"1130 Auto Mall Dr","account name":"Hunter GEM","id":"a6ccq0y2qfhg","geo_precision":"range","state":"CA"},"type":"Feature","geometry":{"type":"Point","coordinates":[-118.150231,34.670028]}},{"properties":{"city":"Fargo","zipcode":"58108","geo_score":0.857,"street":"PO Box 9100","account name":"Lunde Lincoln Mercury Inc","id":"a6ccq15f5s1f","geo_precision":"city","state":"ND"},"type":"Feature","geometry":{"type":"Point","coordinates":[-96.990615,46.92536]}},{"properties":{"city":"Union Grove","zipcode":"53182","geo_score":0.617,"street":"1422 Main St","account name":"Martin's Garage/Martin's Chrysler Dodge","id":"a6ccq0sm68r6","geo_precision":"street","state":"WI"},"type":"Feature","geometry":{"type":"Point","coordinates":[-89.315219,42.780312]}},{"properties":{"city":"Marion","zipcode":"43302","geo_score":0.524,"street":"1866 Marion Waldo Rd","account name":"Mathews Dodge Chrysler Jeep Inc","id":"a6ccq0wrait0","geo_precision":"street","state":"OH"},"type":"Feature","geometry":{"type":"Point","coordinates":[-82.428355,40.115757]}},{"properties":{"city":"Anaheim","zipcode":"92806","geo_score":0.805,"street":"1221 S Auto Center Dr","account name":"McPeek's Dodge of Anaheim","id":"a6ccq0wh6emc","geo_precision":"range","state":"CA"},"type":"Feature","geometry":{"type":"Point","coordinates":[-117.87316,33.815514]}},{"properties":{"city":"Yakima","zipcode":"98901","geo_score":0.707,"street":"1710 S 1st St","account name":"Mike Olson Chrysler Jeep Dodge","id":"a6ccq10axynn","geo_precision":"range","state":"WA"},"type":"Feature","geometry":{"type":"Point","coordinates":[-120.493778,46.580792]}},{"properties":{"city":"Newcastle","zipcode":"4553","geo_score":0.448,"street":"573 Route 1","account name":"Newcastle CDJ","id":"a6ccq0y9ekru","geo_precision":"street","state":"ME"},"type":"Feature","geometry":{"type":"Point","coordinates":[-69.536586,44.034811]}},{"properties":{"city":"Flagstaff","zipcode":"86004-2932","geo_score":0.585,"street":"4960 E Marketplace Dr","account name":"Planet Jeep Of Flagstaff","id":"a6ccq10lrz8o","geo_precision":"city","state":"AZ"},"type":"Feature","geometry":{"type":"Point","coordinates":[-111.597853,35.932116]}},{"properties":{"city":"Terrell","zipcode":"75160","geo_score":0.902,"street":"1608 W Moore Ave","account name":"Randall Noe Chrysler Dodge Jeep","id":"a6ccq0zwde58","geo_precision":"range","state":"TX"},"type":"Feature","geometry":{"type":"Point","coordinates":[-96.29956,32.737579]}},{"properties":{"city":"Newton","zipcode":"67114","geo_score":0.339,"street":"PO Box 315","account name":"Resnik Motors Inc","id":"a6ccq12ebyyb","geo_precision":"street","state":"KS"},"type":"Feature","geometry":{"type":"Point","coordinates":[-98.687326,37.601803]}},{"properties":{"city":"Auburn","zipcode":"98002","geo_score":0.805,"street":"2323 Auburn Way N","account name":"Roberts Motors, Inc","id":"a6ccq182697r","geo_precision":"range","state":"WA"},"type":"Feature","geometry":{"type":"Point","coordinates":[-122.221556,47.327697]}},{"properties":{"city":"Columbia","zipcode":"62236","geo_score":0.535,"street":"500 Admiral Wienel Blvd","account name":"Royal Gate Dodge Chrysler Jeep","id":"a6ccq0tawqxl","geo_precision":"street","state":"IL"},"type":"Feature","geometry":{"type":"Point","coordinates":[-90.208427,38.513054]}},{"properties":{"city":"Frankenmuth","zipcode":"48734","geo_score":0.805,"street":"1015 Weiss St","account name":"Schaefer &amp; Bierlein Inc","id":"a6ccq17cqyrw","geo_precision":"range","state":"MI"},"type":"Feature","geometry":{"type":"Point","coordinates":[-83.9549,43.443694]}},{"properties":{"city":"Ottawa","zipcode":"61350","geo_score":0.902,"street":"510 E Norris Dr","account name":"Sierra Volkswagen","id":"a6ccq0w4zjq1","geo_precision":"range","state":"IL"},"type":"Feature","geometry":{"type":"Point","coordinates":[-88.834825,41.35625]}},{"properties":{"city":"Columbia","zipcode":"29223","geo_score":0.646,"street":"6001 Two Notch Rd.","account name":"Stivers Automotive of Columbia, Inc","id":"a6ccq0uesob3","geo_precision":"street","state":"SC"},"type":"Feature","geometry":{"type":"Point","coordinates":[-80.976064,34.055262]}},{"properties":{"city":"Pottsboro","zipcode":"75076","geo_score":0.835,"street":"290 Tanglewood Circle","account name":"TEXAS GEMKAR, Inc.","id":"a6ccq0xmgsk8","geo_precision":"range","state":"TX"},"type":"Feature","geometry":{"type":"Point","coordinates":[-96.703327,33.80758]}},{"properties":{"city":"Irvine","zipcode":"92618","geo_score":0.805,"street":"40 Auto Center Dr","account name":"Tuttle Click Chrysler-Jeep-Dodge","id":"a6ccq181ij63","geo_precision":"range","state":"CA"},"type":"Feature","geometry":{"type":"Point","coordinates":[-117.797574,33.72684]}},{"properties":{"city":"Madison","zipcode":"37115","geo_score":0.902,"street":"629 Myatt Dr","account name":"America's Motor Sports","id":"a6ccq0vf64tq","geo_precision":"range","state":"TN"},"type":"Feature","geometry":{"type":"Point","coordinates":[-86.694741,36.292247]}},{"properties":{"city":"Annapolis","zipcode":"21401","geo_score":0.805,"street":"2037 Industrial Dr","account name":"Chesapeake Cycles Inc","id":"a6ccq0t1ew60","geo_precision":"range","state":"MD"},"type":"Feature","geometry":{"type":"Point","coordinates":[-76.545388,38.994148]}},{"properties":{"city":"Memphis","zipcode":"38133","geo_score":0.805,"street":"2141 Whitten Rd","account name":"Polaris of Memphis","id":"a6ccq0s5ziwe","geo_precision":"range","state":"TN"},"type":"Feature","geometry":{"type":"Point","coordinates":[-89.835865,35.185982]}},{"properties":{"city":"Tuscon","zipcode":"85739","geo_score":0.0,"street":"63701 E Saddlebrooke Blvd","account name":"Coyote Golf Cars","id":"a6ccq0wmav4p","geo_precision":"unmatched","state":"AZ"},"type":"Feature","geometry":null},{"properties":{"city":"Anna","zipcode":"62906","geo_score":0.48,"street":"1450 E Vienna St","account name":"TriState Polaris","id":"a6ccq10d8d0c","geo_precision":"street","state":"IL"},"type":"Feature","geometry":{"type":"Point","coordinates":[-90.149696,42.100659]}},{"properties":{"city":"Olathe","zipcode":"66062","geo_score":0.805,"street":"800 N Rogers Rd","account name":"VanWall Equipment","id":"a6ccq15ozcts","geo_precision":"range","state":"KS"},"type":"Feature","geometry":{"type":"Point","coordinates":[-94.787727,38.893748]}},{"properties":{"city":"Munfordville","zipcode":"42765","geo_score":0.339,"street":"PO Box 640","account name":"Dobson &amp; Sons Powersports Inc","id":"a6ccq0truqgd","geo_precision":"street","state":"KY"},"type":"Feature","geometry":{"type":"Point","coordinates":[-87.828312,36.930885]}},{"properties":{"city":"Charlotte","zipcode":"28214","geo_score":0.805,"street":"8740 Wilkinson Blvd","account name":"Carolina Golf Cars","id":"a6ccq16k8svp","geo_precision":"range","state":"NC"},"type":"Feature","geometry":{"type":"Point","coordinates":[-80.987904,35.241926]}},{"properties":{"city":"Ventura","zipcode":"93001","geo_score":0.902,"street":"1450 E Thompson Blvd","account name":"Coast Cart Inc","id":"a6ccq11m04m2","geo_precision":"range","state":"CA"},"type":"Feature","geometry":{"type":"Point","coordinates":[-119.279242,34.276113]}},{"properties":{"city":"North Port","zipcode":"34287","geo_score":0.61,"street":"12691 Tamiami Trl S","account name":"Caddy Carts Inc","id":"a6ccq0v1dqck","geo_precision":"street","state":"FL"},"type":"Feature","geometry":{"type":"Point","coordinates":[-82.524947,27.645422]}},{"properties":{"city":"Green Acres","zipcode":"33463","geo_score":0.477,"street":"5385 Lake Worth Rd","account name":"Pro Golf Car","id":"a6ccq13js43k","geo_precision":"street","state":"FL"},"type":"Feature","geometry":{"type":"Point","coordinates":[-81.378745,30.219967]}},{"properties":{"city":"Tyler","zipcode":"75701","geo_score":0.425,"street":"2850 S SW Loop 323","account name":"Broadway Powersports","id":"a6ccq0tzwkqt","geo_precision":"street","state":"TX"},"type":"Feature","geometry":{"type":"Point","coordinates":[-94.833175,32.179276]}},{"properties":{"city":"Mesquite","zipcode":"89027","geo_score":0.61,"street":"772 Cimarron Ct","account name":"Mesquite Extreme Powersports","id":"a6ccq133h4z6","geo_precision":"street","state":"NV"},"type":"Feature","geometry":{"type":"Point","coordinates":[-114.982497,36.011947]}},{"properties":{"city":"Centre Hall","zipcode":"16828","geo_score":0.427,"street":"2031 General Potter Hwy","account name":"Best Line Powersports","id":"a6ccq0usl97n","geo_precision":"street","state":"PA"},"type":"Feature","geometry":{"type":"Point","coordinates":[-79.936481,40.454257]}},{"properties":{"city":"Acton","zipcode":"93510","geo_score":0.902,"street":"1686 Sierra Hwy","account name":"Response Vehicle Solutions","id":"a6ccq1573jry","geo_precision":"range","state":"CA"},"type":"Feature","geometry":{"type":"Point","coordinates":[-118.146243,34.486928]}},{"properties":{"city":"LONG BEACH","zipcode":"90807","geo_score":0.805,"street":"3850 CHERRY AVE","account name":"ELECTRIC CAR SALES &amp; SERVICE INC.","id":"a6ccq0wwul2x","geo_precision":"range","state":"CA"},"type":"Feature","geometry":{"type":"Point","coordinates":[-118.167568,33.828229]}},{"properties":{"city":"Griswold","zipcode":"6351","geo_score":0.424,"street":"663 Voluntown Rd","account name":"Advanced Automotive LLC","id":"a6ccq0tqe8xg","geo_precision":"street","state":"CT"},"type":"Feature","geometry":{"type":"Point","coordinates":[-72.72573,41.68041]}},{"properties":{"city":"Richmond","zipcode":"40475-9541","geo_score":0.902,"street":"1815 Irvine Rd","account name":"Mann Chrysler Dodge Jeep of Richmond LLC","id":"a6ccq0wyp5pn","geo_precision":"range","state":"KY"},"type":"Feature","geometry":{"type":"Point","coordinates":[-84.248509,37.743233]}},{"properties":{"city":"Omaha","zipcode":"68137","geo_score":0.805,"street":"13747 Industrial Rd","account name":"VanWall Equipment","id":"a6ccq0yvy8k1","geo_precision":"range","state":"NE"},"type":"Feature","geometry":{"type":"Point","coordinates":[-96.128752,41.217223]}},{"properties":{"city":"Alachua","zipcode":"32615","geo_score":0.527,"street":"12556 NW US Hwy 441","account name":"Polaris of Gainesville","id":"a6ccq11keta1","geo_precision":"street","state":"FL"},"type":"Feature","geometry":{"type":"Point","coordinates":[-82.441302,29.774852]}},{"properties":{"city":"Santa Rosa","zipcode":"95404","geo_score":0.443,"street":"1240 Petaluma Hill Rd","account name":"Santa Rosa Vee Twin Motorsports","id":"a6ccq10gxxd3","geo_precision":"street","state":"CA"},"type":"Feature","geometry":{"type":"Point","coordinates":[-116.067284,34.171794]}},{"properties":{"city":"Piedmont","zipcode":"73078","geo_score":0.876,"street":"210 Piedmont Rd","account name":"Amp Control Inc","id":"a6ccq0v45ybz","geo_precision":"range","state":"OK"},"type":"Feature","geometry":{"type":"Point","coordinates":[-97.745166,35.668655]}},{"properties":{"city":"Ponte Vedra Beach","zipcode":"32004","geo_score":0.381,"street":"PO Box 3178","account name":"First Coast Yamaha Kawasaki","id":"a6ccq0zxc2qw","geo_precision":"street","state":"FL"},"type":"Feature","geometry":{"type":"Point","coordinates":[-80.691626,28.375754]}},{"properties":{"city":"Crawfordville","zipcode":"32327","geo_score":0.707,"street":"2273 Crawfordville Hwy","account name":"Bellamy's Outdoor Sports Inc","id":"a6ccq0ugl2er","geo_precision":"street","state":"FL"},"type":"Feature","geometry":{"type":"Point","coordinates":[-84.381689,30.10998]}},{"properties":{"city":"Estero","zipcode":"33928","geo_score":0.772,"street":"10491 Corkscrew Commons Ave Dr","account name":"Victory Lane","id":"a6ccq17hlq9g","geo_precision":"range","state":"FL"},"type":"Feature","geometry":{"type":"Point","coordinates":[-81.805189,26.431202]}},{"properties":{"city":"Burns Harbor","zipcode":"46304","geo_score":0.902,"street":"239 Melton Rd","account name":"ARNELL CHEVROLET INC","id":"a6ccq14b158g","geo_precision":"range","state":"IN"},"type":"Feature","geometry":{"type":"Point","coordinates":[-87.116507,41.603294]}},{"properties":{"city":"Daphne","zipcode":"36526","geo_score":0.429,"street":"PO Box 1207","account name":"Terry Thompson Chevrolet","id":"a6ccq0s9bqdq","geo_precision":"street","state":"AL"},"type":"Feature","geometry":{"type":"Point","coordinates":[-88.261099,30.822515]}},{"properties":{"city":"Abilene","zipcode":"67410","geo_score":0.823,"street":"2104 N Buckeye","account name":"Green Chrysler Dodge Jeep Ford","id":"a6ccq0vszwwz","geo_precision":"range","state":"KS"},"type":"Feature","geometry":{"type":"Point","coordinates":[-97.213952,38.937128]}},{"properties":{"city":"Hobbs","zipcode":"88240","geo_score":0.844,"street":"320 N Dal Paso","account name":"Garner's Motorsports","id":"a6ccq13t4fs0","geo_precision":"range","state":"NM"},"type":"Feature","geometry":{"type":"Point","coordinates":[-103.127549,32.703109]}},{"properties":{"city":"Hyde Park","zipcode":"12538","geo_score":0.415,"street":"1680 Rt 9 G","account name":"Teixeira's Polaris","id":"a6ccq0vik2gi","geo_precision":"street","state":"NY"},"type":"Feature","geometry":{"type":"Point","coordinates":[-74.926814,42.759991]}},{"properties":{"city":"Rock Island","zipcode":"61201","geo_score":0.675,"street":"2800 46th Ave Ste 1","account name":"VanWall Equipment","id":"a6ccq0vwsyk0","geo_precision":"range","state":"IL"},"type":"Feature","geometry":{"type":"Point","coordinates":[-88.21836,37.611301]}},{"properties":{"city":"Ames","zipcode":"50010","geo_score":0.902,"street":"925 Airport Rd","account name":"VanWall Equipment","id":"a6ccq1823gzs","geo_precision":"range","state":"IA"},"type":"Feature","geometry":{"type":"Point","coordinates":[-93.623819,42.00109]}},{"properties":{"city":"Swansboro","zipcode":"28584","geo_score":0.727,"street":"1219 Hwy 58 N","account name":"John's Golf Cars Inc","id":"a6ccq10uwpg2","geo_precision":"range","state":"NC"},"type":"Feature","geometry":{"type":"Point","coordinates":[-77.070553,34.718948]}},{"properties":{"city":"Miami","zipcode":"33133","geo_score":0.772,"street":"3850 S Dixie Highway","account name":"European Car Sales of America, Inc.","id":"a6ccq0s0x6nw","geo_precision":"range","state":"FL"},"type":"Feature","geometry":{"type":"Point","coordinates":[-80.2553,25.731538]}},{"properties":{"city":"Burlingame","zipcode":"94010","geo_score":0.902,"street":"3 California Dr.","account name":"Putnam Mazda Volvo Subaru","id":"a6ccq12wc0t3","geo_precision":"range","state":"CA"},"type":"Feature","geometry":{"type":"Point","coordinates":[-122.339408,37.577073]}},{"properties":{"city":"Swainton","zipcode":"8210","geo_score":0.866,"street":"1830 N Shore Rd","account name":"Golf Cars Unlimited","id":"a6ccq0t0y92v","geo_precision":"range","state":"NJ"},"type":"Feature","geometry":{"type":"Point","coordinates":[-74.766571,39.141636]}},{"properties":{"city":"Midwest City","zipcode":"73110","geo_score":0.829,"street":"7609 SE 29th St","account name":"David Stanley Chrysler Jeep Dodge","id":"a6ccq11uu7ta","geo_precision":"range","state":"OK"},"type":"Feature","geometry":{"type":"Point","coordinates":[-97.392236,35.435235]}},{"properties":{"city":"Wrightsville","zipcode":"17368","geo_score":0.585,"street":"950 Hellam St","account name":"Susquehanna Dodge Chrysler Jeep","id":"a6ccq0s35p0v","geo_precision":"city","state":"PA"},"type":"Feature","geometry":{"type":"Point","coordinates":[-79.425328,41.914502]}},{"properties":{"city":"Peachtree City","zipcode":"30269","geo_score":0.495,"street":"207 Huddleston Rd","account name":"Peachtree City Golf Cars","id":"a6ccq11fxnkg","geo_precision":"city","state":"GA"},"type":"Feature","geometry":{"type":"Point","coordinates":[-84.841329,33.867327]}},{"properties":{"city":"Waynesboro","zipcode":"22980","geo_score":0.49,"street":"2075 W. Main","account name":"Central VA Rentals","id":"a6ccq16e8v06","geo_precision":"street","state":"VA"},"type":"Feature","geometry":{"type":"Point","coordinates":[-78.886006,38.068108]}},{"properties":{"city":"Salem","zipcode":"24153","geo_score":0.861,"street":"1259 E Main St","account name":"Dominion Electric Vehicles","id":"a6ccq0v61fn7","geo_precision":"range","state":"VA"},"type":"Feature","geometry":{"type":"Point","coordinates":[-77.998839,38.465872]}},{"properties":{"city":"Tulsa","zipcode":"74145","geo_score":0.325,"street":"4627 S. Memorial Drive","account name":"Dodge Chrysler Jeep of Tulsa","id":"a6ccq17a8eiv","geo_precision":"street","state":"OK"},"type":"Feature","geometry":{"type":"Point","coordinates":[-95.886662,36.153424]}},{"properties":{"city":"Valletta Waterfront","zipcode":"FRN 1913","geo_score":0.22,"street":"Vault V11, Pinto Wharf","account name":"CT Park Malta Ltd","id":"a6ccq12gfjn5","geo_precision":"street","state":"Floriana"},"type":"Feature","geometry":{"type":"Point","coordinates":[-85.960878,32.699658]}}],"is_temporal":false,"author":{"url":"","metadata":"","contact_name":"","contact_address":"","source":"","contact_phone":""},"source":"","pagination":{"sort":null,"start":0,"total":133,"limit":1000000},"state":"complete","tags":"","published":"2014-08-13T07:43:18-04:00","id":167342}