{"type":"FeatureCollection","data_type":"Dataset","url_type":null,"permissions":[{"permissions":{"download":true,"view":true},"group_id":"everyone"}],"classification":null,"title":"176EAll","count":678,"stream_id":16799,"contributor":{"url":"http://geocommons.com/users/8937","name":"thesun"},"data_attributes":null,"calculation_params":null,"icon_link":null,"link":"http://geocommons.com/overlays/16799.json","extent":[-132.182,49.2038,-123.024,53.6868],"geometry_types":["point"],"unique_name":null,"name":"176EAll","feature_count":678,"description":"","next_feature":null,"is_raster":false,"short_classification":"Y","stats":{"tickets":{"max":2103.0,"mean":141.617994100295,"variance":47412.4786713028,"stdev":217.744066902643,"min":10.0,"median":53.0},"lat":{"max":53.686798,"mean":49.2754139572271,"variance":0.0526300075080796,"stdev":0.229412308972469,"min":49.203758,"median":49.26474},"long":{"max":-123.024422,"mean":-123.141728914454,"variance":0.240856612264252,"stdev":0.490771446056361,"min":-132.182404,"median":-123.122421}},"features":[{"properties":{"offence":"176E","tickets":10.0,"id":"a62g6e2w2b1m","address":"3650 Graveley St.","lat":49.270302,"long":-123.024422},"type":"Feature","geometry":{"type":"Point","coordinates":[-123.024422,49.270302]}},{"properties":{"offence":"176E","tickets":10.0,"id":"a62g6e7t1kpq","address":"3650 Kingsway","lat":49.232193,"long":-123.024681},"type":"Feature","geometry":{"type":"Point","coordinates":[-123.024681,49.232193]}},{"properties":{"offence":"176E","tickets":10.0,"id":"a62g6e45hbeh","address":"4950 Payne St.","lat":49.240013,"long":-123.028748},"type":"Feature","geometry":{"type":"Point","coordinates":[-123.028748,49.240013]}},{"properties":{"offence":"176E","tickets":10.0,"id":"a62g6e4yndiv","address":"1950 38th Ave E.","lat":49.235237,"long":-123.066261},"type":"Feature","geometry":{"type":"Point","coordinates":[-123.066261,49.235237]}},{"properties":{"offence":"176E","tickets":10.0,"id":"a62g6e7uot4o","address":"1650 Venables St.","lat":49.276669,"long":-123.070282},"type":"Feature","geometry":{"type":"Point","coordinates":[-123.070282,49.276669]}},{"properties":{"offence":"176E","tickets":10.0,"id":"a62g6e7jb7t9","address":"1650 3rd Ave E.","lat":49.267799,"long":-123.070625},"type":"Feature","geometry":{"type":"Point","coordinates":[-123.070625,49.267799]}},{"properties":{"offence":"176E","tickets":10.0,"id":"a62g6e8k1jmq","address":"650 47th Ave E.","lat":49.227379,"long":-123.091515},"type":"Feature","geometry":{"type":"Point","coordinates":[-123.091515,49.227379]}},{"properties":{"offence":"176E","tickets":10.0,"id":"a62g6dwprpls","address":"750 National Ave.","lat":49.274887,"long":-123.100311},"type":"Feature","geometry":{"type":"Point","coordinates":[-123.100311,49.274887]}},{"properties":{"offence":"176E","tickets":10.0,"id":"a62g6e8ompdj","address":"150 51st Ave E.","lat":49.223766,"long":-123.102745},"type":"Feature","geometry":{"type":"Point","coordinates":[-123.102745,49.223766]}},{"properties":{"offence":"176E","tickets":10.0,"id":"a62g6e59fggb","address":"1150 16th Ave W.","lat":49.257057,"long":-123.130318},"type":"Feature","geometry":{"type":"Point","coordinates":[-123.130318,49.257057]}},{"properties":{"offence":"176E","tickets":10.0,"id":"a62g6dwzx8xq","address":"2650 Granville St.","lat":49.262165,"long":-123.13858},"type":"Feature","geometry":{"type":"Point","coordinates":[-123.13858,49.262165]}},{"properties":{"offence":"176E","tickets":10.0,"id":"a62g6e7m7k1h","address":"2950 Pine St.","lat":49.25943,"long":-123.143539},"type":"Feature","geometry":{"type":"Point","coordinates":[-123.143539,49.25943]}},{"properties":{"offence":"176E","tickets":10.0,"id":"a62g6e9ig2tv","address":"2150 2nd Ave W.","lat":49.26992,"long":-123.153915},"type":"Feature","geometry":{"type":"Point","coordinates":[-123.153915,49.26992]}},{"properties":{"offence":"176E","tickets":10.0,"id":"a62g6duf02es","address":"2150 41st Ave W.","lat":49.234608,"long":-123.157143},"type":"Feature","geometry":{"type":"Point","coordinates":[-123.157143,49.234608]}},{"properties":{"offence":"176E","tickets":10.0,"id":"a62g6e3kar1l","address":"5450 Yew St.","lat":49.236912,"long":-123.158455},"type":"Feature","geometry":{"type":"Point","coordinates":[-123.158455,49.236912]}},{"properties":{"offence":"176E","tickets":11.0,"id":"a62g6dygb87w","address":"2950 22nd Ave E.","lat":49.250618,"long":-123.042831},"type":"Feature","geometry":{"type":"Point","coordinates":[-123.042831,49.250618]}},{"properties":{"offence":"176E","tickets":11.0,"id":"a62g6e4p7ota","address":"850 Renfrew St.","lat":49.276901,"long":-123.044052},"type":"Feature","geometry":{"type":"Point","coordinates":[-123.044052,49.276901]}},{"properties":{"offence":"176E","tickets":11.0,"id":"a62g6du60yl0","address":"2750 27th Ave E.","lat":49.246269,"long":-123.048355},"type":"Feature","geometry":{"type":"Point","coordinates":[-123.048355,49.246269]}},{"properties":{"offence":"176E","tickets":11.0,"id":"a62g6e9stxsl","address":"2050 Wall St.","lat":49.285667,"long":-123.062515},"type":"Feature","geometry":{"type":"Point","coordinates":[-123.062515,49.285667]}},{"properties":{"offence":"176E","tickets":11.0,"id":"a62g6e7bym6h","address":"5850 Victoria Dr.","lat":49.230869,"long":-123.065552},"type":"Feature","geometry":{"type":"Point","coordinates":[-123.065552,49.230869]}},{"properties":{"offence":"176E","tickets":11.0,"id":"a62g6dyqplc8","address":"250 Salsbury Dr.","lat":49.28273,"long":-123.068268},"type":"Feature","geometry":{"type":"Point","coordinates":[-123.068268,49.28273]}},{"properties":{"offence":"176E","tickets":11.0,"id":"a62g6e16z0cf","address":"1750 Graveley St.","lat":49.2705,"long":-123.068695},"type":"Feature","geometry":{"type":"Point","coordinates":[-123.068695,49.2705]}},{"properties":{"offence":"176E","tickets":11.0,"id":"a62g6e4tk2b4","address":"1450 10th Ave E.","lat":49.261414,"long":-123.074669},"type":"Feature","geometry":{"type":"Point","coordinates":[-123.074669,49.261414]}},{"properties":{"offence":"176E","tickets":11.0,"id":"a62g6e6ihb5d","address":"650 Clark Dr.","lat":49.279003,"long":-123.077209},"type":"Feature","geometry":{"type":"Point","coordinates":[-123.077209,49.279003]}},{"properties":{"offence":"176E","tickets":11.0,"id":"a62g6dz1m6we","address":"1250 Pender St. E.","lat":49.28038,"long":-123.078156},"type":"Feature","geometry":{"type":"Point","coordinates":[-123.078156,49.28038]}},{"properties":{"offence":"176E","tickets":11.0,"id":"a62g6duja7co","address":"1250 7th Ave E.","lat":49.26424,"long":-123.07843},"type":"Feature","geometry":{"type":"Point","coordinates":[-123.07843,49.26424]}},{"properties":{"offence":"176E","tickets":11.0,"id":"a62g6e00564g","address":"3850 Main St.","lat":49.250599,"long":-123.100998},"type":"Feature","geometry":{"type":"Point","coordinates":[-123.100998,49.250599]}},{"properties":{"offence":"176E","tickets":11.0,"id":"a62g6dzeb2t1","address":"750 Carrall St.","lat":49.278343,"long":-123.105736},"type":"Feature","geometry":{"type":"Point","coordinates":[-123.105736,49.278343]}},{"properties":{"offence":"176E","tickets":11.0,"id":"a62g6e2449xs","address":"50 Broadway St. E.","lat":49.263031,"long":-123.105858},"type":"Feature","geometry":{"type":"Point","coordinates":[-123.105858,49.263031]}},{"properties":{"offence":"176E","tickets":11.0,"id":"a62g6dubo8a3","address":"150 Broadway St. W.","lat":49.263084,"long":-123.108185},"type":"Feature","geometry":{"type":"Point","coordinates":[-123.108185,49.263084]}},{"properties":{"offence":"176E","tickets":11.0,"id":"a62g6e6tlbo3","address":"2850 Cambie St.","lat":49.259911,"long":-123.114891},"type":"Feature","geometry":{"type":"Point","coordinates":[-123.114891,49.259911]}},{"properties":{"offence":"176E","tickets":11.0,"id":"a62g6e6yedcb","address":"5550 Cambie St.","lat":49.234917,"long":-123.11602},"type":"Feature","geometry":{"type":"Point","coordinates":[-123.11602,49.234917]}},{"properties":{"offence":"176E","tickets":11.0,"id":"a62g6e9ssan0","address":"550 19th Ave W.","lat":49.254227,"long":-123.116409},"type":"Feature","geometry":{"type":"Point","coordinates":[-123.116409,49.254227]}},{"properties":{"offence":"176E","tickets":11.0,"id":"a62g6e97q7pk","address":"2350 Ash St.","lat":49.264587,"long":-123.117455},"type":"Feature","geometry":{"type":"Point","coordinates":[-123.117455,49.264587]}},{"properties":{"offence":"176E","tickets":11.0,"id":"a62g6e0rgn17","address":"50 Alder Bay Ct.","lat":49.267147,"long":-123.133308},"type":"Feature","geometry":{"type":"Point","coordinates":[-123.133308,49.267147]}},{"properties":{"offence":"176E","tickets":11.0,"id":"a62g6e6j7rmf","address":"1550 65th Ave W.","lat":49.21228,"long":-123.142014},"type":"Feature","geometry":{"type":"Point","coordinates":[-123.142014,49.21228]}},{"properties":{"offence":"176E","tickets":11.0,"id":"a62g6dujv459","address":"1650 Beach Ave.","lat":49.28381,"long":-123.14238},"type":"Feature","geometry":{"type":"Point","coordinates":[-123.14238,49.28381]}},{"properties":{"offence":"176E","tickets":11.0,"id":"a62g6e54jrpg","address":"2850 Broadway St. W.","lat":49.264095,"long":-123.169189},"type":"Feature","geometry":{"type":"Point","coordinates":[-123.169189,49.264095]}},{"properties":{"offence":"176E","tickets":12.0,"id":"a62g6e001dla","address":"1350 Nanaimo St.","lat":49.272739,"long":-123.056526},"type":"Feature","geometry":{"type":"Point","coordinates":[-123.056526,49.272739]}},{"properties":{"offence":"176E","tickets":12.0,"id":"a62g6duffy0f","address":"1250 Kingsway","lat":49.251595,"long":-123.078918},"type":"Feature","geometry":{"type":"Point","coordinates":[-123.078918,49.251595]}},{"properties":{"offence":"176E","tickets":12.0,"id":"a62g6dyt078v","address":"6150 Fraser St.","lat":49.228706,"long":-123.090576},"type":"Feature","geometry":{"type":"Point","coordinates":[-123.090576,49.228706]}},{"properties":{"offence":"176E","tickets":12.0,"id":"a62g6e7m7hma","address":"550 Hastings St. E.","lat":49.281216,"long":-123.09243},"type":"Feature","geometry":{"type":"Point","coordinates":[-123.09243,49.281216]}},{"properties":{"offence":"176E","tickets":12.0,"id":"a62g6dxkgjkz","address":"1350 Station St.","lat":49.272106,"long":-123.098053},"type":"Feature","geometry":{"type":"Point","coordinates":[-123.098053,49.272106]}},{"properties":{"offence":"176E","tickets":12.0,"id":"a62g6dxnm589","address":"3150 Main St.","lat":49.257034,"long":-123.101219},"type":"Feature","geometry":{"type":"Point","coordinates":[-123.101219,49.257034]}},{"properties":{"offence":"176E","tickets":12.0,"id":"a62g6dxilwmz","address":"450 15th Ave W.","lat":49.257812,"long":-123.114082},"type":"Feature","geometry":{"type":"Point","coordinates":[-123.114082,49.257812]}},{"properties":{"offence":"176E","tickets":12.0,"id":"a62g6e06xxwz","address":"450 18th Ave W.","lat":49.254879,"long":-123.114449},"type":"Feature","geometry":{"type":"Point","coordinates":[-123.114449,49.254879]}},{"properties":{"offence":"176E","tickets":12.0,"id":"a62g6e8x2qk1","address":"3150 Granville St.","lat":49.257523,"long":-123.138771},"type":"Feature","geometry":{"type":"Point","coordinates":[-123.138771,49.257523]}},{"properties":{"offence":"176E","tickets":13.0,"id":"a62g6e303xza","address":"3450 Kingsway","lat":49.231979,"long":-123.031281},"type":"Feature","geometry":{"type":"Point","coordinates":[-123.031281,49.231979]}},{"properties":{"offence":"176E","tickets":13.0,"id":"a62g6dtnifx3","address":"3350 Austrey Ave.","lat":49.237904,"long":-123.03495},"type":"Feature","geometry":{"type":"Point","coordinates":[-123.03495,49.237904]}},{"properties":{"offence":"176E","tickets":13.0,"id":"a62g6e93lupb","address":"350 Penticton St.","lat":49.281605,"long":-123.051971},"type":"Feature","geometry":{"type":"Point","coordinates":[-123.051971,49.281605]}},{"properties":{"offence":"176E","tickets":13.0,"id":"a62g6e34mlty","address":"7250 Fraser St.","lat":49.218693,"long":-123.090805},"type":"Feature","geometry":{"type":"Point","coordinates":[-123.090805,49.218693]}},{"properties":{"offence":"176E","tickets":13.0,"id":"a62g6e7lo5t4","address":"550 Georgia St. E.","lat":49.278435,"long":-123.091919},"type":"Feature","geometry":{"type":"Point","coordinates":[-123.091919,49.278435]}},{"properties":{"offence":"176E","tickets":13.0,"id":"a62g6e1tan0i","address":"3250 Main St.","lat":49.256123,"long":-123.10125},"type":"Feature","geometry":{"type":"Point","coordinates":[-123.10125,49.256123]}},{"properties":{"offence":"176E","tickets":13.0,"id":"a62g6dyka533","address":"150 2nd Ave E.","lat":49.269142,"long":-123.101715},"type":"Feature","geometry":{"type":"Point","coordinates":[-123.101715,49.269142]}},{"properties":{"offence":"176E","tickets":13.0,"id":"a62g6dxuqijr","address":"1050 Quebec St.","lat":49.275337,"long":-123.101997},"type":"Feature","geometry":{"type":"Point","coordinates":[-123.101997,49.275337]}},{"properties":{"offence":"176E","tickets":13.0,"id":"a62g6dwrdnvo","address":"50 10th Ave E.","lat":49.262054,"long":-123.103966},"type":"Feature","geometry":{"type":"Point","coordinates":[-123.103966,49.262054]}},{"properties":{"offence":"176E","tickets":13.0,"id":"a62g6e8jtk9r","address":"650 Expo Boulevard","lat":49.278229,"long":-123.109634},"type":"Feature","geometry":{"type":"Point","coordinates":[-123.109634,49.278229]}},{"properties":{"offence":"176E","tickets":13.0,"id":"a62g6dyq7g5d","address":"250 2nd Ave W.","lat":49.268852,"long":-123.110306},"type":"Feature","geometry":{"type":"Point","coordinates":[-123.110306,49.268852]}},{"properties":{"offence":"176E","tickets":13.0,"id":"a62g6e9n24la","address":"1750 Nelson St.","lat":49.288864,"long":-123.137856},"type":"Feature","geometry":{"type":"Point","coordinates":[-123.137856,49.288864]}},{"properties":{"offence":"176E","tickets":13.0,"id":"a62g6e4v2pjs","address":"1450 Walnut St.","lat":49.27298,"long":-123.148956},"type":"Feature","geometry":{"type":"Point","coordinates":[-123.148956,49.27298]}},{"properties":{"offence":"176E","tickets":13.0,"id":"a62g6e1ny8n7","address":"2150 1st Ave W.","lat":49.270802,"long":-123.153915},"type":"Feature","geometry":{"type":"Point","coordinates":[-123.153915,49.270802]}},{"properties":{"offence":"176E","tickets":13.0,"id":"a62g6e65n2om","address":"5650 West Boulevard","lat":49.227158,"long":-123.155106},"type":"Feature","geometry":{"type":"Point","coordinates":[-123.155106,49.227158]}},{"properties":{"offence":"176E","tickets":13.0,"id":"a62g6dvdsaq2","address":"2250 3rd Ave W.","lat":49.269073,"long":-123.156311},"type":"Feature","geometry":{"type":"Point","coordinates":[-123.156311,49.269073]}},{"properties":{"offence":"176E","tickets":13.0,"id":"a62g6e3pcskv","address":"2450 Trutch St.","lat":49.264664,"long":-123.175903},"type":"Feature","geometry":{"type":"Point","coordinates":[-123.175903,49.264664]}},{"properties":{"offence":"176E","tickets":14.0,"id":"a62g6e4fa89y","address":"3550 Wellington Ave.","lat":49.239338,"long":-123.028412},"type":"Feature","geometry":{"type":"Point","coordinates":[-123.028412,49.239338]}},{"properties":{"offence":"176E","tickets":14.0,"id":"a62g6dvdaxbb","address":"350 Templeton Dr.","lat":49.28162,"long":-123.059761},"type":"Feature","geometry":{"type":"Point","coordinates":[-123.059761,49.28162]}},{"properties":{"offence":"176E","tickets":14.0,"id":"a62g6e2dp40u","address":"3550 Commercial St.","lat":49.252838,"long":-123.068016},"type":"Feature","geometry":{"type":"Point","coordinates":[-123.068016,49.252838]}},{"properties":{"offence":"176E","tickets":14.0,"id":"a62g6dtiojmv","address":"1750 10th Ave E.","lat":49.261395,"long":-123.06881},"type":"Feature","geometry":{"type":"Point","coordinates":[-123.06881,49.261395]}},{"properties":{"offence":"176E","tickets":14.0,"id":"a62g6e0irz1z","address":"1450 Kingsway","lat":49.249527,"long":-123.074692},"type":"Feature","geometry":{"type":"Point","coordinates":[-123.074692,49.249527]}},{"properties":{"offence":"176E","tickets":14.0,"id":"a62g6dvsaek1","address":"950 Odlum Dr.","lat":49.276279,"long":-123.075867},"type":"Feature","geometry":{"type":"Point","coordinates":[-123.075867,49.276279]}},{"properties":{"offence":"176E","tickets":14.0,"id":"a62g6e2av6by","address":"550 Clark Dr.","lat":49.279903,"long":-123.077179},"type":"Feature","geometry":{"type":"Point","coordinates":[-123.077179,49.279903]}},{"properties":{"offence":"176E","tickets":14.0,"id":"a62g6e84ihxn","address":"2150 Main St.","lat":49.265945,"long":-123.100876},"type":"Feature","geometry":{"type":"Point","coordinates":[-123.100876,49.265945]}},{"properties":{"offence":"176E","tickets":14.0,"id":"a62g6e2bbxe1","address":"50 Broadway St. W.","lat":49.263031,"long":-123.105858},"type":"Feature","geometry":{"type":"Point","coordinates":[-123.105858,49.263031]}},{"properties":{"offence":"176E","tickets":14.0,"id":"a62g6e688hlf","address":"150 4th Ave W.","lat":49.267429,"long":-123.108086},"type":"Feature","geometry":{"type":"Point","coordinates":[-123.108086,49.267429]}},{"properties":{"offence":"176E","tickets":14.0,"id":"a62g6e7t02q9","address":"5350 Boulevard W.","lat":49.236427,"long":-123.110619},"type":"Feature","geometry":{"type":"Point","coordinates":[-123.110619,49.236427]}},{"properties":{"offence":"176E","tickets":14.0,"id":"a62g6duttbz8","address":"450 Broadway St. W.","lat":49.263191,"long":-123.113853},"type":"Feature","geometry":{"type":"Point","coordinates":[-123.113853,49.263191]}},{"properties":{"offence":"176E","tickets":14.0,"id":"a62g6dv2fct3","address":"450 23rd Ave W.","lat":49.250088,"long":-123.113907},"type":"Feature","geometry":{"type":"Point","coordinates":[-123.113907,49.250088]}},{"properties":{"offence":"176E","tickets":14.0,"id":"a62g6dxbp6vb","address":"950 Cordova St. W.","lat":49.287437,"long":-123.115585},"type":"Feature","geometry":{"type":"Point","coordinates":[-123.115585,49.287437]}},{"properties":{"offence":"176E","tickets":14.0,"id":"a62g6dymydn2","address":"8950 Oak St.","lat":49.204037,"long":-123.130402},"type":"Feature","geometry":{"type":"Point","coordinates":[-123.130402,49.204037]}},{"properties":{"offence":"176E","tickets":14.0,"id":"a62g6dx7vus7","address":"1650 Haro St.","lat":49.289284,"long":-123.134148},"type":"Feature","geometry":{"type":"Point","coordinates":[-123.134148,49.289284]}},{"properties":{"offence":"176E","tickets":14.0,"id":"a62g6e3767ou","address":"2550 Hemlock St.","lat":49.263054,"long":-123.136101},"type":"Feature","geometry":{"type":"Point","coordinates":[-123.136101,49.263054]}},{"properties":{"offence":"176E","tickets":14.0,"id":"a62g6dxk9zcu","address":"2250 8th Ave W.","lat":49.264805,"long":-123.156471},"type":"Feature","geometry":{"type":"Point","coordinates":[-123.156471,49.264805]}},{"properties":{"offence":"176E","tickets":14.0,"id":"a62g6e21kst5","address":"3350 4th Ave W.","lat":49.268517,"long":-123.178719},"type":"Feature","geometry":{"type":"Point","coordinates":[-123.178719,49.268517]}},{"properties":{"offence":"176E","tickets":14.0,"id":"a62g6du15jku","address":"3750 Broadway St. W.","lat":49.264366,"long":-123.18692},"type":"Feature","geometry":{"type":"Point","coordinates":[-123.18692,49.264366]}},{"properties":{"offence":"176E","tickets":14.0,"id":"a62g6dzn8rdq","address":"50 Hemlock Ct.","lat":53.686798,"long":-132.182404},"type":"Feature","geometry":{"type":"Point","coordinates":[-132.182404,53.686798]}},{"properties":{"offence":"176E","tickets":15.0,"id":"a62g6e5y92sc","address":"5350 Cecil St.","lat":49.23632,"long":-123.035225},"type":"Feature","geometry":{"type":"Point","coordinates":[-123.035225,49.23632]}},{"properties":{"offence":"176E","tickets":15.0,"id":"a62g6e1puwc6","address":"850 Hastings St. E.","lat":49.281067,"long":-123.085953},"type":"Feature","geometry":{"type":"Point","coordinates":[-123.085953,49.281067]}},{"properties":{"offence":"176E","tickets":15.0,"id":"a62g6e4vws4b","address":"5550 Fraser St.","lat":49.234295,"long":-123.090408},"type":"Feature","geometry":{"type":"Point","coordinates":[-123.090408,49.234295]}},{"properties":{"offence":"176E","tickets":15.0,"id":"a62g6e24uq3y","address":"5850 Fraser St.","lat":49.231449,"long":-123.090515},"type":"Feature","geometry":{"type":"Point","coordinates":[-123.090515,49.231449]}},{"properties":{"offence":"176E","tickets":15.0,"id":"a62g6dtozrxl","address":"550 15th Ave E.","lat":49.257313,"long":-123.093079},"type":"Feature","geometry":{"type":"Point","coordinates":[-123.093079,49.257313]}},{"properties":{"offence":"176E","tickets":15.0,"id":"a62g6dvnmkc2","address":"350 2nd Ave E.","lat":49.267048,"long":-123.096848},"type":"Feature","geometry":{"type":"Point","coordinates":[-123.096848,49.267048]}},{"properties":{"offence":"176E","tickets":15.0,"id":"a62g6e0zy7e3","address":"2050 Main St.","lat":49.26685,"long":-123.100792},"type":"Feature","geometry":{"type":"Point","coordinates":[-123.100792,49.26685]}},{"properties":{"offence":"176E","tickets":15.0,"id":"a62g6e1v1kbl","address":"3350 Willow St.","lat":49.25568,"long":-123.122078},"type":"Feature","geometry":{"type":"Point","coordinates":[-123.122078,49.25568]}},{"properties":{"offence":"176E","tickets":15.0,"id":"a62g6e862v8v","address":"1850 Beach Ave.","lat":49.287849,"long":-123.142395},"type":"Feature","geometry":{"type":"Point","coordinates":[-123.142395,49.287849]}},{"properties":{"offence":"176E","tickets":15.0,"id":"a62g6e76asnt","address":"5650 East Boulevard","lat":49.235031,"long":-123.154976},"type":"Feature","geometry":{"type":"Point","coordinates":[-123.154976,49.235031]}},{"properties":{"offence":"176E","tickets":15.0,"id":"a62g6e8smsxc","address":"2350 2nd Ave W.","lat":49.269993,"long":-123.158646},"type":"Feature","geometry":{"type":"Point","coordinates":[-123.158646,49.269993]}},{"properties":{"offence":"176E","tickets":15.0,"id":"a62g6dtxen8d","address":"5750 Larch St.","lat":49.234215,"long":-123.162766},"type":"Feature","geometry":{"type":"Point","coordinates":[-123.162766,49.234215]}},{"properties":{"offence":"176E","tickets":16.0,"id":"a62g6e0w29vm","address":"350 Kamloops St.","lat":49.281609,"long":-123.054581},"type":"Feature","geometry":{"type":"Point","coordinates":[-123.054581,49.281609]}},{"properties":{"offence":"176E","tickets":16.0,"id":"a62g6e7kkq6l","address":"4950 Victoria Dr.","lat":49.239586,"long":-123.065376},"type":"Feature","geometry":{"type":"Point","coordinates":[-123.065376,49.239586]}},{"properties":{"offence":"176E","tickets":16.0,"id":"a62g6e5lqcsu","address":"2250 Commercial Dr.","lat":49.264614,"long":-123.069748},"type":"Feature","geometry":{"type":"Point","coordinates":[-123.069748,49.264614]}},{"properties":{"offence":"176E","tickets":16.0,"id":"a62g6e5y8prp","address":"750 Clark Dr.","lat":49.278103,"long":-123.07724},"type":"Feature","geometry":{"type":"Point","coordinates":[-123.07724,49.278103]}},{"properties":{"offence":"176E","tickets":16.0,"id":"a62g6e2p4knt","address":"150 Hawks Ave.","lat":49.283241,"long":-123.087067},"type":"Feature","geometry":{"type":"Point","coordinates":[-123.087067,49.283241]}},{"properties":{"offence":"176E","tickets":16.0,"id":"a62g6dth534x","address":"250 6th Ave E.","lat":49.265488,"long":-123.099815},"type":"Feature","geometry":{"type":"Point","coordinates":[-123.099815,49.265488]}},{"properties":{"offence":"176E","tickets":16.0,"id":"a62g6dxhnfnm","address":"150 Expo Boulevard","lat":49.278664,"long":-123.107697},"type":"Feature","geometry":{"type":"Point","coordinates":[-123.107697,49.278664]}},{"properties":{"offence":"176E","tickets":16.0,"id":"a62g6e8e5et2","address":"2250 Yukon St.","lat":49.265255,"long":-123.112823},"type":"Feature","geometry":{"type":"Point","coordinates":[-123.112823,49.265255]}},{"properties":{"offence":"176E","tickets":16.0,"id":"a62g6e55nuit","address":"1450 Granville St.","lat":49.274525,"long":-123.130142},"type":"Feature","geometry":{"type":"Point","coordinates":[-123.130142,49.274525]}},{"properties":{"offence":"176E","tickets":16.0,"id":"a62g6e2yzunl","address":"5450 West Boulevard","lat":49.227158,"long":-123.155106},"type":"Feature","geometry":{"type":"Point","coordinates":[-123.155106,49.227158]}},{"properties":{"offence":"176E","tickets":16.0,"id":"a62g6dtq6hpz","address":"5550 West Boulevard","lat":49.227158,"long":-123.155106},"type":"Feature","geometry":{"type":"Point","coordinates":[-123.155106,49.227158]}},{"properties":{"offence":"176E","tickets":16.0,"id":"a62g6dzzf5mk","address":"2450 41st Ave W.","lat":49.23468,"long":-123.162064},"type":"Feature","geometry":{"type":"Point","coordinates":[-123.162064,49.23468]}},{"properties":{"offence":"176E","tickets":17.0,"id":"a62g6dy77v89","address":"4150 Nanaimo St.","lat":49.2481,"long":-123.056656},"type":"Feature","geometry":{"type":"Point","coordinates":[-123.056656,49.2481]}},{"properties":{"offence":"176E","tickets":17.0,"id":"a62g6e1cyvz9","address":"5750 Fraser St.","lat":49.232388,"long":-123.090492},"type":"Feature","geometry":{"type":"Point","coordinates":[-123.090492,49.232388]}},{"properties":{"offence":"176E","tickets":17.0,"id":"a62g6e35333y","address":"5950 Fraser St.","lat":49.230534,"long":-123.090523},"type":"Feature","geometry":{"type":"Point","coordinates":[-123.090523,49.230534]}},{"properties":{"offence":"176E","tickets":17.0,"id":"a62g6e5upydp","address":"6050 Fraser St.","lat":49.229618,"long":-123.09053},"type":"Feature","geometry":{"type":"Point","coordinates":[-123.09053,49.229618]}},{"properties":{"offence":"176E","tickets":17.0,"id":"a62g6e6peodh","address":"150 30th Ave E.","lat":49.243317,"long":-123.102623},"type":"Feature","geometry":{"type":"Point","coordinates":[-123.102623,49.243317]}},{"properties":{"offence":"176E","tickets":17.0,"id":"a62g6dzqb49s","address":"250 Broadway St. W.","lat":49.26313,"long":-123.110229},"type":"Feature","geometry":{"type":"Point","coordinates":[-123.110229,49.26313]}},{"properties":{"offence":"176E","tickets":17.0,"id":"a62g6e4gb0jg","address":"3550 4th Ave W.","lat":49.268574,"long":-123.182709},"type":"Feature","geometry":{"type":"Point","coordinates":[-123.182709,49.268574]}},{"properties":{"offence":"176E","tickets":17.0,"id":"a62g6e6tvonp","address":"350 3rd Ave W.","lat":53.254795,"long":-132.085297},"type":"Feature","geometry":{"type":"Point","coordinates":[-132.085297,53.254795]}},{"properties":{"offence":"176E","tickets":18.0,"id":"a62g6dzzecfq","address":"5050 Payne St.","lat":49.238899,"long":-123.029823},"type":"Feature","geometry":{"type":"Point","coordinates":[-123.029823,49.238899]}},{"properties":{"offence":"176E","tickets":18.0,"id":"a62g6dthshes","address":"1850 Ontario St.","lat":49.26862,"long":-123.104675},"type":"Feature","geometry":{"type":"Point","coordinates":[-123.104675,49.26862]}},{"properties":{"offence":"176E","tickets":18.0,"id":"a62g6e01tv77","address":"7350 Ontario St.","lat":49.21814,"long":-123.106117},"type":"Feature","geometry":{"type":"Point","coordinates":[-123.106117,49.21814]}},{"properties":{"offence":"176E","tickets":18.0,"id":"a62g6e7hdc1h","address":"450 Hornby St.","lat":49.286255,"long":-123.116356},"type":"Feature","geometry":{"type":"Point","coordinates":[-123.116356,49.286255]}},{"properties":{"offence":"176E","tickets":18.0,"id":"a62g6e8udfgz","address":"2850 Oak St.","lat":49.260078,"long":-123.126724},"type":"Feature","geometry":{"type":"Point","coordinates":[-123.126724,49.260078]}},{"properties":{"offence":"176E","tickets":18.0,"id":"a62g6dv8xs5a","address":"750 Drake St.","lat":49.276501,"long":-123.128387},"type":"Feature","geometry":{"type":"Point","coordinates":[-123.128387,49.276501]}},{"properties":{"offence":"176E","tickets":18.0,"id":"a62g6dvt3hpg","address":"1250 Bute St.","lat":49.281433,"long":-123.133881},"type":"Feature","geometry":{"type":"Point","coordinates":[-123.133881,49.281433]}},{"properties":{"offence":"176E","tickets":18.0,"id":"a62g6dwmf3bx","address":"2950 Hemlock St.","lat":49.259319,"long":-123.136261},"type":"Feature","geometry":{"type":"Point","coordinates":[-123.136261,49.259319]}},{"properties":{"offence":"176E","tickets":18.0,"id":"a62g6e8bk7ee","address":"2150 York Ave.","lat":49.271667,"long":-123.153847},"type":"Feature","geometry":{"type":"Point","coordinates":[-123.153847,49.271667]}},{"properties":{"offence":"176E","tickets":18.0,"id":"a62g6duz2u9k","address":"1850 Yew St.","lat":49.269489,"long":-123.15509},"type":"Feature","geometry":{"type":"Point","coordinates":[-123.15509,49.269489]}},{"properties":{"offence":"176E","tickets":19.0,"id":"a62g6e1s0qsy","address":"7150 Victoria Dr.","lat":49.219135,"long":-123.065655},"type":"Feature","geometry":{"type":"Point","coordinates":[-123.065655,49.219135]}},{"properties":{"offence":"176E","tickets":19.0,"id":"a62g6e489pax","address":"5950 Ormidale St.","lat":49.229713,"long":-123.02504},"type":"Feature","geometry":{"type":"Point","coordinates":[-123.02504,49.229713]}},{"properties":{"offence":"176E","tickets":19.0,"id":"a62g6e5w6m7d","address":"3550 Hastings St. E.","lat":49.281132,"long":-123.026993},"type":"Feature","geometry":{"type":"Point","coordinates":[-123.026993,49.281132]}},{"properties":{"offence":"176E","tickets":19.0,"id":"a62g6dxkzem1","address":"2450 Hastings St. E.","lat":49.281166,"long":-123.055496},"type":"Feature","geometry":{"type":"Point","coordinates":[-123.055496,49.281166]}},{"properties":{"offence":"176E","tickets":19.0,"id":"a62g6e8p41r4","address":"350 Hastings St. E.","lat":49.281292,"long":-123.096413},"type":"Feature","geometry":{"type":"Point","coordinates":[-123.096413,49.281292]}},{"properties":{"offence":"176E","tickets":19.0,"id":"a62g6dzc30x6","address":"150 Carrall St.","lat":49.283627,"long":-123.104294},"type":"Feature","geometry":{"type":"Point","coordinates":[-123.104294,49.283627]}},{"properties":{"offence":"176E","tickets":19.0,"id":"a62g6e3frtu9","address":"350 Broadway St. W.","lat":49.263161,"long":-123.111938},"type":"Feature","geometry":{"type":"Point","coordinates":[-123.111938,49.263161]}},{"properties":{"offence":"176E","tickets":19.0,"id":"a62g6e1a2s2v","address":"1550 Davie St.","lat":49.284843,"long":-123.138084},"type":"Feature","geometry":{"type":"Point","coordinates":[-123.138084,49.284843]}},{"properties":{"offence":"176E","tickets":19.0,"id":"a62g6dvwptmv","address":"1450 64th Ave W.","lat":49.213131,"long":-123.138824},"type":"Feature","geometry":{"type":"Point","coordinates":[-123.138824,49.213131]}},{"properties":{"offence":"176E","tickets":19.0,"id":"a62g6e2tb4o4","address":"1950 5th Ave W.","lat":49.267204,"long":-123.149277},"type":"Feature","geometry":{"type":"Point","coordinates":[-123.149277,49.267204]}},{"properties":{"offence":"176E","tickets":19.0,"id":"a62g6e1jos9v","address":"2950 Broadway St. W.","lat":49.264126,"long":-123.171257},"type":"Feature","geometry":{"type":"Point","coordinates":[-123.171257,49.264126]}},{"properties":{"offence":"176E","tickets":20.0,"id":"a62g6e859f9x","address":"5650 Aberdeen St.","lat":49.232635,"long":-123.028114},"type":"Feature","geometry":{"type":"Point","coordinates":[-123.028114,49.232635]}},{"properties":{"offence":"176E","tickets":20.0,"id":"a62g6e3bgxdo","address":"5150 Victoria Dr.","lat":49.237801,"long":-123.06543},"type":"Feature","geometry":{"type":"Point","coordinates":[-123.06543,49.237801]}},{"properties":{"offence":"176E","tickets":20.0,"id":"a62g6e0oezrd","address":"50 Victoria Dr.","lat":49.284382,"long":-123.065521},"type":"Feature","geometry":{"type":"Point","coordinates":[-123.065521,49.284382]}},{"properties":{"offence":"176E","tickets":20.0,"id":"a62g6dum1u5e","address":"1750 Kitchener St.","lat":49.272133,"long":-123.068642},"type":"Feature","geometry":{"type":"Point","coordinates":[-123.068642,49.272133]}},{"properties":{"offence":"176E","tickets":20.0,"id":"a62g6dvqpcjp","address":"1550 6th Ave E.","lat":49.26511,"long":-123.07238},"type":"Feature","geometry":{"type":"Point","coordinates":[-123.07238,49.26511]}},{"properties":{"offence":"176E","tickets":20.0,"id":"a62g6dwmx2zb","address":"2550 Woodland Dr.","lat":49.261906,"long":-123.073654},"type":"Feature","geometry":{"type":"Point","coordinates":[-123.073654,49.261906]}},{"properties":{"offence":"176E","tickets":20.0,"id":"a62g6e184ja1","address":"1350 Kingsway","lat":49.250618,"long":-123.077026},"type":"Feature","geometry":{"type":"Point","coordinates":[-123.077026,49.250618]}},{"properties":{"offence":"176E","tickets":20.0,"id":"a62g6dvv8j7s","address":"1250 Adanac St.","lat":49.277687,"long":-123.078239},"type":"Feature","geometry":{"type":"Point","coordinates":[-123.078239,49.277687]}},{"properties":{"offence":"176E","tickets":20.0,"id":"a62g6dyc68m2","address":"3550 Main St.","lat":49.253338,"long":-123.100899},"type":"Feature","geometry":{"type":"Point","coordinates":[-123.100899,49.253338]}},{"properties":{"offence":"176E","tickets":20.0,"id":"a62g6e7t37pd","address":"3750 Main St.","lat":49.251446,"long":-123.10096},"type":"Feature","geometry":{"type":"Point","coordinates":[-123.10096,49.251446]}},{"properties":{"offence":"176E","tickets":20.0,"id":"a62g6dvzqerh","address":"4850 Main St.","lat":49.241962,"long":-123.101425},"type":"Feature","geometry":{"type":"Point","coordinates":[-123.101425,49.241962]}},{"properties":{"offence":"176E","tickets":20.0,"id":"a62g6du065x6","address":"250 10th Ave W.","lat":49.262161,"long":-123.11026},"type":"Feature","geometry":{"type":"Point","coordinates":[-123.11026,49.262161]}},{"properties":{"offence":"176E","tickets":20.0,"id":"a62g6e2rj3to","address":"5950 Boulevard W.","lat":49.230988,"long":-123.110847},"type":"Feature","geometry":{"type":"Point","coordinates":[-123.110847,49.230988]}},{"properties":{"offence":"176E","tickets":20.0,"id":"a62g6dtzj9vn","address":"2850 Hemlock St.","lat":49.260258,"long":-123.13623},"type":"Feature","geometry":{"type":"Point","coordinates":[-123.13623,49.260258]}},{"properties":{"offence":"176E","tickets":20.0,"id":"a62g6e21awoe","address":"1450 67th Ave W.","lat":49.210865,"long":-123.13916},"type":"Feature","geometry":{"type":"Point","coordinates":[-123.13916,49.210865]}},{"properties":{"offence":"176E","tickets":20.0,"id":"a62g6dtwfbao","address":"2250 2nd Ave W.","lat":49.269955,"long":-123.156281},"type":"Feature","geometry":{"type":"Point","coordinates":[-123.156281,49.269955]}},{"properties":{"offence":"176E","tickets":21.0,"id":"a62g6dym68f5","address":"1750 Renfrew St.","lat":49.268917,"long":-123.044151},"type":"Feature","geometry":{"type":"Point","coordinates":[-123.044151,49.268917]}},{"properties":{"offence":"176E","tickets":21.0,"id":"a62g6e0h3k3v","address":"350 Garden Dr.","lat":49.281525,"long":-123.057831},"type":"Feature","geometry":{"type":"Point","coordinates":[-123.057831,49.281525]}},{"properties":{"offence":"176E","tickets":21.0,"id":"a62g6dy953eu","address":"5050 Victoria Dr.","lat":49.238564,"long":-123.065407},"type":"Feature","geometry":{"type":"Point","coordinates":[-123.065407,49.238564]}},{"properties":{"offence":"176E","tickets":21.0,"id":"a62g6e40nefm","address":"1750 6th Ave E.","lat":49.265072,"long":-123.068748},"type":"Feature","geometry":{"type":"Point","coordinates":[-123.068748,49.265072]}},{"properties":{"offence":"176E","tickets":21.0,"id":"a62g6e3auc5e","address":"2650 Commercial Dr.","lat":49.260914,"long":-123.069824},"type":"Feature","geometry":{"type":"Point","coordinates":[-123.069824,49.260914]}},{"properties":{"offence":"176E","tickets":21.0,"id":"a62g6e8w0c3p","address":"350 Campbell Ave.","lat":49.281517,"long":-123.084778},"type":"Feature","geometry":{"type":"Point","coordinates":[-123.084778,49.281517]}},{"properties":{"offence":"176E","tickets":21.0,"id":"a62g6e9q0bmh","address":"550 Heatley St.","lat":49.279743,"long":-123.0896},"type":"Feature","geometry":{"type":"Point","coordinates":[-123.0896,49.279743]}},{"properties":{"offence":"176E","tickets":21.0,"id":"a62g6dzw96sl","address":"4150 Fraser St.","lat":49.248089,"long":-123.090027},"type":"Feature","geometry":{"type":"Point","coordinates":[-123.090027,49.248089]}},{"properties":{"offence":"176E","tickets":21.0,"id":"a62g6e3wjlf9","address":"550 Pacific Blvd.","lat":49.276928,"long":-123.108665},"type":"Feature","geometry":{"type":"Point","coordinates":[-123.108665,49.276928]}},{"properties":{"offence":"176E","tickets":21.0,"id":"a62g6e07eyhp","address":"2850 Spruce St.","lat":49.260132,"long":-123.129112},"type":"Feature","geometry":{"type":"Point","coordinates":[-123.129112,49.260132]}},{"properties":{"offence":"176E","tickets":21.0,"id":"a62g6e7ktae9","address":"950 Broughton St.","lat":49.286144,"long":-123.132591},"type":"Feature","geometry":{"type":"Point","coordinates":[-123.132591,49.286144]}},{"properties":{"offence":"176E","tickets":21.0,"id":"a62g6e009ihb","address":"2050 York Ave.","lat":49.271629,"long":-123.151489},"type":"Feature","geometry":{"type":"Point","coordinates":[-123.151489,49.271629]}},{"properties":{"offence":"176E","tickets":21.0,"id":"a62g6e4iyng8","address":"2050 5th Ave W.","lat":49.267231,"long":-123.151642},"type":"Feature","geometry":{"type":"Point","coordinates":[-123.151642,49.267231]}},{"properties":{"offence":"176E","tickets":21.0,"id":"a62g6e710h0y","address":"1950 Vine St.","lat":49.268631,"long":-123.157486},"type":"Feature","geometry":{"type":"Point","coordinates":[-123.157486,49.268631]}},{"properties":{"offence":"176E","tickets":22.0,"id":"a62g6dv0h63p","address":"1950 11th Ave E.","lat":49.260422,"long":-123.064949},"type":"Feature","geometry":{"type":"Point","coordinates":[-123.064949,49.260422]}},{"properties":{"offence":"176E","tickets":22.0,"id":"a62g6dzx1bsx","address":"450 43rd Ave W.","lat":49.231071,"long":-123.095642},"type":"Feature","geometry":{"type":"Point","coordinates":[-123.095642,49.231071]}},{"properties":{"offence":"176E","tickets":22.0,"id":"a62g6dvx1vcf","address":"450 17th Ave W.","lat":49.255833,"long":-123.113808},"type":"Feature","geometry":{"type":"Point","coordinates":[-123.113808,49.255833]}},{"properties":{"offence":"176E","tickets":22.0,"id":"a62g6e4cg4py","address":"2450 Blenheim St.","lat":49.264671,"long":-123.177818},"type":"Feature","geometry":{"type":"Point","coordinates":[-123.177818,49.264671]}},{"properties":{"offence":"176E","tickets":23.0,"id":"a62g6e59gyiw","address":"3450 Main St.","lat":49.254292,"long":-123.100845},"type":"Feature","geometry":{"type":"Point","coordinates":[-123.100845,49.254292]}},{"properties":{"offence":"176E","tickets":23.0,"id":"a62g6e84iuhh","address":"5450 Boulevard W.","lat":49.235935,"long":-123.110641},"type":"Feature","geometry":{"type":"Point","coordinates":[-123.110641,49.235935]}},{"properties":{"offence":"176E","tickets":23.0,"id":"a62g6e6lpk0y","address":"350 10th Ave W.","lat":49.262196,"long":-123.111969},"type":"Feature","geometry":{"type":"Point","coordinates":[-123.111969,49.262196]}},{"properties":{"offence":"176E","tickets":23.0,"id":"a62g6dzt8nfy","address":"1250 14th Ave W.","lat":49.258816,"long":-123.132751},"type":"Feature","geometry":{"type":"Point","coordinates":[-123.132751,49.258816]}},{"properties":{"offence":"176E","tickets":23.0,"id":"a62g6e17sq6t","address":"50 Old Bridge Ct.","lat":49.270569,"long":-123.134598},"type":"Feature","geometry":{"type":"Point","coordinates":[-123.134598,49.270569]}},{"properties":{"offence":"176E","tickets":23.0,"id":"a62g6e00hvzq","address":"1450 14th Ave W.","lat":49.258896,"long":-123.137512},"type":"Feature","geometry":{"type":"Point","coordinates":[-123.137512,49.258896]}},{"properties":{"offence":"176E","tickets":23.0,"id":"a62g6dxce02w","address":"2550 Broadway St. W.","lat":49.264011,"long":-123.163544},"type":"Feature","geometry":{"type":"Point","coordinates":[-123.163544,49.264011]}},{"properties":{"offence":"176E","tickets":24.0,"id":"a62g6dzrsrmd","address":"2650 Kingsway","lat":49.238541,"long":-123.050919},"type":"Feature","geometry":{"type":"Point","coordinates":[-123.050919,49.238541]}},{"properties":{"offence":"176E","tickets":24.0,"id":"a62g6e8hqd8b","address":"250 51st Ave E.","lat":49.223724,"long":-123.100647},"type":"Feature","geometry":{"type":"Point","coordinates":[-123.100647,49.223724]}},{"properties":{"offence":"176E","tickets":24.0,"id":"a62g6e6p3n5k","address":"1350 Quebec St.","lat":49.273247,"long":-123.101646},"type":"Feature","geometry":{"type":"Point","coordinates":[-123.101646,49.273247]}},{"properties":{"offence":"176E","tickets":24.0,"id":"a62g6e8gkj72","address":"5550 Boulevard W.","lat":49.235237,"long":-123.110672},"type":"Feature","geometry":{"type":"Point","coordinates":[-123.110672,49.235237]}},{"properties":{"offence":"176E","tickets":24.0,"id":"a62g6dyaazqb","address":"1250 Cardero St.","lat":49.284397,"long":-123.139885},"type":"Feature","geometry":{"type":"Point","coordinates":[-123.139885,49.284397]}},{"properties":{"offence":"176E","tickets":24.0,"id":"a62g6e9ox2o6","address":"1750 Cypress St","lat":49.270264,"long":-123.147896},"type":"Feature","geometry":{"type":"Point","coordinates":[-123.147896,49.270264]}},{"properties":{"offence":"176E","tickets":24.0,"id":"a62g6e1jbctx","address":"1950 York Ave.","lat":49.271591,"long":-123.149094},"type":"Feature","geometry":{"type":"Point","coordinates":[-123.149094,49.271591]}},{"properties":{"offence":"176E","tickets":24.0,"id":"a62g6e520mei","address":"3150 Broadway St. W.","lat":49.264179,"long":-123.174973},"type":"Feature","geometry":{"type":"Point","coordinates":[-123.174973,49.264179]}},{"properties":{"offence":"176E","tickets":25.0,"id":"a62g6e9v17ax","address":"1650 6th Ave E.","lat":49.265091,"long":-123.07061},"type":"Feature","geometry":{"type":"Point","coordinates":[-123.07061,49.265091]}},{"properties":{"offence":"176E","tickets":25.0,"id":"a62g6dwh6d2f","address":"150 10th Ave E.","lat":49.262028,"long":-123.102264},"type":"Feature","geometry":{"type":"Point","coordinates":[-123.102264,49.262028]}},{"properties":{"offence":"176E","tickets":25.0,"id":"a62g6e0osg6i","address":"2750 Yukon St.","lat":49.260635,"long":-123.112984},"type":"Feature","geometry":{"type":"Point","coordinates":[-123.112984,49.260635]}},{"properties":{"offence":"176E","tickets":25.0,"id":"a62g6du3rspp","address":"450 Howe St.","lat":49.285618,"long":-123.115356},"type":"Feature","geometry":{"type":"Point","coordinates":[-123.115356,49.285618]}},{"properties":{"offence":"176E","tickets":25.0,"id":"a62g6e0bmgkw","address":"2750 Hemlock St.","lat":49.261196,"long":-123.136192},"type":"Feature","geometry":{"type":"Point","coordinates":[-123.136192,49.261196]}},{"properties":{"offence":"176E","tickets":25.0,"id":"a62g6dxdewc7","address":"1350 Broughton St.","lat":49.28223,"long":-123.138458},"type":"Feature","geometry":{"type":"Point","coordinates":[-123.138458,49.28223]}},{"properties":{"offence":"176E","tickets":26.0,"id":"a62g6e3vljhy","address":"4650 Duchess St.","lat":49.242809,"long":-123.047935},"type":"Feature","geometry":{"type":"Point","coordinates":[-123.047935,49.242809]}},{"properties":{"offence":"176E","tickets":26.0,"id":"a62g6duygzm9","address":"3450 Commercial St.","lat":49.253716,"long":-123.06794},"type":"Feature","geometry":{"type":"Point","coordinates":[-123.06794,49.253716]}},{"properties":{"offence":"176E","tickets":26.0,"id":"a62g6e0clyb3","address":"1650 2nd Ave E.","lat":49.268707,"long":-123.07061},"type":"Feature","geometry":{"type":"Point","coordinates":[-123.07061,49.268707]}},{"properties":{"offence":"176E","tickets":26.0,"id":"a62g6e1pfonb","address":"6250 Fraser St.","lat":49.22781,"long":-123.090607},"type":"Feature","geometry":{"type":"Point","coordinates":[-123.090607,49.22781]}},{"properties":{"offence":"176E","tickets":26.0,"id":"a62g6e0se4nt","address":"350 Jackson Ave.","lat":49.281696,"long":-123.093407},"type":"Feature","geometry":{"type":"Point","coordinates":[-123.093407,49.281696]}},{"properties":{"offence":"176E","tickets":26.0,"id":"a62g6e7r4dxy","address":"250 2nd Ave E.","lat":49.26836,"long":-123.09919},"type":"Feature","geometry":{"type":"Point","coordinates":[-123.09919,49.26836]}},{"properties":{"offence":"176E","tickets":26.0,"id":"a62g6dzqw8m3","address":"3650 Main St.","lat":49.252419,"long":-123.100937},"type":"Feature","geometry":{"type":"Point","coordinates":[-123.100937,49.252419]}},{"properties":{"offence":"176E","tickets":26.0,"id":"a62g6dvb3lrs","address":"2650 Yukon St.","lat":49.261639,"long":-123.112946},"type":"Feature","geometry":{"type":"Point","coordinates":[-123.112946,49.261639]}},{"properties":{"offence":"176E","tickets":26.0,"id":"a62g6e93m0pw","address":"3350 Heather St.","lat":49.255558,"long":-123.120155},"type":"Feature","geometry":{"type":"Point","coordinates":[-123.120155,49.255558]}},{"properties":{"offence":"176E","tickets":26.0,"id":"a62g6dzlirfm","address":"8850 Osler St.","lat":49.204971,"long":-123.131744},"type":"Feature","geometry":{"type":"Point","coordinates":[-123.131744,49.204971]}},{"properties":{"offence":"176E","tickets":26.0,"id":"a62g6du6kq99","address":"1850 Alberni St.","lat":49.292698,"long":-123.135201},"type":"Feature","geometry":{"type":"Point","coordinates":[-123.135201,49.292698]}},{"properties":{"offence":"176E","tickets":26.0,"id":"a62g6e2gf8aa","address":"1750 14th Ave W.","lat":49.259022,"long":-123.144775},"type":"Feature","geometry":{"type":"Point","coordinates":[-123.144775,49.259022]}},{"properties":{"offence":"176E","tickets":26.0,"id":"a62g6dysavkg","address":"8650 Barnard St.","lat":49.207993,"long":-123.14518},"type":"Feature","geometry":{"type":"Point","coordinates":[-123.14518,49.207993]}},{"properties":{"offence":"176E","tickets":26.0,"id":"a62g6dv8mcy8","address":"2050 Vine St.","lat":49.267754,"long":-123.157524},"type":"Feature","geometry":{"type":"Point","coordinates":[-123.157524,49.267754]}},{"properties":{"offence":"176E","tickets":27.0,"id":"a62g6e4kex3b","address":"3650 Vanness Ave.","lat":49.23571,"long":-123.026337},"type":"Feature","geometry":{"type":"Point","coordinates":[-123.026337,49.23571]}},{"properties":{"offence":"176E","tickets":27.0,"id":"a62g6e02wu3l","address":"3850 Commercial St.","lat":49.250656,"long":-123.068115},"type":"Feature","geometry":{"type":"Point","coordinates":[-123.068115,49.250656]}},{"properties":{"offence":"176E","tickets":27.0,"id":"a62g6dzhb739","address":"1650 Cypress St","lat":49.27116,"long":-123.147865},"type":"Feature","geometry":{"type":"Point","coordinates":[-123.147865,49.27116]}},{"properties":{"offence":"176E","tickets":28.0,"id":"a62g6e5ei15p","address":"3550 Foster Ave.","lat":49.234131,"long":-123.027313},"type":"Feature","geometry":{"type":"Point","coordinates":[-123.027313,49.234131]}},{"properties":{"offence":"176E","tickets":28.0,"id":"a62g6e59dzuj","address":"5650 Melbourne St.","lat":49.232555,"long":-123.029243},"type":"Feature","geometry":{"type":"Point","coordinates":[-123.029243,49.232555]}},{"properties":{"offence":"176E","tickets":28.0,"id":"a62g6dxgflaz","address":"3350 Kingsway","lat":49.233284,"long":-123.034241},"type":"Feature","geometry":{"type":"Point","coordinates":[-123.034241,49.233284]}},{"properties":{"offence":"176E","tickets":28.0,"id":"a62g6e6ddqjc","address":"450 Templeton Dr.","lat":49.28072,"long":-123.059769},"type":"Feature","geometry":{"type":"Point","coordinates":[-123.059769,49.28072]}},{"properties":{"offence":"176E","tickets":28.0,"id":"a62g6e9iobsl","address":"650 16th Ave W.","lat":49.256966,"long":-123.119148},"type":"Feature","geometry":{"type":"Point","coordinates":[-123.119148,49.256966]}},{"properties":{"offence":"176E","tickets":28.0,"id":"a62g6dwx74k1","address":"1450 Harwood St.","lat":49.282681,"long":-123.139061},"type":"Feature","geometry":{"type":"Point","coordinates":[-123.139061,49.282681]}},{"properties":{"offence":"176E","tickets":29.0,"id":"a62g6e3anc2j","address":"2450 Pender St. E.","lat":49.280231,"long":-123.055504},"type":"Feature","geometry":{"type":"Point","coordinates":[-123.055504,49.280231]}},{"properties":{"offence":"176E","tickets":29.0,"id":"a62g6dzvizcv","address":"550 Railway St.","lat":49.284454,"long":-123.092102},"type":"Feature","geometry":{"type":"Point","coordinates":[-123.092102,49.284454]}},{"properties":{"offence":"176E","tickets":29.0,"id":"a62g6duq5ho4","address":"450 Granville St.","lat":49.284973,"long":-123.114357},"type":"Feature","geometry":{"type":"Point","coordinates":[-123.114357,49.284973]}},{"properties":{"offence":"176E","tickets":29.0,"id":"a62g6e388qpe","address":"1350 Fountain Way Ct.","lat":49.267616,"long":-123.134392},"type":"Feature","geometry":{"type":"Point","coordinates":[-123.134392,49.267616]}},{"properties":{"offence":"176E","tickets":29.0,"id":"a62g6dzym9h6","address":"2050 2nd Ave W.","lat":49.269882,"long":-123.15155},"type":"Feature","geometry":{"type":"Point","coordinates":[-123.15155,49.269882]}},{"properties":{"offence":"176E","tickets":29.0,"id":"a62g6e3cugdx","address":"5850 West Boulevard","lat":49.227158,"long":-123.155106},"type":"Feature","geometry":{"type":"Point","coordinates":[-123.155106,49.227158]}},{"properties":{"offence":"176E","tickets":30.0,"id":"a62g6e39gwah","address":"2150 Kingsway","lat":49.243999,"long":-123.062752},"type":"Feature","geometry":{"type":"Point","coordinates":[-123.062752,49.243999]}},{"properties":{"offence":"176E","tickets":30.0,"id":"a62g6e1avbll","address":"1150 Georgia St. E.","lat":49.278225,"long":-123.080276},"type":"Feature","geometry":{"type":"Point","coordinates":[-123.080276,49.278225]}},{"properties":{"offence":"176E","tickets":30.0,"id":"a62g6dwf50mg","address":"4550 Main St.","lat":49.243858,"long":-123.101341},"type":"Feature","geometry":{"type":"Point","coordinates":[-123.101341,49.243858]}},{"properties":{"offence":"176E","tickets":30.0,"id":"a62g6dx7vfz4","address":"450 42nd Ave W.","lat":49.232502,"long":-123.115227},"type":"Feature","geometry":{"type":"Point","coordinates":[-123.115227,49.232502]}},{"properties":{"offence":"176E","tickets":30.0,"id":"a62g6e6m7mdr","address":"2750 Birch St.","lat":49.261162,"long":-123.133812},"type":"Feature","geometry":{"type":"Point","coordinates":[-123.133812,49.261162]}},{"properties":{"offence":"176E","tickets":30.0,"id":"a62g6dzc19k4","address":"850 Old Bridge Ct.","lat":49.270569,"long":-123.134598},"type":"Feature","geometry":{"type":"Point","coordinates":[-123.134598,49.270569]}},{"properties":{"offence":"176E","tickets":30.0,"id":"a62g6e63fyhh","address":"1350 11th Ave W.","lat":49.261639,"long":-123.13501},"type":"Feature","geometry":{"type":"Point","coordinates":[-123.13501,49.261639]}},{"properties":{"offence":"176E","tickets":30.0,"id":"a62g6dwjankc","address":"1650 14th Ave W.","lat":49.258968,"long":-123.14241},"type":"Feature","geometry":{"type":"Point","coordinates":[-123.14241,49.258968]}},{"properties":{"offence":"176E","tickets":30.0,"id":"a62g6dv2cbu5","address":"2550 Vine St.","lat":49.263405,"long":-123.157707},"type":"Feature","geometry":{"type":"Point","coordinates":[-123.157707,49.263405]}},{"properties":{"offence":"176E","tickets":30.0,"id":"a62g6e2smv8h","address":"3350 Broadway St. W.","lat":49.264221,"long":-123.178833},"type":"Feature","geometry":{"type":"Point","coordinates":[-123.178833,49.264221]}},{"properties":{"offence":"176E","tickets":31.0,"id":"a62g6e0gfl8a","address":"450 Hastings St. E.","lat":49.281254,"long":-123.094398},"type":"Feature","geometry":{"type":"Point","coordinates":[-123.094398,49.281254]}},{"properties":{"offence":"176E","tickets":31.0,"id":"a62g6e1wt119","address":"150 16th Ave E.","lat":49.256592,"long":-123.102219},"type":"Feature","geometry":{"type":"Point","coordinates":[-123.102219,49.256592]}},{"properties":{"offence":"176E","tickets":31.0,"id":"a62g6e76coxr","address":"150 6th Ave E.","lat":49.265625,"long":-123.108131},"type":"Feature","geometry":{"type":"Point","coordinates":[-123.108131,49.265625]}},{"properties":{"offence":"176E","tickets":31.0,"id":"a62g6dvbx0qi","address":"1050 42nd Ave W.","lat":49.23304,"long":-123.129074},"type":"Feature","geometry":{"type":"Point","coordinates":[-123.129074,49.23304]}},{"properties":{"offence":"176E","tickets":31.0,"id":"a62g6dxrprg8","address":"1150 15th Ave W.","lat":49.257862,"long":-123.130302},"type":"Feature","geometry":{"type":"Point","coordinates":[-123.130302,49.257862]}},{"properties":{"offence":"176E","tickets":32.0,"id":"a62g6e7lft3i","address":"1350 23rd Ave E.","lat":49.249912,"long":-123.077049},"type":"Feature","geometry":{"type":"Point","coordinates":[-123.077049,49.249912]}},{"properties":{"offence":"176E","tickets":32.0,"id":"a62g6dvalhiq","address":"2750 Sophia St.","lat":49.260624,"long":-123.098289},"type":"Feature","geometry":{"type":"Point","coordinates":[-123.098289,49.260624]}},{"properties":{"offence":"176E","tickets":32.0,"id":"a62g6dyj9yv6","address":"1250 Station St.","lat":49.273224,"long":-123.098595},"type":"Feature","geometry":{"type":"Point","coordinates":[-123.098595,49.273224]}},{"properties":{"offence":"176E","tickets":32.0,"id":"a62g6e3fckf7","address":"2950 Spruce St.","lat":49.259205,"long":-123.129135},"type":"Feature","geometry":{"type":"Point","coordinates":[-123.129135,49.259205]}},{"properties":{"offence":"176E","tickets":32.0,"id":"a62g6dx0zfpu","address":"3150 Fir St.","lat":49.257557,"long":-123.141273},"type":"Feature","geometry":{"type":"Point","coordinates":[-123.141273,49.257557]}},{"properties":{"offence":"176E","tickets":32.0,"id":"a62g6duehapf","address":"2250 12th Ave W.","lat":49.261074,"long":-123.156593},"type":"Feature","geometry":{"type":"Point","coordinates":[-123.156593,49.261074]}},{"properties":{"offence":"176E","tickets":32.0,"id":"a62g6dvvuw6c","address":"2750 4th Ave W.","lat":49.268368,"long":-123.167336},"type":"Feature","geometry":{"type":"Point","coordinates":[-123.167336,49.268368]}},{"properties":{"offence":"176E","tickets":33.0,"id":"a62g6e2d7vnf","address":"5250 Joyce St.","lat":49.236927,"long":-123.033073},"type":"Feature","geometry":{"type":"Point","coordinates":[-123.033073,49.236927]}},{"properties":{"offence":"176E","tickets":33.0,"id":"a62g6dyakusz","address":"1450 8th Ave E.","lat":49.263302,"long":-123.074585},"type":"Feature","geometry":{"type":"Point","coordinates":[-123.074585,49.263302]}},{"properties":{"offence":"176E","tickets":33.0,"id":"a62g6du0shy5","address":"1950 Scotia St.","lat":49.267281,"long":-123.098778},"type":"Feature","geometry":{"type":"Point","coordinates":[-123.098778,49.267281]}},{"properties":{"offence":"176E","tickets":33.0,"id":"a62g6e178jvx","address":"1450 Western St.","lat":49.272236,"long":-123.099358},"type":"Feature","geometry":{"type":"Point","coordinates":[-123.099358,49.272236]}},{"properties":{"offence":"176E","tickets":33.0,"id":"a62g6e4tujq2","address":"2750 Alder St.","lat":49.261127,"long":-123.131462},"type":"Feature","geometry":{"type":"Point","coordinates":[-123.131462,49.261127]}},{"properties":{"offence":"176E","tickets":33.0,"id":"a62g6e4ihbbz","address":"850 Hemlock Ct.","lat":49.268127,"long":-123.136429},"type":"Feature","geometry":{"type":"Point","coordinates":[-123.136429,49.268127]}},{"properties":{"offence":"176E","tickets":33.0,"id":"a62g6dttd1c9","address":"2250 Fir St.","lat":49.265808,"long":-123.140938},"type":"Feature","geometry":{"type":"Point","coordinates":[-123.140938,49.265808]}},{"properties":{"offence":"176E","tickets":33.0,"id":"a62g6dzfvhjd","address":"4650 10th Ave W.","lat":49.263905,"long":-123.213715},"type":"Feature","geometry":{"type":"Point","coordinates":[-123.213715,49.263905]}},{"properties":{"offence":"176E","tickets":34.0,"id":"a62g6e9azl69","address":"250 Commercial Dr.","lat":49.282623,"long":-123.070366},"type":"Feature","geometry":{"type":"Point","coordinates":[-123.070366,49.282623]}},{"properties":{"offence":"176E","tickets":34.0,"id":"a62g6e7yj8r8","address":"2250 Keith Dr.","lat":49.264717,"long":-123.079407},"type":"Feature","geometry":{"type":"Point","coordinates":[-123.079407,49.264717]}},{"properties":{"offence":"176E","tickets":34.0,"id":"a62g6dv2vtx1","address":"650 Pacific Blvd.","lat":49.276852,"long":-123.108864},"type":"Feature","geometry":{"type":"Point","coordinates":[-123.108864,49.276852]}},{"properties":{"offence":"176E","tickets":34.0,"id":"a62g6e1d6dfv","address":"6250 Boulevard W.","lat":49.228188,"long":-123.110802},"type":"Feature","geometry":{"type":"Point","coordinates":[-123.110802,49.228188]}},{"properties":{"offence":"176E","tickets":34.0,"id":"a62g6e3vo5pb","address":"2950 Cambie St.","lat":49.25901,"long":-123.115005},"type":"Feature","geometry":{"type":"Point","coordinates":[-123.115005,49.25901]}},{"properties":{"offence":"176E","tickets":34.0,"id":"a62g6duvwkbv","address":"1850 7th Ave W.","lat":49.265476,"long":-123.146881},"type":"Feature","geometry":{"type":"Point","coordinates":[-123.146881,49.265476]}},{"properties":{"offence":"176E","tickets":35.0,"id":"a62g6e3hbe23","address":"4250 Fraser St.","lat":49.247101,"long":-123.09005},"type":"Feature","geometry":{"type":"Point","coordinates":[-123.09005,49.247101]}},{"properties":{"offence":"176E","tickets":35.0,"id":"a62g6e1m67sl","address":"750 18th Ave W.","lat":49.255211,"long":-123.121155},"type":"Feature","geometry":{"type":"Point","coordinates":[-123.121155,49.255211]}},{"properties":{"offence":"176E","tickets":35.0,"id":"a62g6e1lx1u3","address":"2550 Alder St.","lat":49.262978,"long":-123.131386},"type":"Feature","geometry":{"type":"Point","coordinates":[-123.131386,49.262978]}},{"properties":{"offence":"176E","tickets":36.0,"id":"a62g6e746j3n","address":"1850 6th Ave E.","lat":49.265057,"long":-123.066803},"type":"Feature","geometry":{"type":"Point","coordinates":[-123.066803,49.265057]}},{"properties":{"offence":"176E","tickets":36.0,"id":"a62g6e7418br","address":"8250 St. George St.","lat":49.210217,"long":-123.094009},"type":"Feature","geometry":{"type":"Point","coordinates":[-123.094009,49.210217]}},{"properties":{"offence":"176E","tickets":36.0,"id":"a62g6dul0z6x","address":"1250 Alder Bay Ct.","lat":49.267063,"long":-123.133362},"type":"Feature","geometry":{"type":"Point","coordinates":[-123.133362,49.267063]}},{"properties":{"offence":"176E","tickets":36.0,"id":"a62g6dznmn42","address":"1250 Broughton St.","lat":49.283508,"long":-123.136604},"type":"Feature","geometry":{"type":"Point","coordinates":[-123.136604,49.283508]}},{"properties":{"offence":"176E","tickets":36.0,"id":"a62g6e47nnib","address":"2750 Vine St.","lat":49.261562,"long":-123.157738},"type":"Feature","geometry":{"type":"Point","coordinates":[-123.157738,49.261562]}},{"properties":{"offence":"176E","tickets":37.0,"id":"a62g6e192viz","address":"4350 Fraser St.","lat":49.246067,"long":-123.090073},"type":"Feature","geometry":{"type":"Point","coordinates":[-123.090073,49.246067]}},{"properties":{"offence":"176E","tickets":37.0,"id":"a62g6dxh3xye","address":"150 Jackson Ave.","lat":49.28352,"long":-123.093323},"type":"Feature","geometry":{"type":"Point","coordinates":[-123.093323,49.28352]}},{"properties":{"offence":"176E","tickets":37.0,"id":"a62g6e8on6ot","address":"2650 Cypress St","lat":49.262318,"long":-123.148193},"type":"Feature","geometry":{"type":"Point","coordinates":[-123.148193,49.262318]}},{"properties":{"offence":"176E","tickets":37.0,"id":"a62g6e9x86c0","address":"1950 Cornwall Ave.","lat":49.272495,"long":-123.148994},"type":"Feature","geometry":{"type":"Point","coordinates":[-123.148994,49.272495]}},{"properties":{"offence":"176E","tickets":37.0,"id":"a62g6e264oyz","address":"2150 7th Ave W.","lat":49.265602,"long":-123.154114},"type":"Feature","geometry":{"type":"Point","coordinates":[-123.154114,49.265602]}},{"properties":{"offence":"176E","tickets":37.0,"id":"a62g6e7vmjh4","address":"2950 4th Ave W.","lat":49.268429,"long":-123.171768},"type":"Feature","geometry":{"type":"Point","coordinates":[-123.171768,49.268429]}},{"properties":{"offence":"176E","tickets":37.0,"id":"a62g6e5lasaj","address":"2550 Sasamat St.","lat":49.264263,"long":-123.209099},"type":"Feature","geometry":{"type":"Point","coordinates":[-123.209099,49.264263]}},{"properties":{"offence":"176E","tickets":38.0,"id":"a62g6dxbd0wp","address":"5050 Joyce St.","lat":49.238773,"long":-123.031342},"type":"Feature","geometry":{"type":"Point","coordinates":[-123.031342,49.238773]}},{"properties":{"offence":"176E","tickets":38.0,"id":"a62g6e7g5xhp","address":"1450 Station St.","lat":49.271614,"long":-123.098061},"type":"Feature","geometry":{"type":"Point","coordinates":[-123.098061,49.271614]}},{"properties":{"offence":"176E","tickets":38.0,"id":"a62g6dvksbb5","address":"1350 10th Ave W.","lat":49.262573,"long":-123.134972},"type":"Feature","geometry":{"type":"Point","coordinates":[-123.134972,49.262573]}},{"properties":{"offence":"176E","tickets":38.0,"id":"a62g6dy5t6mc","address":"2150 3rd Ave W.","lat":49.269039,"long":-123.153946},"type":"Feature","geometry":{"type":"Point","coordinates":[-123.153946,49.269039]}},{"properties":{"offence":"176E","tickets":38.0,"id":"a62g6e2s5jdz","address":"2450 Bayswater St.","lat":49.264614,"long":-123.171219},"type":"Feature","geometry":{"type":"Point","coordinates":[-123.171219,49.264614]}},{"properties":{"offence":"176E","tickets":39.0,"id":"a62g6dy1qw97","address":"2650 Hastings St. E.","lat":49.281158,"long":-123.050629},"type":"Feature","geometry":{"type":"Point","coordinates":[-123.050629,49.281158]}},{"properties":{"offence":"176E","tickets":39.0,"id":"a62g6e9tojjy","address":"2550 Manitoba St.","lat":49.262787,"long":-123.106842},"type":"Feature","geometry":{"type":"Point","coordinates":[-123.106842,49.262787]}},{"properties":{"offence":"176E","tickets":39.0,"id":"a62g6e4s6n18","address":"550 16th Ave W.","lat":49.256931,"long":-123.116821},"type":"Feature","geometry":{"type":"Point","coordinates":[-123.116821,49.256931]}},{"properties":{"offence":"176E","tickets":39.0,"id":"a62g6e0k79r7","address":"1350 Burrard St.","lat":49.27766,"long":-123.131363},"type":"Feature","geometry":{"type":"Point","coordinates":[-123.131363,49.27766]}},{"properties":{"offence":"176E","tickets":40.0,"id":"a62g6e3tioge","address":"350 Renfrew St.","lat":49.28159,"long":-123.044029},"type":"Feature","geometry":{"type":"Point","coordinates":[-123.044029,49.28159]}},{"properties":{"offence":"176E","tickets":40.0,"id":"a62g6du9jf3h","address":"1950 8th Ave E.","lat":49.263233,"long":-123.064911},"type":"Feature","geometry":{"type":"Point","coordinates":[-123.064911,49.263233]}},{"properties":{"offence":"176E","tickets":40.0,"id":"a62g6dwlf18p","address":"950 Station St.","lat":49.275791,"long":-123.09906},"type":"Feature","geometry":{"type":"Point","coordinates":[-123.09906,49.275791]}},{"properties":{"offence":"176E","tickets":40.0,"id":"a62g6dza8g3f","address":"5650 Boulevard E.","lat":49.234322,"long":-123.11071},"type":"Feature","geometry":{"type":"Point","coordinates":[-123.11071,49.234322]}},{"properties":{"offence":"176E","tickets":40.0,"id":"a62g6e9gymjl","address":"3450 Tupper St.","lat":49.254665,"long":-123.116013},"type":"Feature","geometry":{"type":"Point","coordinates":[-123.116013,49.254665]}},{"properties":{"offence":"176E","tickets":40.0,"id":"a62g6dyux5cu","address":"750 Gilford St.","lat":49.292824,"long":-123.136505},"type":"Feature","geometry":{"type":"Point","coordinates":[-123.136505,49.292824]}},{"properties":{"offence":"176E","tickets":40.0,"id":"a62g6du1ra15","address":"1450 10th Ave W.","lat":49.262615,"long":-123.137383},"type":"Feature","geometry":{"type":"Point","coordinates":[-123.137383,49.262615]}},{"properties":{"offence":"176E","tickets":40.0,"id":"a62g6e8p0q2h","address":"3250 Broadway St. W.","lat":49.264202,"long":-123.176872},"type":"Feature","geometry":{"type":"Point","coordinates":[-123.176872,49.264202]}},{"properties":{"offence":"176E","tickets":41.0,"id":"a62g6dxu0yfx","address":"150 50th Ave E.","lat":49.224731,"long":-123.102715},"type":"Feature","geometry":{"type":"Point","coordinates":[-123.102715,49.224731]}},{"properties":{"offence":"176E","tickets":41.0,"id":"a62g6e9b1pzy","address":"750 Chilco St.","lat":49.293736,"long":-123.137848},"type":"Feature","geometry":{"type":"Point","coordinates":[-123.137848,49.293736]}},{"properties":{"offence":"176E","tickets":42.0,"id":"a62g6e7mil87","address":"3450 Euclid Ave.","lat":49.235786,"long":-123.03199},"type":"Feature","geometry":{"type":"Point","coordinates":[-123.03199,49.235786]}},{"properties":{"offence":"176E","tickets":42.0,"id":"a62g6e9hlibc","address":"3150 Cambie St.","lat":49.25737,"long":-123.115044},"type":"Feature","geometry":{"type":"Point","coordinates":[-123.115044,49.25737]}},{"properties":{"offence":"176E","tickets":42.0,"id":"a62g6e2aoqz1","address":"1250 11th Ave W.","lat":49.261608,"long":-123.132645},"type":"Feature","geometry":{"type":"Point","coordinates":[-123.132645,49.261608]}},{"properties":{"offence":"176E","tickets":42.0,"id":"a62g6e0aogsc","address":"2950 Birch St.","lat":49.259281,"long":-123.133888},"type":"Feature","geometry":{"type":"Point","coordinates":[-123.133888,49.259281]}},{"properties":{"offence":"176E","tickets":42.0,"id":"a62g6e7j1vix","address":"2650 Hemlock St.","lat":49.262115,"long":-123.136162},"type":"Feature","geometry":{"type":"Point","coordinates":[-123.136162,49.262115]}},{"properties":{"offence":"176E","tickets":42.0,"id":"a62g6e6xvp7y","address":"5550 Dunbar St.","lat":49.236061,"long":-123.185287},"type":"Feature","geometry":{"type":"Point","coordinates":[-123.185287,49.236061]}},{"properties":{"offence":"176E","tickets":43.0,"id":"a62g6e0k3nw6","address":"4950 McGeer St.","lat":49.24041,"long":-123.03241},"type":"Feature","geometry":{"type":"Point","coordinates":[-123.03241,49.24041]}},{"properties":{"offence":"176E","tickets":43.0,"id":"a62g6e4aec9a","address":"6650 Main St.","lat":49.22422,"long":-123.101662},"type":"Feature","geometry":{"type":"Point","coordinates":[-123.101662,49.22422]}},{"properties":{"offence":"176E","tickets":43.0,"id":"a62g6e6gzvfw","address":"50 Sitka Sq.","lat":49.266621,"long":-123.128952},"type":"Feature","geometry":{"type":"Point","coordinates":[-123.128952,49.266621]}},{"properties":{"offence":"176E","tickets":43.0,"id":"a62g6e1va3m3","address":"2550 Fir St.","lat":49.263138,"long":-123.141037},"type":"Feature","geometry":{"type":"Point","coordinates":[-123.141037,49.263138]}},{"properties":{"offence":"176E","tickets":43.0,"id":"a62g6dx90mc5","address":"1850 5th Ave W.","lat":49.267174,"long":-123.146851},"type":"Feature","geometry":{"type":"Point","coordinates":[-123.146851,49.267174]}},{"properties":{"offence":"176E","tickets":44.0,"id":"a62g6e02wvt7","address":"250 7th Ave W.","lat":49.264767,"long":-123.110184},"type":"Feature","geometry":{"type":"Point","coordinates":[-123.110184,49.264767]}},{"properties":{"offence":"176E","tickets":45.0,"id":"a62g6dtmw2z8","address":"5550 Lincoln St.","lat":49.233646,"long":-123.025909},"type":"Feature","geometry":{"type":"Point","coordinates":[-123.025909,49.233646]}},{"properties":{"offence":"176E","tickets":45.0,"id":"a62g6dv0j1w0","address":"1550 11th Ave E.","lat":49.260471,"long":-123.072639},"type":"Feature","geometry":{"type":"Point","coordinates":[-123.072639,49.260471]}},{"properties":{"offence":"176E","tickets":45.0,"id":"a62g6e9vq6nt","address":"650 Jackson Ave.","lat":49.278908,"long":-123.093529},"type":"Feature","geometry":{"type":"Point","coordinates":[-123.093529,49.278908]}},{"properties":{"offence":"176E","tickets":45.0,"id":"a62g6e1xwex6","address":"250 Station St.","lat":49.275417,"long":-123.098793},"type":"Feature","geometry":{"type":"Point","coordinates":[-123.098793,49.275417]}},{"properties":{"offence":"176E","tickets":45.0,"id":"a62g6dwmxr8a","address":"750 17th Ave W.","lat":49.256126,"long":-123.121124},"type":"Feature","geometry":{"type":"Point","coordinates":[-123.121124,49.256126]}},{"properties":{"offence":"176E","tickets":45.0,"id":"a62g6e7psbql","address":"1950 8th Ave W.","lat":49.264698,"long":-123.149307},"type":"Feature","geometry":{"type":"Point","coordinates":[-123.149307,49.264698]}},{"properties":{"offence":"176E","tickets":45.0,"id":"a62g6e0mb42q","address":"3050 Broadway St. W.","lat":49.264153,"long":-123.173042},"type":"Feature","geometry":{"type":"Point","coordinates":[-123.173042,49.264153]}},{"properties":{"offence":"176E","tickets":46.0,"id":"a62g6dyspy70","address":"3650 Rae Ave.","lat":49.23658,"long":-123.024498},"type":"Feature","geometry":{"type":"Point","coordinates":[-123.024498,49.23658]}},{"properties":{"offence":"176E","tickets":46.0,"id":"a62g6e6um0v5","address":"350 Heatley St.","lat":49.28162,"long":-123.089516},"type":"Feature","geometry":{"type":"Point","coordinates":[-123.089516,49.28162]}},{"properties":{"offence":"176E","tickets":46.0,"id":"a62g6dzvjbdd","address":"2650 Birch St.","lat":49.262081,"long":-123.133774},"type":"Feature","geometry":{"type":"Point","coordinates":[-123.133774,49.262081]}},{"properties":{"offence":"176E","tickets":46.0,"id":"a62g6dyug2j0","address":"2750 Maple St.","lat":49.261448,"long":-123.15062},"type":"Feature","geometry":{"type":"Point","coordinates":[-123.15062,49.261448]}},{"properties":{"offence":"176E","tickets":46.0,"id":"a62g6dyuncaj","address":"4550 10th Ave W.","lat":49.263859,"long":-123.210655},"type":"Feature","geometry":{"type":"Point","coordinates":[-123.210655,49.263859]}},{"properties":{"offence":"176E","tickets":47.0,"id":"a62g6dwhbqye","address":"5050 McGeer St.","lat":49.239574,"long":-123.033195},"type":"Feature","geometry":{"type":"Point","coordinates":[-123.033195,49.239574]}},{"properties":{"offence":"176E","tickets":47.0,"id":"a62g6e9pvuri","address":"8150 Main St.","lat":49.211796,"long":-123.10218},"type":"Feature","geometry":{"type":"Point","coordinates":[-123.10218,49.211796]}},{"properties":{"offence":"176E","tickets":47.0,"id":"a62g6dwuxjpz","address":"350 Bute St.","lat":49.289005,"long":-123.122421},"type":"Feature","geometry":{"type":"Point","coordinates":[-123.122421,49.289005]}},{"properties":{"offence":"176E","tickets":48.0,"id":"a62g6dxaoqdh","address":"3550 43rd Ave E.","lat":49.230804,"long":-123.027832},"type":"Feature","geometry":{"type":"Point","coordinates":[-123.027832,49.230804]}},{"properties":{"offence":"176E","tickets":48.0,"id":"a62g6e6z2npx","address":"1450 Old Bridge Ct.","lat":49.270638,"long":-123.134491},"type":"Feature","geometry":{"type":"Point","coordinates":[-123.134491,49.270638]}},{"properties":{"offence":"176E","tickets":48.0,"id":"a62g6dyl04ji","address":"1350 14th Ave W.","lat":49.258854,"long":-123.135117},"type":"Feature","geometry":{"type":"Point","coordinates":[-123.135117,49.258854]}},{"properties":{"offence":"176E","tickets":48.0,"id":"a62g6e4y9hxp","address":"1450 Hemlock Ct.","lat":49.268127,"long":-123.136429},"type":"Feature","geometry":{"type":"Point","coordinates":[-123.136429,49.268127]}},{"properties":{"offence":"176E","tickets":48.0,"id":"a62g6dtvuqnh","address":"1450 Davie St.","lat":49.284088,"long":-123.136902},"type":"Feature","geometry":{"type":"Point","coordinates":[-123.136902,49.284088]}},{"properties":{"offence":"176E","tickets":49.0,"id":"a62g6e98o3p9","address":"1350 Grant St.","lat":49.271484,"long":-123.075951},"type":"Feature","geometry":{"type":"Point","coordinates":[-123.075951,49.271484]}},{"properties":{"offence":"176E","tickets":49.0,"id":"a62g6e6dyw15","address":"950 16th Ave W.","lat":49.257092,"long":-123.125824},"type":"Feature","geometry":{"type":"Point","coordinates":[-123.125824,49.257092]}},{"properties":{"offence":"176E","tickets":49.0,"id":"a62g6e5ocr46","address":"1050 15th Ave W.","lat":49.257832,"long":-123.128128},"type":"Feature","geometry":{"type":"Point","coordinates":[-123.128128,49.257832]}},{"properties":{"offence":"176E","tickets":50.0,"id":"a62g6dwfyx0h","address":"3350 Clive Ave.","lat":49.238548,"long":-123.033951},"type":"Feature","geometry":{"type":"Point","coordinates":[-123.033951,49.238548]}},{"properties":{"offence":"176E","tickets":50.0,"id":"a62g6dxncqao","address":"350 10th Ave E.","lat":49.261971,"long":-123.097275},"type":"Feature","geometry":{"type":"Point","coordinates":[-123.097275,49.261971]}},{"properties":{"offence":"176E","tickets":50.0,"id":"a62g6e0gz41v","address":"1950 Cypress St","lat":49.268684,"long":-123.147957},"type":"Feature","geometry":{"type":"Point","coordinates":[-123.147957,49.268684]}},{"properties":{"offence":"176E","tickets":51.0,"id":"a62g6e4xdy02","address":"50 5th Ave E.","lat":49.266479,"long":-123.10379},"type":"Feature","geometry":{"type":"Point","coordinates":[-123.10379,49.266479]}},{"properties":{"offence":"176E","tickets":51.0,"id":"a62g6e3xmm8g","address":"850 Bidwell St.","lat":49.290108,"long":-123.134415},"type":"Feature","geometry":{"type":"Point","coordinates":[-123.134415,49.290108]}},{"properties":{"offence":"176E","tickets":51.0,"id":"a62g6dwryefd","address":"1850 Morton Ave.","lat":49.287979,"long":-123.141975},"type":"Feature","geometry":{"type":"Point","coordinates":[-123.141975,49.287979]}},{"properties":{"offence":"176E","tickets":52.0,"id":"a62g6duo07f4","address":"450 Hawks Ave.","lat":49.280613,"long":-123.087189},"type":"Feature","geometry":{"type":"Point","coordinates":[-123.087189,49.280613]}},{"properties":{"offence":"176E","tickets":52.0,"id":"a62g6dwv0rst","address":"2250 Manitoba St.","lat":49.265045,"long":-123.106773},"type":"Feature","geometry":{"type":"Point","coordinates":[-123.106773,49.265045]}},{"properties":{"offence":"176E","tickets":52.0,"id":"a62g6e3622vp","address":"3050 Fir St.","lat":49.258484,"long":-123.141235},"type":"Feature","geometry":{"type":"Point","coordinates":[-123.141235,49.258484]}},{"properties":{"offence":"176E","tickets":52.0,"id":"a62g6dyci705","address":"2050 Pine St.","lat":49.267555,"long":-123.143257},"type":"Feature","geometry":{"type":"Point","coordinates":[-123.143257,49.267555]}},{"properties":{"offence":"176E","tickets":53.0,"id":"a62g6e9cruzf","address":"7250 Ontario St.","lat":49.218937,"long":-123.106117},"type":"Feature","geometry":{"type":"Point","coordinates":[-123.106117,49.218937]}},{"properties":{"offence":"176E","tickets":53.0,"id":"a62g6e8yxjwc","address":"1750 Pendrell St.","lat":49.287464,"long":-123.140007},"type":"Feature","geometry":{"type":"Point","coordinates":[-123.140007,49.287464]}},{"properties":{"offence":"176E","tickets":53.0,"id":"a62g6e2upzcp","address":"1850 3rd Ave W.","lat":49.268932,"long":-123.146835},"type":"Feature","geometry":{"type":"Point","coordinates":[-123.146835,49.268932]}},{"properties":{"offence":"176E","tickets":54.0,"id":"a62g6e39t4p6","address":"3550 Graveley St.","lat":49.270317,"long":-123.025948},"type":"Feature","geometry":{"type":"Point","coordinates":[-123.025948,49.270317]}},{"properties":{"offence":"176E","tickets":54.0,"id":"a62g6e2nhafq","address":"1850 Spyglass Pl.","lat":49.269829,"long":-123.115257},"type":"Feature","geometry":{"type":"Point","coordinates":[-123.115257,49.269829]}},{"properties":{"offence":"176E","tickets":54.0,"id":"a62g6dxkumha","address":"2050 1st Ave W.","lat":49.270763,"long":-123.151489},"type":"Feature","geometry":{"type":"Point","coordinates":[-123.151489,49.270763]}},{"properties":{"offence":"176E","tickets":55.0,"id":"a62g6e3w632x","address":"650 17th Ave W.","lat":49.256088,"long":-123.119171},"type":"Feature","geometry":{"type":"Point","coordinates":[-123.119171,49.256088]}},{"properties":{"offence":"176E","tickets":55.0,"id":"a62g6dy8ezvh","address":"2250 1st Ave W.","lat":49.27084,"long":-123.15625},"type":"Feature","geometry":{"type":"Point","coordinates":[-123.15625,49.27084]}},{"properties":{"offence":"176E","tickets":56.0,"id":"a62g6e3l6vyw","address":"350 Terminal Ave.","lat":49.272194,"long":-123.096725},"type":"Feature","geometry":{"type":"Point","coordinates":[-123.096725,49.272194]}},{"properties":{"offence":"176E","tickets":56.0,"id":"a62g6e8bjwhy","address":"6550 Alberta St.","lat":49.225155,"long":-123.112991},"type":"Feature","geometry":{"type":"Point","coordinates":[-123.112991,49.225155]}},{"properties":{"offence":"176E","tickets":56.0,"id":"a62g6dtlq1tq","address":"1750 Comox St.","lat":49.288158,"long":-123.138924},"type":"Feature","geometry":{"type":"Point","coordinates":[-123.138924,49.288158]}},{"properties":{"offence":"176E","tickets":56.0,"id":"a62g6e9az1fc","address":"2750 Fir St.","lat":49.26128,"long":-123.141121},"type":"Feature","geometry":{"type":"Point","coordinates":[-123.141121,49.26128]}},{"properties":{"offence":"176E","tickets":56.0,"id":"a62g6e581ni9","address":"1350 Cypress St","lat":49.273964,"long":-123.147751},"type":"Feature","geometry":{"type":"Point","coordinates":[-123.147751,49.273964]}},{"properties":{"offence":"176E","tickets":56.0,"id":"a62g6e93q7je","address":"2750 Cranberry Drive","lat":49.261738,"long":-123.153694},"type":"Feature","geometry":{"type":"Point","coordinates":[-123.153694,49.261738]}},{"properties":{"offence":"176E","tickets":57.0,"id":"a62g6e9ismbl","address":"5450 Ormidale St.","lat":49.234638,"long":-123.024818},"type":"Feature","geometry":{"type":"Point","coordinates":[-123.024818,49.234638]}},{"properties":{"offence":"176E","tickets":58.0,"id":"a62g6dxq2znp","address":"8250 Main St.","lat":49.210171,"long":-123.10228},"type":"Feature","geometry":{"type":"Point","coordinates":[-123.10228,49.210171]}},{"properties":{"offence":"176E","tickets":59.0,"id":"a62g6dwhnwod","address":"3950 Main St.","lat":49.249874,"long":-123.101028},"type":"Feature","geometry":{"type":"Point","coordinates":[-123.101028,49.249874]}},{"properties":{"offence":"176E","tickets":59.0,"id":"a62g6e2r1nbr","address":"1950 Yew St.","lat":49.268597,"long":-123.155121},"type":"Feature","geometry":{"type":"Point","coordinates":[-123.155121,49.268597]}},{"properties":{"offence":"176E","tickets":59.0,"id":"a62g6e2fsh1z","address":"5650 Yew St.","lat":49.235092,"long":-123.157738},"type":"Feature","geometry":{"type":"Point","coordinates":[-123.157738,49.235092]}},{"properties":{"offence":"176E","tickets":60.0,"id":"a62g6e84bosb","address":"450 Garden Dr.","lat":49.281155,"long":-123.057838},"type":"Feature","geometry":{"type":"Point","coordinates":[-123.057838,49.281155]}},{"properties":{"offence":"176E","tickets":60.0,"id":"a62g6e3dnq6f","address":"3250 Laurel St.","lat":49.256622,"long":-123.124405},"type":"Feature","geometry":{"type":"Point","coordinates":[-123.124405,49.256622]}},{"properties":{"offence":"176E","tickets":60.0,"id":"a62g6e2xtuy4","address":"1550 Maple St.","lat":49.271915,"long":-123.150269},"type":"Feature","geometry":{"type":"Point","coordinates":[-123.150269,49.271915]}},{"properties":{"offence":"176E","tickets":60.0,"id":"a62g6e858meo","address":"1850 Maple St.","lat":49.269276,"long":-123.150352},"type":"Feature","geometry":{"type":"Point","coordinates":[-123.150352,49.269276]}},{"properties":{"offence":"176E","tickets":61.0,"id":"a62g6e2q5nfh","address":"6550 Main St.","lat":49.22517,"long":-123.101639},"type":"Feature","geometry":{"type":"Point","coordinates":[-123.101639,49.22517]}},{"properties":{"offence":"176E","tickets":61.0,"id":"a62g6dw5zyte","address":"1150 Lamey's Mill Rd.","lat":49.266453,"long":-123.130699},"type":"Feature","geometry":{"type":"Point","coordinates":[-123.130699,49.266453]}},{"properties":{"offence":"176E","tickets":61.0,"id":"a62g6dtvhrwi","address":"2250 40th Ave W.","lat":49.235592,"long":-123.158661},"type":"Feature","geometry":{"type":"Point","coordinates":[-123.158661,49.235592]}},{"properties":{"offence":"176E","tickets":63.0,"id":"a62g6dvhbqk3","address":"8750 Barnard St.","lat":49.206837,"long":-123.145226},"type":"Feature","geometry":{"type":"Point","coordinates":[-123.145226,49.206837]}},{"properties":{"offence":"176E","tickets":64.0,"id":"a62g6e8p0yzw","address":"950 17th Ave W.","lat":49.256214,"long":-123.12587},"type":"Feature","geometry":{"type":"Point","coordinates":[-123.12587,49.256214]}},{"properties":{"offence":"176E","tickets":64.0,"id":"a62g6e1kxmxy","address":"3550 41st Ave W.","lat":49.234764,"long":-123.183708},"type":"Feature","geometry":{"type":"Point","coordinates":[-123.183708,49.234764]}},{"properties":{"offence":"176E","tickets":65.0,"id":"a62g6dviaqs3","address":"4950 Joyce St.","lat":49.239613,"long":-123.030533},"type":"Feature","geometry":{"type":"Point","coordinates":[-123.030533,49.239613]}},{"properties":{"offence":"176E","tickets":65.0,"id":"a62g6dynieck","address":"250 Prior St.","lat":49.276722,"long":-123.098045},"type":"Feature","geometry":{"type":"Point","coordinates":[-123.098045,49.276722]}},{"properties":{"offence":"176E","tickets":65.0,"id":"a62g6e6r2fp3","address":"3150 Willow St.","lat":49.257374,"long":-123.12204},"type":"Feature","geometry":{"type":"Point","coordinates":[-123.12204,49.257374]}},{"properties":{"offence":"176E","tickets":66.0,"id":"a62g6e4h4pz9","address":"950 Nicola St.","lat":49.287266,"long":-123.13324},"type":"Feature","geometry":{"type":"Point","coordinates":[-123.13324,49.287266]}},{"properties":{"offence":"176E","tickets":66.0,"id":"a62g6e7zkwe0","address":"1150 Chilco St.","lat":49.289852,"long":-123.143684},"type":"Feature","geometry":{"type":"Point","coordinates":[-123.143684,49.289852]}},{"properties":{"offence":"176E","tickets":67.0,"id":"a62g6e5bdfq1","address":"3650 Foster Ave.","lat":49.234127,"long":-123.02536},"type":"Feature","geometry":{"type":"Point","coordinates":[-123.02536,49.234127]}},{"properties":{"offence":"176E","tickets":67.0,"id":"a62g6e7to3zh","address":"1750 7th Ave E.","lat":49.264164,"long":-123.068764},"type":"Feature","geometry":{"type":"Point","coordinates":[-123.068764,49.264164]}},{"properties":{"offence":"176E","tickets":67.0,"id":"a62g6e4qol37","address":"1050 8th Ave W.","lat":49.264328,"long":-123.127792},"type":"Feature","geometry":{"type":"Point","coordinates":[-123.127792,49.264328]}},{"properties":{"offence":"176E","tickets":67.0,"id":"a62g6dvd3ke0","address":"2650 4th Ave W.","lat":49.268337,"long":-123.165459},"type":"Feature","geometry":{"type":"Point","coordinates":[-123.165459,49.268337]}},{"properties":{"offence":"176E","tickets":68.0,"id":"a62g6dvew6e3","address":"350 Alexander St.","lat":49.284042,"long":-123.096542},"type":"Feature","geometry":{"type":"Point","coordinates":[-123.096542,49.284042]}},{"properties":{"offence":"176E","tickets":68.0,"id":"a62g6e16we3y","address":"250 11th Ave E.","lat":49.261093,"long":-123.099426},"type":"Feature","geometry":{"type":"Point","coordinates":[-123.099426,49.261093]}},{"properties":{"offence":"176E","tickets":69.0,"id":"a62g6dtuzwzp","address":"550 17th Ave W.","lat":49.256031,"long":-123.116051},"type":"Feature","geometry":{"type":"Point","coordinates":[-123.116051,49.256031]}},{"properties":{"offence":"176E","tickets":69.0,"id":"a62g6dzabe51","address":"1050 14th Ave W.","lat":49.258739,"long":-123.127983},"type":"Feature","geometry":{"type":"Point","coordinates":[-123.127983,49.258739]}},{"properties":{"offence":"176E","tickets":69.0,"id":"a62g6dxkc463","address":"1150 14th Ave W.","lat":49.258778,"long":-123.130379},"type":"Feature","geometry":{"type":"Point","coordinates":[-123.130379,49.258778]}},{"properties":{"offence":"176E","tickets":70.0,"id":"a62g6dxi2ll7","address":"1850 7th Ave E.","lat":49.264153,"long":-123.066818},"type":"Feature","geometry":{"type":"Point","coordinates":[-123.066818,49.264153]}},{"properties":{"offence":"176E","tickets":70.0,"id":"a62g6e67ga36","address":"1450 13th Ave W.","lat":49.2598,"long":-123.137512},"type":"Feature","geometry":{"type":"Point","coordinates":[-123.137512,49.2598]}},{"properties":{"offence":"176E","tickets":70.0,"id":"a62g6e6ktpgd","address":"1950 Maple St.","lat":49.268524,"long":-123.150375},"type":"Feature","geometry":{"type":"Point","coordinates":[-123.150375,49.268524]}},{"properties":{"offence":"176E","tickets":71.0,"id":"a62g6e3950d9","address":"1850 8th Ave E.","lat":49.263245,"long":-123.066414},"type":"Feature","geometry":{"type":"Point","coordinates":[-123.066414,49.263245]}},{"properties":{"offence":"176E","tickets":71.0,"id":"a62g6dvskzg5","address":"4650 Main St.","lat":49.243027,"long":-123.101379},"type":"Feature","geometry":{"type":"Point","coordinates":[-123.101379,49.243027]}},{"properties":{"offence":"176E","tickets":71.0,"id":"a62g6e87rubq","address":"1850 Columbia St.","lat":49.268688,"long":-123.109428},"type":"Feature","geometry":{"type":"Point","coordinates":[-123.109428,49.268688]}},{"properties":{"offence":"176E","tickets":71.0,"id":"a62g6dwm0xjy","address":"2350 Alberta St.","lat":49.264198,"long":-123.110909},"type":"Feature","geometry":{"type":"Point","coordinates":[-123.110909,49.264198]}},{"properties":{"offence":"176E","tickets":71.0,"id":"a62g6e1oef4k","address":"1550 13th Ave W.","lat":49.259834,"long":-123.139984},"type":"Feature","geometry":{"type":"Point","coordinates":[-123.139984,49.259834]}},{"properties":{"offence":"176E","tickets":72.0,"id":"a62g6dy1jmdv","address":"150 Commercial Dr.","lat":49.283466,"long":-123.070351},"type":"Feature","geometry":{"type":"Point","coordinates":[-123.070351,49.283466]}},{"properties":{"offence":"176E","tickets":73.0,"id":"a62g6e3t4hq0","address":"1850 Broadway St. W.","lat":49.263721,"long":-123.146973},"type":"Feature","geometry":{"type":"Point","coordinates":[-123.146973,49.263721]}},{"properties":{"offence":"176E","tickets":74.0,"id":"a62g6e9rjc9q","address":"850 Jervis St.","lat":49.286671,"long":-123.129021},"type":"Feature","geometry":{"type":"Point","coordinates":[-123.129021,49.286671]}},{"properties":{"offence":"176E","tickets":75.0,"id":"a62g6e2eze7h","address":"850 Cardero St.","lat":49.289085,"long":-123.132812},"type":"Feature","geometry":{"type":"Point","coordinates":[-123.132812,49.289085]}},{"properties":{"offence":"176E","tickets":75.0,"id":"a62g6dxcqri9","address":"1350 13th Ave W.","lat":49.259766,"long":-123.135078},"type":"Feature","geometry":{"type":"Point","coordinates":[-123.135078,49.259766]}},{"properties":{"offence":"176E","tickets":75.0,"id":"a62g6e20ix73","address":"2050 Haro St.","lat":49.292847,"long":-123.139717},"type":"Feature","geometry":{"type":"Point","coordinates":[-123.139717,49.292847]}},{"properties":{"offence":"176E","tickets":76.0,"id":"a62g6e485dhg","address":"450 Kamloops St.","lat":49.280685,"long":-123.054588},"type":"Feature","geometry":{"type":"Point","coordinates":[-123.054588,49.280685]}},{"properties":{"offence":"176E","tickets":76.0,"id":"a62g6e48xzf1","address":"1650 11th Ave E.","lat":49.260456,"long":-123.070755},"type":"Feature","geometry":{"type":"Point","coordinates":[-123.070755,49.260456]}},{"properties":{"offence":"176E","tickets":76.0,"id":"a62g6e2bk5zt","address":"2350 Spruce St.","lat":49.264771,"long":-123.128952},"type":"Feature","geometry":{"type":"Point","coordinates":[-123.128952,49.264771]}},{"properties":{"offence":"176E","tickets":77.0,"id":"a62g6e10xsgh","address":"4750 Main St.","lat":49.242531,"long":-123.101395},"type":"Feature","geometry":{"type":"Point","coordinates":[-123.101395,49.242531]}},{"properties":{"offence":"176E","tickets":77.0,"id":"a62g6dzcyzqk","address":"1850 Crowe St.","lat":49.268642,"long":-123.111916},"type":"Feature","geometry":{"type":"Point","coordinates":[-123.111916,49.268642]}},{"properties":{"offence":"176E","tickets":78.0,"id":"a62g6dwijuhx","address":"850 17th Ave W.","lat":49.256172,"long":-123.123268},"type":"Feature","geometry":{"type":"Point","coordinates":[-123.123268,49.256172]}},{"properties":{"offence":"176E","tickets":78.0,"id":"a62g6dug3brc","address":"2650 Spruce St.","lat":49.262012,"long":-123.129051},"type":"Feature","geometry":{"type":"Point","coordinates":[-123.129051,49.262012]}},{"properties":{"offence":"176E","tickets":78.0,"id":"a62g6dwtuco7","address":"1950 2nd Ave W.","lat":49.269844,"long":-123.149155},"type":"Feature","geometry":{"type":"Point","coordinates":[-123.149155,49.269844]}},{"properties":{"offence":"176E","tickets":79.0,"id":"a62g6dvaxwop","address":"3050 Cambie St.","lat":49.258274,"long":-123.115028},"type":"Feature","geometry":{"type":"Point","coordinates":[-123.115028,49.258274]}},{"properties":{"offence":"176E","tickets":79.0,"id":"a62g6dv9ksvv","address":"1950 Comox St.","lat":49.290134,"long":-123.14196},"type":"Feature","geometry":{"type":"Point","coordinates":[-123.14196,49.290134]}},{"properties":{"offence":"176E","tickets":80.0,"id":"a62g6dvnjxbx","address":"750 Bidwell St.","lat":49.29081,"long":-123.133354},"type":"Feature","geometry":{"type":"Point","coordinates":[-123.133354,49.29081]}},{"properties":{"offence":"176E","tickets":81.0,"id":"a62g6e4116qh","address":"1850 Lorne St.","lat":49.26841,"long":-123.099899},"type":"Feature","geometry":{"type":"Point","coordinates":[-123.099899,49.26841]}},{"properties":{"offence":"176E","tickets":82.0,"id":"a62g6e7ok69q","address":"1050 Barclay St.","lat":49.282562,"long":-123.125969},"type":"Feature","geometry":{"type":"Point","coordinates":[-123.125969,49.282562]}},{"properties":{"offence":"176E","tickets":84.0,"id":"a62g6du4t735","address":"450 Dunlevy Ave.","lat":49.280777,"long":-123.095421},"type":"Feature","geometry":{"type":"Point","coordinates":[-123.095421,49.280777]}},{"properties":{"offence":"176E","tickets":84.0,"id":"a62g6e2wcowc","address":"450 Moberly Rd.","lat":49.26841,"long":-123.117645},"type":"Feature","geometry":{"type":"Point","coordinates":[-123.117645,49.26841]}},{"properties":{"offence":"176E","tickets":85.0,"id":"a62g6dwvys0x","address":"3050 Heather St.","lat":49.258152,"long":-123.120079},"type":"Feature","geometry":{"type":"Point","coordinates":[-123.120079,49.258152]}},{"properties":{"offence":"176E","tickets":85.0,"id":"a62g6e49kze6","address":"1750 13th Ave W.","lat":49.259914,"long":-123.144737},"type":"Feature","geometry":{"type":"Point","coordinates":[-123.144737,49.259914]}},{"properties":{"offence":"176E","tickets":85.0,"id":"a62g6e3ulk9n","address":"1750 Maple St.","lat":49.270294,"long":-123.150337},"type":"Feature","geometry":{"type":"Point","coordinates":[-123.150337,49.270294]}},{"properties":{"offence":"176E","tickets":86.0,"id":"a62g6dw4akuh","address":"1350 Beach Ave.","lat":49.280998,"long":-123.138931},"type":"Feature","geometry":{"type":"Point","coordinates":[-123.138931,49.280998]}},{"properties":{"offence":"176E","tickets":87.0,"id":"a62g6e2ipusj","address":"2350 Ontario St.","lat":49.264099,"long":-123.104843},"type":"Feature","geometry":{"type":"Point","coordinates":[-123.104843,49.264099]}},{"properties":{"offence":"176E","tickets":87.0,"id":"a62g6e0za9yy","address":"2850 Heather St.","lat":49.260002,"long":-123.119965},"type":"Feature","geometry":{"type":"Point","coordinates":[-123.119965,49.260002]}},{"properties":{"offence":"176E","tickets":87.0,"id":"a62g6dui1ls0","address":"1850 2nd Ave W.","lat":49.269817,"long":-123.146782},"type":"Feature","geometry":{"type":"Point","coordinates":[-123.146782,49.269817]}},{"properties":{"offence":"176E","tickets":88.0,"id":"a62g6e64tmaq","address":"1350 6th Ave W.","lat":49.266106,"long":-123.135094},"type":"Feature","geometry":{"type":"Point","coordinates":[-123.135094,49.266106]}},{"properties":{"offence":"176E","tickets":88.0,"id":"a62g6e8u6vkg","address":"1850 8th Ave W.","lat":49.264656,"long":-123.146896},"type":"Feature","geometry":{"type":"Point","coordinates":[-123.146896,49.264656]}},{"properties":{"offence":"176E","tickets":90.0,"id":"a62g6e8v3s4d","address":"1550 8th Ave E.","lat":49.263279,"long":-123.072617},"type":"Feature","geometry":{"type":"Point","coordinates":[-123.072617,49.263279]}},{"properties":{"offence":"176E","tickets":90.0,"id":"a62g6e2d8b1g","address":"350 2nd Ave W.","lat":49.268082,"long":-123.111862},"type":"Feature","geometry":{"type":"Point","coordinates":[-123.111862,49.268082]}},{"properties":{"offence":"176E","tickets":90.0,"id":"a62g6dtin3wo","address":"5750 Yew St.","lat":49.234135,"long":-123.158516},"type":"Feature","geometry":{"type":"Point","coordinates":[-123.158516,49.234135]}},{"properties":{"offence":"176E","tickets":91.0,"id":"a62g6dz42s02","address":"450 Pacific St.","lat":49.273254,"long":-123.12674},"type":"Feature","geometry":{"type":"Point","coordinates":[-123.12674,49.273254]}},{"properties":{"offence":"176E","tickets":92.0,"id":"a62g6e040ld1","address":"4350 10th Ave W.","lat":49.263767,"long":-123.204582},"type":"Feature","geometry":{"type":"Point","coordinates":[-123.204582,49.263767]}},{"properties":{"offence":"176E","tickets":93.0,"id":"a62g6e6z9mom","address":"7150 Ontario St.","lat":49.219784,"long":-123.106094},"type":"Feature","geometry":{"type":"Point","coordinates":[-123.106094,49.219784]}},{"properties":{"offence":"176E","tickets":93.0,"id":"a62g6e16xsmc","address":"450 40th Ave W.","lat":49.234421,"long":-123.114746},"type":"Feature","geometry":{"type":"Point","coordinates":[-123.114746,49.234421]}},{"properties":{"offence":"176E","tickets":93.0,"id":"a62g6dwlhzmj","address":"2550 Pine St.","lat":49.26318,"long":-123.14344},"type":"Feature","geometry":{"type":"Point","coordinates":[-123.14344,49.26318]}},{"properties":{"offence":"176E","tickets":94.0,"id":"a62g6e5v845n","address":"1150 11th Ave W.","lat":49.261578,"long":-123.13028},"type":"Feature","geometry":{"type":"Point","coordinates":[-123.13028,49.261578]}},{"properties":{"offence":"176E","tickets":94.0,"id":"a62g6e6ls1qw","address":"2050 7th Ave W.","lat":49.26556,"long":-123.151909},"type":"Feature","geometry":{"type":"Point","coordinates":[-123.151909,49.26556]}},{"properties":{"offence":"176E","tickets":95.0,"id":"a62g6duperf6","address":"1850 11th Ave E.","lat":49.260441,"long":-123.067032},"type":"Feature","geometry":{"type":"Point","coordinates":[-123.067032,49.260441]}},{"properties":{"offence":"176E","tickets":95.0,"id":"a62g6dx87kk4","address":"50 3rd Ave E.","lat":49.268272,"long":-123.103722},"type":"Feature","geometry":{"type":"Point","coordinates":[-123.103722,49.268272]}},{"properties":{"offence":"176E","tickets":95.0,"id":"a62g6e17vv6z","address":"550 Howe St.","lat":49.284374,"long":-123.117226},"type":"Feature","geometry":{"type":"Point","coordinates":[-123.117226,49.284374]}},{"properties":{"offence":"176E","tickets":95.0,"id":"a62g6dva5x0m","address":"1650 Maple St.","lat":49.271168,"long":-123.150307},"type":"Feature","geometry":{"type":"Point","coordinates":[-123.150307,49.271168]}},{"properties":{"offence":"176E","tickets":97.0,"id":"a62g6e07r453","address":"2050 11th Ave W.","lat":49.261921,"long":-123.151619},"type":"Feature","geometry":{"type":"Point","coordinates":[-123.151619,49.261921]}},{"properties":{"offence":"176E","tickets":97.0,"id":"a62g6e4y4bgk","address":"2850 4th Ave W.","lat":49.268402,"long":-123.169701},"type":"Feature","geometry":{"type":"Point","coordinates":[-123.169701,49.268402]}},{"properties":{"offence":"176E","tickets":98.0,"id":"a62g6e8f1b0t","address":"950 13th Ave W.","lat":49.259617,"long":-123.125557},"type":"Feature","geometry":{"type":"Point","coordinates":[-123.125557,49.259617]}},{"properties":{"offence":"176E","tickets":98.0,"id":"a62g6e998w4h","address":"650 Bidwell St.","lat":49.291382,"long":-123.132469},"type":"Feature","geometry":{"type":"Point","coordinates":[-123.132469,49.291382]}},{"properties":{"offence":"176E","tickets":100.0,"id":"a62g6dwevjla","address":"1750 11th Ave E.","lat":49.260445,"long":-123.069206},"type":"Feature","geometry":{"type":"Point","coordinates":[-123.069206,49.260445]}},{"properties":{"offence":"176E","tickets":100.0,"id":"a62g6e0ires4","address":"1550 Western St.","lat":49.271618,"long":-123.099503},"type":"Feature","geometry":{"type":"Point","coordinates":[-123.099503,49.271618]}},{"properties":{"offence":"176E","tickets":100.0,"id":"a62g6dtq5gcs","address":"5850 Boulevard W.","lat":49.232414,"long":-123.110802},"type":"Feature","geometry":{"type":"Point","coordinates":[-123.110802,49.232414]}},{"properties":{"offence":"176E","tickets":101.0,"id":"a62g6e1nsw19","address":"3450 Broadway St. W.","lat":49.264248,"long":-123.180862},"type":"Feature","geometry":{"type":"Point","coordinates":[-123.180862,49.264248]}},{"properties":{"offence":"176E","tickets":102.0,"id":"a62g6e5jjtfa","address":"1650 Yew St.","lat":49.271248,"long":-123.155029},"type":"Feature","geometry":{"type":"Point","coordinates":[-123.155029,49.271248]}},{"properties":{"offence":"176E","tickets":103.0,"id":"a62g6e5ml38c","address":"2150 Yukon St.","lat":49.266365,"long":-123.112755},"type":"Feature","geometry":{"type":"Point","coordinates":[-123.112755,49.266365]}},{"properties":{"offence":"176E","tickets":105.0,"id":"a62g6dxez8pj","address":"2550 Hastings St. E.","lat":49.281162,"long":-123.053253},"type":"Feature","geometry":{"type":"Point","coordinates":[-123.053253,49.281162]}},{"properties":{"offence":"176E","tickets":105.0,"id":"a62g6e8qoekk","address":"2650 Cranberry Drive","lat":49.262402,"long":-123.153831},"type":"Feature","geometry":{"type":"Point","coordinates":[-123.153831,49.262402]}},{"properties":{"offence":"176E","tickets":106.0,"id":"a62g6e44lev5","address":"4450 10th Ave W.","lat":49.263813,"long":-123.207634},"type":"Feature","geometry":{"type":"Point","coordinates":[-123.207634,49.263813]}},{"properties":{"offence":"176E","tickets":107.0,"id":"a62g6dzeshk1","address":"2450 Scotia St.","lat":49.263248,"long":-123.098961},"type":"Feature","geometry":{"type":"Point","coordinates":[-123.098961,49.263248]}},{"properties":{"offence":"176E","tickets":107.0,"id":"a62g6dyl1cw4","address":"1750 Ontario St.","lat":49.269711,"long":-123.104637},"type":"Feature","geometry":{"type":"Point","coordinates":[-123.104637,49.269711]}},{"properties":{"offence":"176E","tickets":107.0,"id":"a62g6dyqy4qk","address":"550 Moberly Rd.","lat":49.267345,"long":-123.117485},"type":"Feature","geometry":{"type":"Point","coordinates":[-123.117485,49.267345]}},{"properties":{"offence":"176E","tickets":107.0,"id":"a62g6e7qqq21","address":"1250 Lamey's Mill Rd.","lat":49.266804,"long":-123.132736},"type":"Feature","geometry":{"type":"Point","coordinates":[-123.132736,49.266804]}},{"properties":{"offence":"176E","tickets":107.0,"id":"a62g6e9wy434","address":"1350 Lamey's Mill Rd.","lat":49.267323,"long":-123.134628},"type":"Feature","geometry":{"type":"Point","coordinates":[-123.134628,49.267323]}},{"properties":{"offence":"176E","tickets":108.0,"id":"a62g6e32z4hd","address":"350 Water St.","lat":49.284512,"long":-123.109894},"type":"Feature","geometry":{"type":"Point","coordinates":[-123.109894,49.284512]}},{"properties":{"offence":"176E","tickets":108.0,"id":"a62g6e1l38f0","address":"850 16th Ave W.","lat":49.25705,"long":-123.12323},"type":"Feature","geometry":{"type":"Point","coordinates":[-123.12323,49.25705]}},{"properties":{"offence":"176E","tickets":109.0,"id":"a62g6e2kej6v","address":"1050 Station St.","lat":49.275112,"long":-123.098534},"type":"Feature","geometry":{"type":"Point","coordinates":[-123.098534,49.275112]}},{"properties":{"offence":"176E","tickets":109.0,"id":"a62g6e60eq8z","address":"2250 York Ave.","lat":49.271706,"long":-123.156219},"type":"Feature","geometry":{"type":"Point","coordinates":[-123.156219,49.271706]}},{"properties":{"offence":"176E","tickets":110.0,"id":"a62g6e6uyvbn","address":"8350 St. George St.","lat":49.208694,"long":-123.094048},"type":"Feature","geometry":{"type":"Point","coordinates":[-123.094048,49.208694]}},{"properties":{"offence":"176E","tickets":111.0,"id":"a62g6e0xknhv","address":"5850 Ormidale St.","lat":49.230698,"long":-123.025047},"type":"Feature","geometry":{"type":"Point","coordinates":[-123.025047,49.230698]}},{"properties":{"offence":"176E","tickets":111.0,"id":"a62g6e8mh1n9","address":"2750 Spruce St.","lat":49.261078,"long":-123.129082},"type":"Feature","geometry":{"type":"Point","coordinates":[-123.129082,49.261078]}},{"properties":{"offence":"176E","tickets":112.0,"id":"a62g6dxmak2z","address":"1150 10th Ave W.","lat":49.262505,"long":-123.130249},"type":"Feature","geometry":{"type":"Point","coordinates":[-123.130249,49.262505]}},{"properties":{"offence":"176E","tickets":112.0,"id":"a62g6e4cq00l","address":"1250 10th Ave W.","lat":49.262539,"long":-123.132607},"type":"Feature","geometry":{"type":"Point","coordinates":[-123.132607,49.262539]}},{"properties":{"offence":"176E","tickets":112.0,"id":"a62g6e39csra","address":"1450 15th Ave W.","lat":49.25798,"long":-123.13755},"type":"Feature","geometry":{"type":"Point","coordinates":[-123.13755,49.25798]}},{"properties":{"offence":"176E","tickets":113.0,"id":"a62g6e4fau99","address":"1150 73rd Ave W.","lat":49.204281,"long":-123.13311},"type":"Feature","geometry":{"type":"Point","coordinates":[-123.13311,49.204281]}},{"properties":{"offence":"176E","tickets":116.0,"id":"a62g6dz17uf3","address":"5650 Lincoln St.","lat":49.232704,"long":-123.025894},"type":"Feature","geometry":{"type":"Point","coordinates":[-123.025894,49.232704]}},{"properties":{"offence":"176E","tickets":116.0,"id":"a62g6duwgaoh","address":"350 Dunlevy Ave.","lat":49.281731,"long":-123.095383},"type":"Feature","geometry":{"type":"Point","coordinates":[-123.095383,49.281731]}},{"properties":{"offence":"176E","tickets":118.0,"id":"a62g6e11mc7q","address":"3250 Heather St.","lat":49.256535,"long":-123.120132},"type":"Feature","geometry":{"type":"Point","coordinates":[-123.120132,49.256535]}},{"properties":{"offence":"176E","tickets":118.0,"id":"a62g6dxa5yjo","address":"1850 York Ave.","lat":49.271561,"long":-123.147133},"type":"Feature","geometry":{"type":"Point","coordinates":[-123.147133,49.271561]}},{"properties":{"offence":"176E","tickets":119.0,"id":"a62g6e30k5i8","address":"2950 Fir St.","lat":49.259396,"long":-123.141197},"type":"Feature","geometry":{"type":"Point","coordinates":[-123.141197,49.259396]}},{"properties":{"offence":"176E","tickets":120.0,"id":"a62g6dx0cx2r","address":"1550 5th Ave W.","lat":49.267059,"long":-123.140579},"type":"Feature","geometry":{"type":"Point","coordinates":[-123.140579,49.267059]}},{"properties":{"offence":"176E","tickets":121.0,"id":"a62g6dwoqlhi","address":"450 Penticton St.","lat":49.280682,"long":-123.051979},"type":"Feature","geometry":{"type":"Point","coordinates":[-123.051979,49.280682]}},{"properties":{"offence":"176E","tickets":121.0,"id":"a62g6e0s7bw9","address":"2350 Laurel St.","lat":49.264694,"long":-123.124123},"type":"Feature","geometry":{"type":"Point","coordinates":[-123.124123,49.264694]}},{"properties":{"offence":"176E","tickets":122.0,"id":"a62g6dtkfynp","address":"2350 10th Ave W.","lat":49.262959,"long":-123.158913},"type":"Feature","geometry":{"type":"Point","coordinates":[-123.158913,49.262959]}},{"properties":{"offence":"176E","tickets":123.0,"id":"a62g6e2x4te9","address":"1150 Nicola St.","lat":49.284775,"long":-123.136978},"type":"Feature","geometry":{"type":"Point","coordinates":[-123.136978,49.284775]}},{"properties":{"offence":"176E","tickets":126.0,"id":"a62g6e6li5a1","address":"750 Alexander St.","lat":49.28384,"long":-123.088173},"type":"Feature","geometry":{"type":"Point","coordinates":[-123.088173,49.28384]}},{"properties":{"offence":"176E","tickets":126.0,"id":"a62g6dzj56jr","address":"250 8th Ave W.","lat":49.263863,"long":-123.110214},"type":"Feature","geometry":{"type":"Point","coordinates":[-123.110214,49.263863]}},{"properties":{"offence":"176E","tickets":126.0,"id":"a62g6dwzyizn","address":"750 33rd Ave W.","lat":49.241226,"long":-123.122162},"type":"Feature","geometry":{"type":"Point","coordinates":[-123.122162,49.241226]}},{"properties":{"offence":"176E","tickets":128.0,"id":"a62g6e7a2cx6","address":"2050 10th Ave W.","lat":49.26284,"long":-123.151688},"type":"Feature","geometry":{"type":"Point","coordinates":[-123.151688,49.26284]}},{"properties":{"offence":"176E","tickets":129.0,"id":"a62g6e99xld3","address":"1550 Granville St.","lat":49.273865,"long":-123.131149},"type":"Feature","geometry":{"type":"Point","coordinates":[-123.131149,49.273865]}},{"properties":{"offence":"176E","tickets":131.0,"id":"a62g6dxhve23","address":"2750 29th Ave E.","lat":49.244614,"long":-123.048286},"type":"Feature","geometry":{"type":"Point","coordinates":[-123.048286,49.244614]}},{"properties":{"offence":"176E","tickets":131.0,"id":"a62g6dzp4m2l","address":"50 2nd Ave E.","lat":49.26918,"long":-123.103691},"type":"Feature","geometry":{"type":"Point","coordinates":[-123.103691,49.26918]}},{"properties":{"offence":"176E","tickets":132.0,"id":"a62g6dzph2gr","address":"1450 Comox St.","lat":49.28548,"long":-123.134804},"type":"Feature","geometry":{"type":"Point","coordinates":[-123.134804,49.28548]}},{"properties":{"offence":"176E","tickets":132.0,"id":"a62g6e2zl42w","address":"1650 13th Ave W.","lat":49.259872,"long":-123.14238},"type":"Feature","geometry":{"type":"Point","coordinates":[-123.14238,49.259872]}},{"properties":{"offence":"176E","tickets":134.0,"id":"a62g6e647xcw","address":"1150 13th Ave W.","lat":49.259689,"long":-123.130348},"type":"Feature","geometry":{"type":"Point","coordinates":[-123.130348,49.259689]}},{"properties":{"offence":"176E","tickets":135.0,"id":"a62g6e89eevs","address":"1050 Bidwell St.","lat":49.287971,"long":-123.137604},"type":"Feature","geometry":{"type":"Point","coordinates":[-123.137604,49.287971]}},{"properties":{"offence":"176E","tickets":135.0,"id":"a62g6dy84u70","address":"2050 3rd Ave W.","lat":49.269005,"long":-123.151573},"type":"Feature","geometry":{"type":"Point","coordinates":[-123.151573,49.269005]}},{"properties":{"offence":"176E","tickets":136.0,"id":"a62g6dzuxl2h","address":"3750 10th Ave W.","lat":49.263508,"long":-123.186874},"type":"Feature","geometry":{"type":"Point","coordinates":[-123.186874,49.263508]}},{"properties":{"offence":"176E","tickets":137.0,"id":"a62g6e65ilff","address":"2150 Broadway St. W.","lat":49.263824,"long":-123.154121},"type":"Feature","geometry":{"type":"Point","coordinates":[-123.154121,49.263824]}},{"properties":{"offence":"176E","tickets":138.0,"id":"a62g6dvnqsu9","address":"3250 Willow St.","lat":49.25658,"long":-123.122047},"type":"Feature","geometry":{"type":"Point","coordinates":[-123.122047,49.25658]}},{"properties":{"offence":"176E","tickets":138.0,"id":"a62g6e7m6m6l","address":"950 Bidwell St.","lat":49.288689,"long":-123.136536},"type":"Feature","geometry":{"type":"Point","coordinates":[-123.136536,49.288689]}},{"properties":{"offence":"176E","tickets":139.0,"id":"a62g6dtwn3ap","address":"1750 Robson St.","lat":49.290981,"long":-123.134697},"type":"Feature","geometry":{"type":"Point","coordinates":[-123.134697,49.290981]}},{"properties":{"offence":"176E","tickets":142.0,"id":"a62g6e9oor21","address":"750 16th Ave W.","lat":49.257004,"long":-123.121101},"type":"Feature","geometry":{"type":"Point","coordinates":[-123.121101,49.257004]}},{"properties":{"offence":"176E","tickets":143.0,"id":"a62g6e4yssjv","address":"450 Jackson Ave.","lat":49.280746,"long":-123.093452},"type":"Feature","geometry":{"type":"Point","coordinates":[-123.093452,49.280746]}},{"properties":{"offence":"176E","tickets":144.0,"id":"a62g6dxt4ovh","address":"1550 Harwood St.","lat":49.283424,"long":-123.140221},"type":"Feature","geometry":{"type":"Point","coordinates":[-123.140221,49.283424]}},{"properties":{"offence":"176E","tickets":145.0,"id":"a62g6duiznlw","address":"2850 Ash St.","lat":49.259956,"long":-123.117645},"type":"Feature","geometry":{"type":"Point","coordinates":[-123.117645,49.259956]}},{"properties":{"offence":"176E","tickets":146.0,"id":"a62g6dx1givx","address":"1550 12th Ave W.","lat":49.260822,"long":-123.139961},"type":"Feature","geometry":{"type":"Point","coordinates":[-123.139961,49.260822]}},{"properties":{"offence":"176E","tickets":148.0,"id":"a62g6e3ieg2j","address":"1050 Sitka Sq.","lat":49.26667,"long":-123.12896},"type":"Feature","geometry":{"type":"Point","coordinates":[-123.12896,49.26667]}},{"properties":{"offence":"176E","tickets":149.0,"id":"a62g6e6t2zpq","address":"50 6th Ave W.","lat":49.265583,"long":-123.105766},"type":"Feature","geometry":{"type":"Point","coordinates":[-123.105766,49.265583]}},{"properties":{"offence":"176E","tickets":149.0,"id":"a62g6dx27sv2","address":"1550 Yew St.","lat":49.272125,"long":-123.154999},"type":"Feature","geometry":{"type":"Point","coordinates":[-123.154999,49.272125]}},{"properties":{"offence":"176E","tickets":150.0,"id":"a62g6dxx54nm","address":"450 Alexander St.","lat":49.284,"long":-123.094276},"type":"Feature","geometry":{"type":"Point","coordinates":[-123.094276,49.284]}},{"properties":{"offence":"176E","tickets":150.0,"id":"a62g6dwcplne","address":"1750 Cook St.","lat":49.269402,"long":-123.110382},"type":"Feature","geometry":{"type":"Point","coordinates":[-123.110382,49.269402]}},{"properties":{"offence":"176E","tickets":151.0,"id":"a62g6e2hns1l","address":"1250 Beach Ave.","lat":49.279911,"long":-123.137756},"type":"Feature","geometry":{"type":"Point","coordinates":[-123.137756,49.279911]}},{"properties":{"offence":"176E","tickets":153.0,"id":"a62g6dzgo1cl","address":"1250 73rd Ave W.","lat":49.204285,"long":-123.134125},"type":"Feature","geometry":{"type":"Point","coordinates":[-123.134125,49.204285]}},{"properties":{"offence":"176E","tickets":153.0,"id":"a62g6e560by3","address":"5650 Dunbar St.","lat":49.235226,"long":-123.18531},"type":"Feature","geometry":{"type":"Point","coordinates":[-123.18531,49.235226]}},{"properties":{"offence":"176E","tickets":154.0,"id":"a62g6e3y1exx","address":"8950 Hudson St.","lat":49.203758,"long":-123.134766},"type":"Feature","geometry":{"type":"Point","coordinates":[-123.134766,49.203758]}},{"properties":{"offence":"176E","tickets":154.0,"id":"a62g6dtotc32","address":"1350 Harwood St.","lat":49.28183,"long":-123.137733},"type":"Feature","geometry":{"type":"Point","coordinates":[-123.137733,49.28183]}},{"properties":{"offence":"176E","tickets":155.0,"id":"a62g6e14sed1","address":"150 3rd Ave E.","lat":49.268223,"long":-123.101547},"type":"Feature","geometry":{"type":"Point","coordinates":[-123.101547,49.268223]}},{"properties":{"offence":"176E","tickets":157.0,"id":"a62g6e5ko3xv","address":"850 Broughton St.","lat":49.287193,"long":-123.131027},"type":"Feature","geometry":{"type":"Point","coordinates":[-123.131027,49.287193]}},{"properties":{"offence":"176E","tickets":163.0,"id":"a62g6dy2km4j","address":"2250 Ash St.","lat":49.265427,"long":-123.117432},"type":"Feature","geometry":{"type":"Point","coordinates":[-123.117432,49.265427]}},{"properties":{"offence":"176E","tickets":163.0,"id":"a62g6e8wik8b","address":"1250 Nicola St.","lat":49.283848,"long":-123.138397},"type":"Feature","geometry":{"type":"Point","coordinates":[-123.138397,49.283848]}},{"properties":{"offence":"176E","tickets":164.0,"id":"a62g6e1hy3hm","address":"350 7th Ave W.","lat":49.264797,"long":-123.111885},"type":"Feature","geometry":{"type":"Point","coordinates":[-123.111885,49.264797]}},{"properties":{"offence":"176E","tickets":164.0,"id":"a62g6e9sjp5v","address":"2350 Oak St.","lat":49.264729,"long":-123.126556},"type":"Feature","geometry":{"type":"Point","coordinates":[-123.126556,49.264729]}},{"properties":{"offence":"176E","tickets":166.0,"id":"a62g6e7shu5e","address":"250 National Ave.","lat":49.274883,"long":-123.098839},"type":"Feature","geometry":{"type":"Point","coordinates":[-123.098839,49.274883]}},{"properties":{"offence":"176E","tickets":169.0,"id":"a62g6e0dkp87","address":"7050 Ontario St.","lat":49.22065,"long":-123.106087},"type":"Feature","geometry":{"type":"Point","coordinates":[-123.106087,49.22065]}},{"properties":{"offence":"176E","tickets":171.0,"id":"a62g6e43w110","address":"1650 11th Ave W.","lat":49.261749,"long":-123.142303},"type":"Feature","geometry":{"type":"Point","coordinates":[-123.142303,49.261749]}},{"properties":{"offence":"176E","tickets":174.0,"id":"a62g6e5khsdx","address":"2250 Broadway St. W.","lat":49.263882,"long":-123.156509},"type":"Feature","geometry":{"type":"Point","coordinates":[-123.156509,49.263882]}},{"properties":{"offence":"176E","tickets":178.0,"id":"a62g6e6u1nnx","address":"1250 13th Ave W.","lat":49.259727,"long":-123.132721},"type":"Feature","geometry":{"type":"Point","coordinates":[-123.132721,49.259727]}},{"properties":{"offence":"176E","tickets":179.0,"id":"a62g6e1v0fkx","address":"1350 Hornby St.","lat":49.276806,"long":-123.130569},"type":"Feature","geometry":{"type":"Point","coordinates":[-123.130569,49.276806]}},{"properties":{"offence":"176E","tickets":181.0,"id":"a62g6du2aw5z","address":"1350 Cardero St.","lat":49.283512,"long":-123.141174},"type":"Feature","geometry":{"type":"Point","coordinates":[-123.141174,49.283512]}},{"properties":{"offence":"176E","tickets":183.0,"id":"a62g6dzed0p8","address":"2350 Heather St.","lat":49.264629,"long":-123.11982},"type":"Feature","geometry":{"type":"Point","coordinates":[-123.11982,49.264629]}},{"properties":{"offence":"176E","tickets":183.0,"id":"a62g6e2yxy3b","address":"850 Chilco St.","lat":49.293034,"long":-123.138916},"type":"Feature","geometry":{"type":"Point","coordinates":[-123.138916,49.293034]}},{"properties":{"offence":"176E","tickets":184.0,"id":"a62g6e4s4wg1","address":"1250 Homer St.","lat":49.274715,"long":-123.124077},"type":"Feature","geometry":{"type":"Point","coordinates":[-123.124077,49.274715]}},{"properties":{"offence":"176E","tickets":185.0,"id":"a62g6e15h8c2","address":"1150 Bidwell St.","lat":49.286919,"long":-123.139206},"type":"Feature","geometry":{"type":"Point","coordinates":[-123.139206,49.286919]}},{"properties":{"offence":"176E","tickets":187.0,"id":"a62g6dvzlxfa","address":"2150 Salal Dr.","lat":49.261505,"long":-123.154579},"type":"Feature","geometry":{"type":"Point","coordinates":[-123.154579,49.261505]}},{"properties":{"offence":"176E","tickets":188.0,"id":"a62g6e1afszr","address":"5250 Melbourne St.","lat":49.236191,"long":-123.028511},"type":"Feature","geometry":{"type":"Point","coordinates":[-123.028511,49.236191]}},{"properties":{"offence":"176E","tickets":188.0,"id":"a62g6e9bc9jn","address":"5650 Wessex St.","lat":49.232635,"long":-123.034592},"type":"Feature","geometry":{"type":"Point","coordinates":[-123.034592,49.232635]}},{"properties":{"offence":"176E","tickets":188.0,"id":"a62g6e1vwhc2","address":"2050 8th Ave W.","lat":49.26474,"long":-123.151825},"type":"Feature","geometry":{"type":"Point","coordinates":[-123.151825,49.26474]}},{"properties":{"offence":"176E","tickets":189.0,"id":"a62g6e6lc571","address":"2350 Manitoba St.","lat":49.264233,"long":-123.106796},"type":"Feature","geometry":{"type":"Point","coordinates":[-123.106796,49.264233]}},{"properties":{"offence":"176E","tickets":190.0,"id":"a62g6e9eivcc","address":"1350 Davie St.","lat":49.283272,"long":-123.135628},"type":"Feature","geometry":{"type":"Point","coordinates":[-123.135628,49.283272]}},{"properties":{"offence":"176E","tickets":192.0,"id":"a62g6e2s6ndl","address":"1050 Thurlow St.","lat":49.281788,"long":-123.129105},"type":"Feature","geometry":{"type":"Point","coordinates":[-123.129105,49.281788]}},{"properties":{"offence":"176E","tickets":193.0,"id":"a62g6dw2lgqr","address":"1550 15th Ave W.","lat":49.258022,"long":-123.140015},"type":"Feature","geometry":{"type":"Point","coordinates":[-123.140015,49.258022]}},{"properties":{"offence":"176E","tickets":195.0,"id":"a62g6dxos39h","address":"2350 Birch St.","lat":49.264839,"long":-123.133675},"type":"Feature","geometry":{"type":"Point","coordinates":[-123.133675,49.264839]}},{"properties":{"offence":"176E","tickets":195.0,"id":"a62g6dziqcwl","address":"1250 Harwood St.","lat":49.280888,"long":-123.136284},"type":"Feature","geometry":{"type":"Point","coordinates":[-123.136284,49.280888]}},{"properties":{"offence":"176E","tickets":196.0,"id":"a62g6e75rwt1","address":"1250 Quebec St.","lat":49.273811,"long":-123.101669},"type":"Feature","geometry":{"type":"Point","coordinates":[-123.101669,49.273811]}},{"properties":{"offence":"176E","tickets":197.0,"id":"a62g6e2d125v","address":"50 2nd Ave W.","lat":49.26926,"long":-123.105614},"type":"Feature","geometry":{"type":"Point","coordinates":[-123.105614,49.26926]}},{"properties":{"offence":"176E","tickets":197.0,"id":"a62g6dwfipq9","address":"1950 1st Ave W.","lat":49.270725,"long":-123.149124},"type":"Feature","geometry":{"type":"Point","coordinates":[-123.149124,49.270725]}},{"properties":{"offence":"176E","tickets":198.0,"id":"a62g6e67lv1s","address":"2150 42nd Ave W.","lat":49.23362,"long":-123.157082},"type":"Feature","geometry":{"type":"Point","coordinates":[-123.157082,49.23362]}},{"properties":{"offence":"176E","tickets":199.0,"id":"a62g6e45d3cx","address":"3650 4th Ave W.","lat":49.268597,"long":-123.184677},"type":"Feature","geometry":{"type":"Point","coordinates":[-123.184677,49.268597]}},{"properties":{"offence":"176E","tickets":201.0,"id":"a62g6e0qch5q","address":"5150 Gaston St.","lat":49.236988,"long":-123.030296},"type":"Feature","geometry":{"type":"Point","coordinates":[-123.030296,49.236988]}},{"properties":{"offence":"176E","tickets":201.0,"id":"a62g6e9zryle","address":"1350 Comox St.","lat":49.284653,"long":-123.133514},"type":"Feature","geometry":{"type":"Point","coordinates":[-123.133514,49.284653]}},{"properties":{"offence":"176E","tickets":202.0,"id":"a62g6e1fheuj","address":"1550 14th Ave W.","lat":49.258938,"long":-123.139992},"type":"Feature","geometry":{"type":"Point","coordinates":[-123.139992,49.258938]}},{"properties":{"offence":"176E","tickets":202.0,"id":"a62g6dtiz4pa","address":"1850 Pendrell St.","lat":49.288475,"long":-123.141548},"type":"Feature","geometry":{"type":"Point","coordinates":[-123.141548,49.288475]}},{"properties":{"offence":"176E","tickets":205.0,"id":"a62g6e8nipoc","address":"3150 Laurel St.","lat":49.257416,"long":-123.124374},"type":"Feature","geometry":{"type":"Point","coordinates":[-123.124374,49.257416]}},{"properties":{"offence":"176E","tickets":212.0,"id":"a62g6e32rx6h","address":"650 Drake St.","lat":49.275822,"long":-123.12735},"type":"Feature","geometry":{"type":"Point","coordinates":[-123.12735,49.275822]}},{"properties":{"offence":"176E","tickets":212.0,"id":"a62g6e37r27a","address":"850 Drake St.","lat":49.277061,"long":-123.129265},"type":"Feature","geometry":{"type":"Point","coordinates":[-123.129265,49.277061]}},{"properties":{"offence":"176E","tickets":215.0,"id":"a62g6e0ob8pa","address":"1350 Pendrell St.","lat":49.283974,"long":-123.134575},"type":"Feature","geometry":{"type":"Point","coordinates":[-123.134575,49.283974]}},{"properties":{"offence":"176E","tickets":218.0,"id":"a62g6e50japt","address":"1950 Barclay St.","lat":49.291538,"long":-123.139832},"type":"Feature","geometry":{"type":"Point","coordinates":[-123.139832,49.291538]}},{"properties":{"offence":"176E","tickets":218.0,"id":"a62g6e94cesc","address":"1650 10th Ave W.","lat":49.262695,"long":-123.142288},"type":"Feature","geometry":{"type":"Point","coordinates":[-123.142288,49.262695]}},{"properties":{"offence":"176E","tickets":219.0,"id":"a62g6dyqjrl6","address":"1650 Pendrell St.","lat":49.286446,"long":-123.138382},"type":"Feature","geometry":{"type":"Point","coordinates":[-123.138382,49.286446]}},{"properties":{"offence":"176E","tickets":222.0,"id":"a62g6e6bz8mh","address":"1150 Station St.","lat":49.274162,"long":-123.098564},"type":"Feature","geometry":{"type":"Point","coordinates":[-123.098564,49.274162]}},{"properties":{"offence":"176E","tickets":225.0,"id":"a62g6e1ebq3g","address":"950 Beach Ave.","lat":49.275684,"long":-123.13327},"type":"Feature","geometry":{"type":"Point","coordinates":[-123.13327,49.275684]}},{"properties":{"offence":"176E","tickets":226.0,"id":"a62g6dy5t87h","address":"1950 3rd Ave W.","lat":49.26897,"long":-123.149178},"type":"Feature","geometry":{"type":"Point","coordinates":[-123.149178,49.26897]}},{"properties":{"offence":"176E","tickets":229.0,"id":"a62g6e0vvza5","address":"450 Railway St.","lat":49.284885,"long":-123.094231},"type":"Feature","geometry":{"type":"Point","coordinates":[-123.094231,49.284885]}},{"properties":{"offence":"176E","tickets":229.0,"id":"a62g6dynckbr","address":"2350 Scotia St.","lat":49.264103,"long":-123.098923},"type":"Feature","geometry":{"type":"Point","coordinates":[-123.098923,49.264103]}},{"properties":{"offence":"176E","tickets":230.0,"id":"a62g6dwhcm37","address":"3450 Vanness Ave.","lat":49.237354,"long":-123.029915},"type":"Feature","geometry":{"type":"Point","coordinates":[-123.029915,49.237354]}},{"properties":{"offence":"176E","tickets":232.0,"id":"a62g6e5v29os","address":"50 4th Ave E.","lat":49.267361,"long":-123.103752},"type":"Feature","geometry":{"type":"Point","coordinates":[-123.103752,49.267361]}},{"properties":{"offence":"176E","tickets":236.0,"id":"a62g6e999el4","address":"5550 Ormidale St.","lat":49.23381,"long":-123.024818},"type":"Feature","geometry":{"type":"Point","coordinates":[-123.024818,49.23381]}},{"properties":{"offence":"176E","tickets":237.0,"id":"a62g6dzx4i69","address":"550 Commodore Rd.","lat":49.267269,"long":-123.1166},"type":"Feature","geometry":{"type":"Point","coordinates":[-123.1166,49.267269]}},{"properties":{"offence":"176E","tickets":237.0,"id":"a62g6dymbmjp","address":"2750 Oak St.","lat":49.261074,"long":-123.126694},"type":"Feature","geometry":{"type":"Point","coordinates":[-123.126694,49.261074]}},{"properties":{"offence":"176E","tickets":239.0,"id":"a62g6e8blv20","address":"950 7th Ave W.","lat":49.265141,"long":-123.125351},"type":"Feature","geometry":{"type":"Point","coordinates":[-123.125351,49.265141]}},{"properties":{"offence":"176E","tickets":243.0,"id":"a62g6du2avow","address":"1250 Bidwell St.","lat":49.285583,"long":-123.141212},"type":"Feature","geometry":{"type":"Point","coordinates":[-123.141212,49.285583]}},{"properties":{"offence":"176E","tickets":246.0,"id":"a62g6e0qn4g7","address":"1950 Pendrell St.","lat":49.289444,"long":-123.143021},"type":"Feature","geometry":{"type":"Point","coordinates":[-123.143021,49.289444]}},{"properties":{"offence":"176E","tickets":249.0,"id":"a62g6e3gexeo","address":"1650 Barclay St.","lat":49.288548,"long":-123.135193},"type":"Feature","geometry":{"type":"Point","coordinates":[-123.135193,49.288548]}},{"properties":{"offence":"176E","tickets":251.0,"id":"a62g6e3fls2i","address":"950 Thurlow St.","lat":49.283203,"long":-123.126961},"type":"Feature","geometry":{"type":"Point","coordinates":[-123.126961,49.283203]}},{"properties":{"offence":"176E","tickets":253.0,"id":"a62g6e6ptg4a","address":"350 5th Ave W.","lat":49.266617,"long":-123.111794},"type":"Feature","geometry":{"type":"Point","coordinates":[-123.111794,49.266617]}},{"properties":{"offence":"176E","tickets":253.0,"id":"a62g6dy8eooh","address":"550 Pacific St.","lat":49.274029,"long":-123.127975},"type":"Feature","geometry":{"type":"Point","coordinates":[-123.127975,49.274029]}},{"properties":{"offence":"176E","tickets":254.0,"id":"a62g6e1b5uxp","address":"1550 10th Ave W.","lat":49.262657,"long":-123.139847},"type":"Feature","geometry":{"type":"Point","coordinates":[-123.139847,49.262657]}},{"properties":{"offence":"176E","tickets":256.0,"id":"a62g6dzw8mh2","address":"3550 Vanness Ave.","lat":49.236458,"long":-123.027962},"type":"Feature","geometry":{"type":"Point","coordinates":[-123.027962,49.236458]}},{"properties":{"offence":"176E","tickets":256.0,"id":"a62g6du65y9f","address":"750 13th Ave W.","lat":49.259541,"long":-123.12101},"type":"Feature","geometry":{"type":"Point","coordinates":[-123.12101,49.259541]}},{"properties":{"offence":"176E","tickets":258.0,"id":"a62g6e1ngzrr","address":"2950 Laurel St.","lat":49.259129,"long":-123.124344},"type":"Feature","geometry":{"type":"Point","coordinates":[-123.124344,49.259129]}},{"properties":{"offence":"176E","tickets":261.0,"id":"a62g6e3u4iqg","address":"550 13th Ave W.","lat":49.259464,"long":-123.116386},"type":"Feature","geometry":{"type":"Point","coordinates":[-123.116386,49.259464]}},{"properties":{"offence":"176E","tickets":264.0,"id":"a62g6e75ctxo","address":"1050 10th Ave W.","lat":49.262463,"long":-123.127869},"type":"Feature","geometry":{"type":"Point","coordinates":[-123.127869,49.262463]}},{"properties":{"offence":"176E","tickets":267.0,"id":"a62g6e1wopj4","address":"3050 Willow St.","lat":49.257877,"long":-123.122047},"type":"Feature","geometry":{"type":"Point","coordinates":[-123.122047,49.257877]}},{"properties":{"offence":"176E","tickets":267.0,"id":"a62g6e0yijtx","address":"2050 Comox St.","lat":49.290962,"long":-123.143227},"type":"Feature","geometry":{"type":"Point","coordinates":[-123.143227,49.290962]}},{"properties":{"offence":"176E","tickets":269.0,"id":"a62g6e8i1m53","address":"1650 Comox St.","lat":49.287128,"long":-123.137344},"type":"Feature","geometry":{"type":"Point","coordinates":[-123.137344,49.287128]}},{"properties":{"offence":"176E","tickets":272.0,"id":"a62g6dxa64m6","address":"1550 Haro St.","lat":49.288338,"long":-123.132759},"type":"Feature","geometry":{"type":"Point","coordinates":[-123.132759,49.288338]}},{"properties":{"offence":"176E","tickets":277.0,"id":"a62g6e8chc12","address":"650 Pacific St.","lat":49.274708,"long":-123.129044},"type":"Feature","geometry":{"type":"Point","coordinates":[-123.129044,49.274708]}},{"properties":{"offence":"176E","tickets":279.0,"id":"a62g6duv7d19","address":"750 14th Ave W.","lat":49.258621,"long":-123.121063},"type":"Feature","geometry":{"type":"Point","coordinates":[-123.121063,49.258621]}},{"properties":{"offence":"176E","tickets":281.0,"id":"a62g6e2jgos9","address":"2150 40th Ave W.","lat":49.235577,"long":-123.156662},"type":"Feature","geometry":{"type":"Point","coordinates":[-123.156662,49.235577]}},{"properties":{"offence":"176E","tickets":293.0,"id":"a62g6e6wwwmw","address":"1750 11th Ave W.","lat":49.261795,"long":-123.144661},"type":"Feature","geometry":{"type":"Point","coordinates":[-123.144661,49.261795]}},{"properties":{"offence":"176E","tickets":296.0,"id":"a62g6dvxkrkc","address":"5650 Ormidale St.","lat":49.23278,"long":-123.024803},"type":"Feature","geometry":{"type":"Point","coordinates":[-123.024803,49.23278]}},{"properties":{"offence":"176E","tickets":300.0,"id":"a62g6e7znq1n","address":"1050 Jervis St.","lat":49.284451,"long":-123.132408},"type":"Feature","geometry":{"type":"Point","coordinates":[-123.132408,49.284451]}},{"properties":{"offence":"176E","tickets":301.0,"id":"a62g6dx7003l","address":"1750 Columbia St.","lat":49.269737,"long":-123.109413},"type":"Feature","geometry":{"type":"Point","coordinates":[-123.109413,49.269737]}},{"properties":{"offence":"176E","tickets":301.0,"id":"a62g6dtz780z","address":"750 Rolston Cres.","lat":49.276138,"long":-123.128761},"type":"Feature","geometry":{"type":"Point","coordinates":[-123.128761,49.276138]}},{"properties":{"offence":"176E","tickets":304.0,"id":"a62g6e6vummf","address":"2350 Maple St.","lat":49.265152,"long":-123.15049},"type":"Feature","geometry":{"type":"Point","coordinates":[-123.15049,49.265152]}},{"properties":{"offence":"176E","tickets":306.0,"id":"a62g6dyubguu","address":"1050 7th Ave W.","lat":49.265175,"long":-123.127769},"type":"Feature","geometry":{"type":"Point","coordinates":[-123.127769,49.265175]}},{"properties":{"offence":"176E","tickets":307.0,"id":"a62g6dxeb6jc","address":"1950 Haro St.","lat":49.29221,"long":-123.138725},"type":"Feature","geometry":{"type":"Point","coordinates":[-123.138725,49.29221]}},{"properties":{"offence":"176E","tickets":309.0,"id":"a62g6dulxm1h","address":"3550 Crowley Dr.","lat":49.235844,"long":-123.028854},"type":"Feature","geometry":{"type":"Point","coordinates":[-123.028854,49.235844]}},{"properties":{"offence":"176E","tickets":309.0,"id":"a62g6e1yks9f","address":"2550 Yew St.","lat":49.263371,"long":-123.155312},"type":"Feature","geometry":{"type":"Point","coordinates":[-123.155312,49.263371]}},{"properties":{"offence":"176E","tickets":310.0,"id":"a62g6dxd8hph","address":"550 Alexander St.","lat":49.28397,"long":-123.092407},"type":"Feature","geometry":{"type":"Point","coordinates":[-123.092407,49.28397]}},{"properties":{"offence":"176E","tickets":310.0,"id":"a62g6duyb06v","address":"950 15th Ave W.","lat":49.257793,"long":-123.125725},"type":"Feature","geometry":{"type":"Point","coordinates":[-123.125725,49.257793]}},{"properties":{"offence":"176E","tickets":314.0,"id":"a62g6e5x73yt","address":"750 Abbott St.","lat":49.278419,"long":-123.107635},"type":"Feature","geometry":{"type":"Point","coordinates":[-123.107635,49.278419]}},{"properties":{"offence":"176E","tickets":316.0,"id":"a62g6e5k3wu5","address":"1150 Beach Ave.","lat":49.278454,"long":-123.136292},"type":"Feature","geometry":{"type":"Point","coordinates":[-123.136292,49.278454]}},{"properties":{"offence":"176E","tickets":317.0,"id":"a62g6dzuyuqh","address":"2350 Willow St.","lat":49.264648,"long":-123.12178},"type":"Feature","geometry":{"type":"Point","coordinates":[-123.12178,49.264648]}},{"properties":{"offence":"176E","tickets":327.0,"id":"a62g6dtkdw4n","address":"1350 7th Ave W.","lat":49.265285,"long":-123.134857},"type":"Feature","geometry":{"type":"Point","coordinates":[-123.134857,49.265285]}},{"properties":{"offence":"176E","tickets":333.0,"id":"a62g6dxgi1kh","address":"1850 Comox St.","lat":49.289192,"long":-123.140495},"type":"Feature","geometry":{"type":"Point","coordinates":[-123.140495,49.289192]}},{"properties":{"offence":"176E","tickets":336.0,"id":"a62g6dwgktx7","address":"850 13th Ave W.","lat":49.259575,"long":-123.123184},"type":"Feature","geometry":{"type":"Point","coordinates":[-123.123184,49.259575]}},{"properties":{"offence":"176E","tickets":338.0,"id":"a62g6dz2ezdb","address":"1850 Barclay St.","lat":49.290585,"long":-123.138351},"type":"Feature","geometry":{"type":"Point","coordinates":[-123.138351,49.290585]}},{"properties":{"offence":"176E","tickets":343.0,"id":"a62g6e3lf8pd","address":"750 7th Ave W.","lat":49.265072,"long":-123.120811},"type":"Feature","geometry":{"type":"Point","coordinates":[-123.120811,49.265072]}},{"properties":{"offence":"176E","tickets":349.0,"id":"a62g6e3922l9","address":"1250 8th Ave W.","lat":49.264412,"long":-123.132523},"type":"Feature","geometry":{"type":"Point","coordinates":[-123.132523,49.264412]}},{"properties":{"offence":"176E","tickets":350.0,"id":"a62g6e78kb50","address":"2350 Alder St.","lat":49.264805,"long":-123.131294},"type":"Feature","geometry":{"type":"Point","coordinates":[-123.131294,49.264805]}},{"properties":{"offence":"176E","tickets":351.0,"id":"a62g6e9jrq91","address":"50 Water St.","lat":49.283695,"long":-123.105286},"type":"Feature","geometry":{"type":"Point","coordinates":[-123.105286,49.283695]}},{"properties":{"offence":"176E","tickets":352.0,"id":"a62g6e392l7a","address":"750 15th Ave W.","lat":49.257725,"long":-123.121574},"type":"Feature","geometry":{"type":"Point","coordinates":[-123.121574,49.257725]}},{"properties":{"offence":"176E","tickets":353.0,"id":"a62g6duowqy4","address":"650 13th Ave W.","lat":49.25951,"long":-123.118851},"type":"Feature","geometry":{"type":"Point","coordinates":[-123.118851,49.25951]}},{"properties":{"offence":"176E","tickets":353.0,"id":"a62g6dvfxrg6","address":"1050 13th Ave W.","lat":49.259655,"long":-123.127953},"type":"Feature","geometry":{"type":"Point","coordinates":[-123.127953,49.259655]}},{"properties":{"offence":"176E","tickets":361.0,"id":"a62g6dzh408p","address":"8850 Hudson St.","lat":49.20499,"long":-123.13472},"type":"Feature","geometry":{"type":"Point","coordinates":[-123.13472,49.20499]}},{"properties":{"offence":"176E","tickets":362.0,"id":"a62g6dtp2f64","address":"1150 Harwood St.","lat":49.279694,"long":-123.13443},"type":"Feature","geometry":{"type":"Point","coordinates":[-123.13443,49.279694]}},{"properties":{"offence":"176E","tickets":365.0,"id":"a62g6e8tr9i1","address":"50 8th Ave W.","lat":49.263783,"long":-123.105827},"type":"Feature","geometry":{"type":"Point","coordinates":[-123.105827,49.263783]}},{"properties":{"offence":"176E","tickets":369.0,"id":"a62g6dtvcbad","address":"1450 Lamey's Mill Rd.","lat":49.268192,"long":-123.136734},"type":"Feature","geometry":{"type":"Point","coordinates":[-123.136734,49.268192]}},{"properties":{"offence":"176E","tickets":372.0,"id":"a62g6dy1h4q1","address":"650 14th Ave W.","lat":49.258812,"long":-123.118904},"type":"Feature","geometry":{"type":"Point","coordinates":[-123.118904,49.258812]}},{"properties":{"offence":"176E","tickets":373.0,"id":"a62g6e4p18uk","address":"1850 Haro St.","lat":49.29126,"long":-123.137268},"type":"Feature","geometry":{"type":"Point","coordinates":[-123.137268,49.29126]}},{"properties":{"offence":"176E","tickets":374.0,"id":"a62g6e9s5w48","address":"550 6th Ave W.","lat":49.2658,"long":-123.1157},"type":"Feature","geometry":{"type":"Point","coordinates":[-123.1157,49.2658]}},{"properties":{"offence":"176E","tickets":381.0,"id":"a62g6du3ei1g","address":"1750 Haro St.","lat":49.290279,"long":-123.135742},"type":"Feature","geometry":{"type":"Point","coordinates":[-123.135742,49.290279]}},{"properties":{"offence":"176E","tickets":384.0,"id":"a62g6dyldyxj","address":"1650 Bayshore Dr.","lat":49.292088,"long":-123.130791},"type":"Feature","geometry":{"type":"Point","coordinates":[-123.130791,49.292088]}},{"properties":{"offence":"176E","tickets":386.0,"id":"a62g6e5o1zyk","address":"1550 11th Ave W.","lat":49.261723,"long":-123.139854},"type":"Feature","geometry":{"type":"Point","coordinates":[-123.139854,49.261723]}},{"properties":{"offence":"176E","tickets":388.0,"id":"a62g6e6edhz6","address":"1650 8th Ave E.","lat":49.263214,"long":-123.070648},"type":"Feature","geometry":{"type":"Point","coordinates":[-123.070648,49.263214]}},{"properties":{"offence":"176E","tickets":388.0,"id":"a62g6e39xf18","address":"2950 Ash St.","lat":49.259132,"long":-123.117683},"type":"Feature","geometry":{"type":"Point","coordinates":[-123.117683,49.259132]}},{"properties":{"offence":"176E","tickets":393.0,"id":"a62g6dv8ubbz","address":"1250 Burnaby St.","lat":49.281601,"long":-123.135246},"type":"Feature","geometry":{"type":"Point","coordinates":[-123.135246,49.281601]}},{"properties":{"offence":"176E","tickets":395.0,"id":"a62g6e1coffp","address":"650 Moberly Rd.","lat":49.266735,"long":-123.119209},"type":"Feature","geometry":{"type":"Point","coordinates":[-123.119209,49.266735]}},{"properties":{"offence":"176E","tickets":401.0,"id":"a62g6e8gvlab","address":"1150 7th Ave W.","lat":49.265213,"long":-123.130135},"type":"Feature","geometry":{"type":"Point","coordinates":[-123.130135,49.265213]}},{"properties":{"offence":"176E","tickets":404.0,"id":"a62g6e5fvh4t","address":"650 Rolston Cres.","lat":49.275444,"long":-123.127754},"type":"Feature","geometry":{"type":"Point","coordinates":[-123.127754,49.275444]}},{"properties":{"offence":"176E","tickets":409.0,"id":"a62g6dttdrx3","address":"2950 Heather St.","lat":49.259174,"long":-123.120018},"type":"Feature","geometry":{"type":"Point","coordinates":[-123.120018,49.259174]}},{"properties":{"offence":"176E","tickets":423.0,"id":"a62g6e3rphwe","address":"1250 7th Ave W.","lat":49.265251,"long":-123.132492},"type":"Feature","geometry":{"type":"Point","coordinates":[-123.132492,49.265251]}},{"properties":{"offence":"176E","tickets":428.0,"id":"a62g6e7q0w89","address":"950 Chilco St.","lat":49.291962,"long":-123.140526},"type":"Feature","geometry":{"type":"Point","coordinates":[-123.140526,49.291962]}},{"properties":{"offence":"176E","tickets":435.0,"id":"a62g6e6096sp","address":"1450 Howe St.","lat":49.2752,"long":-123.131157},"type":"Feature","geometry":{"type":"Point","coordinates":[-123.131157,49.2752]}},{"properties":{"offence":"176E","tickets":442.0,"id":"a62g6e24huot","address":"850 7th Ave W.","lat":49.265102,"long":-123.122963},"type":"Feature","geometry":{"type":"Point","coordinates":[-123.122963,49.265102]}},{"properties":{"offence":"176E","tickets":445.0,"id":"a62g6dyxphfa","address":"3050 Laurel St.","lat":49.258217,"long":-123.124359},"type":"Feature","geometry":{"type":"Point","coordinates":[-123.124359,49.258217]}},{"properties":{"offence":"176E","tickets":451.0,"id":"a62g6durd36a","address":"350 4th Ave W.","lat":49.267483,"long":-123.111443},"type":"Feature","geometry":{"type":"Point","coordinates":[-123.111443,49.267483]}},{"properties":{"offence":"176E","tickets":451.0,"id":"a62g6e03tvo8","address":"850 Bute St.","lat":49.285309,"long":-123.128067},"type":"Feature","geometry":{"type":"Point","coordinates":[-123.128067,49.285309]}},{"properties":{"offence":"176E","tickets":452.0,"id":"a62g6e2ngss2","address":"1850 Robson St.","lat":49.291985,"long":-123.136269},"type":"Feature","geometry":{"type":"Point","coordinates":[-123.136269,49.291985]}},{"properties":{"offence":"176E","tickets":467.0,"id":"a62g6e5vna3h","address":"1750 Bayshore Dr.","lat":49.292591,"long":-123.132362},"type":"Feature","geometry":{"type":"Point","coordinates":[-123.132362,49.292591]}},{"properties":{"offence":"176E","tickets":469.0,"id":"a62g6e583mwz","address":"150 National Ave.","lat":49.274899,"long":-123.100998},"type":"Feature","geometry":{"type":"Point","coordinates":[-123.100998,49.274899]}},{"properties":{"offence":"176E","tickets":470.0,"id":"a62g6dxehmym","address":"750 Beach Ave.","lat":49.27446,"long":-123.131355},"type":"Feature","geometry":{"type":"Point","coordinates":[-123.131355,49.27446]}},{"properties":{"offence":"176E","tickets":472.0,"id":"a62g6e6ccoxn","address":"1750 10th Ave W.","lat":49.262733,"long":-123.144653},"type":"Feature","geometry":{"type":"Point","coordinates":[-123.144653,49.262733]}},{"properties":{"offence":"176E","tickets":473.0,"id":"a62g6dz4jaue","address":"550 14th Ave W.","lat":49.258759,"long":-123.116089},"type":"Feature","geometry":{"type":"Point","coordinates":[-123.116089,49.258759]}},{"properties":{"offence":"176E","tickets":479.0,"id":"a62g6e53h0by","address":"250 Alexander St.","lat":49.284084,"long":-123.098648},"type":"Feature","geometry":{"type":"Point","coordinates":[-123.098648,49.284084]}},{"properties":{"offence":"176E","tickets":492.0,"id":"a62g6e696bnk","address":"1350 Barclay St.","lat":49.286072,"long":-123.131355},"type":"Feature","geometry":{"type":"Point","coordinates":[-123.131355,49.286072]}},{"properties":{"offence":"176E","tickets":502.0,"id":"a62g6e2gmcno","address":"2650 Oak St.","lat":49.261974,"long":-123.126663},"type":"Feature","geometry":{"type":"Point","coordinates":[-123.126663,49.261974]}},{"properties":{"offence":"176E","tickets":508.0,"id":"a62g6dvahcog","address":"4250 Willow St.","lat":49.247597,"long":-123.122391},"type":"Feature","geometry":{"type":"Point","coordinates":[-123.122391,49.247597]}},{"properties":{"offence":"176E","tickets":510.0,"id":"a62g6e8nafgr","address":"1050 Bute St.","lat":49.283188,"long":-123.131256},"type":"Feature","geometry":{"type":"Point","coordinates":[-123.131256,49.283188]}},{"properties":{"offence":"176E","tickets":517.0,"id":"a62g6e9c339s","address":"1050 Harwood St.","lat":49.278339,"long":-123.132355},"type":"Feature","geometry":{"type":"Point","coordinates":[-123.132355,49.278339]}},{"properties":{"offence":"176E","tickets":520.0,"id":"a62g6dzox6ew","address":"950 14th Ave W.","lat":49.258698,"long":-123.125587},"type":"Feature","geometry":{"type":"Point","coordinates":[-123.125587,49.258698]}},{"properties":{"offence":"176E","tickets":525.0,"id":"a62g6dud1e0w","address":"150 4th Ave E.","lat":49.26733,"long":-123.101562},"type":"Feature","geometry":{"type":"Point","coordinates":[-123.101562,49.26733]}},{"properties":{"offence":"176E","tickets":528.0,"id":"a62g6e1puzel","address":"1050 11th Ave W.","lat":49.261547,"long":-123.127899},"type":"Feature","geometry":{"type":"Point","coordinates":[-123.127899,49.261547]}},{"properties":{"offence":"176E","tickets":528.0,"id":"a62g6dz3089r","address":"1550 Alberni St.","lat":49.289761,"long":-123.130646},"type":"Feature","geometry":{"type":"Point","coordinates":[-123.130646,49.289761]}},{"properties":{"offence":"176E","tickets":530.0,"id":"a62g6e1qqfyn","address":"150 2nd Ave W.","lat":49.269299,"long":-123.10804},"type":"Feature","geometry":{"type":"Point","coordinates":[-123.10804,49.269299]}},{"properties":{"offence":"176E","tickets":536.0,"id":"a62g6duzn0tg","address":"1750 6th Ave W.","lat":49.266285,"long":-123.144508},"type":"Feature","geometry":{"type":"Point","coordinates":[-123.144508,49.266285]}},{"properties":{"offence":"176E","tickets":537.0,"id":"a62g6dzdfs91","address":"1150 Haro St.","lat":49.284622,"long":-123.126999},"type":"Feature","geometry":{"type":"Point","coordinates":[-123.126999,49.284622]}},{"properties":{"offence":"176E","tickets":551.0,"id":"a62g6dw4qafx","address":"150 5th Ave W.","lat":49.266556,"long":-123.108093},"type":"Feature","geometry":{"type":"Point","coordinates":[-123.108093,49.266556]}},{"properties":{"offence":"176E","tickets":558.0,"id":"a62g6e081ai3","address":"950 Drake St.","lat":49.277702,"long":-123.130264},"type":"Feature","geometry":{"type":"Point","coordinates":[-123.130264,49.277702]}},{"properties":{"offence":"176E","tickets":562.0,"id":"a62g6e0iyjwx","address":"1150 Pendrell St.","lat":49.281796,"long":-123.131218},"type":"Feature","geometry":{"type":"Point","coordinates":[-123.131218,49.281796]}},{"properties":{"offence":"176E","tickets":565.0,"id":"a62g6e2q4b7p","address":"50 Dunlevy Ave.","lat":49.284889,"long":-123.095245},"type":"Feature","geometry":{"type":"Point","coordinates":[-123.095245,49.284889]}},{"properties":{"offence":"176E","tickets":593.0,"id":"a62g6dz6pkc2","address":"850 15th Ave W.","lat":49.257751,"long":-123.12323},"type":"Feature","geometry":{"type":"Point","coordinates":[-123.12323,49.257751]}},{"properties":{"offence":"176E","tickets":594.0,"id":"a62g6du72uug","address":"1250 Pendrell St.","lat":49.28302,"long":-123.133141},"type":"Feature","geometry":{"type":"Point","coordinates":[-123.133141,49.28302]}},{"properties":{"offence":"176E","tickets":624.0,"id":"a62g6dytyq7a","address":"750 Cardero St.","lat":49.289814,"long":-123.131706},"type":"Feature","geometry":{"type":"Point","coordinates":[-123.131706,49.289814]}},{"properties":{"offence":"176E","tickets":628.0,"id":"a62g6e8cctcs","address":"850 14th Ave W.","lat":49.258656,"long":-123.123215},"type":"Feature","geometry":{"type":"Point","coordinates":[-123.123215,49.258656]}},{"properties":{"offence":"176E","tickets":628.0,"id":"a62g6e5gf06d","address":"1450 Hastings St. W.","lat":49.290234,"long":-123.127609},"type":"Feature","geometry":{"type":"Point","coordinates":[-123.127609,49.290234]}},{"properties":{"offence":"176E","tickets":654.0,"id":"a62g6e8vtl5k","address":"2950 Willow St.","lat":49.259083,"long":-123.122002},"type":"Feature","geometry":{"type":"Point","coordinates":[-123.122002,49.259083]}},{"properties":{"offence":"176E","tickets":658.0,"id":"a62g6e63h428","address":"1150 Quebec St.","lat":49.274536,"long":-123.10183},"type":"Feature","geometry":{"type":"Point","coordinates":[-123.10183,49.274536]}},{"properties":{"offence":"176E","tickets":659.0,"id":"a62g6e9m1m4m","address":"2150 10th Ave W.","lat":49.262871,"long":-123.153725},"type":"Feature","geometry":{"type":"Point","coordinates":[-123.153725,49.262871]}},{"properties":{"offence":"176E","tickets":673.0,"id":"a62g6dyp5et9","address":"650 7th Ave W.","lat":49.265038,"long":-123.118652},"type":"Feature","geometry":{"type":"Point","coordinates":[-123.118652,49.265038]}},{"properties":{"offence":"176E","tickets":713.0,"id":"a62g6dznxv2f","address":"1250 Barclay St.","lat":49.285137,"long":-123.129883},"type":"Feature","geometry":{"type":"Point","coordinates":[-123.129883,49.285137]}},{"properties":{"offence":"176E","tickets":734.0,"id":"a62g6dwgqek4","address":"1050 Nelson St.","lat":49.281857,"long":-123.12706},"type":"Feature","geometry":{"type":"Point","coordinates":[-123.12706,49.281857]}},{"properties":{"offence":"176E","tickets":735.0,"id":"a62g6duygg5c","address":"8850 Selkirk St.","lat":49.204964,"long":-123.13343},"type":"Feature","geometry":{"type":"Point","coordinates":[-123.13343,49.204964]}},{"properties":{"offence":"176E","tickets":738.0,"id":"a62g6dwg87gu","address":"850 Beach Ave.","lat":49.275066,"long":-123.132294},"type":"Feature","geometry":{"type":"Point","coordinates":[-123.132294,49.275066]}},{"properties":{"offence":"176E","tickets":764.0,"id":"a62g6e6jg4qu","address":"1150 Barclay St.","lat":49.283943,"long":-123.128036},"type":"Feature","geometry":{"type":"Point","coordinates":[-123.128036,49.283943]}},{"properties":{"offence":"176E","tickets":791.0,"id":"a62g6e4ujwyw","address":"350 Railway St.","lat":49.284603,"long":-123.096542},"type":"Feature","geometry":{"type":"Point","coordinates":[-123.096542,49.284603]}},{"properties":{"offence":"176E","tickets":803.0,"id":"a62g6dugmllj","address":"950 Cambie St.","lat":49.276611,"long":-123.117348},"type":"Feature","geometry":{"type":"Point","coordinates":[-123.117348,49.276611]}},{"properties":{"offence":"176E","tickets":837.0,"id":"a62g6e0xx4n1","address":"50 Expo Boulevard","lat":49.278194,"long":-123.106628},"type":"Feature","geometry":{"type":"Point","coordinates":[-123.106628,49.278194]}},{"properties":{"offence":"176E","tickets":886.0,"id":"a62g6dumkjgu","address":"1150 Burnaby St.","lat":49.280376,"long":-123.133369},"type":"Feature","geometry":{"type":"Point","coordinates":[-123.133369,49.280376]}},{"properties":{"offence":"176E","tickets":892.0,"id":"a62g6e6xo8kr","address":"1250 Haro St.","lat":49.28582,"long":-123.128822},"type":"Feature","geometry":{"type":"Point","coordinates":[-123.128822,49.28582]}},{"properties":{"offence":"176E","tickets":998.0,"id":"a62g6e6ua8ov","address":"3450 Crowley Dr.","lat":49.236931,"long":-123.031334},"type":"Feature","geometry":{"type":"Point","coordinates":[-123.031334,49.236931]}},{"properties":{"offence":"176E","tickets":1081.0,"id":"a62g6dufnwsl","address":"1050 Comox St.","lat":49.281151,"long":-123.128105},"type":"Feature","geometry":{"type":"Point","coordinates":[-123.128105,49.281151]}},{"properties":{"offence":"176E","tickets":1098.0,"id":"a62g6e3eniyx","address":"550 7th Ave W.","lat":49.264992,"long":-123.11618},"type":"Feature","geometry":{"type":"Point","coordinates":[-123.11618,49.264992]}},{"properties":{"offence":"176E","tickets":1139.0,"id":"a62g6dzfn208","address":"850 Cambie St.","lat":49.277679,"long":-123.115791},"type":"Feature","geometry":{"type":"Point","coordinates":[-123.115791,49.277679]}},{"properties":{"offence":"176E","tickets":1149.0,"id":"a62g6e6xlnx4","address":"1350 Hastings St. W.","lat":49.289722,"long":-123.125862},"type":"Feature","geometry":{"type":"Point","coordinates":[-123.125862,49.289722]}},{"properties":{"offence":"176E","tickets":1162.0,"id":"a62g6dxqy4b4","address":"1450 Hornby St.","lat":49.27581,"long":-123.13208},"type":"Feature","geometry":{"type":"Point","coordinates":[-123.13208,49.27581]}},{"properties":{"offence":"176E","tickets":1301.0,"id":"a62g6e1aplli","address":"850 27th Ave W.","lat":49.247162,"long":-123.123619},"type":"Feature","geometry":{"type":"Point","coordinates":[-123.123619,49.247162]}},{"properties":{"offence":"176E","tickets":1461.0,"id":"a62g6e359uno","address":"1050 Burnaby St.","lat":49.279022,"long":-123.131287},"type":"Feature","geometry":{"type":"Point","coordinates":[-123.131287,49.279022]}},{"properties":{"offence":"176E","tickets":1526.0,"id":"a62g6e1v3xvk","address":"350 6th Ave W.","lat":49.265697,"long":-123.111832},"type":"Feature","geometry":{"type":"Point","coordinates":[-123.111832,49.265697]}},{"properties":{"offence":"176E","tickets":2103.0,"id":"a62g6e337e5y","address":"1250 Hastings St. W.","lat":49.289124,"long":-123.123848},"type":"Feature","geometry":{"type":"Point","coordinates":[-123.123848,49.289124]}}],"is_temporal":false,"author":{"url":"","metadata":"","contact_name":"","contact_address":"","source":"","contact_phone":""},"source":"","pagination":{"sort":null,"start":0,"total":678,"limit":1000000},"state":"complete","tags":"","published":"2014-08-10T22:03:33-04:00","id":16799}