{"type":"FeatureCollection","data_type":"Dataset","url_type":null,"permissions":[{"permissions":{"download":true,"view":true},"group_id":"everyone"}],"classification":null,"title":"0287GE","count":82,"stream_id":16802,"contributor":{"url":"http://geocommons.com/users/8937","name":"thesun"},"data_attributes":null,"calculation_params":null,"icon_link":null,"link":"http://geocommons.com/overlays/16802.json","extent":[-123.18,49.2278,-123.07,49.29],"geometry_types":["point"],"unique_name":null,"name":"0287GE","feature_count":82,"description":"","next_feature":null,"is_raster":false,"short_classification":"Y","stats":{"tickets":{"max":104.0,"mean":5.4390243902439,"variance":146.298705209274,"stdev":12.095400167389,"min":1.0,"median":2.0},"lat":{"max":49.289951,"mean":49.2799772926829,"variance":8.17100003083409e-05,"stdev":0.00903935840136571,"min":49.22781,"median":49.282249},"long":{"max":-123.069679,"mean":-123.121229865854,"variance":0.000176158090833621,"stdev":0.0132724560965038,"min":-123.179817,"median":-123.120346}},"features":[{"properties":{"plate":"0287GE","tickets":1.0,"id":"a6jrbmlgp6uw","address":"950 Hornby St.","lat":49.281044,"long":-123.124191},"type":"Feature","geometry":{"type":"Point","coordinates":[-123.124191,49.281044]}},{"properties":{"plate":"0287GE","tickets":1.0,"id":"a6jrbmg92lku","address":"850 Granville St.","lat":49.280834,"long":-123.120621},"type":"Feature","geometry":{"type":"Point","coordinates":[-123.120621,49.280834]}},{"properties":{"plate":"0287GE","tickets":1.0,"id":"a6jrbmqbxilq","address":"1150 Howe St.","lat":49.278313,"long":-123.126427},"type":"Feature","geometry":{"type":"Point","coordinates":[-123.126427,49.278313]}},{"properties":{"plate":"0287GE","tickets":1.0,"id":"a6jrbmhzbpxi","address":"1050 Melville St.","lat":49.285652,"long":-123.120796},"type":"Feature","geometry":{"type":"Point","coordinates":[-123.120796,49.285652]}},{"properties":{"plate":"0287GE","tickets":1.0,"id":"a6jrbmqzlqfp","address":"650 Howe St.","lat":49.283691,"long":-123.118279},"type":"Feature","geometry":{"type":"Point","coordinates":[-123.118279,49.283691]}},{"properties":{"plate":"0287GE","tickets":1.0,"id":"a6jrbmr3m3vr","address":"650 Seymour St.","lat":49.282394,"long":-123.116287},"type":"Feature","geometry":{"type":"Point","coordinates":[-123.116287,49.282394]}},{"properties":{"plate":"0287GE","tickets":1.0,"id":"a6jrbmevkw44","address":"1050 Howe St.","lat":49.279366,"long":-123.124847},"type":"Feature","geometry":{"type":"Point","coordinates":[-123.124847,49.279366]}},{"properties":{"plate":"0287GE","tickets":1.0,"id":"a6jrbmsg5fi9","address":"1050 Hastings St. W.","lat":49.287525,"long":-123.118217},"type":"Feature","geometry":{"type":"Point","coordinates":[-123.118217,49.287525]}},{"properties":{"plate":"0287GE","tickets":1.0,"id":"a6jrbmf6jxxk","address":"650 Expo Boulevard","lat":49.278229,"long":-123.109634},"type":"Feature","geometry":{"type":"Point","coordinates":[-123.109634,49.278229]}},{"properties":{"plate":"0287GE","tickets":1.0,"id":"a6jrbmq6zdr4","address":"750 Georgia St. W.","lat":49.28281,"long":-123.118652},"type":"Feature","geometry":{"type":"Point","coordinates":[-123.118652,49.28281]}},{"properties":{"plate":"0287GE","tickets":1.0,"id":"a6jrbmjzrbym","address":"1250 Burrard St.","lat":49.278458,"long":-123.130135},"type":"Feature","geometry":{"type":"Point","coordinates":[-123.130135,49.278458]}},{"properties":{"plate":"0287GE","tickets":1.0,"id":"a6jrbmf4q1h1","address":"750 Howe St.","lat":49.282566,"long":-123.12001},"type":"Feature","geometry":{"type":"Point","coordinates":[-123.12001,49.282566]}},{"properties":{"plate":"0287GE","tickets":1.0,"id":"a6jrbmspaxzs","address":"750 Jervis St.","lat":49.287395,"long":-123.127953},"type":"Feature","geometry":{"type":"Point","coordinates":[-123.127953,49.287395]}},{"properties":{"plate":"0287GE","tickets":1.0,"id":"a6jrbml24p1e","address":"950 Dunsmuir St.","lat":49.285255,"long":-123.118881},"type":"Feature","geometry":{"type":"Point","coordinates":[-123.118881,49.285255]}},{"properties":{"plate":"0287GE","tickets":1.0,"id":"a6jrbmo1nf35","address":"750 Robson St.","lat":49.281704,"long":-123.120346},"type":"Feature","geometry":{"type":"Point","coordinates":[-123.120346,49.281704]}},{"properties":{"plate":"0287GE","tickets":1.0,"id":"a6jrbmsmzbe1","address":"50 2nd Ave E.","lat":49.26918,"long":-123.103691},"type":"Feature","geometry":{"type":"Point","coordinates":[-123.103691,49.26918]}},{"properties":{"plate":"0287GE","tickets":1.0,"id":"a6jrbml20367","address":"6250 Fraser St.","lat":49.22781,"long":-123.090607},"type":"Feature","geometry":{"type":"Point","coordinates":[-123.090607,49.22781]}},{"properties":{"plate":"0287GE","tickets":1.0,"id":"a6jrbmiqhb3s","address":"1050 Granville St.","lat":49.278717,"long":-123.12384},"type":"Feature","geometry":{"type":"Point","coordinates":[-123.12384,49.278717]}},{"properties":{"plate":"0287GE","tickets":1.0,"id":"a6jrbmf3uqji","address":"1750 5th Ave W.","lat":49.267136,"long":-123.144485},"type":"Feature","geometry":{"type":"Point","coordinates":[-123.144485,49.267136]}},{"properties":{"plate":"0287GE","tickets":1.0,"id":"a6jrbmgpg484","address":"150 Hastings St. W.","lat":49.282249,"long":-123.108459},"type":"Feature","geometry":{"type":"Point","coordinates":[-123.108459,49.282249]}},{"properties":{"plate":"0287GE","tickets":1.0,"id":"a6jrbmqa2x68","address":"1950 Yew St.","lat":49.268597,"long":-123.155121},"type":"Feature","geometry":{"type":"Point","coordinates":[-123.155121,49.268597]}},{"properties":{"plate":"0287GE","tickets":1.0,"id":"a6jrbmr1w3ft","address":"150 Terminal Ave.","lat":49.272892,"long":-123.100838},"type":"Feature","geometry":{"type":"Point","coordinates":[-123.100838,49.272892]}},{"properties":{"plate":"0287GE","tickets":1.0,"id":"a6jrbmhnp1e6","address":"150 Hastings St. E.","lat":49.281376,"long":-123.100952},"type":"Feature","geometry":{"type":"Point","coordinates":[-123.100952,49.281376]}},{"properties":{"plate":"0287GE","tickets":1.0,"id":"a6jrbmg96eft","address":"150 Broadway St. E.","lat":49.263084,"long":-123.108185},"type":"Feature","geometry":{"type":"Point","coordinates":[-123.108185,49.263084]}},{"properties":{"plate":"0287GE","tickets":1.0,"id":"a6jrbmrrabv8","address":"350 Robson St.","lat":49.279163,"long":-123.116425},"type":"Feature","geometry":{"type":"Point","coordinates":[-123.116425,49.279163]}},{"properties":{"plate":"0287GE","tickets":1.0,"id":"a6jrbmkpvdqu","address":"1750 Broadway St. W.","lat":49.263737,"long":-123.144539},"type":"Feature","geometry":{"type":"Point","coordinates":[-123.144539,49.263737]}},{"properties":{"plate":"0287GE","tickets":1.0,"id":"a6jrbmr8277e","address":"350 Burrard St.","lat":49.287415,"long":-123.116585},"type":"Feature","geometry":{"type":"Point","coordinates":[-123.116585,49.287415]}},{"properties":{"plate":"0287GE","tickets":1.0,"id":"a6jrbmq3b90h","address":"1650 Robson St.","lat":49.289951,"long":-123.133095},"type":"Feature","geometry":{"type":"Point","coordinates":[-123.133095,49.289951]}},{"properties":{"plate":"0287GE","tickets":1.0,"id":"a6jrbmqlgehp","address":"550 Howe St.","lat":49.284374,"long":-123.117226},"type":"Feature","geometry":{"type":"Point","coordinates":[-123.117226,49.284374]}},{"properties":{"plate":"0287GE","tickets":1.0,"id":"a6jrbmfihhyk","address":"550 Robson St.","lat":49.280422,"long":-123.11834},"type":"Feature","geometry":{"type":"Point","coordinates":[-123.11834,49.280422]}},{"properties":{"plate":"0287GE","tickets":1.0,"id":"a6jrbmul87bl","address":"2450 Waterloo St.","lat":49.264729,"long":-123.179817},"type":"Feature","geometry":{"type":"Point","coordinates":[-123.179817,49.264729]}},{"properties":{"plate":"0287GE","tickets":1.0,"id":"a6jrbmjlxbsw","address":"1550 Robson St.","lat":49.289047,"long":-123.131714},"type":"Feature","geometry":{"type":"Point","coordinates":[-123.131714,49.289047]}},{"properties":{"plate":"0287GE","tickets":1.0,"id":"a6jrbmq6di7g","address":"2450 Granville St.","lat":49.26408,"long":-123.138542},"type":"Feature","geometry":{"type":"Point","coordinates":[-123.138542,49.26408]}},{"properties":{"plate":"0287GE","tickets":2.0,"id":"a6jrbmu3ighi","address":"950 Hastings St. W.","lat":49.286934,"long":-123.116356},"type":"Feature","geometry":{"type":"Point","coordinates":[-123.116356,49.286934]}},{"properties":{"plate":"0287GE","tickets":2.0,"id":"a6jrbmj3o58o","address":"950 Denman St.","lat":49.289944,"long":-123.137749},"type":"Feature","geometry":{"type":"Point","coordinates":[-123.137749,49.289944]}},{"properties":{"plate":"0287GE","tickets":2.0,"id":"a6jrbmf857wi","address":"950 Canada Pl.","lat":49.287926,"long":-123.114876},"type":"Feature","geometry":{"type":"Point","coordinates":[-123.114876,49.287926]}},{"properties":{"plate":"0287GE","tickets":2.0,"id":"a6jrbmt84e0f","address":"1050 Pender St. W.","lat":49.287041,"long":-123.119003},"type":"Feature","geometry":{"type":"Point","coordinates":[-123.119003,49.287041]}},{"properties":{"plate":"0287GE","tickets":2.0,"id":"a6jrbmmetmbu","address":"1050 Georgia St. W.","lat":49.284943,"long":-123.121918},"type":"Feature","geometry":{"type":"Point","coordinates":[-123.121918,49.284943]}},{"properties":{"plate":"0287GE","tickets":2.0,"id":"a6jrbmf7wygr","address":"1250 Howe St.","lat":49.277267,"long":-123.128006},"type":"Feature","geometry":{"type":"Point","coordinates":[-123.128006,49.277267]}},{"properties":{"plate":"0287GE","tickets":2.0,"id":"a6jrbmtjlv38","address":"1850 Commercial Dr.","lat":49.268238,"long":-123.069679},"type":"Feature","geometry":{"type":"Point","coordinates":[-123.069679,49.268238]}},{"properties":{"plate":"0287GE","tickets":2.0,"id":"a6jrbmsv7a9g","address":"850 Pender St. W.","lat":49.285603,"long":-123.116364},"type":"Feature","geometry":{"type":"Point","coordinates":[-123.116364,49.285603]}},{"properties":{"plate":"0287GE","tickets":2.0,"id":"a6jrbmnxhw1m","address":"1650 Davie St.","lat":49.285744,"long":-123.139465},"type":"Feature","geometry":{"type":"Point","coordinates":[-123.139465,49.285744]}},{"properties":{"plate":"0287GE","tickets":2.0,"id":"a6jrbmspi9ut","address":"1050 Alberni St.","lat":49.284691,"long":-123.122704},"type":"Feature","geometry":{"type":"Point","coordinates":[-123.122704,49.284691]}},{"properties":{"plate":"0287GE","tickets":2.0,"id":"a6jrbmglfyth","address":"50 Keefer Pl.","lat":49.279533,"long":-123.106567},"type":"Feature","geometry":{"type":"Point","coordinates":[-123.106567,49.279533]}},{"properties":{"plate":"0287GE","tickets":2.0,"id":"a6jrbmmejdpa","address":"650 Georgia St. W.","lat":49.282158,"long":-123.117645},"type":"Feature","geometry":{"type":"Point","coordinates":[-123.117645,49.282158]}},{"properties":{"plate":"0287GE","tickets":2.0,"id":"a6jrbmlaqycl","address":"650 Granville St.","lat":49.283043,"long":-123.117279},"type":"Feature","geometry":{"type":"Point","coordinates":[-123.117279,49.283043]}},{"properties":{"plate":"0287GE","tickets":2.0,"id":"a6jrbmg3e20e","address":"150 Keefer Pl.","lat":49.279781,"long":-123.108017},"type":"Feature","geometry":{"type":"Point","coordinates":[-123.108017,49.279781]}},{"properties":{"plate":"0287GE","tickets":2.0,"id":"a6jrbmhrfbv7","address":"650 Helmcken St.","lat":49.27787,"long":-123.124115},"type":"Feature","geometry":{"type":"Point","coordinates":[-123.124115,49.27787]}},{"properties":{"plate":"0287GE","tickets":2.0,"id":"a6jrbmirb862","address":"650 Thurlow St.","lat":49.286087,"long":-123.122566},"type":"Feature","geometry":{"type":"Point","coordinates":[-123.122566,49.286087]}},{"properties":{"plate":"0287GE","tickets":2.0,"id":"a6jrbmqa3do8","address":"50 Hastings St. W.","lat":49.281738,"long":-123.105759},"type":"Feature","geometry":{"type":"Point","coordinates":[-123.105759,49.281738]}},{"properties":{"plate":"0287GE","tickets":2.0,"id":"a6jrbmpnlejy","address":"850 Broadway St. W.","lat":49.263336,"long":-123.123032},"type":"Feature","geometry":{"type":"Point","coordinates":[-123.123032,49.263336]}},{"properties":{"plate":"0287GE","tickets":2.0,"id":"a6jrbmrk2t02","address":"850 Cordova St. W.","lat":49.286942,"long":-123.114388},"type":"Feature","geometry":{"type":"Point","coordinates":[-123.114388,49.286942]}},{"properties":{"plate":"0287GE","tickets":2.0,"id":"a6jrbmk2egj0","address":"750 Pender St. W.","lat":49.284973,"long":-123.115356},"type":"Feature","geometry":{"type":"Point","coordinates":[-123.115356,49.284973]}},{"properties":{"plate":"0287GE","tickets":3.0,"id":"a6jrbmieg5oj","address":"650 Broadway St. W.","lat":49.263271,"long":-123.118729},"type":"Feature","geometry":{"type":"Point","coordinates":[-123.118729,49.263271]}},{"properties":{"plate":"0287GE","tickets":4.0,"id":"a6jrbmm2po5e","address":"550 Burrard St.","lat":49.285641,"long":-123.119324},"type":"Feature","geometry":{"type":"Point","coordinates":[-123.119324,49.285641]}},{"properties":{"plate":"0287GE","tickets":5.0,"id":"a6jrbmpz0rih","address":"750 Nelson St.","lat":49.279587,"long":-123.12355},"type":"Feature","geometry":{"type":"Point","coordinates":[-123.12355,49.279587]}},{"properties":{"plate":"0287GE","tickets":5.0,"id":"a6jrbmi06uwb","address":"650 Burrard St.","lat":49.285275,"long":-123.11985},"type":"Feature","geometry":{"type":"Point","coordinates":[-123.11985,49.285275]}},{"properties":{"plate":"0287GE","tickets":5.0,"id":"a6jrbmj1y4ef","address":"2550 Granville St.","lat":49.263103,"long":-123.138573},"type":"Feature","geometry":{"type":"Point","coordinates":[-123.138573,49.263103]}},{"properties":{"plate":"0287GE","tickets":5.0,"id":"a6jrbmjmbakr","address":"550 Abbott St.","lat":49.280373,"long":-123.107605},"type":"Feature","geometry":{"type":"Point","coordinates":[-123.107605,49.280373]}},{"properties":{"plate":"0287GE","tickets":6.0,"id":"a6jrbmjedtcz","address":"650 Smithe St.","lat":49.279991,"long":-123.120911},"type":"Feature","geometry":{"type":"Point","coordinates":[-123.120911,49.279991]}},{"properties":{"plate":"0287GE","tickets":6.0,"id":"a6jrbmow8u28","address":"650 Hornby St.","lat":49.284313,"long":-123.11924},"type":"Feature","geometry":{"type":"Point","coordinates":[-123.11924,49.284313]}},{"properties":{"plate":"0287GE","tickets":6.0,"id":"a6jrbmgcypcr","address":"750 Hornby St.","lat":49.283184,"long":-123.120949},"type":"Feature","geometry":{"type":"Point","coordinates":[-123.120949,49.283184]}},{"properties":{"plate":"0287GE","tickets":7.0,"id":"a6jrbmlzd9ck","address":"750 Dunsmuir St.","lat":49.283958,"long":-123.116882},"type":"Feature","geometry":{"type":"Point","coordinates":[-123.116882,49.283958]}},{"properties":{"plate":"0287GE","tickets":7.0,"id":"a6jrbmppovqd","address":"550 Hornby St.","lat":49.285408,"long":-123.117599},"type":"Feature","geometry":{"type":"Point","coordinates":[-123.117599,49.285408]}},{"properties":{"plate":"0287GE","tickets":7.0,"id":"a6jrbmi8leel","address":"950 Burrard St.","lat":49.281754,"long":-123.12516},"type":"Feature","geometry":{"type":"Point","coordinates":[-123.12516,49.281754]}},{"properties":{"plate":"0287GE","tickets":8.0,"id":"a6jrbmv1zo2n","address":"1050 Dunsmuir St.","lat":49.285927,"long":-123.120216},"type":"Feature","geometry":{"type":"Point","coordinates":[-123.120216,49.285927]}},{"properties":{"plate":"0287GE","tickets":8.0,"id":"a6jrbmqxu2ax","address":"1250 Robson St.","lat":49.286495,"long":-123.127762},"type":"Feature","geometry":{"type":"Point","coordinates":[-123.127762,49.286495]}},{"properties":{"plate":"0287GE","tickets":9.0,"id":"a6jrbmpt1sdw","address":"1150 Alberni St.","lat":49.286064,"long":-123.124832},"type":"Feature","geometry":{"type":"Point","coordinates":[-123.124832,49.286064]}},{"properties":{"plate":"0287GE","tickets":10.0,"id":"a6jrbmiyfn8d","address":"450 Hornby St.","lat":49.286255,"long":-123.116356},"type":"Feature","geometry":{"type":"Point","coordinates":[-123.116356,49.286255]}},{"properties":{"plate":"0287GE","tickets":10.0,"id":"a6jrbms3sklh","address":"950 Robson St.","lat":49.282967,"long":-123.122292},"type":"Feature","geometry":{"type":"Point","coordinates":[-123.122292,49.282967]}},{"properties":{"plate":"0287GE","tickets":10.0,"id":"a6jrbmtpz5yv","address":"750 Helmcken St.","lat":49.27853,"long":-123.125122},"type":"Feature","geometry":{"type":"Point","coordinates":[-123.125122,49.27853]}},{"properties":{"plate":"0287GE","tickets":11.0,"id":"a6jrbmtqi73k","address":"1150 Davie St.","lat":49.281109,"long":-123.132301},"type":"Feature","geometry":{"type":"Point","coordinates":[-123.132301,49.281109]}},{"properties":{"plate":"0287GE","tickets":11.0,"id":"a6jrbmm3tk6g","address":"850 Davie St.","lat":49.278111,"long":-123.12767},"type":"Feature","geometry":{"type":"Point","coordinates":[-123.12767,49.278111]}},{"properties":{"plate":"0287GE","tickets":12.0,"id":"a6jrbmtpugqh","address":"1150 Burrard St.","lat":49.279587,"long":-123.128418},"type":"Feature","geometry":{"type":"Point","coordinates":[-123.128418,49.279587]}},{"properties":{"plate":"0287GE","tickets":12.0,"id":"a6jrbmhuekwh","address":"850 Hornby St.","lat":49.282097,"long":-123.122581},"type":"Feature","geometry":{"type":"Point","coordinates":[-123.122581,49.282097]}},{"properties":{"plate":"0287GE","tickets":13.0,"id":"a6jrbmu2ofdz","address":"550 Seymour St.","lat":49.283531,"long":-123.114571},"type":"Feature","geometry":{"type":"Point","coordinates":[-123.114571,49.283531]}},{"properties":{"plate":"0287GE","tickets":13.0,"id":"a6jrbmt3ml68","address":"750 Burrard St.","lat":49.28368,"long":-123.122185},"type":"Feature","geometry":{"type":"Point","coordinates":[-123.122185,49.28368]}},{"properties":{"plate":"0287GE","tickets":13.0,"id":"a6jrbmqrhw2x","address":"850 Hastings St. W.","lat":49.286293,"long":-123.115349},"type":"Feature","geometry":{"type":"Point","coordinates":[-123.115349,49.286293]}},{"properties":{"plate":"0287GE","tickets":16.0,"id":"a6jrbmii7w59","address":"1150 Hornby St.","lat":49.278919,"long":-123.12738},"type":"Feature","geometry":{"type":"Point","coordinates":[-123.12738,49.278919]}},{"properties":{"plate":"0287GE","tickets":18.0,"id":"a6jrbmon4qoj","address":"1050 Robson St.","lat":49.283955,"long":-123.123848},"type":"Feature","geometry":{"type":"Point","coordinates":[-123.123848,49.283955]}},{"properties":{"plate":"0287GE","tickets":29.0,"id":"a6jrbmmsm2nw","address":"1050 Burrard St.","lat":49.280472,"long":-123.12709},"type":"Feature","geometry":{"type":"Point","coordinates":[-123.12709,49.280472]}},{"properties":{"plate":"0287GE","tickets":104.0,"id":"a6jrbmqlcwnk","address":"1150 Robson St.","lat":49.285301,"long":-123.125923},"type":"Feature","geometry":{"type":"Point","coordinates":[-123.125923,49.285301]}}],"is_temporal":false,"author":{"url":"","metadata":"","contact_name":"","contact_address":"","source":"","contact_phone":""},"source":"","pagination":{"sort":null,"start":0,"total":82,"limit":1000000},"state":"complete","tags":"","published":"2014-08-10T22:03:36-04:00","id":16802}