{"type":"FeatureCollection","data_type":"Dataset","url_type":null,"permissions":[{"permissions":{"download":true,"view":true},"group_id":"everyone"}],"classification":null,"title":"U.S. Post Office Branches Identified for Full Closing Study","count":413,"stream_id":16867,"contributor":{"url":"http://geocommons.com/users/7156","name":"kate"},"data_attributes":null,"calculation_params":null,"icon_link":null,"link":"http://geocommons.com/overlays/16867.json","extent":[-123.079,18.0158,-66.0103,46.8916],"geometry_types":["point"],"unique_name":null,"name":"U.S. Post Office Branches Identified for Full Closing Study","feature_count":413,"description":"United States Postal Service Station Branches Identified for Full Study as published in the Washington Post on October 9th citing the USPS as a source.","next_feature":null,"is_raster":false,"short_classification":"Y","stats":{"geo_score":{"max":1.0,"mean":0.885106537530267,"variance":0.025531173088225,"stdev":0.159784771139884,"min":0.0,"median":0.935}},"features":[{"properties":{"city":"Huntsville","geo_score":0.878,"zip code":"35816-9998","street address":"645 Wynn Dr NW","station/branch name":"HSV-Wynn Drive Sta","id":"a66wiye2y1ot","geo_precision":"range","state":"AL"},"type":"Feature","geometry":{"type":"Point","coordinates":[-86.65292,34.737005]}},{"properties":{"city":"Montgomery","geo_score":1.0,"zip code":"36110-9998","street address":"501 Johnson Ave","station/branch name":"MGY-Boylston","id":"a66wiy6l5bqd","geo_precision":"range","state":"AL"},"type":"Feature","geometry":{"type":"Point","coordinates":[-86.278794,32.426576]}},{"properties":{"city":"Montgomery","geo_score":0.927,"zip code":"36107-9998","street address":"2260 Mt. Meigs Rd","station/branch name":"MGY-Capitol Heights Sta","id":"a66wiyfuqw5c","geo_precision":"range","state":"AL"},"type":"Feature","geometry":{"type":"Point","coordinates":[-86.27554,32.379614]}},{"properties":{"city":"Mobile","geo_score":1.0,"zip code":"36611-1599","street address":"411 Parker Lane","station/branch name":"MOB-Chickasaw Fin","id":"a66wiyfn2hww","geo_precision":"range","state":"AL"},"type":"Feature","geometry":{"type":"Point","coordinates":[-88.077869,30.770272]}},{"properties":{"city":"Mobile","geo_score":0.571,"zip code":"36613-9998","street address":"4545 Saint Stephens Rd","station/branch name":"MOB-Eight Mile Fin","id":"a66wiygmmx7y","geo_precision":"street","state":"AL"},"type":"Feature","geometry":{"type":"Point","coordinates":[-88.082593,30.706328]}},{"properties":{"city":"Tuscaloosa","geo_score":0.927,"zip code":"35404-9998","street address":"955 26th Ave E","station/branch name":"TCL-Eastside Sta","id":"a66wiy8bybe0","geo_precision":"range","state":"AL"},"type":"Feature","geometry":{"type":"Point","coordinates":[-87.504016,33.2052]}},{"properties":{"city":"Little Rock","geo_score":0.927,"zip code":"72206-6729","street address":"3301 E Roosevelt Rd Ste 2","station/branch name":"Aerospace","id":"a66wiy9w8gv7","geo_precision":"range","state":"AR"},"type":"Feature","geometry":{"type":"Point","coordinates":[-92.239739,34.720115]}},{"properties":{"city":"Fort Smith","geo_score":0.721,"zip code":"72906-9998","street address":"5200 S 32nd St","station/branch name":"Ft Smith Rogers Avenue Station","id":"a66wiy8xdqwc","geo_precision":"range","state":"AR"},"type":"Feature","geometry":{"type":"Point","coordinates":[-94.399437,35.332376]}},{"properties":{"city":"Little Rock","geo_score":0.808,"zip code":"72212-9998","street address":"11619 Pleasant Ridge Dr","station/branch name":"Pleasant Ridge Station","id":"a66wiy9rno9q","geo_precision":"street","state":"AR"},"type":"Feature","geometry":{"type":"Point","coordinates":[-92.40764,34.796135]}},{"properties":{"city":"Fort Smith","geo_score":0.721,"zip code":"72906-9998","street address":"5200 S 32nd St","station/branch name":"South Ft Smith Station","id":"a66wiyg8ksgx","geo_precision":"range","state":"AR"},"type":"Feature","geometry":{"type":"Point","coordinates":[-94.399437,35.332376]}},{"properties":{"city":"Tucson","geo_score":0.542,"zip code":"85712-9998","street address":"5401 E 5th St","station/branch name":"Tucson Midtown","id":"a66wiy3cs1kh","geo_precision":"street","state":"AZ"},"type":"Feature","geometry":{"type":"Point","coordinates":[-110.865594,32.25208]}},{"properties":{"city":"Santa Ana","geo_score":0.721,"zip code":"92705-9998","street address":"1609 N King","station/branch name":"SNA-King Sta","id":"a66wiy4vyz90","geo_precision":"range","state":"CA"},"type":"Feature","geometry":{"type":"Point","coordinates":[-117.898218,33.759173]}},{"properties":{"city":"American Canyon","geo_score":1.0,"zip code":"94503-9991","street address":"310 Crawford Way","station/branch name":"American Canyon Br Site","id":"a66wiygpbcb1","geo_precision":"range","state":"CA"},"type":"Feature","geometry":{"type":"Point","coordinates":[-122.255775,38.168333]}},{"properties":{"city":"Hayward","geo_score":1.0,"zip code":"94541-9991","street address":"822 C Street","station/branch name":"Bradford","id":"a66wiy8co9e5","geo_precision":"range","state":"CA"},"type":"Feature","geometry":{"type":"Point","coordinates":[-122.083789,37.670589]}},{"properties":{"city":"Concord","geo_score":1.0,"zip code":"94521-9991","street address":"4494 Treat Blvd","station/branch name":"Casa Correo","id":"a66wiy3lk9nh","geo_precision":"range","state":"CA"},"type":"Feature","geometry":{"type":"Point","coordinates":[-121.99276,37.964662]}},{"properties":{"city":"San Jose","geo_score":0.707,"zip code":"95172-9998","street address":"200 S 3rd St","station/branch name":"Colonnade","id":"a66wiy6apk8c","geo_precision":"range","state":"CA"},"type":"Feature","geometry":{"type":"Point","coordinates":[-121.88576,37.333545]}},{"properties":{"city":"Oakland","geo_score":0.805,"zip code":"94612-9991","street address":"2226 Macarthur Blvd","station/branch name":"Dimond","id":"a66wiyhcd1pg","geo_precision":"range","state":"CA"},"type":"Feature","geometry":{"type":"Point","coordinates":[-122.215999,37.800223]}},{"properties":{"city":"Oakland","geo_score":1.0,"zip code":"94612-9994","street address":"300 Lakeside Dr","station/branch name":"Kaiser Center","id":"a66wiyddav48","geo_precision":"range","state":"CA"},"type":"Feature","geometry":{"type":"Point","coordinates":[-122.26378,37.808927]}},{"properties":{"city":"Berkeley","geo_score":1.0,"zip code":"94707-9991","street address":"1831 Solano Ave","station/branch name":"Landscape","id":"a66wiy4brru6","geo_precision":"range","state":"CA"},"type":"Feature","geometry":{"type":"Point","coordinates":[-122.279182,37.891361]}},{"properties":{"city":"Oakland","geo_score":0.899,"zip code":"94613-9992","street address":"P O Box 99992","station/branch name":"Mills College","id":"a66wiyacnd0w","geo_precision":"zip","state":"CA"},"type":"Feature","geometry":{"type":"Point","coordinates":[-122.186573,37.781098]}},{"properties":{"city":"Richmond","geo_score":1.0,"zip code":"94805-9991","street address":"12651 San Pablo Ave","station/branch name":"Mira Vista Station","id":"a66wiy8zifhx","geo_precision":"range","state":"CA"},"type":"Feature","geometry":{"type":"Point","coordinates":[-122.328585,37.942843]}},{"properties":{"city":"Fremont","geo_score":1.0,"zip code":"94539-9991","street address":"43456 Ellsworth St","station/branch name":"Mission San Jose","id":"a66wiyelet2q","geo_precision":"range","state":"CA"},"type":"Feature","geometry":{"type":"Point","coordinates":[-121.92084,37.530823]}},{"properties":{"city":"Hayward","geo_score":0.805,"zip code":"94557-9991","street address":"2163 Aldengate Way","station/branch name":"Mount Eden","id":"a66wiy2bu2hk","geo_precision":"range","state":"CA"},"type":"Feature","geometry":{"type":"Point","coordinates":[-122.097345,37.633264]}},{"properties":{"city":"Fremont","geo_score":1.0,"zip code":"94536-9991","street address":"160 J Street","station/branch name":"Niles","id":"a66wiy9szm0a","geo_precision":"range","state":"CA"},"type":"Feature","geometry":{"type":"Point","coordinates":[-121.977041,37.575811]}},{"properties":{"city":"Oakland","geo_score":1.0,"zip code":"94612-9992","street address":"1446 Franklin St","station/branch name":"Oakland Station B","id":"a66wiyg08rau","geo_precision":"range","state":"CA"},"type":"Feature","geometry":{"type":"Point","coordinates":[-122.269716,37.804313]}},{"properties":{"city":"Oakland","geo_score":0.805,"zip code":"94661-9993","street address":"1954 Mountain Blvd","station/branch name":"Oakland Station E","id":"a66wiyapn3jn","geo_precision":"range","state":"CA"},"type":"Feature","geometry":{"type":"Point","coordinates":[-122.210584,37.828314]}},{"properties":{"city":"San Jose","geo_score":0.878,"zip code":"95123-9998","street address":"925a Blossom Hill Rd","station/branch name":"Oakridge Mall","id":"a66wiy8dwas7","geo_precision":"range","state":"CA"},"type":"Feature","geometry":{"type":"Point","coordinates":[-121.861696,37.250393]}},{"properties":{"city":"Berkeley","geo_score":1.0,"zip code":"94702-9991","street address":"2900 Sacramento St","station/branch name":"Park Station","id":"a66wiy8xnb6d","geo_precision":"range","state":"CA"},"type":"Feature","geometry":{"type":"Point","coordinates":[-122.279491,37.854915]}},{"properties":{"city":"Richmond","geo_score":0.805,"zip code":"94807-9991","street address":"104 Washington Ave","station/branch name":"Point Richmond Station","id":"a66wiyeqzur6","geo_precision":"range","state":"CA"},"type":"Feature","geometry":{"type":"Point","coordinates":[-122.384845,37.927044]}},{"properties":{"city":"Richmond","geo_score":0.805,"zip code":"94808-9991","street address":"200 Broadway","station/branch name":"Richmond Station A","id":"a66wiygft3pf","geo_precision":"range","state":"CA"},"type":"Feature","geometry":{"type":"Point","coordinates":[-122.344581,37.933824]}},{"properties":{"city":"San Pablo","geo_score":0.902,"zip code":"94806-9991","street address":"2080 23rd St","station/branch name":"San Pablo Branch","id":"a66wiyfa28x9","geo_precision":"range","state":"CA"},"type":"Feature","geometry":{"type":"Point","coordinates":[-122.345868,37.961463]}},{"properties":{"city":"Berkeley","geo_score":1.0,"zip code":"94703-9991","street address":"3175 Adeline St","station/branch name":"South Berkeley","id":"a66wiyb5hjf4","geo_precision":"range","state":"CA"},"type":"Feature","geometry":{"type":"Point","coordinates":[-122.270721,37.850994]}},{"properties":{"city":"Concord","geo_score":0.427,"zip code":"94522-9991","street address":"2043 East St","station/branch name":"Todos Santos","id":"a66wiyc6uzup","geo_precision":"street","state":"CA"},"type":"Feature","geometry":{"type":"Point","coordinates":[-122.079407,37.578489]}},{"properties":{"city":"Vallejo","geo_score":1.0,"zip code":"94590-9991","street address":"1015 Amador St","station/branch name":"Vallejo Station A","id":"a66wiyajj7hw","geo_precision":"range","state":"CA"},"type":"Feature","geometry":{"type":"Point","coordinates":[-122.24334,38.109041]}},{"properties":{"city":"Los Angeles","geo_score":1.0,"zip code":"90012-9998","street address":"1055 N Vignes St","station/branch name":"Arcade Station","id":"a66wiy5dvdr3","geo_precision":"range","state":"CA"},"type":"Feature","geometry":{"type":"Point","coordinates":[-118.234625,34.060967]}},{"properties":{"city":"Los Angeles","geo_score":0.862,"zip code":"90071-9998","street address":"505 S Flower Sta ARCO Plaza","station/branch name":"Arco Plaza Station","id":"a66wiyem9hnn","geo_precision":"range","state":"CA"},"type":"Feature","geometry":{"type":"Point","coordinates":[-118.256126,34.051507]}},{"properties":{"city":"Los Angeles","geo_score":0.907,"zip code":"90008-9998","street address":"3650 Martin L. King Blvd.","station/branch name":"Baldwin Cren Plaza Store","id":"a66wiya2wkor","geo_precision":"range","state":"CA"},"type":"Feature","geometry":{"type":"Point","coordinates":[-118.336358,34.011519]}},{"properties":{"city":"Los Angeles","geo_score":1.0,"zip code":"90071-9998","street address":"300 S. Grand Ave","station/branch name":"Bunker Hill Retail Unit","id":"a66wiy408duf","geo_precision":"range","state":"CA"},"type":"Feature","geometry":{"type":"Point","coordinates":[-118.251204,34.053022]}},{"properties":{"city":"Los Angeles","geo_score":0.927,"zip code":"90067-9998","street address":"10250 Santa Monica Blvd Rm 165","station/branch name":"Century City Mall Station","id":"a66wiy8guhbn","geo_precision":"range","state":"CA"},"type":"Feature","geometry":{"type":"Point","coordinates":[-118.420512,34.059593]}},{"properties":{"city":"Los Angeles","geo_score":0.707,"zip code":"90067-9998","street address":"9911 W. Pico Lev B","station/branch name":"Century City Station","id":"a66wiy2vd059","geo_precision":"range","state":"CA"},"type":"Feature","geometry":{"type":"Point","coordinates":[-118.404439,34.053171]}},{"properties":{"city":"Los Angeles","geo_score":1.0,"zip code":"90011-9998","street address":"4352 S Central Ave","station/branch name":"Col. Washington Station","id":"a66wiyfvb5pu","geo_precision":"range","state":"CA"},"type":"Feature","geometry":{"type":"Point","coordinates":[-118.256482,34.004806]}},{"properties":{"city":"Los Angeles","geo_score":0.616,"zip code":"90046-9998","street address":"1125 N.Fairfax Ave.","station/branch name":"Cole Branch","id":"a66wiy6yybx5","geo_precision":"zip","state":"CA"},"type":"Feature","geometry":{"type":"Point","coordinates":[-118.298662,33.786594]}},{"properties":{"city":"Inglewood","geo_score":0.812,"zip code":"90303-9998","street address":"2672 W Imperial Hwy","station/branch name":"Crenshaw-Imperial Prt","id":"a66wiyhewq95","geo_precision":"street","state":"CA"},"type":"Feature","geometry":{"type":"Point","coordinates":[-118.32389,33.930909]}},{"properties":{"city":"Los Angeles","geo_score":0.922,"zip code":"90015-9998","street address":"819 W. Washington","station/branch name":"Del Valle Retail Station","id":"a66wiydyuoyu","geo_precision":"range","state":"CA"},"type":"Feature","geometry":{"type":"Point","coordinates":[-118.276203,34.036269]}},{"properties":{"city":"Los Angeles","geo_score":0.617,"zip code":"90012-9998","street address":"300 N. Los Angeles","station/branch name":"Federal Finance Station","id":"a66wiybm0p5i","geo_precision":"zip","state":"CA"},"type":"Feature","geometry":{"type":"Point","coordinates":[-118.298662,33.786594]}},{"properties":{"city":"Redondo Beach","geo_score":0.908,"zip code":"90278-9997","street address":"1815 Hawthorne Blvd Ste 377","station/branch name":"Galleria Station","id":"a66wiy4yc13p","geo_precision":"range","state":"CA"},"type":"Feature","geometry":{"type":"Point","coordinates":[-118.352449,33.870345]}},{"properties":{"city":"Hermosa Beach","geo_score":1.0,"zip code":"90254-9998","street address":"565 Pier Ave","station/branch name":"Hermosa Beach Branch","id":"a66wiyeiftxc","geo_precision":"range","state":"CA"},"type":"Feature","geometry":{"type":"Point","coordinates":[-118.395851,33.864518]}},{"properties":{"city":"Los Angeles","geo_score":1.0,"zip code":"90042-9998","street address":"5930 N. Figueroa Street","station/branch name":"Highland Park Station","id":"a66wiyep7xv0","geo_precision":"range","state":"CA"},"type":"Feature","geometry":{"type":"Point","coordinates":[-118.189645,34.111148]}},{"properties":{"city":"Los Angeles","geo_score":0.908,"zip code":"90028-6101","street address":"6801 Hollywood Blvd Ste 167","station/branch name":"Hollywood Pavilion Store","id":"a66wiy351ygk","geo_precision":"range","state":"CA"},"type":"Feature","geometry":{"type":"Point","coordinates":[-118.338695,34.101545]}},{"properties":{"city":"Inglewood","geo_score":1.0,"zip code":"90304-9998","street address":"4443 Lennox Blvd","station/branch name":"Lennox Branch","id":"a66wiyb5ly18","geo_precision":"range","state":"CA"},"type":"Feature","geometry":{"type":"Point","coordinates":[-118.353858,33.938199]}},{"properties":{"city":"Los Angeles","geo_score":0.902,"zip code":"90021-9998","street address":"1122 E 7th St","station/branch name":"Market Station","id":"a66wiyc6hyud","geo_precision":"range","state":"CA"},"type":"Feature","geometry":{"type":"Point","coordinates":[-118.243034,34.038065]}},{"properties":{"city":"Inglewood","geo_score":0.916,"zip code":"90305-9998","street address":"3212 W 85th St","station/branch name":"Morningside Pk Sta","id":"a66wiyebm3r6","geo_precision":"range","state":"CA"},"type":"Feature","geometry":{"type":"Point","coordinates":[-118.327726,33.96088]}},{"properties":{"city":"Inglewood","geo_score":0.619,"zip code":"90302-9998","street address":"811 N La Brea","station/branch name":"N Inglewood Station","id":"a66wiy1y33to","geo_precision":"zip","state":"CA"},"type":"Feature","geometry":{"type":"Point","coordinates":[-118.298662,33.786594]}},{"properties":{"city":"Redondo Beach","geo_score":0.947,"zip code":"90278-9998","street address":"2215 Artesia Bl","station/branch name":"North Redondo Station","id":"a66wiy8rr5f4","geo_precision":"range","state":"CA"},"type":"Feature","geometry":{"type":"Point","coordinates":[-118.372213,33.872838]}},{"properties":{"city":"Los Angeles","geo_score":0.78,"zip code":"90082-9998","street address":"5115 So Figueroa Street","station/branch name":"Ramirez Station","id":"a66wiy474cr8","geo_precision":"range","state":"CA"},"type":"Feature","geometry":{"type":"Point","coordinates":[-118.282676,33.996382]}},{"properties":{"city":"Los Angeles","geo_score":0.805,"zip code":"90072-9998","street address":"1385 N. Western Ave","station/branch name":"Santa Western Station","id":"a66wiycdig41","geo_precision":"range","state":"CA"},"type":"Feature","geometry":{"type":"Point","coordinates":[-118.309224,34.096541]}},{"properties":{"city":"Los Angeles","geo_score":1.0,"zip code":"90015-9998","street address":"100 W. Olympic Blvd.","station/branch name":"Textile Finance Station","id":"a66wiygww3t6","geo_precision":"range","state":"CA"},"type":"Feature","geometry":{"type":"Point","coordinates":[-118.256716,34.040455]}},{"properties":{"city":"Los Angeles","geo_score":1.0,"zip code":"90002-9998","street address":"10301 Compton Ave.","station/branch name":"Watts Station","id":"a66wiybiz35g","geo_precision":"range","state":"CA"},"type":"Feature","geometry":{"type":"Point","coordinates":[-118.246242,33.943249]}},{"properties":{"city":"Los Angeles","geo_score":0.935,"zip code":"90064-9998","street address":"10850 W Pico Bl","station/branch name":"Westside Pavilion","id":"a66wiy2hftz1","geo_precision":"range","state":"CA"},"type":"Feature","geometry":{"type":"Point","coordinates":[-118.428488,34.040116]}},{"properties":{"city":"Los Angeles","geo_score":1.0,"zip code":"90062-9998","street address":"1515 W. Vernon Ave.","station/branch name":"Westvern","id":"a66wiy5zh5l8","geo_precision":"range","state":"CA"},"type":"Feature","geometry":{"type":"Point","coordinates":[-118.303936,34.003706]}},{"properties":{"city":"Los Angeles","geo_score":0.805,"zip code":"90050-9998","street address":"5132 York Blvd","station/branch name":"York Station","id":"a66wiyeva2ry","geo_precision":"range","state":"CA"},"type":"Feature","geometry":{"type":"Point","coordinates":[-118.204185,34.120936]}},{"properties":{"city":"Fresno","geo_score":0.912,"zip code":"93702-9998","street address":"4475 E Tulare","station/branch name":"Fresno Barton","id":"a66wiy9uqh22","geo_precision":"range","state":"CA"},"type":"Feature","geometry":{"type":"Point","coordinates":[-119.750753,36.743145]}},{"properties":{"city":"Fresno","geo_score":1.0,"zip code":"93725-9998","street address":"4026 E Jensen Ave","station/branch name":"Fresno Calwa","id":"a66wiy9ow0k2","geo_precision":"range","state":"CA"},"type":"Feature","geometry":{"type":"Point","coordinates":[-119.756917,36.706934]}},{"properties":{"city":"Fresno","geo_score":0.581,"zip code":"93721-2296","street address":"2309 Tulare Ave","station/branch name":"Fresno Civic Center Downton Station","id":"a66wiy8bga91","geo_precision":"street","state":"CA"},"type":"Feature","geometry":{"type":"Point","coordinates":[-119.777448,36.742871]}},{"properties":{"city":"Modesto","geo_score":1.0,"zip code":"95354-9998","street address":"1125 I Street","station/branch name":"Modesto El Viejo","id":"a66wiy6kvv7c","geo_precision":"range","state":"CA"},"type":"Feature","geometry":{"type":"Point","coordinates":[-120.99801,37.640442]}},{"properties":{"city":"Stockton","geo_score":0.973,"zip code":"95204-9998","street address":"2616 Pacific Avenue","station/branch name":"Stockton Tuxedo Park","id":"a66wiy350jn7","geo_precision":"range","state":"CA"},"type":"Feature","geometry":{"type":"Point","coordinates":[-121.30239,37.974328]}},{"properties":{"city":"Riverside","geo_score":0.927,"zip code":"92505-9997","street address":"11134 Pierce Place","station/branch name":"Riv--La Sierra","id":"a66wiyfzd36y","geo_precision":"range","state":"CA"},"type":"Feature","geometry":{"type":"Point","coordinates":[-117.48963,33.918765]}},{"properties":{"city":"San Diego","geo_score":1.0,"zip code":"92102-9998","street address":"2692 C Street","station/branch name":"George Washington","id":"a66wiyhpehux","geo_precision":"range","state":"CA"},"type":"Feature","geometry":{"type":"Point","coordinates":[-117.136233,32.716871]}},{"properties":{"city":"Moreno Valley","geo_score":1.0,"zip code":"92555-9998","street address":"28980 Alessandro Blvd","station/branch name":"Moreno Station","id":"a66wiy6auswa","geo_precision":"range","state":"CA"},"type":"Feature","geometry":{"type":"Point","coordinates":[-117.157103,33.917479]}},{"properties":{"city":"San Diego","geo_score":0.35,"zip code":"92155-9998","street address":"3420 Guadacanal Rd Bldg 16","station/branch name":"Naval Amphibious Base","id":"a66wiyc81vd0","geo_precision":"street","state":"CA"},"type":"Feature","geometry":{"type":"Point","coordinates":[-117.162813,32.805735]}},{"properties":{"city":"San Diego","geo_score":1.0,"zip code":"92104-9998","street address":"3791 Grim Ave","station/branch name":"North Park Retail","id":"a66wiyfrqlqg","geo_precision":"range","state":"CA"},"type":"Feature","geometry":{"type":"Point","coordinates":[-117.128233,32.747265]}},{"properties":{"city":"Chula Vista","geo_score":0.927,"zip code":"91911-9998","street address":"340 Oxford","station/branch name":"Rancho Del Rey","id":"a66wiyalfou2","geo_precision":"range","state":"CA"},"type":"Feature","geometry":{"type":"Point","coordinates":[-117.068374,32.610055]}},{"properties":{"city":"San Bernardino","geo_score":0.782,"zip code":"92412-9998","street address":"455 Orange Show Lane","station/branch name":"San Bernardino Finance","id":"a66wiy5u63s5","geo_precision":"range","state":"CA"},"type":"Feature","geometry":{"type":"Point","coordinates":[-117.292731,34.081048]}},{"properties":{"city":"Oceanside","geo_score":0.707,"zip code":"92068-9998","street address":"3774 Mission Ave","station/branch name":"San Luis Rey","id":"a66wiy2y20ny","geo_precision":"street","state":"CA"},"type":"Feature","geometry":{"type":"Point","coordinates":[-117.331482,33.22544]}},{"properties":{"city":"San Diego","geo_score":1.0,"zip code":"92122-9996","street address":"3298 Governor Dr","station/branch name":"University City Retail","id":"a66wiybvtxlc","geo_precision":"range","state":"CA"},"type":"Feature","geometry":{"type":"Point","coordinates":[-117.215296,32.851098]}},{"properties":{"city":"San Francisco","geo_score":0.912,"zip code":"94110-9992","street address":"189 Tiffany St","station/branch name":"Bernal","id":"a66wiyhnvnge","geo_precision":"range","state":"CA"},"type":"Feature","geometry":{"type":"Point","coordinates":[-122.421568,37.744116]}},{"properties":{"city":"San Francisco","geo_score":1.0,"zip code":"94102-9992","street address":"450 Golden Gate Ave","station/branch name":"Federal","id":"a66wiy9rr7tu","geo_precision":"range","state":"CA"},"type":"Feature","geometry":{"type":"Point","coordinates":[-122.417816,37.781339]}},{"properties":{"city":"San Francisco","geo_score":1.0,"zip code":"94134-9992","street address":"2755 San Bruno Ave","station/branch name":"Mclaren","id":"a66wiy6vfdpt","geo_precision":"range","state":"CA"},"type":"Feature","geometry":{"type":"Point","coordinates":[-122.403379,37.726972]}},{"properties":{"city":"Anaheim","geo_score":0.805,"zip code":"92814-9998","street address":"2255 W Ball Rd","station/branch name":"ANA-Brookhurst","id":"a66wiyf7qotf","geo_precision":"range","state":"CA"},"type":"Feature","geometry":{"type":"Point","coordinates":[-117.961639,33.817738]}},{"properties":{"city":"Anaheim","geo_score":0.973,"zip code":"92808-9998","street address":"8161 Kaiser Blvd","station/branch name":"ANA-Canyon Sta","id":"a66wiy2wkmcs","geo_precision":"range","state":"CA"},"type":"Feature","geometry":{"type":"Point","coordinates":[-117.744247,33.865848]}},{"properties":{"city":"Anaheim","geo_score":0.805,"zip code":"92815-9998","street address":"333 W Broadway","station/branch name":"ANA-Federal Sta","id":"a66wiyh5z7m8","geo_precision":"range","state":"CA"},"type":"Feature","geometry":{"type":"Point","coordinates":[-117.916704,33.832462]}},{"properties":{"city":"Anaheim","geo_score":0.717,"zip code":"92825-9998","street address":"711 E. Ball Road #100","station/branch name":"ANA-Stadium Sta","id":"a66wiy7tv20a","geo_precision":"range","state":"CA"},"type":"Feature","geometry":{"type":"Point","coordinates":[-117.901208,33.818087]}},{"properties":{"city":"Irvine","geo_score":0.805,"zip code":"92650-9998","street address":"14982 Sand Canyon Ave","station/branch name":"IRV-East Irvine Sta","id":"a66wiy4bwazf","geo_precision":"range","state":"CA"},"type":"Feature","geometry":{"type":"Point","coordinates":[-117.759533,33.676145]}},{"properties":{"city":"Long Beach","geo_score":0.967,"zip code":"90805-9997","street address":"101 E Market St","station/branch name":"LBC-No Long Beach","id":"a66wiyazpgpo","geo_precision":"range","state":"CA"},"type":"Feature","geometry":{"type":"Point","coordinates":[-118.198471,33.854262]}},{"properties":{"city":"Long Beach","geo_score":0.907,"zip code":"90832-9998","street address":"P O Box 32000","station/branch name":"LBC-Trade Center","id":"a66wiy66f152","geo_precision":"zip","state":"CA"},"type":"Feature","geometry":{"type":"Point","coordinates":[-118.298662,33.786594]}},{"properties":{"city":"Pomona","geo_score":1.0,"zip code":"91767-9998","street address":"2138 N Garey Ave","station/branch name":"Pomona - Yorba Sta","id":"a66wiyavknu1","geo_precision":"range","state":"CA"},"type":"Feature","geometry":{"type":"Point","coordinates":[-117.75113,34.086393]}},{"properties":{"city":"Rancho Cucamonga","geo_score":1.0,"zip code":"91739-9998","street address":"7615 Etiwanda Ave","station/branch name":"RC - Etiwanda","id":"a66wiyb7wi8p","geo_precision":"range","state":"CA"},"type":"Feature","geometry":{"type":"Point","coordinates":[-117.523576,34.114816]}},{"properties":{"city":"Alta Loma","geo_score":0.902,"zip code":"91701-9998","street address":"6649 Amethyst St","station/branch name":"RC- Alta Loma","id":"a66wiy9ux80n","geo_precision":"range","state":"CA"},"type":"Feature","geometry":{"type":"Point","coordinates":[-117.598276,34.133457]}},{"properties":{"city":"Santa Ana","geo_score":1.0,"zip code":"92704-9998","street address":"1517 S Greenville St","station/branch name":"SNA-Diamond Sta","id":"a66wiycmav1l","geo_precision":"range","state":"CA"},"type":"Feature","geometry":{"type":"Point","coordinates":[-117.9003,33.726671]}},{"properties":{"city":"Santa Ana","geo_score":1.0,"zip code":"92705-9998","street address":"2230 S Grand Ave","station/branch name":"SNA-Industrial Sta","id":"a66wiy82z16p","geo_precision":"range","state":"CA"},"type":"Feature","geometry":{"type":"Point","coordinates":[-117.850582,33.716848]}},{"properties":{"city":"Torrance","geo_score":1.0,"zip code":"90503-9998","street address":"291 Del Amo Fashion Square","station/branch name":"Torrance - Del Amo Sta","id":"a66wiyarowiu","geo_precision":"range","state":"CA"},"type":"Feature","geometry":{"type":"Point","coordinates":[-118.351294,33.828443]}},{"properties":{"city":"Torrance","geo_score":0.927,"zip code":"90501-9998","street address":"1433 Marcelina","station/branch name":"Torrance - Marcelina Sta","id":"a66wiye3oa0d","geo_precision":"range","state":"CA"},"type":"Feature","geometry":{"type":"Point","coordinates":[-118.315263,33.833912]}},{"properties":{"city":"Torrance","geo_score":1.0,"zip code":"90505-9998","street address":"4216 Pacific Coast Hwy","station/branch name":"Torrance - Walteria Sta","id":"a66wiy9eodvz","geo_precision":"range","state":"CA"},"type":"Feature","geometry":{"type":"Point","coordinates":[-118.357991,33.807694]}},{"properties":{"city":"Whittier","geo_score":0.976,"zip code":"90606-9998","street address":"8232 S Norwalk Blvd","station/branch name":"Whittier - Los Nietos Br","id":"a66wiyhno727","geo_precision":"range","state":"CA"},"type":"Feature","geometry":{"type":"Point","coordinates":[-118.071554,33.968847]}},{"properties":{"city":"Bassett","geo_score":1.0,"zip code":"91746-9998","street address":"512 Workman Mill Rd","station/branch name":"La Puente-Bassett Br","id":"a66wiygoem1n","geo_precision":"range","state":"CA"},"type":"Feature","geometry":{"type":"Point","coordinates":[-118.000034,34.039493]}},{"properties":{"city":"La Puente","geo_score":1.0,"zip code":"91744-9998","street address":"15559 Rausch Rd","station/branch name":"La Puente-City Of Industry","id":"a66wiyaqj55q","geo_precision":"range","state":"CA"},"type":"Feature","geometry":{"type":"Point","coordinates":[-117.956397,34.021829]}},{"properties":{"city":"Laguna Beach","geo_score":0.707,"zip code":"92652-9998","street address":"31677 Virginia Way","station/branch name":"LAG-South Laguna Sta","id":"a66wiyevhlws","geo_precision":"street","state":"CA"},"type":"Feature","geometry":{"type":"Point","coordinates":[-117.743835,33.502714]}},{"properties":{"city":"Bridgeport","geo_score":1.0,"zip code":"06608-9998","street address":"934 East Main Street","station/branch name":"Bridgeport-Noble","id":"a66wiyf2guwz","geo_precision":"range","state":"CT"},"type":"Feature","geometry":{"type":"Point","coordinates":[-73.180747,41.187394]}},{"properties":{"city":"West Haven","geo_score":0.78,"zip code":"06516-7099","street address":"14 Ocean Avenue","station/branch name":"New Haven-Baybrook","id":"a66wiya8fah1","geo_precision":"range","state":"CT"},"type":"Feature","geometry":{"type":"Point","coordinates":[-72.986689,41.235779]}},{"properties":{"city":"East Haven","geo_score":0.707,"zip code":"06512-3099","street address":"175 Main Street","station/branch name":"New Haven-Trolley Square","id":"a66wiyerauk1","geo_precision":"range","state":"CT"},"type":"Feature","geometry":{"type":"Point","coordinates":[-72.871,41.277621]}},{"properties":{"city":"Washington","geo_score":1.0,"zip code":"20010-9998","street address":"3321 Georgia Ave NW","station/branch name":"Columbia Heights Finance","id":"a66wiy2mqk2v","geo_precision":"range","state":"DC"},"type":"Feature","geometry":{"type":"Point","coordinates":[-77.023564,38.931365]}},{"properties":{"city":"Washington","geo_score":0.659,"zip code":"20020-9998","street address":"3843 Penn Ave SE","station/branch name":"Fort Davis","id":"a66wiyf4z92c","geo_precision":"street","state":"DC"},"type":"Feature","geometry":{"type":"Point","coordinates":[-76.989195,38.862491]}},{"properties":{"city":"Washington","geo_score":0.976,"zip code":"20001-9996","street address":"416 Florida Ave NE","station/branch name":"Ledroit Park","id":"a66wiy3s5xhp","geo_precision":"range","state":"DC"},"type":"Feature","geometry":{"type":"Point","coordinates":[-77.018109,38.914646]}},{"properties":{"city":"Washington","geo_score":1.0,"zip code":"20375-0001","street address":"4555 Overlook Ave SW","station/branch name":"Naval Research Laboratory","id":"a66wiy21k0ax","geo_precision":"range","state":"DC"},"type":"Feature","geometry":{"type":"Point","coordinates":[-77.017367,38.824543]}},{"properties":{"city":"Washington","geo_score":0.61,"zip code":"20370-0002","street address":"2 Navy Annexu S P S Room G073","station/branch name":"Navy Annex","id":"a66wiyb83ybj","geo_precision":"zip","state":"DC"},"type":"Feature","geometry":{"type":"Point","coordinates":[-77.014647,38.893311]}},{"properties":{"city":"Washington","geo_score":1.0,"zip code":"20002-9997","street address":"1563 Maryland Ave NE","station/branch name":"Northeast","id":"a66wiyhoswt3","geo_precision":"range","state":"DC"},"type":"Feature","geometry":{"type":"Point","coordinates":[-76.981911,38.900765]}},{"properties":{"city":"Washington","geo_score":0.916,"zip code":"20011-9996","street address":"4211 9th Street NW","station/branch name":"Petworth","id":"a66wiyb5qp9z","geo_precision":"range","state":"DC"},"type":"Feature","geometry":{"type":"Point","coordinates":[-77.025072,38.941991]}},{"properties":{"city":"Washington","geo_score":1.0,"zip code":"20020-9996","street address":"2306 Prout Street SE","station/branch name":"Randle","id":"a66wiyb67yd1","geo_precision":"range","state":"DC"},"type":"Feature","geometry":{"type":"Point","coordinates":[-76.973448,38.873474]}},{"properties":{"city":"Washington","geo_score":0.878,"zip code":"20018-9998","street address":"2211 Rhode Island Ave NE","station/branch name":"Woodridge","id":"a66wiyfwlbpb","geo_precision":"range","state":"DC"},"type":"Feature","geometry":{"type":"Point","coordinates":[-76.973994,38.930124]}},{"properties":{"city":"Jacksonville","geo_score":0.683,"zip code":"32229-9998","street address":"14350 Pecan Park Rd","station/branch name":"JAX-Airport Station","id":"a66wiy5njc48","geo_precision":"range","state":"FL"},"type":"Feature","geometry":{"type":"Point","coordinates":[-81.669752,30.49519]}},{"properties":{"city":"Jacksonville","geo_score":1.0,"zip code":"32277-9998","street address":"7707 Merrill Road","station/branch name":"JAX-Arlington Sta","id":"a66wiy6efw7y","geo_precision":"range","state":"FL"},"type":"Feature","geometry":{"type":"Point","coordinates":[-81.568714,30.352174]}},{"properties":{"city":"Baldwin","geo_score":0.971,"zip code":"32234-9998","street address":"199 S Center St S","station/branch name":"JAX-Baldwin Sta","id":"a66wiy7q555z","geo_precision":"range","state":"FL"},"type":"Feature","geometry":{"type":"Point","coordinates":[-81.975614,30.301047]}},{"properties":{"city":"Jacksonville","geo_score":0.403,"zip code":"32221-9998","street address":"13618 Fretwell Dr","station/branch name":"JAX-Cecil Field Fsta","id":"a66wiyf8v4sd","geo_precision":"street","state":"FL"},"type":"Feature","geometry":{"type":"Point","coordinates":[-81.566284,30.354969]}},{"properties":{"city":"Jacksonville","geo_score":0.805,"zip code":"32206-9998","street address":"1601-1 N Main St","station/branch name":"JAX-Eddie Mae Steward Fsta","id":"a66wiy565e4c","geo_precision":"range","state":"FL"},"type":"Feature","geometry":{"type":"Point","coordinates":[-81.657907,30.326219]}},{"properties":{"city":"Jacksonville","geo_score":0.786,"zip code":"32210-9998","street address":"5501 Wesconnett Bvd","station/branch name":"JAX-Lake Shore Sta","id":"a66wiyh258wj","geo_precision":"street","state":"FL"},"type":"Feature","geometry":{"type":"Point","coordinates":[-81.738997,30.248405]}},{"properties":{"city":"Panama City","geo_score":1.0,"zip code":"32404-7261","street address":"5310 E Highway 98","station/branch name":"PFN-Eastside Sta","id":"a66wiy71a43b","geo_precision":"range","state":"FL"},"type":"Feature","geometry":{"type":"Point","coordinates":[-85.592434,30.128709]}},{"properties":{"city":"Pensacola","geo_score":0.912,"zip code":"32502-5629","street address":"101 Palafox Pl","station/branch name":"PNS-Downtown Sta","id":"a66wiy476zit","geo_precision":"range","state":"FL"},"type":"Feature","geometry":{"type":"Point","coordinates":[-87.215547,30.414271]}},{"properties":{"city":"Tallahassee","geo_score":1.0,"zip code":"32304-9998","street address":"2020 W Pensacola St","station/branch name":"TLH-Westside Sta","id":"a66wiy5cc32v","geo_precision":"range","state":"FL"},"type":"Feature","geometry":{"type":"Point","coordinates":[-84.317581,30.440612]}},{"properties":{"city":"Boca Raton","geo_score":0.916,"zip code":"33432-9996","street address":"170 Ne 2 St","station/branch name":"BOC-Downtown Sta","id":"a66wiydq4uhk","geo_precision":"range","state":"FL"},"type":"Feature","geometry":{"type":"Point","coordinates":[-80.084453,26.352361]}},{"properties":{"city":"Davie","geo_score":0.581,"zip code":"33355-9998","street address":"11600 W State Rd 84","station/branch name":"FTL-Westside Br","id":"a66wiyej423d","geo_precision":"street","state":"FL"},"type":"Feature","geometry":{"type":"Point","coordinates":[-80.144767,26.09275]}},{"properties":{"city":"Hialeah","geo_score":0.916,"zip code":"33010-9998","street address":"325 E 1 Ave","station/branch name":"HIA-Main Office Sta","id":"a66wiygu6jwx","geo_precision":"range","state":"FL"},"type":"Feature","geometry":{"type":"Point","coordinates":[-80.279386,25.824745]}},{"properties":{"city":"Pembroke Pines","geo_score":0.716,"zip code":"33026-9998","street address":"12590 Pines Blvd","station/branch name":"HOL-Flamingo Br","id":"a66wiy5nedq8","geo_precision":"street","state":"FL"},"type":"Feature","geometry":{"type":"Point","coordinates":[-80.312016,26.007856]}},{"properties":{"city":"Hollywood","geo_score":0.805,"zip code":"33081-9998","street address":"4429 Hollywood Blvd","station/branch name":"HOL-Hillcrest Finance","id":"a66wiyezdye5","geo_precision":"range","state":"FL"},"type":"Feature","geometry":{"type":"Point","coordinates":[-80.187759,26.010546]}},{"properties":{"city":"Lantana","geo_score":0.971,"zip code":"33462-2863","street address":"201 W Ocean Blvd","station/branch name":"LKW-Lantana Br","id":"a66wiygbfu3f","geo_precision":"range","state":"FL"},"type":"Feature","geometry":{"type":"Point","coordinates":[-80.039093,26.583367]}},{"properties":{"city":"Surfside","geo_score":0.514,"zip code":"33154-9998","street address":"250 95 St","station/branch name":"MBH-Surfside Br","id":"a66wiyi0jjrj","geo_precision":"street","state":"FL"},"type":"Feature","geometry":{"type":"Point","coordinates":[-80.122571,25.885258]}},{"properties":{"city":"Miami","geo_score":0.878,"zip code":"33299-9998","street address":"4th Fl Miami Intnl Airport","station/branch name":"MIA- International Airport Finance","id":"a66wiyfsop6d","geo_precision":"zip","state":"FL"},"type":"Feature","geometry":{"type":"Point","coordinates":[-80.458168,25.558428]}},{"properties":{"city":"Miami","geo_score":0.732,"zip code":"33151-9998","street address":"760 Nw 62 St","station/branch name":"MIA-Edison Center Fsta","id":"a66wiy44j3lv","geo_precision":"range","state":"FL"},"type":"Feature","geometry":{"type":"Point","coordinates":[-80.209616,25.832234]}},{"properties":{"city":"Miami","geo_score":1.0,"zip code":"33170-9998","street address":"22350 Old Dixie Highway","station/branch name":"MIA-Goulds Fsta","id":"a66wiyf14frl","geo_precision":"range","state":"FL"},"type":"Feature","geometry":{"type":"Point","coordinates":[-80.389225,25.559539]}},{"properties":{"city":"Miami","geo_score":0.837,"zip code":"33166-9998","street address":"5600 Nw 72 Ave","station/branch name":"MIA-Milam Dairy Br","id":"a66wiy7hpu74","geo_precision":"range","state":"FL"},"type":"Feature","geometry":{"type":"Point","coordinates":[-80.313693,25.824389]}},{"properties":{"city":"West Palm Beach","geo_score":0.707,"zip code":"33405-9998","street address":"840 Southern Blvd","station/branch name":"WPB-Southboro","id":"a66wiy8oddog","geo_precision":"range","state":"FL"},"type":"Feature","geometry":{"type":"Point","coordinates":[-80.061536,26.675898]}},{"properties":{"city":"Spring Hill","geo_score":1.0,"zip code":"34606-4300","street address":"7341 Spring Hill Dr","station/branch name":"BKS-Plaza","id":"a66wiy3vocq1","geo_precision":"range","state":"FL"},"type":"Feature","geometry":{"type":"Point","coordinates":[-82.596431,28.45086]}},{"properties":{"city":"Clearwater Beach","geo_score":0.902,"zip code":"33767-9998","street address":"45 Causeway Blvd","station/branch name":"CLW-Beach Sta","id":"a66wiyg5x2mv","geo_precision":"range","state":"FL"},"type":"Feature","geometry":{"type":"Point","coordinates":[-82.827623,27.977089]}},{"properties":{"city":"Clearwater","geo_score":1.0,"zip code":"33755-9998","street address":"650 Cleveland St","station/branch name":"CLW-Cleveland Sta","id":"a66wiyexarnf","geo_precision":"range","state":"FL"},"type":"Feature","geometry":{"type":"Point","coordinates":[-82.797679,27.965629]}},{"properties":{"city":"Clearwater","geo_score":0.963,"zip code":"33763-2002","street address":"25941 Us Hwy 19 N","station/branch name":"CLW-Countryside Postal","id":"a66wiyb7zzp5","geo_precision":"range","state":"FL"},"type":"Feature","geometry":{"type":"Point","coordinates":[-82.730799,28.008693]}},{"properties":{"city":"Ft Myers","geo_score":0.517,"zip code":"33901-8121","street address":"3954 Broadway St","station/branch name":"FMY-Miracle Mile Sta","id":"a66wiy28b1cv","geo_precision":"street","state":"FL"},"type":"Feature","geometry":{"type":"Point","coordinates":[-81.867711,26.612415]}},{"properties":{"city":"Kissimmee","geo_score":1.0,"zip code":"34743-9998","street address":"503 Florida Parkway","station/branch name":"KIS-Buena Ventura Lakes Br","id":"a66wiy8pvvh7","geo_precision":"range","state":"FL"},"type":"Feature","geometry":{"type":"Point","coordinates":[-81.351007,28.32845]}},{"properties":{"city":"Kissimmee","geo_score":0.983,"zip code":"34746-7265","street address":"4191 S Orange Blossom Tr","station/branch name":"KIS-Good Samaritan Br","id":"a66wiyamwykv","geo_precision":"range","state":"FL"},"type":"Feature","geometry":{"type":"Point","coordinates":[-81.448579,28.257956]}},{"properties":{"city":"Lakeland","geo_score":1.0,"zip code":"33803-9998","street address":"1057 S Florida Avenue","station/branch name":"LKL-Dixieland Finance","id":"a66wiy6j6d8a","geo_precision":"range","state":"FL"},"type":"Feature","geometry":{"type":"Point","coordinates":[-81.957121,28.030627]}},{"properties":{"city":"Naples","geo_score":0.916,"zip code":"34102-6706","street address":"860 6th Ave S","station/branch name":"NPS-Downtown Station","id":"a66wiya759bn","geo_precision":"range","state":"FL"},"type":"Feature","geometry":{"type":"Point","coordinates":[-81.795192,26.140759]}},{"properties":{"city":"Naples","geo_score":1.0,"zip code":"34116-6530","street address":"11665 Collier Blvd","station/branch name":"NPS-Golden Gate Finance","id":"a66wiybfdkyp","geo_precision":"range","state":"FL"},"type":"Feature","geometry":{"type":"Point","coordinates":[-81.687069,26.184471]}},{"properties":{"city":"Naples","geo_score":1.0,"zip code":"34108-8709","street address":"851 Vanderbilt Beach Road","station/branch name":"NPS-Vanderbilt Beach","id":"a66wiyey9wlh","geo_precision":"range","state":"FL"},"type":"Feature","geometry":{"type":"Point","coordinates":[-81.81531,26.252569]}},{"properties":{"city":"Orlando","geo_score":1.0,"zip code":"32805-9998","street address":"440 S. Orange Blossom Trail","station/branch name":"ORL-Arthur Kennedy Station","id":"a66wiy1xpn7d","geo_precision":"range","state":"FL"},"type":"Feature","geometry":{"type":"Point","coordinates":[-81.39721,28.53719]}},{"properties":{"city":"Orlando","geo_score":1.0,"zip code":"32803-9998","street address":"611 N. Mills Ave","station/branch name":"ORL-Colonialtown Station","id":"a66wiy6vpvfj","geo_precision":"range","state":"FL"},"type":"Feature","geometry":{"type":"Point","coordinates":[-81.364434,28.551778]}},{"properties":{"city":"Orlando","geo_score":0.875,"zip code":"32822-9998","street address":"6301 Hazeltine Nat'l Dr Ste 120","station/branch name":"ORL-Lee Vista Station","id":"a66wiygxjzv8","geo_precision":"range","state":"FL"},"type":"Feature","geometry":{"type":"Point","coordinates":[-81.296725,28.459143]}},{"properties":{"city":"Orlando","geo_score":1.0,"zip code":"32810-9998","street address":"5087 Edgewater Drive","station/branch name":"ORL-Lockhart Branch","id":"a66wiyhrafvh","geo_precision":"range","state":"FL"},"type":"Feature","geometry":{"type":"Point","coordinates":[-81.408721,28.605029]}},{"properties":{"city":"Orlando","geo_score":0.805,"zip code":"32859-9998","street address":"811 Deauville Drive","station/branch name":"ORL-Pine Hills Branch","id":"a66wiycbf6z3","geo_precision":"range","state":"FL"},"type":"Feature","geometry":{"type":"Point","coordinates":[-81.44959,28.553941]}},{"properties":{"city":"Port Charlotte","geo_score":0.408,"zip code":"33954-9998","street address":"19190 Cochran Blvd","station/branch name":"PNTGMurdock","id":"a66wiy2zesuh","geo_precision":"street","state":"FL"},"type":"Feature","geometry":{"type":"Point","coordinates":[-82.251628,26.982115]}},{"properties":{"city":"Sarasota","geo_score":1.0,"zip code":"34239-9998","street address":"2055 Siesta Dr","station/branch name":"SAR-Southgate Sta","id":"a66wiyee6fjh","geo_precision":"range","state":"FL"},"type":"Feature","geometry":{"type":"Point","coordinates":[-82.528909,27.302847]}},{"properties":{"city":"Saint Petersburg","geo_score":0.916,"zip code":"33714-9998","street address":"4001 35th St N","station/branch name":"SPT-Central Sta","id":"a66wiyd6r3gm","geo_precision":"range","state":"FL"},"type":"Feature","geometry":{"type":"Point","coordinates":[-82.681584,27.808304]}},{"properties":{"city":"Saint Petersburg","geo_score":0.927,"zip code":"33704-9998","street address":"901 34th Ave N","station/branch name":"SPT-Euclid Sta","id":"a66wiy43nfmh","geo_precision":"range","state":"FL"},"type":"Feature","geometry":{"type":"Point","coordinates":[-82.646751,27.802961]}},{"properties":{"city":"Saint Petersburg","geo_score":0.902,"zip code":"33706-4334","street address":"103 8th Avenue","station/branch name":"SPT-Pass A Grille","id":"a66wiy937exd","geo_precision":"range","state":"FL"},"type":"Feature","geometry":{"type":"Point","coordinates":[-82.736232,27.687976]}},{"properties":{"city":"Tampa","geo_score":1.0,"zip code":"33616-9998","street address":"6801 S Westshore Blvd","station/branch name":"TPA-Port Tampa","id":"a66wiya3amj3","geo_precision":"range","state":"FL"},"type":"Feature","geometry":{"type":"Point","coordinates":[-82.526977,27.86847]}},{"properties":{"city":"Tampa","geo_score":1.0,"zip code":"33603-9998","street address":"5206 N Florida Ave","station/branch name":"TPA-Seminole Heights Sta","id":"a66wiy8x2zx7","geo_precision":"range","state":"FL"},"type":"Feature","geometry":{"type":"Point","coordinates":[-82.459419,27.994365]}},{"properties":{"city":"Tampa","geo_score":0.916,"zip code":"33617-7104","street address":"8862 N 56th STREET","station/branch name":"TPA-Temple Terrace Branch","id":"a66wiydmhe81","geo_precision":"range","state":"FL"},"type":"Feature","geometry":{"type":"Point","coordinates":[-82.393459,28.02968]}},{"properties":{"city":"Athens","geo_score":0.737,"zip code":"30606-7419","street address":"3700 Atlanta Hwy, Ste 135","station/branch name":"Athens-Ga Square Mall","id":"a66wiy71c6dl","geo_precision":"range","state":"GA"},"type":"Feature","geometry":{"type":"Point","coordinates":[-83.464869,33.940616]}},{"properties":{"city":"Atlanta","geo_score":0.605,"zip code":"31126-9998","street address":"1 Buckhead Loopsuite 115","station/branch name":"ATL-Buckhead","id":"a66wiy5gssus","geo_precision":"zip","state":"GA"},"type":"Feature","geometry":{"type":"Point","coordinates":[-84.47405,33.844371]}},{"properties":{"city":"Atlanta","geo_score":1.0,"zip code":"30308-9998","street address":"570 Piedmont Ave Ne","station/branch name":"ATL-Civic Center","id":"a66wiy9by7uq","geo_precision":"range","state":"GA"},"type":"Feature","geometry":{"type":"Point","coordinates":[-84.381927,33.770113]}},{"properties":{"city":"Atlanta","geo_score":0.797,"zip code":"30303-2705","street address":"1 Cnn Center Mall","station/branch name":"ATL-CNN Postal Store","id":"a66wiyfs8f0i","geo_precision":"range","state":"GA"},"type":"Feature","geometry":{"type":"Point","coordinates":[-84.392113,33.756442]}},{"properties":{"city":"Atlanta","geo_score":1.0,"zip code":"30337-9998","street address":"3799 Main St","station/branch name":"ATL-College Park","id":"a66wiy9b9aik","geo_precision":"range","state":"GA"},"type":"Feature","geometry":{"type":"Point","coordinates":[-84.449633,33.651702]}},{"properties":{"city":"Atlanta","geo_score":0.963,"zip code":"30339-3134","street address":"1101 Cumberland Mall Nw","station/branch name":"ATL-Cumberland Mall","id":"a66wiy1zm305","geo_precision":"range","state":"GA"},"type":"Feature","geometry":{"type":"Point","coordinates":[-84.471471,33.879183]}},{"properties":{"city":"Atlanta","geo_score":1.0,"zip code":"30317-9998","street address":"1926 Hosea L Williams Dr Ne","station/branch name":"ATL-Eastwood","id":"a66wiygizsdn","geo_precision":"range","state":"GA"},"type":"Feature","geometry":{"type":"Point","coordinates":[-84.324572,33.752552]}},{"properties":{"city":"Atlanta","geo_score":1.0,"zip code":"30312-9998","street address":"486 Decatur St Se","station/branch name":"ATL-Gate City Station","id":"a66wiyi4jo6j","geo_precision":"range","state":"GA"},"type":"Feature","geometry":{"type":"Point","coordinates":[-84.371988,33.751256]}},{"properties":{"city":"Atlanta","geo_score":0.963,"zip code":"30331-2601","street address":"2841 Greenbriar Pkwy","station/branch name":"ATL-Greenbriar Mall","id":"a66wiya0kppd","geo_precision":"range","state":"GA"},"type":"Feature","geometry":{"type":"Point","coordinates":[-84.490437,33.687156]}},{"properties":{"city":"Atlanta","geo_score":0.973,"zip code":"30354-9998","street address":"650 South Central Ave","station/branch name":"ATL-Hapeville Sta","id":"a66wiyftav4v","geo_precision":"range","state":"GA"},"type":"Feature","geometry":{"type":"Point","coordinates":[-84.409664,33.65877]}},{"properties":{"city":"Atlanta","geo_score":0.488,"zip code":"30320-7400","street address":"6000 S Terminal","station/branch name":"ATL-Hartsfield Airport P/Store","id":"a66wiyd8scv9","geo_precision":"street","state":"GA"},"type":"Feature","geometry":{"type":"Point","coordinates":[-84.401848,33.756816]}},{"properties":{"city":"Atlanta","geo_score":0.976,"zip code":"30309-9998","street address":"1072 W Peachtree St","station/branch name":"ATL-Midtown Sta","id":"a66wiy5fc7b6","geo_precision":"range","state":"GA"},"type":"Feature","geometry":{"type":"Point","coordinates":[-84.383504,33.78382]}},{"properties":{"city":"Atlanta","geo_score":1.0,"zip code":"30314-9998","street address":"50 Sunset Ave Nw","station/branch name":"ATL-Morris Brown Sta","id":"a66wiy7jd23a","geo_precision":"range","state":"GA"},"type":"Feature","geometry":{"type":"Point","coordinates":[-84.410067,33.755491]}},{"properties":{"city":"Atlanta","geo_score":0.609,"zip code":"31156-9998","street address":"7527 Roswell Rd Ne","station/branch name":"ATL-North Springs","id":"a66wiy73thrg","geo_precision":"zip","state":"GA"},"type":"Feature","geometry":{"type":"Point","coordinates":[-84.47405,33.844371]}},{"properties":{"city":"Macon","geo_score":1.0,"zip code":"31206-9998","street address":"3661 Eisenhower Pkwy","station/branch name":"MAC-Macon Mall","id":"a66wiybsgy7w","geo_precision":"range","state":"GA"},"type":"Feature","geometry":{"type":"Point","coordinates":[-83.696255,32.815906]}},{"properties":{"city":"Macon","geo_score":0.734,"zip code":"31204-9998","street address":"2720 Riverside Dr, Suite 108","station/branch name":"MAC-Riverside Station","id":"a66wiy62qtwn","geo_precision":"range","state":"GA"},"type":"Feature","geometry":{"type":"Point","coordinates":[-83.665022,32.876506]}},{"properties":{"city":"Port Wentworth","geo_score":1.0,"zip code":"31407-9998","street address":"300 Cantyre St","station/branch name":"Port Wentworth","id":"a66wiy6uaivd","geo_precision":"range","state":"GA"},"type":"Feature","geometry":{"type":"Point","coordinates":[-81.16357,32.146817]}},{"properties":{"city":"Pearl Harbor","geo_score":0.0,"zip code":"96860-8598","street address":"150 Pearl Harbor","station/branch name":"MOU 1 Finance Station","id":"a66wiy8b6glu","geo_precision":"unmatched","state":"HI"},"type":"Feature","geometry":null},{"properties":{"city":"Pearl Harbor","geo_score":0.0,"zip code":"96860-8597","street address":"251 Pearl Harbor","station/branch name":"MOU 3 Finance Station","id":"a66wiygqu4o9","geo_precision":"unmatched","state":"HI"},"type":"Feature","geometry":null},{"properties":{"city":"Des Moines","geo_score":1.0,"zip code":"50316-1200","street address":"1354 E Ovid Ave","station/branch name":"East 14th Retail- Des Moines","id":"a66wiy7kjmol","geo_precision":"range","state":"IA"},"type":"Feature","geometry":{"type":"Point","coordinates":[-93.60206,41.625893]}},{"properties":{"city":"Des Moines","geo_score":0.91,"zip code":"50309-2000","street address":"321 E Walnut Ste 120","station/branch name":"East Des Moines","id":"a66wiy6zlipw","geo_precision":"range","state":"IA"},"type":"Feature","geometry":{"type":"Point","coordinates":[-93.613317,41.588131]}},{"properties":{"city":"Boise","geo_score":0.805,"zip code":"83715-9998","street address":"2625 Apollo St.","station/branch name":"Boise Airport Station","id":"a66wiy5zfoyw","geo_precision":"range","state":"ID"},"type":"Feature","geometry":{"type":"Point","coordinates":[-116.213521,43.56764]}},{"properties":{"city":"Boise","geo_score":0.927,"zip code":"83703-9998","street address":"4650 West State","station/branch name":"Boise Collister Station","id":"a66wiy6bgj8v","geo_precision":"range","state":"ID"},"type":"Feature","geometry":{"type":"Point","coordinates":[-116.246542,43.647898]}},{"properties":{"city":"Pocatello","geo_score":1.0,"zip code":"83204-9998","street address":"102 S Main St","station/branch name":"Pocatello Bannock","id":"a66wiyg7w36w","geo_precision":"range","state":"ID"},"type":"Feature","geometry":{"type":"Point","coordinates":[-112.450615,42.862095]}},{"properties":{"city":"Chicago","geo_score":0.935,"zip code":"60609-3240","street address":"4642 S. Bishop","station/branch name":"Chicago-Finance Station L-Fin Sta","id":"a66wiy5gukbn","geo_precision":"range","state":"IL"},"type":"Feature","geometry":{"type":"Point","coordinates":[-87.661343,41.809698]}},{"properties":{"city":"Chicago","geo_score":0.916,"zip code":"60649-9997","street address":"2148 E. 71st St","station/branch name":"Chicago-Finance Station N-Fnd Sta","id":"a66wiy9jsj4j","geo_precision":"range","state":"IL"},"type":"Feature","geometry":{"type":"Point","coordinates":[-87.571968,41.766199]}},{"properties":{"city":"Chicago","geo_score":1.0,"zip code":"60617-6217","street address":"10422 S. Ewing Ave","station/branch name":"Chicago-Finance Station W-Fin Sta","id":"a66wiyd87ghb","geo_precision":"range","state":"IL"},"type":"Feature","geometry":{"type":"Point","coordinates":[-87.535285,41.705982]}},{"properties":{"city":"Chicago","geo_score":1.0,"zip code":"60614-9998","street address":"2405 N Sheffield Ave","station/branch name":"Chicago-Lincoln Park Postal Store-Fin Sta","id":"a66wiy51lbqa","geo_precision":"range","state":"IL"},"type":"Feature","geometry":{"type":"Point","coordinates":[-87.653615,41.925509]}},{"properties":{"city":"Evansville","geo_score":0.875,"zip code":"47710-9998","street address":"4490 First Avenue","station/branch name":"Evansville North Park Finance","id":"a66wiy9o3mr8","geo_precision":"range","state":"IN"},"type":"Feature","geometry":{"type":"Point","coordinates":[-87.574009,38.020299]}},{"properties":{"city":"Fort Wayne","geo_score":0.667,"zip code":"46806-9998","street address":"4171 Diplomat Plaza Center","station/branch name":"Fort Wayne-Diplomat Plaza-Sta","id":"a66wiyeyfald","geo_precision":"street","state":"IN"},"type":"Feature","geometry":{"type":"Point","coordinates":[-85.09376,41.050535]}},{"properties":{"city":"Fort Wayne","geo_score":0.615,"zip code":"46809-9998","street address":"7025 Old Trail Rd","station/branch name":"Fort Wayne-Waynedale-Fin Sta","id":"a66wiy79z9v0","geo_precision":"zip","state":"IN"},"type":"Feature","geometry":{"type":"Point","coordinates":[-85.205071,41.037097]}},{"properties":{"city":"Gary","geo_score":0.916,"zip code":"46406-9998","street address":"5325 W 5th Ave","station/branch name":"Gary-Brunswick-Sta","id":"a66wiybeyqsa","geo_precision":"range","state":"IN"},"type":"Feature","geometry":{"type":"Point","coordinates":[-87.402623,41.601909]}},{"properties":{"city":"Gary","geo_score":0.916,"zip code":"46402-9998","street address":"115 W 5th Ave","station/branch name":"Gary-Downtown Finance-Fin Sta","id":"a66wiyfuoevy","geo_precision":"range","state":"IN"},"type":"Feature","geometry":{"type":"Point","coordinates":[-87.338575,41.602055]}},{"properties":{"city":"Lake Station Branch","geo_score":0.868,"zip code":"46405-9998","street address":"2901 Central Ave","station/branch name":"Gary-Lake Station-Br","id":"a66wiya24di0","geo_precision":"street","state":"IN"},"type":"Feature","geometry":{"type":"Point","coordinates":[-87.24872,41.573081]}},{"properties":{"city":"Gary","geo_score":0.941,"zip code":"46403-9998","street address":"518 S Hancock","station/branch name":"Gary-Miller-Sta","id":"a66wiygg6z9d","geo_precision":"range","state":"IN"},"type":"Feature","geometry":{"type":"Point","coordinates":[-87.266561,41.601176]}},{"properties":{"city":"Indianapolis","geo_score":1.0,"zip code":"46231-9998","street address":"8804 W. Washington St.","station/branch name":"Indianapolis-Bridgeport-Fin Br","id":"a66wiyhcbvxn","geo_precision":"range","state":"IN"},"type":"Feature","geometry":{"type":"Point","coordinates":[-86.316733,39.732272]}},{"properties":{"city":"Indianapolis","geo_score":1.0,"zip code":"46204-9998","street address":"456 N Meridian St","station/branch name":"Indianapolis-Circle City-Sta","id":"a66wiy4rvgdr","geo_precision":"range","state":"IN"},"type":"Feature","geometry":{"type":"Point","coordinates":[-86.157836,39.773692]}},{"properties":{"city":"Indianapolis","geo_score":0.92,"zip code":"46221-9998","street address":"1144 S. Belmont St.","station/branch name":"Indianapolis-West Indianapolis Fin Sta","id":"a66wiyfrizz0","geo_precision":"range","state":"IN"},"type":"Feature","geometry":{"type":"Point","coordinates":[-86.196744,39.751603]}},{"properties":{"city":"South Bend","geo_score":0.596,"zip code":"46619-9998","street address":"150 S Olive St","station/branch name":"South Bend Olive Street Sta","id":"a66wiy8uz123","geo_precision":"street","state":"IN"},"type":"Feature","geometry":{"type":"Point","coordinates":[-86.350607,41.657444]}},{"properties":{"city":"Kansas City","geo_score":1.0,"zip code":"66115-9998","street address":"3210 Fiberglass Road","station/branch name":"Kck-Fairfax","id":"a66wiy7zjzdf","geo_precision":"range","state":"KS"},"type":"Feature","geometry":{"type":"Point","coordinates":[-94.616771,39.146982]}},{"properties":{"city":"Kansas City","geo_score":0.805,"zip code":"66119-9998","street address":"628 Kansas Avenue","station/branch name":"Kck-Packer","id":"a66wiy2sithj","geo_precision":"range","state":"KS"},"type":"Feature","geometry":{"type":"Point","coordinates":[-94.623852,39.0876]}},{"properties":{"city":"Louisville","geo_score":0.927,"zip code":"40214-9998","street address":"307 West Woodlawn","station/branch name":"Louisville Beechmont Finance","id":"a66wiyf2oenp","geo_precision":"range","state":"KY"},"type":"Feature","geometry":{"type":"Point","coordinates":[-85.766325,38.181583]}},{"properties":{"city":"Louisville","geo_score":1.0,"zip code":"40218-9998","street address":"2259 Hikes Lane","station/branch name":"Louisville Buechel Finance","id":"a66wiy44biv9","geo_precision":"range","state":"KY"},"type":"Feature","geometry":{"type":"Point","coordinates":[-85.658713,38.200051]}},{"properties":{"city":"Louisville","geo_score":0.805,"zip code":"40224-9998","street address":"9858 Linn Station Road","station/branch name":"Louisville Plainview Finance","id":"a66wiy54knyc","geo_precision":"range","state":"KY"},"type":"Feature","geometry":{"type":"Point","coordinates":[-85.574767,38.22685]}},{"properties":{"city":"Baton Rouge","geo_score":1.0,"zip code":"70816-8355","street address":"1843 W Muriel Dr","station/branch name":"Gateway Finance Unit (Move To Old Hammond Sta.)","id":"a66wiy5s3org","geo_precision":"range","state":"LA"},"type":"Feature","geometry":{"type":"Point","coordinates":[-91.060416,30.435655]}},{"properties":{"city":"Baton Rouge","geo_score":0.41,"zip code":"70803-0001","street address":"110 Lsu Student Union Bldg","station/branch name":"University Station (Lsu)","id":"a66wiy78aray","geo_precision":"street","state":"LA"},"type":"Feature","geometry":{"type":"Point","coordinates":[-91.043499,30.490726]}},{"properties":{"city":"Springfield","geo_score":1.0,"zip code":"01103-9998","street address":"1149 Main St","station/branch name":"Springfield-Colonial","id":"a66wiybb18ct","geo_precision":"range","state":"MA"},"type":"Feature","geometry":{"type":"Point","coordinates":[-72.58621,42.100427]}},{"properties":{"city":"Wellesley","geo_score":0.805,"zip code":"02457-9998","street address":"231 Forest St.","station/branch name":"Babson Park","id":"a66wiyh9ury0","geo_precision":"range","state":"MA"},"type":"Feature","geometry":{"type":"Point","coordinates":[-71.176028,42.431663]}},{"properties":{"city":"Chestnut Hill","geo_score":1.0,"zip code":"02467-9991","street address":"136 Commonwealth Ave","station/branch name":"Boston Coll.","id":"a66wiyeki3t2","geo_precision":"range","state":"MA"},"type":"Feature","geometry":{"type":"Point","coordinates":[-71.170963,42.338058]}},{"properties":{"city":"Boston","geo_score":1.0,"zip code":"02215-9998","street address":"775 Commonwealth Ave","station/branch name":"Boston Univ.","id":"a66wiyf0quuu","geo_precision":"range","state":"MA"},"type":"Feature","geometry":{"type":"Point","coordinates":[-71.109144,42.350451]}},{"properties":{"city":"Cambridge","geo_score":0.721,"zip code":"02139-9992","street address":"86 Mass. Ave.","station/branch name":"Cambridge-M.I.T.","id":"a66wiybqnfad","geo_precision":"range","state":"MA"},"type":"Feature","geometry":{"type":"Point","coordinates":[-70.941719,42.201081]}},{"properties":{"city":"Boston","geo_score":0.667,"zip code":"02109-9996","street address":"1 Faneuil Hall Sq. Ste. 7","station/branch name":"Fanueil Hall","id":"a66wiyac4hst","geo_precision":"range","state":"MA"},"type":"Feature","geometry":{"type":"Point","coordinates":[-71.149965,42.3548]}},{"properties":{"city":"East Boston","geo_score":0.639,"zip code":"02228-9742","street address":"235 East Prescott Street","station/branch name":"Logan Airport","id":"a66wiyg1zdui","geo_precision":"range","state":"MA"},"type":"Feature","geometry":{"type":"Point","coordinates":[-71.024382,42.375036]}},{"properties":{"city":"Newton","geo_score":0.805,"zip code":"02495-9998","street address":"326 Watertown St.","station/branch name":"Nonantum","id":"a66wiye9ekay","geo_precision":"range","state":"MA"},"type":"Feature","geometry":{"type":"Point","coordinates":[-71.199588,42.36094]}},{"properties":{"city":"Boston","geo_score":1.0,"zip code":"02163-9998","street address":"117 Western Ave","station/branch name":"Soldiers Field","id":"a66wiy2k32gd","geo_precision":"range","state":"MA"},"type":"Feature","geometry":{"type":"Point","coordinates":[-71.122619,42.363775]}},{"properties":{"city":"Medford","geo_score":0.805,"zip code":"02153-9998","street address":"470 Boston Ave.","station/branch name":"Tufts Univ.","id":"a66wiyeea6bo","geo_precision":"range","state":"MA"},"type":"Feature","geometry":{"type":"Point","coordinates":[-71.11689,42.407219]}},{"properties":{"city":"Baltimore","geo_score":0.39,"zip code":"21224-2118","street address":"7761-C East Point Mall","station/branch name":"Eastpoint Mall","id":"a66wiyfrjtpr","geo_precision":"street","state":"MD"},"type":"Feature","geometry":{"type":"Point","coordinates":[-76.681637,39.362016]}},{"properties":{"city":"Baltimore","geo_score":0.935,"zip code":"21204-9998","street address":"825 Dulaney Valley Rd","station/branch name":"Towson Towne Center","id":"a66wiy8578ik","geo_precision":"range","state":"MD"},"type":"Feature","geometry":{"type":"Point","coordinates":[-76.601602,39.404411]}},{"properties":{"city":"Bethesda","geo_score":0.805,"zip code":"20814-9998","street address":"5530 Wisconsin Ave","station/branch name":"Friendship Heights","id":"a66wiy2k9npq","geo_precision":"street","state":"MD"},"type":"Feature","geometry":{"type":"Point","coordinates":[-77.09214,38.980064]}},{"properties":{"city":"Hyattsville","geo_score":0.844,"zip code":"20784-9998","street address":"7500 Buchanan","station/branch name":"Landover Hills","id":"a66wiyibxiaw","geo_precision":"street","state":"MD"},"type":"Feature","geometry":{"type":"Point","coordinates":[-76.886693,38.947438]}},{"properties":{"city":"Silver Spring","geo_score":0.805,"zip code":"20911-9998","street address":"8455 Colesville Rd","station/branch name":"Silver Spring Center","id":"a66wiyiejs6j","geo_precision":"range","state":"MD"},"type":"Feature","geometry":{"type":"Point","coordinates":[-77.029723,38.995092]}},{"properties":{"city":"Portland","geo_score":1.0,"zip code":"04101-3359","street address":"622 Congress Street","station/branch name":"Portland Station A","id":"a66wiyi8alm0","geo_precision":"range","state":"ME"},"type":"Feature","geometry":{"type":"Point","coordinates":[-70.264299,43.653597]}},{"properties":{"city":"Ann Arbor","geo_score":0.935,"zip code":"48104-2548","street address":"1214 S. University Ave Ste S104","station/branch name":"Ann Arbor-South University Sta-Fin Sta","id":"a66wiy6i6jcw","geo_precision":"range","state":"MI"},"type":"Feature","geometry":{"type":"Point","coordinates":[-83.734422,42.275021]}},{"properties":{"city":"Dearborn","geo_score":0.916,"zip code":"48126-9998","street address":"4500 Maple","station/branch name":"Dearborn-Maple-Fin Sta","id":"a66wiybqa5jg","geo_precision":"range","state":"MI"},"type":"Feature","geometry":{"type":"Point","coordinates":[-83.178214,42.320633]}},{"properties":{"city":"Dearborn","geo_score":1.0,"zip code":"48128-9998","street address":"23823 Ford Rd","station/branch name":"Dearborn-Teleford Station","id":"a66wiyb4wf6m","geo_precision":"range","state":"MI"},"type":"Feature","geometry":{"type":"Point","coordinates":[-83.270174,42.327008]}},{"properties":{"city":"Detroit","geo_score":0.916,"zip code":"48202-9998","street address":"3011 W. Grand Blvd. Ste C30","station/branch name":"Detroit-Fisher Bldg Finance-Fin Sta","id":"a66wiy33jaey","geo_precision":"range","state":"MI"},"type":"Feature","geometry":{"type":"Point","coordinates":[-83.076775,42.369104]}},{"properties":{"city":"Detroit","geo_score":0.912,"zip code":"48213-9998","street address":"10254 Gratiot","station/branch name":"Detroit-Harper-Sta","id":"a66wiyd6t5eq","geo_precision":"range","state":"MI"},"type":"Feature","geometry":{"type":"Point","coordinates":[-83.002705,42.397373]}},{"properties":{"city":"Detroit","geo_score":1.0,"zip code":"48206-9998","street address":"3702 Joy Rd","station/branch name":"Detroit-Linwood Sta-Fin Sta","id":"a66wiy8ctsnq","geo_precision":"range","state":"MI"},"type":"Feature","geometry":{"type":"Point","coordinates":[-83.117644,42.370142]}},{"properties":{"city":"Detroit","geo_score":0.941,"zip code":"48226-9998","street address":"645 Griswold","station/branch name":"Detroit-Penobscot Postal Store-Fin Sta","id":"a66wiycen6vy","geo_precision":"range","state":"MI"},"type":"Feature","geometry":{"type":"Point","coordinates":[-83.046946,42.330231]}},{"properties":{"city":"Detroit","geo_score":0.902,"zip code":"48243-1199","street address":"100 Renaissance Ctr Ste 1014","station/branch name":"Detroit-Renaissance Center-Fin Sta","id":"a66wiy6elzhr","geo_precision":"range","state":"MI"},"type":"Feature","geometry":{"type":"Point","coordinates":[-83.0408,42.328837]}},{"properties":{"city":"Westland","geo_score":0.545,"zip code":"48186-9998","street address":"3500 W Warren","station/branch name":"Wayne-Westland-Westland Mall-Fin Sta","id":"a66wiyh90q8k","geo_precision":"street","state":"MI"},"type":"Feature","geometry":{"type":"Point","coordinates":[-83.237845,42.343086]}},{"properties":{"city":"Westland","geo_score":1.0,"zip code":"48185-9998","street address":"6300 N Wayne Rd","station/branch name":"Wayne-Westland-Westland-Br","id":"a66wiy7lkv7g","geo_precision":"range","state":"MI"},"type":"Feature","geometry":{"type":"Point","coordinates":[-83.387051,42.330777]}},{"properties":{"city":"Grand Rapids","geo_score":0.927,"zip code":"49508-9998","street address":"1680 44th St Se","station/branch name":"Grand Rapids-Kentwood-Br","id":"a66wiy4ogdod","geo_precision":"range","state":"MI"},"type":"Feature","geometry":{"type":"Point","coordinates":[-85.62457,42.883662]}},{"properties":{"city":"Grand Rapids","geo_score":1.0,"zip code":"49509-9998","street address":"1025 Rogers Plaza SW","station/branch name":"Grand Rapids-Wyoming-Rogers Plz Postal Store-Fin Sta","id":"a66wiyafewuu","geo_precision":"range","state":"MI"},"type":"Feature","geometry":{"type":"Point","coordinates":[-85.691199,42.912527]}},{"properties":{"city":"Kalamazoo","geo_score":0.806,"zip code":"49007-9998","street address":"310 E Michigan Ave","station/branch name":"Kalamazoo-Arcadia Creek-Fin Sta","id":"a66wiy8m5x51","geo_precision":"street","state":"MI"},"type":"Feature","geometry":{"type":"Point","coordinates":[-85.574908,42.294658]}},{"properties":{"city":"Lansing","geo_score":1.0,"zip code":"48917-9622","street address":"5208 W Saginaw Hwy","station/branch name":"Lansing-Delta Postal Store-Fin Sta","id":"a66wiy6g385z","geo_precision":"range","state":"MI"},"type":"Feature","geometry":{"type":"Point","coordinates":[-84.622754,42.74111]}},{"properties":{"city":"Lansing","geo_score":1.0,"zip code":"48912-9998","street address":"730 Merrill St","station/branch name":"Lansing-Merrill Street Station","id":"a66wiyfoxwv2","geo_precision":"range","state":"MI"},"type":"Feature","geometry":{"type":"Point","coordinates":[-84.513227,42.741244]}},{"properties":{"city":"Muskegon","geo_score":1.0,"zip code":"49444-9998","street address":"2517 Peck St","station/branch name":"Muskegon-Muskegon Heights-Br","id":"a66wiygq45hb","geo_precision":"range","state":"MI"},"type":"Feature","geometry":{"type":"Point","coordinates":[-86.244602,43.206581]}},{"properties":{"city":"Muskegon","geo_score":1.0,"zip code":"49445-9998","street address":"404 Center St","station/branch name":"Muskegon-North Muskegon-Br","id":"a66wiyfr3x9k","geo_precision":"range","state":"MI"},"type":"Feature","geometry":{"type":"Point","coordinates":[-86.260727,43.261825]}},{"properties":{"city":"Saginaw","geo_score":1.0,"zip code":"48602-9998","street address":"1201 S Wheeler St","station/branch name":"Saginaw-Wheeler Station-Sta","id":"a66wiy3y3b7c","geo_precision":"range","state":"MI"},"type":"Feature","geometry":{"type":"Point","coordinates":[-83.991469,43.405166]}},{"properties":{"city":"Flint","geo_score":1.0,"zip code":"48507-9998","street address":"1601 W Atherton Rd","station/branch name":"Flint-Cody-Sta","id":"a66wiy65a27n","geo_precision":"range","state":"MI"},"type":"Feature","geometry":{"type":"Point","coordinates":[-83.700884,42.988339]}},{"properties":{"city":"Flint","geo_score":1.0,"zip code":"48502-1524","street address":"601 S Saginaw St","station/branch name":"Flint-Downtown Flint-Fin Sta","id":"a66wiy34up3y","geo_precision":"range","state":"MI"},"type":"Feature","geometry":{"type":"Point","coordinates":[-83.689847,43.01499]}},{"properties":{"city":"Flint","geo_score":1.0,"zip code":"48504-4520","street address":"2712 Flushing Rd","station/branch name":"Flint-Mott Park-Fin Sta","id":"a66wiy4dcpv7","geo_precision":"range","state":"MI"},"type":"Feature","geometry":{"type":"Point","coordinates":[-83.72748,43.023308]}},{"properties":{"city":"Flint","geo_score":1.0,"zip code":"48505-9998","street address":"3311 N Saginaw St","station/branch name":"Flint-Northside-Sta","id":"a66wiyea2udc","geo_precision":"range","state":"MI"},"type":"Feature","geometry":{"type":"Point","coordinates":[-83.693772,43.045505]}},{"properties":{"city":"Selfridge ANGB","geo_score":0.749,"zip code":"48045-9998","street address":"44580 N. Jefferson Ave","station/branch name":"Mount Clemens-Selfridge Angb-Fin Br","id":"a66wiydhanm9","geo_precision":"street","state":"MI"},"type":"Feature","geometry":{"type":"Point","coordinates":[-82.823758,42.626793]}},{"properties":{"city":"Pontiac","geo_score":1.0,"zip code":"48342-9998","street address":"45 Oakland Ave","station/branch name":"Pontiac-Phoenix-Fin Sta","id":"a66wiybhje11","geo_precision":"range","state":"MI"},"type":"Feature","geometry":{"type":"Point","coordinates":[-83.2947,42.641711]}},{"properties":{"city":"Saint Louis","geo_score":1.0,"zip code":"63147-9998","street address":"8390 N. Broadway","station/branch name":"Saint Louis-Baden-Fin Sta","id":"a66wiy7kwxf2","geo_precision":"range","state":"MO"},"type":"Feature","geometry":{"type":"Point","coordinates":[-90.229943,38.714647]}},{"properties":{"city":"Saint Louis","geo_score":1.0,"zip code":"63134-9998","street address":"8655 Airport Rd","station/branch name":"Saint Louis-Berkeley-Br","id":"a66wiy1ziixm","geo_precision":"range","state":"MO"},"type":"Feature","geometry":{"type":"Point","coordinates":[-90.336968,38.749672]}},{"properties":{"city":"St Louis","geo_score":0.563,"zip code":"63126-9998","street address":"146 Crestwood Plaza","station/branch name":"Saint Louis-Crestwood Plaza Postal Store-Fin Br","id":"a66wiyfmrzfz","geo_precision":"street","state":"MO"},"type":"Feature","geometry":{"type":"Point","coordinates":[-90.390644,38.554983]}},{"properties":{"city":"Saint Louis","geo_score":1.0,"zip code":"63117-1100","street address":"2125 Saint Louis Galleria","station/branch name":"Saint Louis-Galleria Postal Store-Fin Br","id":"a66wiyh0mbhu","geo_precision":"range","state":"MO"},"type":"Feature","geometry":{"type":"Point","coordinates":[-90.346384,38.637185]}},{"properties":{"city":"St Louis","geo_score":0.63,"zip code":"63102-9998","street address":"111 N 6th Street","station/branch name":"Saint Louis-Jefferson Memorial-Fin Sta","id":"a66wiyfusvan","geo_precision":"street","state":"MO"},"type":"Feature","geometry":{"type":"Point","coordinates":[-90.193249,38.620383]}},{"properties":{"city":"Saint Louis","geo_score":1.0,"zip code":"63106-9998","street address":"901 N. Garrison Ave","station/branch name":"Saint Louis-Jordan W Chambers-Fin Sta","id":"a66wiy8sbmpb","geo_precision":"range","state":"MO"},"type":"Feature","geometry":{"type":"Point","coordinates":[-90.220451,38.639423]}},{"properties":{"city":"St Louis","geo_score":0.621,"zip code":"63104-4070","street address":"1914 S. Broadway","station/branch name":"Saint Louis-Soulard-Fin Sta","id":"a66wiy2scnbc","geo_precision":"range","state":"MO"},"type":"Feature","geometry":{"type":"Point","coordinates":[-90.201696,38.606556]}},{"properties":{"city":"St Louis","geo_score":0.552,"zip code":"63129-1097","street address":"375a South County City","station/branch name":"Saint Louis-South County Postal Store-Fin Br","id":"a66wiy72v38f","geo_precision":"street","state":"MO"},"type":"Feature","geometry":{"type":"Point","coordinates":[-90.299092,38.739281]}},{"properties":{"city":"St Louis","geo_score":0.593,"zip code":"63118-1042","street address":"3198 S. Grand Blvd.","station/branch name":"Saint Louis-Tower Grove-Fin Sta","id":"a66wiy7plarf","geo_precision":"street","state":"MO"},"type":"Feature","geometry":{"type":"Point","coordinates":[-90.203882,38.597595]}},{"properties":{"city":"Kansas City","geo_score":0.872,"zip code":"64155-9998","street address":"400 Nw Barry Rd Ste 167a","station/branch name":"KCM-Metro Mall","id":"a66wiy6ugyf0","geo_precision":"range","state":"MO"},"type":"Feature","geometry":{"type":"Point","coordinates":[-94.585055,39.246454]}},{"properties":{"city":"Kansas City","geo_score":1.0,"zip code":"64132-9998","street address":"7640 Prospect Ave","station/branch name":"KCM-Southeast Sta","id":"a66wiybl4fdf","geo_precision":"range","state":"MO"},"type":"Feature","geometry":{"type":"Point","coordinates":[-94.55737,38.988373]}},{"properties":{"city":"Kansas City","geo_score":1.0,"zip code":"64124-9998","street address":"2657 Independence Ave","station/branch name":"KCM-William Chick","id":"a66wiya6vahs","geo_precision":"range","state":"MO"},"type":"Feature","geometry":{"type":"Point","coordinates":[-94.551732,39.106319]}},{"properties":{"city":"Greensboro","geo_score":1.0,"zip code":"27408-7238","street address":"1852 Banking St","station/branch name":"Greensboro Plaza Station","id":"a66wiybexxu4","geo_precision":"range","state":"NC"},"type":"Feature","geometry":{"type":"Point","coordinates":[-79.813851,36.093848]}},{"properties":{"city":"High Point","geo_score":0.732,"zip code":"27263-9998","street address":"913 W Fairfield Road","station/branch name":"High Point Furnitureland","id":"a66wiy92qfnz","geo_precision":"range","state":"NC"},"type":"Feature","geometry":{"type":"Point","coordinates":[-80.003056,35.920881]}},{"properties":{"city":"Raleigh","geo_score":0.805,"zip code":"27650-9998","street address":"10 Horne Street","station/branch name":"Raleigh State University","id":"a66wiygmi3n0","geo_precision":"range","state":"NC"},"type":"Feature","geometry":{"type":"Point","coordinates":[-78.667884,35.788237]}},{"properties":{"city":"Winston-Salem","geo_score":0.752,"zip code":"27120-9998","street address":"200 Town Run Lane","station/branch name":"Winston-Salem Center City","id":"a66wiy7glpaq","geo_precision":"range","state":"NC"},"type":"Feature","geometry":{"type":"Point","coordinates":[-80.24597,36.096779]}},{"properties":{"city":"Asheville","geo_score":0.927,"zip code":"28805-9798","street address":"1141 Tunnel Rd","station/branch name":"ASH-Oteen Finance Station","id":"a66wiy35vhee","geo_precision":"range","state":"NC"},"type":"Feature","geometry":{"type":"Point","coordinates":[-82.487422,35.587404]}},{"properties":{"city":"Charlotte","geo_score":0.875,"zip code":"28206-9998","street address":"110 E 30th St","station/branch name":"CLT-30th St","id":"a66wiy2xyzcm","geo_precision":"range","state":"NC"},"type":"Feature","geometry":{"type":"Point","coordinates":[-80.815902,35.2489]}},{"properties":{"city":"Charlotte","geo_score":0.805,"zip code":"28241-9998","street address":"11333 Granite St","station/branch name":"Clt-Arrowood","id":"a66wiygighv6","geo_precision":"range","state":"NC"},"type":"Feature","geometry":{"type":"Point","coordinates":[-80.931689,35.112073]}},{"properties":{"city":"Charlotte","geo_score":0.805,"zip code":"28221-9998","street address":"2505 Derita Ave","station/branch name":"Clt-Derita","id":"a66wiyiei2oy","geo_precision":"range","state":"NC"},"type":"Feature","geometry":{"type":"Point","coordinates":[-80.799117,35.296889]}},{"properties":{"city":"Charlotte","geo_score":0.776,"zip code":"28218-9998","street address":"3040 B Eastway Dr","station/branch name":"Clt-Eastway Finance","id":"a66wiy8jomxs","geo_precision":"range","state":"NC"},"type":"Feature","geometry":{"type":"Point","coordinates":[-80.780723,35.215322]}},{"properties":{"city":"Charlotte","geo_score":1.0,"zip code":"28262-9998","street address":"1820 Harris Houston Rd","station/branch name":"Clt-Northeast","id":"a66wiyb40efh","geo_precision":"range","state":"NC"},"type":"Feature","geometry":{"type":"Point","coordinates":[-80.701238,35.315857]}},{"properties":{"city":"Fayetteville","geo_score":1.0,"zip code":"28306-9998","street address":"2503 Southern Ave","station/branch name":"Fayetteville - Lakedale","id":"a66wiy7o7z8r","geo_precision":"range","state":"NC"},"type":"Feature","geometry":{"type":"Point","coordinates":[-78.90438,35.01797]}},{"properties":{"city":"Fayetteville","geo_score":1.0,"zip code":"28305-9998","street address":"106 Oakridge Ave","station/branch name":"Fayetteville Haymont","id":"a66wiyhddkfv","geo_precision":"range","state":"NC"},"type":"Feature","geometry":{"type":"Point","coordinates":[-78.89926,35.057457]}},{"properties":{"city":"Fargo","geo_score":0.805,"zip code":"58107-4014","street address":"1231 N University Dr","station/branch name":"University Station","id":"a66wiycra0ny","geo_precision":"range","state":"ND"},"type":"Feature","geometry":{"type":"Point","coordinates":[-96.798126,46.891642]}},{"properties":{"city":"Lincoln","geo_score":0.916,"zip code":"68503-9998","street address":"110 N 35th St","station/branch name":"Lnk-Woods Park Sta","id":"a66wiy6nex8b","geo_precision":"range","state":"NE"},"type":"Feature","geometry":{"type":"Point","coordinates":[-96.670189,40.81364]}},{"properties":{"city":"Omaha","geo_score":0.916,"zip code":"68110-9998","street address":"2221 N. 24th Street","station/branch name":"Oma-Station A","id":"a66wiy8y15jq","geo_precision":"range","state":"NE"},"type":"Feature","geometry":{"type":"Point","coordinates":[-95.947027,41.279255]}},{"properties":{"city":"Omaha","geo_score":1.0,"zip code":"68105-9998","street address":"3021 Leavenworth Street","station/branch name":"Oma-Station B","id":"a66wiy663fuq","geo_precision":"range","state":"NE"},"type":"Feature","geometry":{"type":"Point","coordinates":[-95.957367,41.252407]}},{"properties":{"city":"Omaha","geo_score":1.0,"zip code":"68108-9998","street address":"1618 Vinton Street","station/branch name":"Oma-Station C","id":"a66wiy7m4r6y","geo_precision":"range","state":"NE"},"type":"Feature","geometry":{"type":"Point","coordinates":[-95.937544,41.234289]}},{"properties":{"city":"Camden","geo_score":0.878,"zip code":"08104-9998","street address":"1400 South Broadway","station/branch name":"S.Camden (F)","id":"a66wiyeo90pk","geo_precision":"range","state":"NJ"},"type":"Feature","geometry":{"type":"Point","coordinates":[-75.119544,39.928726]}},{"properties":{"city":"Trenton","geo_score":0.967,"zip code":"08611-9998","street address":"852 So Broad St","station/branch name":"Trenton Chambersburg (F)","id":"a66wiy5kc8g2","geo_precision":"range","state":"NJ"},"type":"Feature","geometry":{"type":"Point","coordinates":[-74.750316,40.207091]}},{"properties":{"city":"Trenton","geo_score":1.0,"zip code":"08620-9998","street address":"9 Sunnybrae Blvd","station/branch name":"Trenton-Yardville (F)","id":"a66wiy4m0vzv","geo_precision":"range","state":"NJ"},"type":"Feature","geometry":{"type":"Point","coordinates":[-74.679176,40.185282]}},{"properties":{"city":"Paterson","geo_score":1.0,"zip code":"07502-9998","street address":"374 Union Ave","station/branch name":"Hillcrest","id":"a66wiyb0keu8","geo_precision":"range","state":"NJ"},"type":"Feature","geometry":{"type":"Point","coordinates":[-74.18685,40.920237]}},{"properties":{"city":"Paterson","geo_score":0.916,"zip code":"07524-9998","street address":"82 East 15th Street","station/branch name":"River Street","id":"a66wiy6askil","geo_precision":"range","state":"NJ"},"type":"Feature","geometry":{"type":"Point","coordinates":[-74.153908,40.933642]}},{"properties":{"city":"Newark","geo_score":0.606,"zip code":"07102-9715","street address":"1 Riverfront Plaza","station/branch name":"Riverfront","id":"a66wiy6mkytk","geo_precision":"zip","state":"NJ"},"type":"Feature","geometry":{"type":"Point","coordinates":[-74.173988,40.735642]}},{"properties":{"city":"Newark","geo_score":1.0,"zip code":"07102-9992","street address":"6 Atlantic Street","station/branch name":"Washington Park","id":"a66wiyevtj0j","geo_precision":"range","state":"NJ"},"type":"Feature","geometry":{"type":"Point","coordinates":[-74.168867,40.744501]}},{"properties":{"city":"Las Vegas","geo_score":0.782,"zip code":"89114-9998","street address":"3100 S Industrial Rd","station/branch name":"Las Strip Station","id":"a66wiyabmtml","geo_precision":"range","state":"NV"},"type":"Feature","geometry":{"type":"Point","coordinates":[-115.172188,36.132865]}},{"properties":{"city":"Bronx","geo_score":0.878,"zip code":"10458-9998","street address":"2963 Webster Ave","station/branch name":"Botanical","id":"a66wiy42zo3z","geo_precision":"range","state":"NY"},"type":"Feature","geometry":{"type":"Point","coordinates":[-73.88895,40.863673]}},{"properties":{"city":"New York","geo_score":0.811,"zip code":"10021-8840","street address":"1483 York Ave","station/branch name":"Cherokee","id":"a66wiy38sxv3","geo_precision":"street","state":"NY"},"type":"Feature","geometry":{"type":"Point","coordinates":[-73.951398,40.770073]}},{"properties":{"city":"Bronx","geo_score":1.0,"zip code":"10473-9998","street address":"829 Soundview Avenue","station/branch name":"Clason Point","id":"a66wiya8b27r","geo_precision":"range","state":"NY"},"type":"Feature","geometry":{"type":"Point","coordinates":[-73.867019,40.822303]}},{"properties":{"city":"New York","geo_score":1.0,"zip code":"10030-9998","street address":"217 West 140th St.","station/branch name":"College","id":"a66wiyhcbtqo","geo_precision":"range","state":"NY"},"type":"Feature","geometry":{"type":"Point","coordinates":[-73.941742,40.818666]}},{"properties":{"city":"Bronx","geo_score":1.0,"zip code":"10460-9998","street address":"1682 Boston Road","station/branch name":"Crotona Park","id":"a66wiy9s6n69","geo_precision":"range","state":"NY"},"type":"Feature","geometry":{"type":"Point","coordinates":[-73.889083,40.836638]}},{"properties":{"city":"Bronx","geo_score":1.0,"zip code":"10469-9998","street address":"3292 Boston Rd","station/branch name":"Hillside","id":"a66wiyfux7it","geo_precision":"range","state":"NY"},"type":"Feature","geometry":{"type":"Point","coordinates":[-73.853943,40.873214]}},{"properties":{"city":"Bronx","geo_score":1.0,"zip code":"10451-9998","street address":"754 Melrose Ave","station/branch name":"Melcourt","id":"a66wiyhj625r","geo_precision":"range","state":"NY"},"type":"Feature","geometry":{"type":"Point","coordinates":[-73.915432,40.821285]}},{"properties":{"city":"Bronx","geo_score":0.927,"zip code":"10455-9998","street address":"839 East 149 Street","station/branch name":"Oak Point","id":"a66wiy4koqvu","geo_precision":"range","state":"NY"},"type":"Feature","geometry":{"type":"Point","coordinates":[-73.905015,40.812368]}},{"properties":{"city":"New York","geo_score":1.0,"zip code":"10002-9991","street address":"185 Clinton Street","station/branch name":"Pitt","id":"a66wiy4oa28n","geo_precision":"range","state":"NY"},"type":"Feature","geometry":{"type":"Point","coordinates":[-73.987138,40.714974]}},{"properties":{"city":"New York","geo_score":1.0,"zip code":"10011-9992","street address":"76 Ninth Ave","station/branch name":"Port Authority","id":"a66wiyh4lmf4","geo_precision":"range","state":"NY"},"type":"Feature","geometry":{"type":"Point","coordinates":[-74.00471,40.741927]}},{"properties":{"city":"New York","geo_score":0.61,"zip code":"10129-9991","street address":"625 8th Ave","station/branch name":"Port Authority Conv.","id":"a66wiy3zgqq2","geo_precision":"street","state":"NY"},"type":"Feature","geometry":{"type":"Point","coordinates":[-73.983367,40.766045]}},{"properties":{"city":"New York","geo_score":0.909,"zip code":"10017-9991","street address":"5 Tudor City Pl Frnt 4","station/branch name":"Tudor City","id":"a66wiy89t8z3","geo_precision":"range","state":"NY"},"type":"Feature","geometry":{"type":"Point","coordinates":[-73.971315,40.747913]}},{"properties":{"city":"Bronx","geo_score":1.0,"zip code":"10462-9998","street address":"715 Morris Park Avenue","station/branch name":"Van Nest","id":"a66wiy8qiubp","geo_precision":"range","state":"NY"},"type":"Feature","geometry":{"type":"Point","coordinates":[-73.865575,40.845372]}},{"properties":{"city":"New York","geo_score":1.0,"zip code":"10014-9992","street address":"527 Hudson Street","station/branch name":"West Village","id":"a66wiy2k58j6","geo_precision":"range","state":"NY"},"type":"Feature","geometry":{"type":"Point","coordinates":[-74.006245,40.73414]}},{"properties":{"city":"Flushing","geo_score":0.512,"zip code":"11371-9998","street address":"1 Main Terminal","station/branch name":"Laguardia","id":"a66wiyfzvs7v","geo_precision":"range","state":"NY"},"type":"Feature","geometry":{"type":"Point","coordinates":[-73.825844,40.749348]}},{"properties":{"city":"Long Island City","geo_score":0.708,"zip code":"11101-9997","street address":"4310 10th St","station/branch name":"Lic Pp Annex","id":"a66wiy92bkmc","geo_precision":"street","state":"NY"},"type":"Feature","geometry":{"type":"Point","coordinates":[-73.947004,40.754298]}},{"properties":{"city":"Albany","geo_score":1.0,"zip code":"12209-9998","street address":"332 Delaware Avenue","station/branch name":"ALB-Delaware","id":"a66wiy4jsode","geo_precision":"range","state":"NY"},"type":"Feature","geometry":{"type":"Point","coordinates":[-73.778344,42.642358]}},{"properties":{"city":"Albany","geo_score":1.0,"zip code":"12204-9998","street address":"1226 Broadway","station/branch name":"ALB-Patroon","id":"a66wiy9h9ugy","geo_precision":"range","state":"NY"},"type":"Feature","geometry":{"type":"Point","coordinates":[-73.737276,42.673528]}},{"properties":{"city":"Albany","geo_score":0.935,"zip code":"12203-9998","street address":"5 So. Allen Street","station/branch name":"ALB-Pine","id":"a66wiy6abhyn","geo_precision":"range","state":"NY"},"type":"Feature","geometry":{"type":"Point","coordinates":[-73.791918,42.666668]}},{"properties":{"city":"Schenectady","geo_score":1.0,"zip code":"12302-9998","street address":"224 Mohawk Ave","station/branch name":"SCH-Scotia","id":"a66wiyagsxvz","geo_precision":"range","state":"NY"},"type":"Feature","geometry":{"type":"Point","coordinates":[-73.966127,42.827138]}},{"properties":{"city":"Syracuse","geo_score":0.854,"zip code":"13207-9998","street address":"1225 South Avenue","station/branch name":"SYR-Elmwood","id":"a66wiyei8172","geo_precision":"range","state":"NY"},"type":"Feature","geometry":{"type":"Point","coordinates":[-76.158925,43.025625]}},{"properties":{"city":"Syracuse","geo_score":0.916,"zip code":"13212-9998","street address":"201 South Main","station/branch name":"SYR-North Syracuse","id":"a66wiy5xohm1","geo_precision":"range","state":"NY"},"type":"Feature","geometry":{"type":"Point","coordinates":[-76.129938,43.134848]}},{"properties":{"city":"Buffalo","geo_score":0.92,"zip code":"14212-9993","street address":"1035 Broadway Ave","station/branch name":"Buffalo - Broadway Fillmore Station","id":"a66wiy9ioqhy","geo_precision":"range","state":"NY"},"type":"Feature","geometry":{"type":"Point","coordinates":[-78.836173,42.893656]}},{"properties":{"city":"Buffalo","geo_score":1.0,"zip code":"14218-9998","street address":"683 Ridge Rd","station/branch name":"Buffalo -Lackawanna Branch","id":"a66wiyeekxga","geo_precision":"range","state":"NY"},"type":"Feature","geometry":{"type":"Point","coordinates":[-78.826307,42.825761]}},{"properties":{"city":"Buffalo","geo_score":1.0,"zip code":"14209-9998","street address":"1245 Main St","station/branch name":"Buffalo -Midcity Station","id":"a66wiyfl2ae9","geo_precision":"range","state":"NY"},"type":"Feature","geometry":{"type":"Point","coordinates":[-78.867578,42.906715]}},{"properties":{"city":"Rochester","geo_score":1.0,"zip code":"14613-9998","street address":"376 Lexington Avenue","station/branch name":"Rochester-Dewey St","id":"a66wiyb8m7q4","geo_precision":"range","state":"NY"},"type":"Feature","geometry":{"type":"Point","coordinates":[-77.639643,43.179308]}},{"properties":{"city":"Dayton","geo_score":1.0,"zip code":"45459-9998","street address":"99 Maple Ave","station/branch name":"Centerville Finance","id":"a66wiycmlvsd","geo_precision":"range","state":"OH"},"type":"Feature","geometry":{"type":"Point","coordinates":[-84.156078,39.63281]}},{"properties":{"city":"Cincinnati","geo_score":1.0,"zip code":"45223-9998","street address":"4122 Hamilton Ave","station/branch name":"Cumminsville","id":"a66wiyaufmmu","geo_precision":"range","state":"OH"},"type":"Feature","geometry":{"type":"Point","coordinates":[-84.539368,39.160876]}},{"properties":{"city":"Cincinnati","geo_score":1.0,"zip code":"45226-9998","street address":"3923 Eastern Ave","station/branch name":"East End","id":"a66wiydfd16m","geo_precision":"range","state":"OH"},"type":"Feature","geometry":{"type":"Point","coordinates":[-84.43445,39.110512]}},{"properties":{"city":"Hamilton","geo_score":1.0,"zip code":"45015-9998","street address":"640 Hooven Ave","station/branch name":"Lindenwald","id":"a66wiyevcl63","geo_precision":"range","state":"OH"},"type":"Feature","geometry":{"type":"Point","coordinates":[-84.55701,39.367135]}},{"properties":{"city":"Cincinnati","geo_score":1.0,"zip code":"45227-9998","street address":"5912 Madison Rd","station/branch name":"Madisonville Station","id":"a66wiyg2g5e2","geo_precision":"range","state":"OH"},"type":"Feature","geometry":{"type":"Point","coordinates":[-84.392982,39.160593]}},{"properties":{"city":"Dayton","geo_score":1.0,"zip code":"45406-9998","street address":"557 Salem Ave","station/branch name":"Mid City Finance","id":"a66wiyaedbyj","geo_precision":"range","state":"OH"},"type":"Feature","geometry":{"type":"Point","coordinates":[-84.210654,39.768288]}},{"properties":{"city":"Toledo","geo_score":1.0,"zip code":"43607-9998","street address":"1609 Dorr St","station/branch name":"Midtown Sta Toledo","id":"a66wiydxb8vn","geo_precision":"range","state":"OH"},"type":"Feature","geometry":{"type":"Point","coordinates":[-83.580592,41.652909]}},{"properties":{"city":"Cincinnati","geo_score":1.0,"zip code":"45244-9998","street address":"7040 Main St","station/branch name":"Newtown Branch","id":"a66wiy3ddfx4","geo_precision":"range","state":"OH"},"type":"Feature","geometry":{"type":"Point","coordinates":[-84.357006,39.124623]}},{"properties":{"city":"Cincinnati","geo_score":0.937,"zip code":"45242-9998","street address":"10945 Reed Hartman","station/branch name":"Reed Hartman Finance","id":"a66wiy4o0259","geo_precision":"range","state":"OH"},"type":"Feature","geometry":{"type":"Point","coordinates":[-84.379898,39.264302]}},{"properties":{"city":"Cincinnati","geo_score":1.0,"zip code":"45233-9998","street address":"6605 Gracely Dr","station/branch name":"Saylor Park","id":"a66wiyfvpiym","geo_precision":"range","state":"OH"},"type":"Feature","geometry":{"type":"Point","coordinates":[-84.692642,39.112639]}},{"properties":{"city":"Dayton","geo_score":1.0,"zip code":"45402-9998","street address":"10 N Williams St","station/branch name":"Station B","id":"a66wiycbca7r","geo_precision":"range","state":"OH"},"type":"Feature","geometry":{"type":"Point","coordinates":[-84.211845,39.756813]}},{"properties":{"city":"Cincinnati","geo_score":1.0,"zip code":"45225-9998","street address":"2951 Colerain Ave","station/branch name":"Stock Yards","id":"a66wiyeneb7t","geo_precision":"range","state":"OH"},"type":"Feature","geometry":{"type":"Point","coordinates":[-84.536947,39.13587]}},{"properties":{"city":"Dayton","geo_score":0.707,"zip code":"45448-9998","street address":"4100 W 3rd St","station/branch name":"Vet Adm Finance","id":"a66wiygdqbwx","geo_precision":"range","state":"OH"},"type":"Feature","geometry":{"type":"Point","coordinates":[-84.253125,39.749398]}},{"properties":{"city":"Columbus","geo_score":0.805,"zip code":"43226-9998","street address":"6204 Busch Blvd","station/branch name":"Busch Finance Station","id":"a66wiy99h2f0","geo_precision":"range","state":"OH"},"type":"Feature","geometry":{"type":"Point","coordinates":[-82.993514,40.092869]}},{"properties":{"city":"Columbus","geo_score":1.0,"zip code":"43211-9998","street address":"1981 Cleveland Ave","station/branch name":"Linden Finance","id":"a66wiy3jj2q3","geo_precision":"range","state":"OH"},"type":"Feature","geometry":{"type":"Point","coordinates":[-82.971681,40.006797]}},{"properties":{"city":"Columbus","geo_score":1.0,"zip code":"43205-9998","street address":"1035 Mcallister Ave","station/branch name":"Olde Town Finance","id":"a66wiyahq4r6","geo_precision":"range","state":"OH"},"type":"Feature","geometry":{"type":"Point","coordinates":[-82.971615,39.957194]}},{"properties":{"city":"Akron","geo_score":1.0,"zip code":"44310-1804","street address":"2000 Brittain Rd","station/branch name":"Akron Chapel Hill","id":"a66wiy83i996","geo_precision":"range","state":"OH"},"type":"Feature","geometry":{"type":"Point","coordinates":[-81.465981,41.114136]}},{"properties":{"city":"Akron","geo_score":0.916,"zip code":"44308-9998","street address":"209 S Main","station/branch name":"Akron Downtown Station","id":"a66wiy7yih0a","geo_precision":"range","state":"OH"},"type":"Feature","geometry":{"type":"Point","coordinates":[-81.519744,41.079773]}},{"properties":{"city":"Akron","geo_score":1.0,"zip code":"44305-9998","street address":"1763 Goodyear Blvd","station/branch name":"Akron East Akron","id":"a66wiyegql4p","geo_precision":"range","state":"OH"},"type":"Feature","geometry":{"type":"Point","coordinates":[-81.463462,41.073867]}},{"properties":{"city":"Akron","geo_score":1.0,"zip code":"44320-9998","street address":"1518 Copley Rd","station/branch name":"Akron Maple Valley","id":"a66wiy7gvgtk","geo_precision":"range","state":"OH"},"type":"Feature","geometry":{"type":"Point","coordinates":[-81.577063,41.083734]}},{"properties":{"city":"Canton","geo_score":0.92,"zip code":"44706-9998","street address":"220 Dueber SW","station/branch name":"Canton Deuber","id":"a66wiy5vagah","geo_precision":"range","state":"OH"},"type":"Feature","geometry":{"type":"Point","coordinates":[-81.393981,40.798111]}},{"properties":{"city":"Canton","geo_score":0.935,"zip code":"44730-9998","street address":"117 W Nassau","station/branch name":"Canton East Canton","id":"a66wiyb8axdr","geo_precision":"range","state":"OH"},"type":"Feature","geometry":{"type":"Point","coordinates":[-81.284705,40.787212]}},{"properties":{"city":"Canton","geo_score":0.958,"zip code":"44707-9998","street address":"4724 Cleveland Ave","station/branch name":"Canton North Industry","id":"a66wiy72f3uv","geo_precision":"range","state":"OH"},"type":"Feature","geometry":{"type":"Point","coordinates":[-81.372356,40.743281]}},{"properties":{"city":"Cleveland","geo_score":0.537,"zip code":"44181-9998","street address":"5801 Postal Rd","station/branch name":"Cleveland AMC Finance Unit","id":"a66wiyhrev4p","geo_precision":"street","state":"OH"},"type":"Feature","geometry":{"type":"Point","coordinates":[-81.670836,41.315463]}},{"properties":{"city":"Cleveland","geo_score":1.0,"zip code":"44119-9998","street address":"891 E 185th St","station/branch name":"Cleveland Beachland","id":"a66wiy9dbppq","geo_precision":"range","state":"OH"},"type":"Feature","geometry":{"type":"Point","coordinates":[-81.549841,41.583283]}},{"properties":{"city":"Brook Park","geo_score":1.0,"zip code":"44142-9998","street address":"14770 Snow Rd","station/branch name":"Cleveland Brook Park","id":"a66wiy49xaph","geo_precision":"range","state":"OH"},"type":"Feature","geometry":{"type":"Point","coordinates":[-81.798221,41.404243]}},{"properties":{"city":"Cleveland","geo_score":0.973,"zip code":"44128-9998","street address":"16828 Harvard Ave","station/branch name":"Cleveland Cranwood","id":"a66wiy6ynmqc","geo_precision":"range","state":"OH"},"type":"Feature","geometry":{"type":"Point","coordinates":[-81.563025,41.449792]}},{"properties":{"city":"Cleveland","geo_score":0.935,"zip code":"44107-9998","street address":"1380 West 117th Street","station/branch name":"Cleveland Edgewater","id":"a66wiy4nygqg","geo_precision":"range","state":"OH"},"type":"Feature","geometry":{"type":"Point","coordinates":[-81.768746,41.48404]}},{"properties":{"city":"Cleveland","geo_score":0.61,"zip code":"44199-9998","street address":"1240 East 9th","station/branch name":"Cleveland Erieview Finance","id":"a66wiy2y5qpe","geo_precision":"range","state":"OH"},"type":"Feature","geometry":{"type":"Point","coordinates":[-81.691005,41.504894]}},{"properties":{"city":"Cleveland","geo_score":0.618,"zip code":"44117-9998","street address":"21551 Euclid","station/branch name":"Cleveland Euclid","id":"a66wiy8y8c84","geo_precision":"zip","state":"OH"},"type":"Feature","geometry":{"type":"Point","coordinates":[-81.526142,41.566834]}},{"properties":{"city":"Cleveland","geo_score":0.75,"zip code":"44115-9998","street address":"Huntington Bldg E 9th &amp; Euclid","station/branch name":"Cleveland Huntington Finance","id":"a66wiy698hib","geo_precision":"intersection","state":"OH"},"type":"Feature","geometry":{"type":"Point","coordinates":[-81.686752,41.500251]}},{"properties":{"city":"Cleveland","geo_score":0.882,"zip code":"44131-9998","street address":"6509 Brecksville","station/branch name":"Cleveland Independence","id":"a66wiyd21vhf","geo_precision":"range","state":"OH"},"type":"Feature","geometry":{"type":"Point","coordinates":[-81.641066,41.382695]}},{"properties":{"city":"Cleveland","geo_score":0.92,"zip code":"44104-9998","street address":"5600 Woodland","station/branch name":"Cleveland Jesse Owens Finance","id":"a66wiyb0q41h","geo_precision":"range","state":"OH"},"type":"Feature","geometry":{"type":"Point","coordinates":[-81.650991,41.487997]}},{"properties":{"city":"Cleveland","geo_score":0.477,"zip code":"44111-9998","street address":"3762 Rocky River","station/branch name":"Cleveland Kamms","id":"a66wiybq87md","geo_precision":"street","state":"OH"},"type":"Feature","geometry":{"type":"Point","coordinates":[-81.945979,41.449346]}},{"properties":{"city":"Cleveland","geo_score":0.847,"zip code":"44137-9998","street address":"16300 Broadway","station/branch name":"Cleveland Maple Heights","id":"a66wiyhr4zbg","geo_precision":"range","state":"OH"},"type":"Feature","geometry":{"type":"Point","coordinates":[-81.566662,41.412993]}},{"properties":{"city":"Cleveland","geo_score":0.826,"zip code":"44133-9998","street address":"13901 State","station/branch name":"Cleveland North Royalton","id":"a66wiya8kpy9","geo_precision":"range","state":"OH"},"type":"Feature","geometry":{"type":"Point","coordinates":[-81.72454,41.314518]}},{"properties":{"city":"Cleveland","geo_score":1.0,"zip code":"44120-9998","street address":"2855 East 130th St","station/branch name":"Cleveland Shaker Finance","id":"a66wiy4ijl60","geo_precision":"range","state":"OH"},"type":"Feature","geometry":{"type":"Point","coordinates":[-81.591822,41.480399]}},{"properties":{"city":"Cleveland","geo_score":0.935,"zip code":"44123-9998","street address":"22751 Shore Center Drive","station/branch name":"Cleveland Shore Finance","id":"a66wiyiatb60","geo_precision":"range","state":"OH"},"type":"Feature","geometry":{"type":"Point","coordinates":[-81.521876,41.610224]}},{"properties":{"city":"Cleveland","geo_score":0.912,"zip code":"44127-9998","street address":"5725 Portage","station/branch name":"Cleveland Willow","id":"a66wiy29xdn1","geo_precision":"range","state":"OH"},"type":"Feature","geometry":{"type":"Point","coordinates":[-81.646843,41.468812]}},{"properties":{"city":"Mansfield","geo_score":1.0,"zip code":"44904-9998","street address":"24 Short St","station/branch name":"Mansfield Lexington","id":"a66wiy77c1pz","geo_precision":"range","state":"OH"},"type":"Feature","geometry":{"type":"Point","coordinates":[-82.584652,40.679167]}},{"properties":{"city":"Mansfield","geo_score":1.0,"zip code":"44905-9998","street address":"989 Ashland Rd","station/branch name":"Mansfield Lincoln Retail","id":"a66wiye56wf5","geo_precision":"range","state":"OH"},"type":"Feature","geometry":{"type":"Point","coordinates":[-82.47852,40.774611]}},{"properties":{"city":"Youngstown","geo_score":0.92,"zip code":"44506-9998","street address":"733 N Garland","station/branch name":"Youngstown Eastside Station","id":"a66wiy3cwgrh","geo_precision":"range","state":"OH"},"type":"Feature","geometry":{"type":"Point","coordinates":[-80.628432,41.109232]}},{"properties":{"city":"Youngstown","geo_score":0.685,"zip code":"44507-9998","street address":"104 Hylda St","station/branch name":"Youngstown Southside Station","id":"a66wiy8av27r","geo_precision":"street","state":"OH"},"type":"Feature","geometry":{"type":"Point","coordinates":[-80.654434,41.071421]}},{"properties":{"city":"Youngstown","geo_score":0.92,"zip code":"44509-9998","street address":"2030 Mahoning","station/branch name":"Youngstown Westside Station","id":"a66wiyavelsl","geo_precision":"range","state":"OH"},"type":"Feature","geometry":{"type":"Point","coordinates":[-80.690344,41.102555]}},{"properties":{"city":"Oklahoma City","geo_score":1.0,"zip code":"73119-9998","street address":"5701 S Agnew Ave","station/branch name":"Southwest Station","id":"a66wiyd2widx","geo_precision":"range","state":"OK"},"type":"Feature","geometry":{"type":"Point","coordinates":[-97.554845,35.408939]}},{"properties":{"city":"Oklahoma City","geo_score":0.91,"zip code":"73129-9998","street address":"4801 S I 35 Service Rd","station/branch name":"Warr Acres","id":"a66wiyfp8v6j","geo_precision":"range","state":"OK"},"type":"Feature","geometry":{"type":"Point","coordinates":[-97.490172,35.416849]}},{"properties":{"city":"Eugene","geo_score":0.352,"zip code":"97403-9998","street address":"Emu U Of O Campus","station/branch name":"EUG-University","id":"a66wiy5razwk","geo_precision":"street","state":"OR"},"type":"Feature","geometry":{"type":"Point","coordinates":[-123.078611,43.790124]}},{"properties":{"city":"Portland","geo_score":0.951,"zip code":"97204-1402","street address":"520 Sw Morrison","station/branch name":"POR-Soloman","id":"a66wiyie2y51","geo_precision":"range","state":"OR"},"type":"Feature","geometry":{"type":"Point","coordinates":[-122.677725,45.518856]}},{"properties":{"city":"Steelton","geo_score":1.0,"zip code":"17113-9998","street address":"29 Locust St","station/branch name":"HBG - Steelton Br","id":"a66wiy8gip6v","geo_precision":"range","state":"PA"},"type":"Feature","geometry":{"type":"Point","coordinates":[-76.818691,40.231496]}},{"properties":{"city":"Reading","geo_score":0.708,"zip code":"19609-9998","street address":"2212 Penn Ave","station/branch name":"Reading - West Lawn Br","id":"a66wiy5rxfbo","geo_precision":"street","state":"PA"},"type":"Feature","geometry":{"type":"Point","coordinates":[-75.965698,40.332885]}},{"properties":{"city":"Dickson City","geo_score":1.0,"zip code":"18519-9998","street address":"735 Main St","station/branch name":"Scranton - Dickson City","id":"a66wiyhz6ekn","geo_precision":"range","state":"PA"},"type":"Feature","geometry":{"type":"Point","coordinates":[-75.624956,41.459671]}},{"properties":{"city":"Ashley","geo_score":1.0,"zip code":"18706-9998","street address":"31 N Main St","station/branch name":"Wilkes-Barre - Ashley","id":"a66wiy8sh14a","geo_precision":"range","state":"PA"},"type":"Feature","geometry":{"type":"Point","coordinates":[-75.899028,41.214694]}},{"properties":{"city":"York","geo_score":1.0,"zip code":"17406-9998","street address":"11 S Prospect St","station/branch name":"York - Hellam Br","id":"a66wiyc7fm51","geo_precision":"range","state":"PA"},"type":"Feature","geometry":{"type":"Point","coordinates":[-76.604281,40.004888]}},{"properties":{"city":"York","geo_score":1.0,"zip code":"17407-9998","street address":"2 Smith St","station/branch name":"York - Jacobus","id":"a66wiy30ye94","geo_precision":"range","state":"PA"},"type":"Feature","geometry":{"type":"Point","coordinates":[-76.711582,39.882062]}},{"properties":{"city":"Bridgeport","geo_score":1.0,"zip code":"19405-9998","street address":"312 Mill Street","station/branch name":"Bridgeport Branch - Norristown","id":"a66wiy91adqf","geo_precision":"range","state":"PA"},"type":"Feature","geometry":{"type":"Point","coordinates":[-75.343936,40.106558]}},{"properties":{"city":"Philadelphia","geo_score":1.0,"zip code":"19104-9997","street address":"2955 Market Street","station/branch name":"PHI-30th Street Trai - MOD","id":"a66wiyd8at6o","geo_precision":"range","state":"PA"},"type":"Feature","geometry":{"type":"Point","coordinates":[-75.182221,39.954701]}},{"properties":{"city":"Philadelphia","geo_score":1.0,"zip code":"19124-9997","street address":"821 Adams Avenue","station/branch name":"PHI-Adams Avenue Pos - Frankford","id":"a66wiyd6e5as","geo_precision":"range","state":"PA"},"type":"Feature","geometry":{"type":"Point","coordinates":[-75.096256,40.024884]}},{"properties":{"city":"Philadelphia","geo_score":1.0,"zip code":"19149-9998","street address":"6382 Castor Avenue","station/branch name":"PHI-Castor Ave. Fina - Blvd","id":"a66wiyg2l6p6","geo_precision":"range","state":"PA"},"type":"Feature","geometry":{"type":"Point","coordinates":[-75.077941,40.038913]}},{"properties":{"city":"Philadelphia","geo_score":1.0,"zip code":"19154-9998","street address":"1735 Franklin Mills Circle","station/branch name":"PHI-Franklin Mills - Torresdale","id":"a66wiyf0cbyb","geo_precision":"range","state":"PA"},"type":"Feature","geometry":{"type":"Point","coordinates":[-74.957775,40.092572]}},{"properties":{"city":"Philadelphia","geo_score":1.0,"zip code":"19123-9998","street address":"905 N Broad Street","station/branch name":"PHI-Girard Ave - Spring Garden","id":"a66wiycwu2ie","geo_precision":"range","state":"PA"},"type":"Feature","geometry":{"type":"Point","coordinates":[-75.159699,39.970219]}},{"properties":{"city":"Philadelphia","geo_score":1.0,"zip code":"19136-9998","street address":"7303 Frankford Avenue","station/branch name":"PHI-Mayfair Pstl Sto - Holmesburg","id":"a66wiy4wlmug","geo_precision":"range","state":"PA"},"type":"Feature","geometry":{"type":"Point","coordinates":[-75.040516,40.036896]}},{"properties":{"city":"Philadelphia","geo_score":1.0,"zip code":"19140-9998","street address":"3968 Germantown Avenue","station/branch name":"PHI-Nicetown Fsta","id":"a66wiygj2hvh","geo_precision":"range","state":"PA"},"type":"Feature","geometry":{"type":"Point","coordinates":[-75.15271,40.013905]}},{"properties":{"city":"Philadelphia","geo_score":1.0,"zip code":"19135-9998","street address":"5916 Torresdale Avenue","station/branch name":"PHI-Wissinoming Stat - Tacony","id":"a66wiya02801","geo_precision":"range","state":"PA"},"type":"Feature","geometry":{"type":"Point","coordinates":[-75.060489,40.017047]}},{"properties":{"city":"Pittsburgh","geo_score":1.0,"zip code":"15204-9998","street address":"651 Hillsboro St","station/branch name":"Corliss Branch","id":"a66wiyfr761y","geo_precision":"range","state":"PA"},"type":"Feature","geometry":{"type":"Point","coordinates":[-80.05332,40.453447]}},{"properties":{"city":"Pittsburgh","geo_score":1.0,"zip code":"15208-9998","street address":"566 Brushton Ave","station/branch name":"Homewood Branch","id":"a66wiy9sh8ar","geo_precision":"range","state":"PA"},"type":"Feature","geometry":{"type":"Point","coordinates":[-79.889671,40.451743]}},{"properties":{"city":"Pittsburgh","geo_score":1.0,"zip code":"15228-9998","street address":"714 Washington Rd","station/branch name":"Mt. Lebanon","id":"a66wiygfryfh","geo_precision":"range","state":"PA"},"type":"Feature","geometry":{"type":"Point","coordinates":[-80.045281,40.379268]}},{"properties":{"city":"Neville Island","geo_score":0.793,"zip code":"15225-9998","street address":"115 2nd St","station/branch name":"Neville Island Branch","id":"a66wiygzlpk6","geo_precision":"range","state":"PA"},"type":"Feature","geometry":{"type":"Point","coordinates":[-80.126249,40.508653]}},{"properties":{"city":"Erie","geo_score":1.0,"zip code":"16510-9998","street address":"3112 Buffalo Rd","station/branch name":"Wesleyville","id":"a66wiycuh65z","geo_precision":"range","state":"PA"},"type":"Feature","geometry":{"type":"Point","coordinates":[-80.015931,42.139967]}},{"properties":{"city":"San Juan","geo_score":0.503,"zip code":"00979-9998","street address":"3000 Ave Salvador V Caro Ste 3032","station/branch name":"Airport","id":"a66wiye3wrkr","geo_precision":"street","state":"PR"},"type":"Feature","geometry":{"type":"Point","coordinates":[-66.010336,18.429482]}},{"properties":{"city":"Ponce","geo_score":1.0,"zip code":"00733-9998","street address":"95 Calle Atocha","station/branch name":"Atocha","id":"a66wiy8xmf0r","geo_precision":"range","state":"PR"},"type":"Feature","geometry":{"type":"Point","coordinates":[-66.614019,18.015826]}},{"properties":{"city":"Carolina","geo_score":0.392,"zip code":"00986-9998","street address":"108 Calle Luis Munoz Rivera","station/branch name":"Carolina Pueblo","id":"a66wiycyaeqe","geo_precision":"street","state":"PR"},"type":"Feature","geometry":{"type":"Point","coordinates":[-66.168838,18.441764]}},{"properties":{"city":"San Juan","geo_score":0.577,"zip code":"00901-9997","street address":"163 Ave. Fernandez Juncos, Ste 2","station/branch name":"Puerto De Tierra","id":"a66wiya409y4","geo_precision":"street","state":"PR"},"type":"Feature","geometry":{"type":"Point","coordinates":[-66.101616,18.463452]}},{"properties":{"city":"Cumberland","geo_score":1.0,"zip code":"02864-9998","street address":"197 Broad St","station/branch name":"Pawtucket Valley Fals Branch","id":"a66wiy8gy3r7","geo_precision":"range","state":"RI"},"type":"Feature","geometry":{"type":"Point","coordinates":[-71.392485,41.905114]}},{"properties":{"city":"Columbia","geo_score":1.0,"zip code":"29201-9997","street address":"1233 Marion St","station/branch name":"Capital","id":"a66wiy8rcvej","geo_precision":"range","state":"SC"},"type":"Feature","geometry":{"type":"Point","coordinates":[-81.030514,34.002712]}},{"properties":{"city":"Columbia","geo_score":0.963,"zip code":"29204-9997","street address":"2638 Two Notch Rd","station/branch name":"Edgewood","id":"a66wiy9xa9cu","geo_precision":"range","state":"SC"},"type":"Feature","geometry":{"type":"Point","coordinates":[-81.007399,34.030754]}},{"properties":{"city":"Greenville","geo_score":0.805,"zip code":"29603-9998","street address":"300 E Washington St","station/branch name":"Federal Station (Fin) Greenville","id":"a66wiygvccuq","geo_precision":"range","state":"SC"},"type":"Feature","geometry":{"type":"Point","coordinates":[-82.396513,34.849987]}},{"properties":{"city":"Charleston","geo_score":0.695,"zip code":"29405-9998","street address":"2180 Mcmillan St","station/branch name":"Pinehaven","id":"a66wiyff9lgp","geo_precision":"street","state":"SC"},"type":"Feature","geometry":{"type":"Point","coordinates":[-79.981273,32.858551]}},{"properties":{"city":"Spartanburg","geo_score":0.707,"zip code":"29305-9998","street address":"1000 N Pine St","station/branch name":"Pinewood (Fin)","id":"a66wiyh3it9f","geo_precision":"street","state":"SC"},"type":"Feature","geometry":{"type":"Point","coordinates":[-81.933644,34.967883]}},{"properties":{"city":"Knoxville","geo_score":1.0,"zip code":"37912-9998","street address":"5727 Clinton Hwy","station/branch name":"Kno-Norwood Fsta","id":"a66wiyb2m91s","geo_precision":"range","state":"TN"},"type":"Feature","geometry":{"type":"Point","coordinates":[-83.987865,36.006192]}},{"properties":{"city":"Memphis","geo_score":0.805,"zip code":"38124-9997","street address":"4695 Southern Avenue","station/branch name":"MEM-Colonial Fin Unit","id":"a66wiyb7yq2z","geo_precision":"range","state":"TN"},"type":"Feature","geometry":{"type":"Point","coordinates":[-89.909835,35.115302]}},{"properties":{"city":"Memphis","geo_score":1.0,"zip code":"38126-9998","street address":"826 Mississippi Blvd","station/branch name":"MEM-Lee Finance Unit","id":"a66wiy5xxa27","geo_precision":"range","state":"TN"},"type":"Feature","geometry":{"type":"Point","coordinates":[-90.041739,35.124634]}},{"properties":{"city":"Memphis","geo_score":0.815,"zip code":"38103-9998","street address":"1 N. Front Street","station/branch name":"MEM-Peabody Place Fin Unit","id":"a66wiy9mavbb","geo_precision":"street","state":"TN"},"type":"Feature","geometry":{"type":"Point","coordinates":[-90.05388,35.146156]}},{"properties":{"city":"Memphis","geo_score":1.0,"zip code":"38119-9998","street address":"5821 Park Avenue","station/branch name":"MEM-White Station","id":"a66wiy6t8pi4","geo_precision":"range","state":"TN"},"type":"Feature","geometry":{"type":"Point","coordinates":[-89.869724,35.099739]}},{"properties":{"city":"Nashville","geo_score":0.622,"zip code":"37219-9998","street address":"16 Arcade","station/branch name":"NAS-Arcade Sta","id":"a66wiy2gi4lp","geo_precision":"street","state":"TN"},"type":"Feature","geometry":{"type":"Point","coordinates":[-86.779482,36.164509]}},{"properties":{"city":"Nashville","geo_score":1.0,"zip code":"37214-9998","street address":"215 Donelson Pike","station/branch name":"NAS-Donelson Sta","id":"a66wiy2kah17","geo_precision":"range","state":"TN"},"type":"Feature","geometry":{"type":"Point","coordinates":[-86.664281,36.160997]}},{"properties":{"city":"Nashville","geo_score":1.0,"zip code":"37217-9998","street address":"301 Ezell Pike","station/branch name":"NAS-Glenview Sta","id":"a66wiy2mxu7v","geo_precision":"range","state":"TN"},"type":"Feature","geometry":{"type":"Point","coordinates":[-86.672192,36.101366]}},{"properties":{"city":"Nashville","geo_score":1.0,"zip code":"37207-9998","street address":"2327 Dickerson Rd","station/branch name":"NAS-Northeast Sta","id":"a66wiy5jo3nz","geo_precision":"range","state":"TN"},"type":"Feature","geometry":{"type":"Point","coordinates":[-86.767732,36.207759]}},{"properties":{"city":"Chattanooga","geo_score":0.916,"zip code":"37407-9998","street address":"2600 E 34th St","station/branch name":"CHA-East Lake Sta","id":"a66wiy4ddw8z","geo_precision":"range","state":"TN"},"type":"Feature","geometry":{"type":"Point","coordinates":[-85.282728,35.003035]}},{"properties":{"city":"Chattanooga","geo_score":0.951,"zip code":"37404-9998","street address":"511 S Hawthorne","station/branch name":"CHA-Highland Park Sta","id":"a66wiydvyozv","geo_precision":"range","state":"TN"},"type":"Feature","geometry":{"type":"Point","coordinates":[-85.27703,35.034688]}},{"properties":{"city":"Chattanooga","geo_score":1.0,"zip code":"37416-9998","street address":"4420 Oakwood Dr","station/branch name":"CHA-Murray Lake Hills Sta","id":"a66wiy6wkx04","geo_precision":"range","state":"TN"},"type":"Feature","geometry":{"type":"Point","coordinates":[-85.185048,35.088929]}},{"properties":{"city":"Chattanooga","geo_score":0.805,"zip code":"37405-9998","street address":"124 N Market St","station/branch name":"CHA-North Sta","id":"a66wiy6lpjcm","geo_precision":"street","state":"TN"},"type":"Feature","geometry":{"type":"Point","coordinates":[-85.309071,35.066794]}},{"properties":{"city":"Clarksville","geo_score":0.805,"zip code":"37041-9998","street address":"306 Madison St","station/branch name":"CLA-Downtown Sta","id":"a66wiyf5pjx3","geo_precision":"range","state":"TN"},"type":"Feature","geometry":{"type":"Point","coordinates":[-87.356985,36.525422]}},{"properties":{"city":"Clarksville","geo_score":1.0,"zip code":"37043-9998","street address":"303 Holly Cir","station/branch name":"CLA-Hilldale Sta","id":"a66wiye192wd","geo_precision":"range","state":"TN"},"type":"Feature","geometry":{"type":"Point","coordinates":[-87.296224,36.513714]}},{"properties":{"city":"Clarksville","geo_score":1.0,"zip code":"37042-9998","street address":"2011 Fort Campbell Blvd","station/branch name":"CLA-Ringgold Mill Sta","id":"a66wiy9dh130","geo_precision":"range","state":"TN"},"type":"Feature","geometry":{"type":"Point","coordinates":[-87.418515,36.594728]}},{"properties":{"city":"Jackson","geo_score":1.0,"zip code":"38301-7464","street address":"207 S Missouri St","station/branch name":"JAC-Bemis Sta","id":"a66wiydk8w9r","geo_precision":"range","state":"TN"},"type":"Feature","geometry":{"type":"Point","coordinates":[-88.821249,35.573042]}},{"properties":{"city":"Arlington","geo_score":1.0,"zip code":"76011-5326","street address":"711 106th St","station/branch name":"Arl-Great Southwest","id":"a66wiy6wunrp","geo_precision":"range","state":"TX"},"type":"Feature","geometry":{"type":"Point","coordinates":[-97.059995,32.753729]}},{"properties":{"city":"Irving","geo_score":0.902,"zip code":"75060-9998","street address":"125 W Third St","station/branch name":"Irving Downtown","id":"a66wiy3hk8t9","geo_precision":"range","state":"TX"},"type":"Feature","geometry":{"type":"Point","coordinates":[-96.947493,32.811803]}},{"properties":{"city":"Houston","geo_score":1.0,"zip code":"77034-9998","street address":"10935 Almeda Genoa Rd","station/branch name":"Genoa","id":"a66wiyaeatz8","geo_precision":"range","state":"TX"},"type":"Feature","geometry":{"type":"Point","coordinates":[-95.220922,29.625214]}},{"properties":{"city":"San Antonio","geo_score":0.875,"zip code":"78213-9998","street address":"3731 West Ave","station/branch name":"Cresthaven","id":"a66wiyfhikon","geo_precision":"range","state":"TX"},"type":"Feature","geometry":{"type":"Point","coordinates":[-98.525964,29.497919]}},{"properties":{"city":"San Antonio","geo_score":0.902,"zip code":"78216-9998","street address":"10300 Heritage","station/branch name":"Nimitz Finance","id":"a66wiyi5fefl","geo_precision":"range","state":"TX"},"type":"Feature","geometry":{"type":"Point","coordinates":[-98.489515,29.533759]}},{"properties":{"city":"San Antonio","geo_score":1.0,"zip code":"78207-9998","street address":"600 N Frio St","station/branch name":"Station A","id":"a66wiyfzoe9u","geo_precision":"range","state":"TX"},"type":"Feature","geometry":{"type":"Point","coordinates":[-98.503476,29.431015]}},{"properties":{"city":"Ogden","geo_score":0.805,"zip code":"84402-9998","street address":"2730 Washington Blvd","station/branch name":"Ogden Town Station","id":"a66wiy491svh","geo_precision":"range","state":"UT"},"type":"Feature","geometry":{"type":"Point","coordinates":[-111.970593,41.215826]}},{"properties":{"city":"Hampton","geo_score":1.0,"zip code":"23664-9998","street address":"220 Buckroe Ave","station/branch name":"Buckroe Finance Unit","id":"a66wiycis8sm","geo_precision":"range","state":"VA"},"type":"Feature","geometry":{"type":"Point","coordinates":[-76.292213,37.042723]}},{"properties":{"city":"Norfolk","geo_score":0.927,"zip code":"23513-9996","street address":"2600 Eltham Ave #109","station/branch name":"Norfolk Business Center","id":"a66wiy7aox2g","geo_precision":"range","state":"VA"},"type":"Feature","geometry":{"type":"Point","coordinates":[-76.222009,36.878678]}},{"properties":{"city":"Roanoke","geo_score":0.805,"zip code":"24020-9998","street address":"7916 Williamson Rd","station/branch name":"Hollins College Roanoke","id":"a66wiydz9zsa","geo_precision":"range","state":"VA"},"type":"Feature","geometry":{"type":"Point","coordinates":[-79.940901,37.351617]}},{"properties":{"city":"Roanoke","geo_score":0.805,"zip code":"24012-9998","street address":"3623 Williamson Rd NW","station/branch name":"Williamson Road - Roanoke","id":"a66wiy6r42xx","geo_precision":"street","state":"VA"},"type":"Feature","geometry":{"type":"Point","coordinates":[-79.95374,37.323587]}},{"properties":{"city":"Green Bay","geo_score":0.752,"zip code":"54306-9997","street address":"119 S Chestnut","station/branch name":"Green Bay-Sta A-Fin Sta","id":"a66wiyfrzhpm","geo_precision":"range","state":"WI"},"type":"Feature","geometry":{"type":"Point","coordinates":[-88.023081,44.516522]}},{"properties":{"city":"Charleston","geo_score":1.0,"zip code":"25311-9998","street address":"1579 Washington St E","station/branch name":"Capitol Station - Charleston","id":"a66wiy54f1ko","geo_precision":"range","state":"WV"},"type":"Feature","geometry":{"type":"Point","coordinates":[-81.61846,38.341377]}},{"properties":{"city":"South Charleston","geo_score":0.704,"zip code":"25309-9998","street address":"609 Chestnut St","station/branch name":"Spring Hill Station","id":"a66wiy6a1nlz","geo_precision":"range","state":"WV"},"type":"Feature","geometry":{"type":"Point","coordinates":[-81.730902,38.352655]}},{"properties":{"city":"Charleston","geo_score":0.902,"zip code":"25312-9998","street address":"2308 7th Ave","station/branch name":"Station C - Charleston","id":"a66wiy67d8le","geo_precision":"range","state":"WV"},"type":"Feature","geometry":{"type":"Point","coordinates":[-81.673274,38.375849]}}],"is_temporal":false,"author":{"url":"http://www.washingtonpost.com/wp-srv/politics/documents/post-offices-100909.html","metadata":"","contact_name":"","contact_address":"","source":"Washington Post","contact_phone":""},"source":"http://www.washingtonpost.com/wp-srv/politics/documents/post-offices-100909.html","pagination":{"sort":null,"start":0,"total":413,"limit":1000000},"state":"complete","tags":"postoffice,us,usps","published":"2014-08-10T22:06:09-04:00","id":16867}