{"type":"FeatureCollection","data_type":"Dataset","url_type":null,"permissions":[{"permissions":{"download":true,"view":true},"group_id":"everyone"}],"classification":null,"title":"US Cities","count":115,"stream_id":16952,"contributor":{"url":"http://geocommons.com/users/982","name":"Jason"},"data_attributes":null,"calculation_params":null,"icon_link":null,"link":"http://geocommons.com/overlays/16952.json","extent":[-168.022,18.4659,-66.1036,63.8887],"geometry_types":["point"],"unique_name":null,"name":"US Cities","feature_count":115,"description":"","next_feature":null,"is_raster":false,"short_classification":"Y","stats":{"geo_score":{"max":0.857,"mean":0.826173913043478,"variance":0.0216005659801677,"stdev":0.14697131005801,"min":0.0,"median":0.857}},"features":[{"properties":{"city":"Albany","geo_score":0.857,"id":"a6352l0aoo5w","geo_precision":"city","state":"NY"},"type":"Feature","geometry":{"type":"Point","coordinates":[-73.970812,42.614852]}},{"properties":{"city":"Albuquerque","geo_score":0.857,"id":"a6352kro3cvu","geo_precision":"city","state":"NM"},"type":"Feature","geometry":{"type":"Point","coordinates":[-106.651137,35.084491]}},{"properties":{"city":"Amarillo","geo_score":0.857,"id":"a6352kzae0oe","geo_precision":"city","state":"TX"},"type":"Feature","geometry":{"type":"Point","coordinates":[-101.831297,35.221997]}},{"properties":{"city":"Anchorage","geo_score":0.857,"id":"a6352kojnx9q","geo_precision":"city","state":"AK"},"type":"Feature","geometry":{"type":"Point","coordinates":[-149.486981,61.287624]}},{"properties":{"city":"Atlanta","geo_score":0.857,"id":"a6352ktcohle","geo_precision":"city","state":"GA"},"type":"Feature","geometry":{"type":"Point","coordinates":[-84.47405,33.844371]}},{"properties":{"city":"Austin","geo_score":0.857,"id":"a6352l0ol54x","geo_precision":"city","state":"TX"},"type":"Feature","geometry":{"type":"Point","coordinates":[-97.771258,30.326374]}},{"properties":{"city":"Baker","geo_score":0.0,"id":"a6352kn1h4nt","geo_precision":"unmatched","state":"OR"},"type":"Feature","geometry":null},{"properties":{"city":"Baltimore","geo_score":0.857,"id":"a6352kqwhln9","geo_precision":"city","state":"MD"},"type":"Feature","geometry":{"type":"Point","coordinates":[-76.623489,39.296536]}},{"properties":{"city":"Bangor","geo_score":0.857,"id":"a6352klx9te2","geo_precision":"city","state":"ME"},"type":"Feature","geometry":{"type":"Point","coordinates":[-68.878893,45.061744]}},{"properties":{"city":"Birmingham","geo_score":0.857,"id":"a6352kt2ve8y","geo_precision":"city","state":"AL"},"type":"Feature","geometry":{"type":"Point","coordinates":[-86.801904,33.456412]}},{"properties":{"city":"Bismarck","geo_score":0.857,"id":"a6352kxyi72g","geo_precision":"city","state":"ND"},"type":"Feature","geometry":{"type":"Point","coordinates":[-100.502724,46.981207]}},{"properties":{"city":"Boise","geo_score":0.857,"id":"a6352kovtgvz","geo_precision":"city","state":"ID"},"type":"Feature","geometry":{"type":"Point","coordinates":[-116.272921,43.603768]}},{"properties":{"city":"Boston","geo_score":0.857,"id":"a6352kpq6b0y","geo_precision":"city","state":"MA"},"type":"Feature","geometry":{"type":"Point","coordinates":[-71.026964,42.370567]}},{"properties":{"city":"Buffalo","geo_score":0.857,"id":"a6352kz0pz5f","geo_precision":"city","state":"NY"},"type":"Feature","geometry":{"type":"Point","coordinates":[-78.832706,42.929303]}},{"properties":{"city":"Carlsbad","geo_score":0.857,"id":"a6352kpr8p7g","geo_precision":"city","state":"NM"},"type":"Feature","geometry":{"type":"Point","coordinates":[-104.46539,32.416897]}},{"properties":{"city":"Charleston","geo_score":0.857,"id":"a6352kq9ae2w","geo_precision":"city","state":"SC"},"type":"Feature","geometry":{"type":"Point","coordinates":[-79.940844,32.780326]}},{"properties":{"city":"Charleston","geo_score":0.857,"id":"a6352kp3aejb","geo_precision":"city","state":"WV"},"type":"Feature","geometry":{"type":"Point","coordinates":[-81.605094,38.328948]}},{"properties":{"city":"Charlotte","geo_score":0.857,"id":"a6352kwk3if3","geo_precision":"city","state":"NC"},"type":"Feature","geometry":{"type":"Point","coordinates":[-80.804151,35.26002]}},{"properties":{"city":"Cheyenne","geo_score":0.857,"id":"a6352ktf95g0","geo_precision":"city","state":"WY"},"type":"Feature","geometry":{"type":"Point","coordinates":[-104.56264,41.25173]}},{"properties":{"city":"Chicago","geo_score":0.857,"id":"a6352kn70hgz","geo_precision":"city","state":"IL"},"type":"Feature","geometry":{"type":"Point","coordinates":[-87.68732,41.811929]}},{"properties":{"city":"Cincinnati","geo_score":0.857,"id":"a6352ksttit1","geo_precision":"city","state":"OH"},"type":"Feature","geometry":{"type":"Point","coordinates":[-84.53822,39.166759]}},{"properties":{"city":"Cleveland","geo_score":0.857,"id":"a6352kuwm7eg","geo_precision":"city","state":"OH"},"type":"Feature","geometry":{"type":"Point","coordinates":[-81.599648,41.523401]}},{"properties":{"city":"Columbia","geo_score":0.857,"id":"a6352ksz3kpz","geo_precision":"city","state":"SC"},"type":"Feature","geometry":{"type":"Point","coordinates":[-81.024864,33.987454]}},{"properties":{"city":"Columbus","geo_score":0.857,"id":"a6352kt72c9a","geo_precision":"city","state":"OH"},"type":"Feature","geometry":{"type":"Point","coordinates":[-82.897222,40.040113]}},{"properties":{"city":"Dallas","geo_score":0.857,"id":"a6352kxxdts6","geo_precision":"city","state":"TX"},"type":"Feature","geometry":{"type":"Point","coordinates":[-96.790329,32.781179]}},{"properties":{"city":"Denver","geo_score":0.857,"id":"a6352km0o4pd","geo_precision":"city","state":"CO"},"type":"Feature","geometry":{"type":"Point","coordinates":[-104.856808,39.726303]}},{"properties":{"city":"Des Moines","geo_score":0.857,"id":"a6352kvt1ibc","geo_precision":"city","state":"IA"},"type":"Feature","geometry":{"type":"Point","coordinates":[-93.572173,41.672687]}},{"properties":{"city":"Detroit","geo_score":0.857,"id":"a6352kob6h6h","geo_precision":"city","state":"MI"},"type":"Feature","geometry":{"type":"Point","coordinates":[-83.150823,42.239933]}},{"properties":{"city":"Dubuque","geo_score":0.857,"id":"a6352kwt7cvu","geo_precision":"city","state":"IA"},"type":"Feature","geometry":{"type":"Point","coordinates":[-90.877135,42.458876]}},{"properties":{"city":"Duluth","geo_score":0.857,"id":"a6352kujik2f","geo_precision":"city","state":"MN"},"type":"Feature","geometry":{"type":"Point","coordinates":[-92.001934,47.005566]}},{"properties":{"city":"Eastport","geo_score":0.857,"id":"a6352kz31zde","geo_precision":"city","state":"ME"},"type":"Feature","geometry":{"type":"Point","coordinates":[-67.136853,45.036287]}},{"properties":{"city":"El Centro","geo_score":0.857,"id":"a6352kz22lf0","geo_precision":"city","state":"CA"},"type":"Feature","geometry":{"type":"Point","coordinates":[-115.503842,32.900509]}},{"properties":{"city":"El Paso","geo_score":0.857,"id":"a6352kmft3h9","geo_precision":"city","state":"TX"},"type":"Feature","geometry":{"type":"Point","coordinates":[-106.484592,31.763608]}},{"properties":{"city":"Eugene","geo_score":0.857,"id":"a6352ku5mftl","geo_precision":"city","state":"OR"},"type":"Feature","geometry":{"type":"Point","coordinates":[-123.074193,44.117868]}},{"properties":{"city":"Fargo","geo_score":0.857,"id":"a6352l00phro","geo_precision":"city","state":"ND"},"type":"Feature","geometry":{"type":"Point","coordinates":[-96.990615,46.92536]}},{"properties":{"city":"Flagstaff","geo_score":0.857,"id":"a6352kzwergb","geo_precision":"city","state":"AZ"},"type":"Feature","geometry":{"type":"Point","coordinates":[-111.597853,35.932116]}},{"properties":{"city":"Fort Worth","geo_score":0.857,"id":"a6352kl3f4sa","geo_precision":"city","state":"TX"},"type":"Feature","geometry":{"type":"Point","coordinates":[-97.291484,32.771419]}},{"properties":{"city":"Fresno","geo_score":0.857,"id":"a6352l15is6g","geo_precision":"city","state":"CA"},"type":"Feature","geometry":{"type":"Point","coordinates":[-119.801015,36.8411]}},{"properties":{"city":"Grand Junction","geo_score":0.857,"id":"a6352knw6jrq","geo_precision":"city","state":"CO"},"type":"Feature","geometry":{"type":"Point","coordinates":[-108.583126,39.069019]}},{"properties":{"city":"Grand Rapids","geo_score":0.857,"id":"a6352km7yf7k","geo_precision":"city","state":"MI"},"type":"Feature","geometry":{"type":"Point","coordinates":[-85.629101,42.984226]}},{"properties":{"city":"Havre","geo_score":0.857,"id":"a6352ktmy526","geo_precision":"city","state":"MT"},"type":"Feature","geometry":{"type":"Point","coordinates":[-110.09437,48.663002]}},{"properties":{"city":"Helena","geo_score":0.857,"id":"a6352kpbntnx","geo_precision":"city","state":"MT"},"type":"Feature","geometry":{"type":"Point","coordinates":[-112.197616,46.70934]}},{"properties":{"city":"Honolulu","geo_score":0.857,"id":"a6352l17k7vc","geo_precision":"city","state":"HI"},"type":"Feature","geometry":{"type":"Point","coordinates":[-168.021815,24.859832]}},{"properties":{"city":"Hot Springs","geo_score":0.857,"id":"a6352kp243ey","geo_precision":"city","state":"AR"},"type":"Feature","geometry":{"type":"Point","coordinates":[-93.05518,34.5037]}},{"properties":{"city":"Houston","geo_score":0.857,"id":"a6352kwcc0nh","geo_precision":"city","state":"TX"},"type":"Feature","geometry":{"type":"Point","coordinates":[-95.309789,29.813142]}},{"properties":{"city":"ID Falls","geo_score":0.0,"id":"a6352ksm7jep","geo_precision":"unmatched","state":"ID"},"type":"Feature","geometry":null},{"properties":{"city":"Indianapolis","geo_score":0.857,"id":"a6352kpei4wf","geo_precision":"city","state":"IN"},"type":"Feature","geometry":{"type":"Point","coordinates":[-86.13216,39.775092]}},{"properties":{"city":"Jackson","geo_score":0.857,"id":"a6352ktctwlb","geo_precision":"city","state":"MS"},"type":"Feature","geometry":{"type":"Point","coordinates":[-90.192687,32.291095]}},{"properties":{"city":"Jacksonville","geo_score":0.857,"id":"a6352kmstlss","geo_precision":"city","state":"FL"},"type":"Feature","geometry":{"type":"Point","coordinates":[-81.768622,30.337538]}},{"properties":{"city":"Juneau","geo_score":0.857,"id":"a6352kz8v7py","geo_precision":"city","state":"AK"},"type":"Feature","geometry":{"type":"Point","coordinates":[-134.523946,58.373561]}},{"properties":{"city":"Kansas City","geo_score":0.0,"id":"a6352km2fcpg","geo_precision":"unmatched","state":"MT"},"type":"Feature","geometry":null},{"properties":{"city":"Key West","geo_score":0.643,"id":"a6352kufzsw0","geo_precision":"street","state":"FL"},"type":"Feature","geometry":{"type":"Point","coordinates":[-81.740133,24.584557]}},{"properties":{"city":"Klamath Falls","geo_score":0.857,"id":"a6352kq6pc2y","geo_precision":"city","state":"OR"},"type":"Feature","geometry":{"type":"Point","coordinates":[-121.816873,42.293293]}},{"properties":{"city":"Knoxville","geo_score":0.857,"id":"a6352kl49y2w","geo_precision":"city","state":"TN"},"type":"Feature","geometry":{"type":"Point","coordinates":[-83.884804,36.032334]}},{"properties":{"city":"Las Vegas","geo_score":0.857,"id":"a6352ko3214v","geo_precision":"city","state":"NV"},"type":"Feature","geometry":{"type":"Point","coordinates":[-115.10647,36.17372]}},{"properties":{"city":"Lewiston","geo_score":0.857,"id":"a6352ky4y0a9","geo_precision":"city","state":"ID"},"type":"Feature","geometry":{"type":"Point","coordinates":[-116.860852,46.3646]}},{"properties":{"city":"Lincoln","geo_score":0.857,"id":"a6352l17912f","geo_precision":"city","state":"NE"},"type":"Feature","geometry":{"type":"Point","coordinates":[-96.823133,40.865142]}},{"properties":{"city":"Long Beach","geo_score":0.857,"id":"a6352kzgl5y4","geo_precision":"city","state":"CA"},"type":"Feature","geometry":{"type":"Point","coordinates":[-118.167423,33.777152]}},{"properties":{"city":"Los Angeles","geo_score":0.857,"id":"a6352kxe1nf1","geo_precision":"city","state":"CA"},"type":"Feature","geometry":{"type":"Point","coordinates":[-118.248405,33.973951]}},{"properties":{"city":"Louisville","geo_score":0.857,"id":"a6352kvlm3ty","geo_precision":"city","state":"KY"},"type":"Feature","geometry":{"type":"Point","coordinates":[-85.676819,38.188962]}},{"properties":{"city":"Manchester","geo_score":0.857,"id":"a6352knhez32","geo_precision":"city","state":"NH"},"type":"Feature","geometry":{"type":"Point","coordinates":[-71.462111,42.988483]}},{"properties":{"city":"Memphis","geo_score":0.857,"id":"a6352kmkrmw4","geo_precision":"city","state":"TN"},"type":"Feature","geometry":{"type":"Point","coordinates":[-89.990415,35.169255]}},{"properties":{"city":"Miami","geo_score":0.857,"id":"a6352l147ptz","geo_precision":"city","state":"FL"},"type":"Feature","geometry":{"type":"Point","coordinates":[-80.193659,25.774266]}},{"properties":{"city":"Milwaukee","geo_score":0.857,"id":"a6352kmq0cz8","geo_precision":"city","state":"WI"},"type":"Feature","geometry":{"type":"Point","coordinates":[-87.958409,43.011264]}},{"properties":{"city":"Minneapolis","geo_score":0.857,"id":"a6352kqwfl9b","geo_precision":"city","state":"MN"},"type":"Feature","geometry":{"type":"Point","coordinates":[-93.273024,44.979265]}},{"properties":{"city":"Mobile","geo_score":0.857,"id":"a6352kn9urjt","geo_precision":"city","state":"AL"},"type":"Feature","geometry":{"type":"Point","coordinates":[-88.103184,30.701142]}},{"properties":{"city":"Montgomery","geo_score":0.857,"id":"a6352kqfk2rk","geo_precision":"city","state":"AL"},"type":"Feature","geometry":{"type":"Point","coordinates":[-86.257817,32.356988]}},{"properties":{"city":"Montpelier","geo_score":0.857,"id":"a6352kwhz8y7","geo_precision":"city","state":"VT"},"type":"Feature","geometry":{"type":"Point","coordinates":[-72.559638,44.19906]}},{"properties":{"city":"Nashville","geo_score":0.857,"id":"a6352kzahvtw","geo_precision":"city","state":"TN"},"type":"Feature","geometry":{"type":"Point","coordinates":[-86.778098,36.165688]}},{"properties":{"city":"New Haven","geo_score":0.857,"id":"a6352kzxs0zp","geo_precision":"city","state":"CT"},"type":"Feature","geometry":{"type":"Point","coordinates":[-72.927507,41.365709]}},{"properties":{"city":"New Orleans","geo_score":0.857,"id":"a6352kkxf7xq","geo_precision":"city","state":"LA"},"type":"Feature","geometry":{"type":"Point","coordinates":[-89.930956,30.068812]}},{"properties":{"city":"New York","geo_score":0.857,"id":"a6352kotlupw","geo_precision":"city","state":"NY"},"type":"Feature","geometry":{"type":"Point","coordinates":[-74.005973,40.714269]}},{"properties":{"city":"Newark","geo_score":0.857,"id":"a6352klpqn2j","geo_precision":"city","state":"NJ"},"type":"Feature","geometry":{"type":"Point","coordinates":[-74.22509,40.736101]}},{"properties":{"city":"Nome","geo_score":0.857,"id":"a6352kq5f4lh","geo_precision":"city","state":"AK"},"type":"Feature","geometry":{"type":"Point","coordinates":[-163.80076,63.888671]}},{"properties":{"city":"Oakland","geo_score":0.857,"id":"a6352l176ods","geo_precision":"city","state":"CA"},"type":"Feature","geometry":{"type":"Point","coordinates":[-122.223779,37.786027]}},{"properties":{"city":"Oklahoma City","geo_score":0.857,"id":"a6352krcrc4l","geo_precision":"city","state":"OK"},"type":"Feature","geometry":{"type":"Point","coordinates":[-97.562817,35.491608]}},{"properties":{"city":"Omaha","geo_score":0.857,"id":"a6352l190y48","geo_precision":"city","state":"NE"},"type":"Feature","geometry":{"type":"Point","coordinates":[-96.171104,41.291736]}},{"properties":{"city":"Philadelphia","geo_score":0.857,"id":"a6352kzo7z5q","geo_precision":"city","state":"PA"},"type":"Feature","geometry":{"type":"Point","coordinates":[-75.11787,40.001811]}},{"properties":{"city":"Phoenix","geo_score":0.857,"id":"a6352kn62da8","geo_precision":"city","state":"AZ"},"type":"Feature","geometry":{"type":"Point","coordinates":[-112.351835,33.703967]}},{"properties":{"city":"Pierre","geo_score":0.857,"id":"a6352kxe64tu","geo_precision":"city","state":"SD"},"type":"Feature","geometry":{"type":"Point","coordinates":[-100.094195,44.334073]}},{"properties":{"city":"Pittsburgh","geo_score":0.857,"id":"a6352kqd5vfr","geo_precision":"city","state":"PA"},"type":"Feature","geometry":{"type":"Point","coordinates":[-80.024817,40.434436]}},{"properties":{"city":"Portland","geo_score":0.857,"id":"a6352kosc9f4","geo_precision":"city","state":"ME"},"type":"Feature","geometry":{"type":"Point","coordinates":[-70.262393,43.658784]}},{"properties":{"city":"Portland","geo_score":0.857,"id":"a6352km4jrjt","geo_precision":"city","state":"OR"},"type":"Feature","geometry":{"type":"Point","coordinates":[-122.693157,45.498931]}},{"properties":{"city":"Providence","geo_score":0.857,"id":"a6352ks1ganu","geo_precision":"city","state":"RI"},"type":"Feature","geometry":{"type":"Point","coordinates":[-71.414451,41.82275]}},{"properties":{"city":"Raleigh","geo_score":0.857,"id":"a6352ktsf0r0","geo_precision":"city","state":"NC"},"type":"Feature","geometry":{"type":"Point","coordinates":[-78.604175,35.773755]}},{"properties":{"city":"Reno","geo_score":0.857,"id":"a6352krinwfa","geo_precision":"city","state":"NV"},"type":"Feature","geometry":{"type":"Point","coordinates":[-119.704614,39.65558]}},{"properties":{"city":"Richfield","geo_score":0.857,"id":"a6352kp601ar","geo_precision":"city","state":"UT"},"type":"Feature","geometry":{"type":"Point","coordinates":[-112.074362,38.738771]}},{"properties":{"city":"Richmond","geo_score":0.857,"id":"a6352kmr5k2t","geo_precision":"city","state":"VA"},"type":"Feature","geometry":{"type":"Point","coordinates":[-77.460262,37.553758]}},{"properties":{"city":"Roanoke","geo_score":0.857,"id":"a6352kv1vkmw","geo_precision":"city","state":"VA"},"type":"Feature","geometry":{"type":"Point","coordinates":[-79.95786,37.274175]}},{"properties":{"city":"Sacramento","geo_score":0.857,"id":"a6352kkxp2is","geo_precision":"city","state":"CA"},"type":"Feature","geometry":{"type":"Point","coordinates":[-121.555406,38.380456]}},{"properties":{"city":"Salt Lake City","geo_score":0.857,"id":"a6352kxx2jht","geo_precision":"city","state":"UT"},"type":"Feature","geometry":{"type":"Point","coordinates":[-111.900719,40.756095]}},{"properties":{"city":"San Antonio","geo_score":0.857,"id":"a6352kqw3zcl","geo_precision":"city","state":"TX"},"type":"Feature","geometry":{"type":"Point","coordinates":[-98.537495,29.399933]}},{"properties":{"city":"San Diego","geo_score":0.857,"id":"a6352kxngge1","geo_precision":"city","state":"CA"},"type":"Feature","geometry":{"type":"Point","coordinates":[-117.174366,32.7211]}},{"properties":{"city":"San Francisco","geo_score":0.857,"id":"a6352kuvt2ib","geo_precision":"city","state":"CA"},"type":"Feature","geometry":{"type":"Point","coordinates":[-122.727802,37.784827]}},{"properties":{"city":"San Jose","geo_score":0.857,"id":"a6352kulttwe","geo_precision":"city","state":"CA"},"type":"Feature","geometry":{"type":"Point","coordinates":[-121.705327,37.189396]}},{"properties":{"city":"San Juan","geo_score":0.857,"id":"a6352kmimq2v","geo_precision":"city","state":"PR"},"type":"Feature","geometry":{"type":"Point","coordinates":[-66.103568,18.465901]}},{"properties":{"city":"Santa Fe","geo_score":0.857,"id":"a6352kohco8b","geo_precision":"city","state":"NM"},"type":"Feature","geometry":{"type":"Point","coordinates":[-105.982146,35.697473]}},{"properties":{"city":"Savannah","geo_score":0.857,"id":"a6352klbchx0","geo_precision":"city","state":"GA"},"type":"Feature","geometry":{"type":"Point","coordinates":[-81.135618,32.072257]}},{"properties":{"city":"Seattle","geo_score":0.857,"id":"a6352kngypyx","geo_precision":"city","state":"WA"},"type":"Feature","geometry":{"type":"Point","coordinates":[-121.803388,47.432251]}},{"properties":{"city":"Shreveport","geo_score":0.857,"id":"a6352l02llez","geo_precision":"city","state":"LA"},"type":"Feature","geometry":{"type":"Point","coordinates":[-93.750228,32.498202]}},{"properties":{"city":"Sioux Falls","geo_score":0.857,"id":"a6352kx8leej","geo_precision":"city","state":"SD"},"type":"Feature","geometry":{"type":"Point","coordinates":[-96.69063,43.546358]}},{"properties":{"city":"Sitka","geo_score":0.857,"id":"a6352kyr0ybf","geo_precision":"city","state":"AK"},"type":"Feature","geometry":{"type":"Point","coordinates":[-135.318348,57.080818]}},{"properties":{"city":"Spokane","geo_score":0.857,"id":"a6352kxwi0ad","geo_precision":"city","state":"WA"},"type":"Feature","geometry":{"type":"Point","coordinates":[-117.435997,47.66264]}},{"properties":{"city":"Springfield","geo_score":0.857,"id":"a6352knhbds0","geo_precision":"city","state":"IL"},"type":"Feature","geometry":{"type":"Point","coordinates":[-89.598978,39.820839]}},{"properties":{"city":"Springfield","geo_score":0.607,"id":"a6352ksa28ps","geo_precision":"street","state":"MT"},"type":"Feature","geometry":{"type":"Point","coordinates":[-112.076795,46.54604]}},{"properties":{"city":"Springfield","geo_score":0.857,"id":"a6352kwsbpud","geo_precision":"city","state":"MA"},"type":"Feature","geometry":{"type":"Point","coordinates":[-72.604842,42.170731]}},{"properties":{"city":"St. Louis","geo_score":0.347,"id":"a6352kqsiej0","geo_precision":"street","state":"MT"},"type":"Feature","geometry":{"type":"Point","coordinates":[-104.548597,45.887716]}},{"properties":{"city":"Syracuse","geo_score":0.857,"id":"a6352kwybn55","geo_precision":"city","state":"NY"},"type":"Feature","geometry":{"type":"Point","coordinates":[-76.197701,43.02143]}},{"properties":{"city":"Tampa","geo_score":0.857,"id":"a6352kv1fv7f","geo_precision":"city","state":"FL"},"type":"Feature","geometry":{"type":"Point","coordinates":[-82.582035,27.996097]}},{"properties":{"city":"Toledo","geo_score":0.857,"id":"a6352l15mhzh","geo_precision":"city","state":"OH"},"type":"Feature","geometry":{"type":"Point","coordinates":[-83.569359,41.720684]}},{"properties":{"city":"Tulsa","geo_score":0.857,"id":"a6352kqxet5z","geo_precision":"city","state":"OK"},"type":"Feature","geometry":{"type":"Point","coordinates":[-95.868667,36.039147]}},{"properties":{"city":"Virginia Beach","geo_score":0.857,"id":"a6352kwl6azq","geo_precision":"city","state":"VA"},"type":"Feature","geometry":{"type":"Point","coordinates":[-76.12036,36.844004]}},{"properties":{"city":"Washington","geo_score":0.857,"id":"a6352ks1yudq","geo_precision":"city","state":"DC"},"type":"Feature","geometry":{"type":"Point","coordinates":[-77.036366,38.895112]}},{"properties":{"city":"Wichita","geo_score":0.857,"id":"a6352kqwfego","geo_precision":"city","state":"KS"},"type":"Feature","geometry":{"type":"Point","coordinates":[-97.258997,37.651974]}},{"properties":{"city":"Wilmington","geo_score":0.857,"id":"a6352ku8ac79","geo_precision":"city","state":"NC"},"type":"Feature","geometry":{"type":"Point","coordinates":[-77.95481,34.163503]}}],"is_temporal":false,"author":{"url":"","metadata":"","contact_name":"","contact_address":"","source":"","contact_phone":""},"source":"","pagination":{"sort":null,"start":0,"total":115,"limit":1000000},"state":"complete","tags":"","published":"2014-08-10T22:13:57-04:00","id":16952}