{"type":"FeatureCollection","url":"http://www.crh.noaa.gov/images/bou/precip/lsrbou_out.csv","data_type":"Data Feed","url_type":"csv","permissions":[{"permissions":{"download":true,"view":true},"group_id":"everyone"}],"classification":null,"title":"lsrbou_out.csv","count":125,"stream_id":169786,"contributor":{"url":"http://geocommons.com/users/28467","name":"bheberto"},"data_attributes":null,"calculation_params":null,"icon_link":null,"link":"http://geocommons.com/overlays/169786.json","extent":[-106.33,38.99,-102.81,40.97],"geometry_types":["point"],"unique_name":null,"name":"lsrbou_out.csv","feature_count":125,"description":"","next_feature":null,"is_raster":false,"short_classification":"Y","stats":{"total_snow":{"max":18.2,"mean":7.168,"variance":8.88348387096774,"stdev":2.98051738310109,"min":2.0,"median":7.0},"latitude":{"max":40.97,"mean":39.96904,"variance":0.150129716129032,"stdev":0.387465761234502,"min":38.99,"median":39.94},"time":{"max":"2030/01/01 23:00:00 -0500","mean":"1892/04/27 17:33:40 -0500","variance":1.6638634080084e+20,"stdev":12899082944.1802,"min":"407/12/31 23:59:58 -0456","median":"2030/01/01 09:00:00 -0500"},"longitude":{"max":-102.81,"mean":-105.09984,"variance":0.330912877419354,"stdev":0.575250273723841,"min":-106.33,"median":-105.11}},"features":[{"properties":{"remarks":null,"latitude":39.87,"total_snow":8.8,"total_liquid":null,"time":{"end_time":"2030/01/02 00:00:00 -0500","original":"0335 PM","granularity":"hour","time":"2030/01/01 23:00:00 -0500"},"county":"JEFFERSON","date":"10-26-2011","type":"HEAVY SNOW","longitude":-105.07,"id":"a65k5vzr70ru","state":"CO","location":"1 SW WESTMINSTER"},"type":"Feature","geometry":{"type":"Point","coordinates":[-105.07,39.87]}},{"properties":{"remarks":null,"latitude":40.04,"total_snow":5.0,"total_liquid":null,"time":{"end_time":"2030/01/01 23:00:00 -0500","original":"0322 PM","granularity":"hour","time":"2030/01/01 22:00:00 -0500"},"county":"GRAND","date":"10-26-2011","type":"SNOW","longitude":-106.2,"id":"a65k5w5m78yr","state":"CO","location":"N WILLIAMS FORK RESERVO"},"type":"Feature","geometry":{"type":"Point","coordinates":[-106.2,40.04]}},{"properties":{"remarks":null,"latitude":39.93,"total_snow":9.7,"total_liquid":null,"time":{"end_time":"2030/01/01 23:00:00 -0500","original":"0322 PM","granularity":"hour","time":"2030/01/01 22:00:00 -0500"},"county":"BROOMFIELD","date":"10-26-2011","type":"HEAVY SNOW","longitude":-105.08,"id":"a65k5w7dy5ct","state":"CO","location":"1 WSW BROOMFIELD"},"type":"Feature","geometry":{"type":"Point","coordinates":[-105.08,39.93]}},{"properties":{"remarks":null,"latitude":39.94,"total_snow":8.4,"total_liquid":null,"time":{"end_time":"2030/01/01 13:00:00 -0500","original":"0300 PM","granularity":"hour","time":"2030/01/01 12:00:00 -0500"},"county":"GRAND","date":"10-26-2011","type":"HEAVY SNOW","longitude":-105.82,"id":"a65k5w24z3xe","state":"CO","location":"1 WNW FRASER"},"type":"Feature","geometry":{"type":"Point","coordinates":[-105.82,39.94]}},{"properties":{"remarks":null,"latitude":39.73,"total_snow":8.5,"total_liquid":null,"time":{"end_time":"2030/01/01 19:00:00 -0500","original":"0246 PM","granularity":"hour","time":"2030/01/01 18:00:00 -0500"},"county":"DENVER","date":"10-26-2011","type":"HEAVY SNOW","longitude":-104.96,"id":"a65k5w2msr5r","state":"CO","location":"NW DENVER"},"type":"Feature","geometry":{"type":"Point","coordinates":[-104.96,39.73]}},{"properties":{"remarks":null,"latitude":39.96,"total_snow":6.8,"total_liquid":null,"time":{"end_time":"2030/01/01 18:00:00 -0500","original":"0245 PM","granularity":"hour","time":"2030/01/01 17:00:00 -0500"},"county":"ADAMS","date":"10-26-2011","type":"HEAVY SNOW","longitude":-104.91,"id":"a65k5w5y3ry0","state":"CO","location":"5 NE NORTHGLENN"},"type":"Feature","geometry":{"type":"Point","coordinates":[-104.91,39.96]}},{"properties":{"remarks":null,"latitude":39.74,"total_snow":9.0,"total_liquid":null,"time":{"end_time":"2030/01/01 18:00:00 -0500","original":"0245 PM","granularity":"hour","time":"2030/01/01 17:00:00 -0500"},"county":"CLEAR CREEK","date":"10-26-2011","type":"HEAVY SNOW","longitude":-105.49,"id":"a65k5w0yjd6w","state":"CO","location":"1 E IDAHO SPRINGS"},"type":"Feature","geometry":{"type":"Point","coordinates":[-105.49,39.74]}},{"properties":{"remarks":null,"latitude":39.97,"total_snow":9.1,"total_liquid":null,"time":{"end_time":"2030/01/01 19:00:00 -0500","original":"0222 PM","granularity":"hour","time":"2030/01/01 18:00:00 -0500"},"county":"BOULDER","date":"10-26-2011","type":"HEAVY SNOW","longitude":-105.1,"id":"a65k5w59m17f","state":"CO","location":"2 S LAFAYETTE"},"type":"Feature","geometry":{"type":"Point","coordinates":[-105.1,39.97]}},{"properties":{"remarks":null,"latitude":39.67,"total_snow":6.8,"total_liquid":null,"time":{"end_time":"2030/01/01 19:00:00 -0500","original":"0210 PM","granularity":"hour","time":"2030/01/01 18:00:00 -0500"},"county":"ARAPAHOE","date":"10-26-2011","type":"HEAVY SNOW","longitude":-104.49,"id":"a65k5w4h9ux6","state":"CO","location":"8 SE WATKINS"},"type":"Feature","geometry":{"type":"Point","coordinates":[-104.49,39.67]}},{"properties":{"remarks":null,"latitude":39.91,"total_snow":8.5,"total_liquid":null,"time":{"end_time":"2030/01/01 15:00:00 -0500","original":"0110 PM","granularity":"hour","time":"2030/01/01 14:00:00 -0500"},"county":"ADAMS","date":"10-26-2011","type":"HEAVY SNOW","longitude":-104.99,"id":"a65k5w2940zg","state":"CO","location":"1 W NORTHGLENN"},"type":"Feature","geometry":{"type":"Point","coordinates":[-104.99,39.91]}},{"properties":{"remarks":null,"latitude":39.99,"total_snow":13.0,"total_liquid":null,"time":{"end_time":"2030/01/01 17:00:00 -0500","original":"0100 PM","granularity":"hour","time":"2030/01/01 16:00:00 -0500"},"county":"BOULDER","date":"10-26-2011","type":"HEAVY SNOW","longitude":-105.45,"id":"a65k5w0kvk1t","state":"CO","location":"4 ENE NEDERLAND"},"type":"Feature","geometry":{"type":"Point","coordinates":[-105.45,39.99]}},{"properties":{"remarks":null,"latitude":39.72,"total_snow":10.7,"total_liquid":null,"time":{"end_time":"2030/01/01 22:00:00 -0500","original":"1245 PM","granularity":"hour","time":"2030/01/01 21:00:00 -0500"},"county":"JEFFERSON","date":"10-26-2011","type":"HEAVY SNOW","longitude":-105.25,"id":"a65k5w3vlc65","state":"CO","location":"2 SW GOLDEN"},"type":"Feature","geometry":{"type":"Point","coordinates":[-105.25,39.72]}},{"properties":{"remarks":null,"latitude":39.43,"total_snow":8.0,"total_liquid":null,"time":{"end_time":"2030/01/01 22:00:00 -0500","original":"1245 PM","granularity":"hour","time":"2030/01/01 21:00:00 -0500"},"county":"PARK","date":"10-26-2011","type":"HEAVY SNOW","longitude":-105.44,"id":"a65k5vtf1kat","state":"CO","location":"3 NNE BAILEY"},"type":"Feature","geometry":{"type":"Point","coordinates":[-105.44,39.43]}},{"properties":{"remarks":null,"latitude":39.99,"total_snow":8.5,"total_liquid":null,"time":{"end_time":"2030/01/01 22:00:00 -0500","original":"1245 PM","granularity":"hour","time":"2030/01/01 21:00:00 -0500"},"county":"BOULDER","date":"10-26-2011","type":"HEAVY SNOW","longitude":-105.15,"id":"a65k5vugv7gj","state":"CO","location":"1 NNW LOUISVILLE"},"type":"Feature","geometry":{"type":"Point","coordinates":[-105.15,39.99]}},{"properties":{"remarks":null,"latitude":39.7,"total_snow":8.0,"total_liquid":null,"time":{"end_time":"2030/01/01 19:00:00 -0500","original":"1230 PM","granularity":"hour","time":"2030/01/01 18:00:00 -0500"},"county":"ARAPAHOE","date":"10-26-2011","type":"HEAVY SNOW","longitude":-104.81,"id":"a65k5vyj93ts","state":"CO","location":"AURORA"},"type":"Feature","geometry":{"type":"Point","coordinates":[-104.81,39.7]}},{"properties":{"remarks":null,"latitude":40.51,"total_snow":12.4,"total_liquid":null,"time":{"end_time":"2030/01/01 19:00:00 -0500","original":"1230 PM","granularity":"hour","time":"2030/01/01 18:00:00 -0500"},"county":"MORGAN","date":"10-26-2011","type":"HEAVY SNOW","longitude":-103.83,"id":"a65k5w5czjed","state":"CO","location":"7 S NEW RAYMER"},"type":"Feature","geometry":{"type":"Point","coordinates":[-103.83,40.51]}},{"properties":{"remarks":null,"latitude":40.17,"total_snow":11.5,"total_liquid":null,"time":{"end_time":"2030/01/01 13:00:00 -0500","original":"1200 PM","granularity":"hour","time":"2030/01/01 12:00:00 -0500"},"county":"BOULDER","date":"10-26-2011","type":"HEAVY SNOW","longitude":-105.11,"id":"a65k5w5c9ycm","state":"CO","location":"N LONGMONT"},"type":"Feature","geometry":{"type":"Point","coordinates":[-105.11,40.17]}},{"properties":{"remarks":"DAVID SKAGGS RESEARCH CENTER","latitude":40.01,"total_snow":9.6,"total_liquid":null,"time":{"end_time":"2030/01/01 13:00:00 -0500","original":"1200 PM","granularity":"hour","time":"2030/01/01 12:00:00 -0500"},"county":"BOULDER","date":"10-26-2011","type":"HEAVY SNOW","longitude":-105.28,"id":"a65k5w2zhdzo","state":"CO","location":"2 SW BOULDER"},"type":"Feature","geometry":{"type":"Point","coordinates":[-105.28,40.01]}},{"properties":{"remarks":null,"latitude":39.99,"total_snow":10.5,"total_liquid":null,"time":{"end_time":"2030/01/01 13:00:00 -0500","original":"1200 PM","granularity":"hour","time":"2030/01/01 12:00:00 -0500"},"county":"BOULDER","date":"10-26-2011","type":"HEAVY SNOW","longitude":-105.27,"id":"a65k5vrpnzhb","state":"CO","location":"3 SSW BOULDER"},"type":"Feature","geometry":{"type":"Point","coordinates":[-105.27,39.99]}},{"properties":{"remarks":null,"latitude":39.93,"total_snow":8.6,"total_liquid":null,"time":{"end_time":"2030/01/01 08:00:00 -0500","original":"1111 AM","granularity":"hour","time":"2030/01/01 07:00:00 -0500"},"county":"BROOMFIELD","date":"10-26-2011","type":"HEAVY SNOW","longitude":-105.08,"id":"a65k5w7l0ws5","state":"CO","location":"1 WSW BROOMFIELD"},"type":"Feature","geometry":{"type":"Point","coordinates":[-105.08,39.93]}},{"properties":{"remarks":null,"latitude":40.44,"total_snow":12.5,"total_liquid":null,"time":{"end_time":"2030/01/01 09:00:00 -0500","original":"1052 AM","granularity":"hour","time":"2030/01/01 08:00:00 -0500"},"county":"WELD","date":"10-26-2011","type":"HEAVY SNOW","longitude":-104.74,"id":"a65k5vzkrqwb","state":"CO","location":"1 N GREELEY"},"type":"Feature","geometry":{"type":"Point","coordinates":[-104.74,40.44]}},{"properties":{"remarks":null,"latitude":39.68,"total_snow":9.5,"total_liquid":null,"time":{"end_time":"2030/01/01 09:00:00 -0500","original":"1052 AM","granularity":"hour","time":"2030/01/01 08:00:00 -0500"},"county":"JEFFERSON","date":"10-26-2011","type":"HEAVY SNOW","longitude":-105.34,"id":"a65k5vuwqk4g","state":"CO","location":"3 N EVERGREEN"},"type":"Feature","geometry":{"type":"Point","coordinates":[-105.34,39.68]}},{"properties":{"remarks":null,"latitude":39.65,"total_snow":8.8,"total_liquid":null,"time":{"end_time":"2030/01/01 09:00:00 -0500","original":"1052 AM","granularity":"hour","time":"2030/01/01 08:00:00 -0500"},"county":"JEFFERSON","date":"10-26-2011","type":"HEAVY SNOW","longitude":-105.35,"id":"a65k5vvjbh6u","state":"CO","location":"1 NNW EVERGREEN"},"type":"Feature","geometry":{"type":"Point","coordinates":[-105.35,39.65]}},{"properties":{"remarks":null,"latitude":40.76,"total_snow":7.0,"total_liquid":null,"time":{"end_time":"2030/01/01 05:00:00 -0500","original":"1036 AM","granularity":"hour","time":"2030/01/01 04:00:00 -0500"},"county":"LOGAN","date":"10-26-2011","type":"HEAVY SNOW","longitude":-103.07,"id":"a65k5w1akkjt","state":"CO","location":"NNW ILIFF"},"type":"Feature","geometry":{"type":"Point","coordinates":[-103.07,40.76]}},{"properties":{"remarks":null,"latitude":40.11,"total_snow":18.2,"total_liquid":null,"time":{"end_time":"2030/01/01 06:00:00 -0500","original":"1025 AM","granularity":"hour","time":"2030/01/01 05:00:00 -0500"},"county":"BOULDER","date":"10-26-2011","type":"HEAVY SNOW","longitude":-105.44,"id":"a65k5vvycelx","state":"CO","location":"3 W JAMESTOWN"},"type":"Feature","geometry":{"type":"Point","coordinates":[-105.44,40.11]}},{"properties":{"remarks":null,"latitude":39.86,"total_snow":10.0,"total_liquid":null,"time":{"end_time":"2030/01/01 11:00:00 -0500","original":"1018 AM","granularity":"hour","time":"2030/01/01 10:00:00 -0500"},"county":"GILPIN","date":"10-26-2011","type":"HEAVY SNOW","longitude":-105.46,"id":"a65k5vrpmv83","state":"CO","location":"2 NNE ASPEN SPRINGS"},"type":"Feature","geometry":{"type":"Point","coordinates":[-105.46,39.86]}},{"properties":{"remarks":null,"latitude":39.23,"total_snow":10.0,"total_liquid":null,"time":{"end_time":"2030/01/01 11:00:00 -0500","original":"1018 AM","granularity":"hour","time":"2030/01/01 10:00:00 -0500"},"county":"PARK","date":"10-26-2011","type":"HEAVY SNOW","longitude":-106.0,"id":"a65k5vrnfzkb","state":"CO","location":"N FAIRPLAY"},"type":"Feature","geometry":{"type":"Point","coordinates":[-106.0,39.23]}},{"properties":{"remarks":null,"latitude":40.12,"total_snow":7.5,"total_liquid":null,"time":{"end_time":"2030/01/01 06:00:00 -0500","original":"1013 AM","granularity":"hour","time":"2030/01/01 05:00:00 -0500"},"county":"WELD","date":"10-26-2011","type":"HEAVY SNOW","longitude":-104.96,"id":"a65k5vubv9yf","state":"CO","location":"2 NW FREDERICK"},"type":"Feature","geometry":{"type":"Point","coordinates":[-104.96,40.12]}},{"properties":{"remarks":null,"latitude":39.69,"total_snow":10.3,"total_liquid":null,"time":{"end_time":"2030/01/01 05:00:00 -0500","original":"1012 AM","granularity":"hour","time":"2030/01/01 04:00:00 -0500"},"county":"JEFFERSON","date":"10-26-2011","type":"HEAVY SNOW","longitude":-105.27,"id":"a65k5w1gc3wr","state":"CO","location":"GENESEE"},"type":"Feature","geometry":{"type":"Point","coordinates":[-105.27,39.69]}},{"properties":{"remarks":"SIGNIFICANT TREE DAMAGE WITH A 30 FOOT CHINESE ELM TREE SIGNIFICANT TREE DAMAGE WITH A 30 FOOT CHINESE ELM TREE SPLIT DOWN THE MAIN TRUNK...6 INCH DIAMETER...AND OTHER SIGNIFICANT TREE DAMAGE WITH A 30 FOOT CHINESE ELM TREE SPLIT DOWN THE MAIN TRUNK...6 INCH DIAMETER...AND OTHER SMALLER BRANCHES 2 TO 4 INCHES ARE DOWN","latitude":40.5,"total_snow":8.1,"total_liquid":null,"time":{"end_time":"2030/01/01 05:00:00 -0500","original":"1012 AM","granularity":"hour","time":"2030/01/01 04:00:00 -0500"},"county":"LARIMER","date":"10-26-2011","type":"HEAVY SNOW","longitude":-105.07,"id":"a65k5w5kkdvl","state":"CO","location":"4 S FORT COLLINS"},"type":"Feature","geometry":{"type":"Point","coordinates":[-105.07,40.5]}},{"properties":{"remarks":null,"latitude":39.74,"total_snow":8.3,"total_liquid":null,"time":{"end_time":"2030/01/01 10:00:00 -0500","original":"1005 AM","granularity":"hour","time":"2030/01/01 09:00:00 -0500"},"county":"CLEAR CREEK","date":"10-26-2011","type":"HEAVY SNOW","longitude":-105.49,"id":"a65k5vswze31","state":"CO","location":"1 E IDAHO SPRINGS"},"type":"Feature","geometry":{"type":"Point","coordinates":[-105.49,39.74]}},{"properties":{"remarks":"NUMEROUS TREE BRANCHES DOWN THROUGHOUT LOVELAND. SOME NUMEROUS TREE BRANCHES DOWN THROUGHOUT LOVELAND. SOME BRANCHES LARGER THAN 8 INCHES IN DIAMETER","latitude":40.42,"total_snow":6.5,"total_liquid":null,"time":{"end_time":"2030/01/01 10:00:00 -0500","original":"0945 AM","granularity":"hour","time":"2030/01/01 09:00:00 -0500"},"county":"LARIMER","date":"10-26-2011","type":"HEAVY SNOW","longitude":-105.07,"id":"a65k5w5qa9zv","state":"CO","location":"LOVELAND"},"type":"Feature","geometry":{"type":"Point","coordinates":[-105.07,40.42]}},{"properties":{"remarks":"SOME TREE BRANCHES DOWN","latitude":39.87,"total_snow":6.9,"total_liquid":null,"time":{"end_time":"2030/01/01 10:00:00 -0500","original":"0945 AM","granularity":"hour","time":"2030/01/01 09:00:00 -0500"},"county":"JEFFERSON","date":"10-26-2011","type":"HEAVY SNOW","longitude":-105.07,"id":"a65k5w2nq3rp","state":"CO","location":"1 SW WESTMINSTER"},"type":"Feature","geometry":{"type":"Point","coordinates":[-105.07,39.87]}},{"properties":{"remarks":null,"latitude":39.99,"total_snow":12.0,"total_liquid":null,"time":{"end_time":"2030/01/01 10:00:00 -0500","original":"0945 AM","granularity":"hour","time":"2030/01/01 09:00:00 -0500"},"county":"BOULDER","date":"10-26-2011","type":"HEAVY SNOW","longitude":-105.45,"id":"a65k5w0x0060","state":"CO","location":"4 ENE NEDERLAND"},"type":"Feature","geometry":{"type":"Point","coordinates":[-105.45,39.99]}},{"properties":{"remarks":"DAVID SKAGGS RESEARCH CENTER","latitude":40.01,"total_snow":9.0,"total_liquid":null,"time":{"end_time":"2030/01/01 06:00:00 -0500","original":"0929 AM","granularity":"hour","time":"2030/01/01 05:00:00 -0500"},"county":"BOULDER","date":"10-26-2011","type":"HEAVY SNOW","longitude":-105.28,"id":"a65k5vyc1d60","state":"CO","location":"2 SW BOULDER"},"type":"Feature","geometry":{"type":"Point","coordinates":[-105.28,40.01]}},{"properties":{"remarks":null,"latitude":40.45,"total_snow":8.8,"total_liquid":null,"time":{"end_time":"2030/01/01 02:00:00 -0500","original":"0925 AM","granularity":"hour","time":"2030/01/01 01:00:00 -0500"},"county":"LARIMER","date":"10-26-2011","type":"HEAVY SNOW","longitude":-105.07,"id":"a65k5w4zeooj","state":"CO","location":"2 N LOVELAND"},"type":"Feature","geometry":{"type":"Point","coordinates":[-105.07,40.45]}},{"properties":{"remarks":null,"latitude":39.67,"total_snow":5.0,"total_liquid":null,"time":{"end_time":"2030/01/01 02:00:00 -0500","original":"0925 AM","granularity":"hour","time":"2030/01/01 01:00:00 -0500"},"county":"ARAPAHOE","date":"10-26-2011","type":"SNOW","longitude":-104.79,"id":"a65k5vza1te7","state":"CO","location":"3 SSE AURORA"},"type":"Feature","geometry":{"type":"Point","coordinates":[-104.79,39.67]}},{"properties":{"remarks":null,"latitude":39.57,"total_snow":10.5,"total_liquid":null,"time":{"end_time":"2030/01/01 06:00:00 -0500","original":"0905 AM","granularity":"hour","time":"2030/01/01 05:00:00 -0500"},"county":"CLEAR CREEK","date":"10-26-2011","type":"HEAVY SNOW","longitude":-105.4,"id":"a65k5vzy24ei","state":"CO","location":"4 SSE BROOKVALE"},"type":"Feature","geometry":{"type":"Point","coordinates":[-105.4,39.57]}},{"properties":{"remarks":"1.09 LIQUID","latitude":39.4,"total_snow":2.5,"total_liquid":null,"time":{"end_time":"901/01/01 00:00:00 -0456","original":"0900","granularity":"year","time":"900/01/01 00:00:00 -0456"},"county":"DOUGLAS","date":"10-26-2011","type":"HEAVY SNOW","longitude":-104.86,"id":"a65k5w5gagju","state":"CO","location":"2 NNW CASTLE ROCK"},"type":"Feature","geometry":{"type":"Point","coordinates":[-104.86,39.4]}},{"properties":{"remarks":null,"latitude":39.82,"total_snow":6.0,"total_liquid":null,"time":{"end_time":"901/01/01 00:00:00 -0456","original":"0900","granularity":"year","time":"900/01/01 00:00:00 -0456"},"county":"JEFFERSON","date":"10-26-2011","type":"HEAVY SNOW","longitude":-105.11,"id":"a65k5vs1e34t","state":"CO","location":"ARVADA"},"type":"Feature","geometry":{"type":"Point","coordinates":[-105.11,39.82]}},{"properties":{"remarks":null,"latitude":40.51,"total_snow":6.0,"total_liquid":null,"time":{"end_time":"901/01/01 00:00:00 -0456","original":"0900","granularity":"year","time":"900/01/01 00:00:00 -0456"},"county":"JACKSON","date":"10-26-2011","type":"HEAVY SNOW","longitude":-106.01,"id":"a65k5vt51dbt","state":"CO","location":"1 SE GOULD"},"type":"Feature","geometry":{"type":"Point","coordinates":[-106.01,40.51]}},{"properties":{"remarks":null,"latitude":39.98,"total_snow":5.0,"total_liquid":null,"time":{"end_time":"2030/01/01 07:00:00 -0500","original":"0858 AM","granularity":"hour","time":"2030/01/01 06:00:00 -0500"},"county":"ADAMS","date":"10-26-2011","type":"SNOW","longitude":-104.79,"id":"a65k5w5n63n5","state":"CO","location":"E BRIGHTON"},"type":"Feature","geometry":{"type":"Point","coordinates":[-104.79,39.98]}},{"properties":{"remarks":null,"latitude":39.71,"total_snow":8.0,"total_liquid":null,"time":{"end_time":"853/01/01 00:00:00 -0456","original":"0852","granularity":"year","time":"852/01/01 00:00:00 -0456"},"county":"JEFFERSON","date":"10-26-2011","type":"HEAVY SNOW","longitude":-105.32,"id":"a65k5vx9zu2b","state":"CO","location":"2 ENE BERGEN PARK"},"type":"Feature","geometry":{"type":"Point","coordinates":[-105.32,39.71]}},{"properties":{"remarks":null,"latitude":40.03,"total_snow":7.0,"total_liquid":null,"time":{"end_time":"853/01/01 00:00:00 -0456","original":"0852","granularity":"year","time":"852/01/01 00:00:00 -0456"},"county":"WELD","date":"10-26-2011","type":"HEAVY SNOW","longitude":-105.05,"id":"a65k5vvxpx7a","state":"CO","location":"ERIE"},"type":"Feature","geometry":{"type":"Point","coordinates":[-105.05,40.03]}},{"properties":{"remarks":null,"latitude":39.23,"total_snow":8.0,"total_liquid":null,"time":{"end_time":"2030/01/01 04:00:00 -0500","original":"0819 AM","granularity":"hour","time":"2030/01/01 03:00:00 -0500"},"county":"PARK","date":"10-26-2011","type":"HEAVY SNOW","longitude":-106.0,"id":"a65k5vyk3q9l","state":"CO","location":"N FAIRPLAY"},"type":"Feature","geometry":{"type":"Point","coordinates":[-106.0,39.23]}},{"properties":{"remarks":null,"latitude":40.42,"total_snow":7.0,"total_liquid":null,"time":{"end_time":"2030/01/01 12:00:00 -0500","original":"0815 AM","granularity":"hour","time":"2030/01/01 11:00:00 -0500"},"county":"LARIMER","date":"10-26-2011","type":"HEAVY SNOW","longitude":-105.07,"id":"a65k5vzgdb1d","state":"CO","location":"LOVELAND"},"type":"Feature","geometry":{"type":"Point","coordinates":[-105.07,40.42]}},{"properties":{"remarks":null,"latitude":39.63,"total_snow":7.0,"total_liquid":null,"time":{"end_time":"2030/01/01 12:00:00 -0500","original":"0815 AM","granularity":"hour","time":"2030/01/01 11:00:00 -0500"},"county":"JEFFERSON","date":"10-26-2011","type":"HEAVY SNOW","longitude":-105.34,"id":"a65k5vs8bz9v","state":"CO","location":"1 S EVERGREEN"},"type":"Feature","geometry":{"type":"Point","coordinates":[-105.34,39.63]}},{"properties":{"remarks":"SEVERAL BROKEN TREE BRANCHES BETWEEN WINDSOR AND GALETON","latitude":40.52,"total_snow":8.0,"total_liquid":null,"time":{"end_time":"2030/01/01 10:00:00 -0500","original":"0813 AM","granularity":"hour","time":"2030/01/01 09:00:00 -0500"},"county":"WELD","date":"10-26-2011","type":"HEAVY SNOW","longitude":-104.56,"id":"a65k5w3r12ss","state":"CO","location":"1 E GALETON"},"type":"Feature","geometry":{"type":"Point","coordinates":[-104.56,40.52]}},{"properties":{"remarks":"LARGE TREE BRANCH DOWN","latitude":39.91,"total_snow":4.7,"total_liquid":null,"time":{"end_time":"2030/01/01 04:00:00 -0500","original":"0807 AM","granularity":"hour","time":"2030/01/01 03:00:00 -0500"},"county":"ADAMS","date":"10-26-2011","type":"SNOW","longitude":-104.98,"id":"a65k5w2abltt","state":"CO","location":"NORTHGLENN"},"type":"Feature","geometry":{"type":"Point","coordinates":[-104.98,39.91]}},{"properties":{"remarks":null,"latitude":39.72,"total_snow":11.0,"total_liquid":null,"time":{"end_time":"2030/01/01 09:00:00 -0500","original":"0800 AM","granularity":"hour","time":"2030/01/01 08:00:00 -0500"},"county":"CLEAR CREEK","date":"10-26-2011","type":"HEAVY SNOW","longitude":-105.7,"id":"a65k5w4870xi","state":"CO","location":"NW GEORGETOWN"},"type":"Feature","geometry":{"type":"Point","coordinates":[-105.7,39.72]}},{"properties":{"remarks":null,"latitude":39.88,"total_snow":8.0,"total_liquid":null,"time":{"end_time":"2030/01/01 09:00:00 -0500","original":"0800 AM","granularity":"hour","time":"2030/01/01 08:00:00 -0500"},"county":"SUMMIT","date":"10-26-2011","type":"HEAVY SNOW","longitude":-106.33,"id":"a65k5w68jgx9","state":"CO","location":"NNW GREEN MOUNTAIN RESE"},"type":"Feature","geometry":{"type":"Point","coordinates":[-106.33,39.88]}},{"properties":{"remarks":null,"latitude":39.65,"total_snow":6.8,"total_liquid":null,"time":{"end_time":"2030/01/01 02:00:00 -0500","original":"0745 AM","granularity":"hour","time":"2030/01/01 01:00:00 -0500"},"county":"JEFFERSON","date":"10-26-2011","type":"HEAVY SNOW","longitude":-105.35,"id":"a65k5w5z957f","state":"CO","location":"1 NNW EVERGREEN"},"type":"Feature","geometry":{"type":"Point","coordinates":[-105.35,39.65]}},{"properties":{"remarks":null,"latitude":40.21,"total_snow":5.6,"total_liquid":null,"time":{"end_time":"2030/01/01 02:00:00 -0500","original":"0745 AM","granularity":"hour","time":"2030/01/01 01:00:00 -0500"},"county":"WASHINGTON","date":"10-26-2011","type":"SNOW","longitude":-102.81,"id":"a65k5vx858ki","state":"CO","location":"6 N HYDE"},"type":"Feature","geometry":{"type":"Point","coordinates":[-102.81,40.21]}},{"properties":{"remarks":null,"latitude":39.69,"total_snow":5.7,"total_liquid":null,"time":{"end_time":"2030/01/01 02:00:00 -0500","original":"0745 AM","granularity":"hour","time":"2030/01/01 01:00:00 -0500"},"county":"JEFFERSON","date":"10-26-2011","type":"SNOW","longitude":-105.27,"id":"a65k5vxofrhj","state":"CO","location":"GENESEE"},"type":"Feature","geometry":{"type":"Point","coordinates":[-105.27,39.69]}},{"properties":{"remarks":null,"latitude":39.87,"total_snow":5.4,"total_liquid":null,"time":{"end_time":"2030/01/01 02:00:00 -0500","original":"0745 AM","granularity":"hour","time":"2030/01/01 01:00:00 -0500"},"county":"JEFFERSON","date":"10-26-2011","type":"SNOW","longitude":-105.06,"id":"a65k5w7gb6rq","state":"CO","location":"1 SW WESTMINSTER"},"type":"Feature","geometry":{"type":"Point","coordinates":[-105.06,39.87]}},{"properties":{"remarks":null,"latitude":39.83,"total_snow":5.0,"total_liquid":null,"time":{"end_time":"2030/01/01 09:00:00 -0500","original":"0740 AM","granularity":"hour","time":"2030/01/01 08:00:00 -0500"},"county":"JEFFERSON","date":"10-26-2011","type":"SNOW","longitude":-105.24,"id":"a65k5w3e54nd","state":"CO","location":"3 ENE WHITE RANCH OPEN"},"type":"Feature","geometry":{"type":"Point","coordinates":[-105.24,39.83]}},{"properties":{"remarks":"CROW HILL","latitude":39.45,"total_snow":7.0,"total_liquid":null,"time":{"end_time":"2030/01/01 12:00:00 -0500","original":"0731 AM","granularity":"hour","time":"2030/01/01 11:00:00 -0500"},"county":"PARK","date":"10-26-2011","type":"HEAVY SNOW","longitude":-105.46,"id":"a65k5vxr8j3e","state":"CO","location":"3 N BAILEY"},"type":"Feature","geometry":{"type":"Point","coordinates":[-105.46,39.45]}},{"properties":{"remarks":null,"latitude":40.68,"total_snow":7.0,"total_liquid":null,"time":{"end_time":"2030/01/01 11:00:00 -0500","original":"0730 AM","granularity":"hour","time":"2030/01/01 10:00:00 -0500"},"county":"LOGAN","date":"10-26-2011","type":"HEAVY SNOW","longitude":-102.84,"id":"a65k5w56n8oj","state":"CO","location":"FLEMING"},"type":"Feature","geometry":{"type":"Point","coordinates":[-102.84,40.68]}},{"properties":{"remarks":null,"latitude":39.87,"total_snow":5.0,"total_liquid":null,"time":{"end_time":"2030/01/01 11:00:00 -0500","original":"0730 AM","granularity":"hour","time":"2030/01/01 10:00:00 -0500"},"county":"JEFFERSON","date":"10-26-2011","type":"HEAVY SNOW","longitude":-105.11,"id":"a65k5vrebnkv","state":"CO","location":"3 W WESTMINSTER"},"type":"Feature","geometry":{"type":"Point","coordinates":[-105.11,39.87]}},{"properties":{"remarks":null,"latitude":39.95,"total_snow":11.5,"total_liquid":null,"time":{"end_time":"2030/01/01 11:00:00 -0500","original":"0730 AM","granularity":"hour","time":"2030/01/01 10:00:00 -0500"},"county":"GRAND","date":"10-26-2011","type":"HEAVY SNOW","longitude":-105.84,"id":"a65k5w2wyqu4","state":"CO","location":"2 SSE TABERNASH"},"type":"Feature","geometry":{"type":"Point","coordinates":[-105.84,39.95]}},{"properties":{"remarks":null,"latitude":39.38,"total_snow":3.5,"total_liquid":null,"time":{"end_time":"2030/01/01 11:00:00 -0500","original":"0730 AM","granularity":"hour","time":"2030/01/01 10:00:00 -0500"},"county":"DOUGLAS","date":"10-26-2011","type":"SNOW","longitude":-104.69,"id":"a65k5w0h3r9s","state":"CO","location":"3 E FRANKTOWN"},"type":"Feature","geometry":{"type":"Point","coordinates":[-104.69,39.38]}},{"properties":{"remarks":null,"latitude":40.18,"total_snow":10.9,"total_liquid":null,"time":{"end_time":"2030/01/01 11:00:00 -0500","original":"0730 AM","granularity":"hour","time":"2030/01/01 10:00:00 -0500"},"county":"BOULDER","date":"10-26-2011","type":"HEAVY SNOW","longitude":-105.17,"id":"a65k5vx8240b","state":"CO","location":"HYGIENE"},"type":"Feature","geometry":{"type":"Point","coordinates":[-105.17,40.18]}},{"properties":{"remarks":null,"latitude":39.83,"total_snow":10.0,"total_liquid":null,"time":{"end_time":"2030/01/01 11:00:00 -0500","original":"0730 AM","granularity":"hour","time":"2030/01/01 10:00:00 -0500"},"county":"GILPIN","date":"10-26-2011","type":"HEAVY SNOW","longitude":-105.48,"id":"a65k5vsn6u4b","state":"CO","location":"ASPEN SPRINGS"},"type":"Feature","geometry":{"type":"Point","coordinates":[-105.48,39.83]}},{"properties":{"remarks":null,"latitude":39.55,"total_snow":3.0,"total_liquid":null,"time":{"end_time":"2030/01/01 11:00:00 -0500","original":"0730 AM","granularity":"hour","time":"2030/01/01 10:00:00 -0500"},"county":"DOUGLAS","date":"10-26-2011","type":"SNOW","longitude":-104.97,"id":"a65k5w4156ab","state":"CO","location":"HIGHLANDS RANCH"},"type":"Feature","geometry":{"type":"Point","coordinates":[-104.97,39.55]}},{"properties":{"remarks":null,"latitude":39.47,"total_snow":2.3,"total_liquid":null,"time":{"end_time":"2030/01/01 11:00:00 -0500","original":"0730 AM","granularity":"hour","time":"2030/01/01 10:00:00 -0500"},"county":"ELBERT","date":"10-26-2011","type":"SNOW","longitude":-103.95,"id":"a65k5w1fdejt","state":"CO","location":"AGATE"},"type":"Feature","geometry":{"type":"Point","coordinates":[-103.95,39.47]}},{"properties":{"remarks":null,"latitude":39.47,"total_snow":8.0,"total_liquid":null,"time":{"end_time":"2030/01/01 11:00:00 -0500","original":"0730 AM","granularity":"hour","time":"2030/01/01 10:00:00 -0500"},"county":"PARK","date":"10-26-2011","type":"HEAVY SNOW","longitude":-105.47,"id":"a65k5vw0b37q","state":"CO","location":"5 N BAILEY"},"type":"Feature","geometry":{"type":"Point","coordinates":[-105.47,39.47]}},{"properties":{"remarks":null,"latitude":39.99,"total_snow":11.0,"total_liquid":null,"time":{"end_time":"2030/01/01 11:00:00 -0500","original":"0730 AM","granularity":"hour","time":"2030/01/01 10:00:00 -0500"},"county":"BOULDER","date":"10-26-2011","type":"HEAVY SNOW","longitude":-105.45,"id":"a65k5vs75o6k","state":"CO","location":"4 ENE NEDERLAND"},"type":"Feature","geometry":{"type":"Point","coordinates":[-105.45,39.99]}},{"properties":{"remarks":null,"latitude":39.6,"total_snow":3.5,"total_liquid":null,"time":{"end_time":"2030/01/01 11:00:00 -0500","original":"0730 AM","granularity":"hour","time":"2030/01/01 10:00:00 -0500"},"county":"ARAPAHOE","date":"10-26-2011","type":"SNOW","longitude":-104.81,"id":"a65k5vxvoveq","state":"CO","location":"7 S AURORA"},"type":"Feature","geometry":{"type":"Point","coordinates":[-104.81,39.6]}},{"properties":{"remarks":null,"latitude":40.06,"total_snow":5.1,"total_liquid":null,"time":{"end_time":"2030/01/01 11:00:00 -0500","original":"0730 AM","granularity":"hour","time":"2030/01/01 10:00:00 -0500"},"county":"MORGAN","date":"10-26-2011","type":"SNOW","longitude":-103.54,"id":"a65k5vxnkzjh","state":"CO","location":"6 NNE WOODROW"},"type":"Feature","geometry":{"type":"Point","coordinates":[-103.54,40.06]}},{"properties":{"remarks":null,"latitude":39.65,"total_snow":3.2,"total_liquid":null,"time":{"end_time":"2030/01/01 11:00:00 -0500","original":"0730 AM","granularity":"hour","time":"2030/01/01 10:00:00 -0500"},"county":"ARAPAHOE","date":"10-26-2011","type":"SNOW","longitude":-104.99,"id":"a65k5vzcgi11","state":"CO","location":"ENGLEWOOD"},"type":"Feature","geometry":{"type":"Point","coordinates":[-104.99,39.65]}},{"properties":{"remarks":null,"latitude":39.34,"total_snow":5.0,"total_liquid":null,"time":{"end_time":"2030/01/01 11:00:00 -0500","original":"0730 AM","granularity":"hour","time":"2030/01/01 10:00:00 -0500"},"county":"ELBERT","date":"10-26-2011","type":"SNOW","longitude":-104.57,"id":"a65k5w3daldb","state":"CO","location":"2 SE ELIZABETH"},"type":"Feature","geometry":{"type":"Point","coordinates":[-104.57,39.34]}},{"properties":{"remarks":null,"latitude":39.54,"total_snow":8.9,"total_liquid":null,"time":{"end_time":"2030/01/01 11:00:00 -0500","original":"0730 AM","granularity":"hour","time":"2030/01/01 10:00:00 -0500"},"county":"JEFFERSON","date":"10-26-2011","type":"HEAVY SNOW","longitude":-105.37,"id":"a65k5vucadz3","state":"CO","location":"4 WNW CONIFER"},"type":"Feature","geometry":{"type":"Point","coordinates":[-105.37,39.54]}},{"properties":{"remarks":null,"latitude":39.83,"total_snow":5.0,"total_liquid":null,"time":{"end_time":"2030/01/01 11:00:00 -0500","original":"0730 AM","granularity":"hour","time":"2030/01/01 10:00:00 -0500"},"county":"ADAMS","date":"10-26-2011","type":"SNOW","longitude":-104.9,"id":"a65k5w3fc7v7","state":"CO","location":"2 NE COMMERCE CITY"},"type":"Feature","geometry":{"type":"Point","coordinates":[-104.9,39.83]}},{"properties":{"remarks":null,"latitude":39.41,"total_snow":3.5,"total_liquid":null,"time":{"end_time":"2030/01/01 11:00:00 -0500","original":"0730 AM","granularity":"hour","time":"2030/01/01 10:00:00 -0500"},"county":"DOUGLAS","date":"10-26-2011","type":"SNOW","longitude":-104.81,"id":"a65k5vxbfw0h","state":"CO","location":"3 NE CASTLE ROCK"},"type":"Feature","geometry":{"type":"Point","coordinates":[-104.81,39.41]}},{"properties":{"remarks":null,"latitude":39.7,"total_snow":2.0,"total_liquid":null,"time":{"end_time":"2030/01/01 11:00:00 -0500","original":"0730 AM","granularity":"hour","time":"2030/01/01 10:00:00 -0500"},"county":"ARAPAHOE","date":"10-26-2011","type":"SNOW","longitude":-104.26,"id":"a65k5w75n7ah","state":"CO","location":"2 WSW BYERS"},"type":"Feature","geometry":{"type":"Point","coordinates":[-104.26,39.7]}},{"properties":{"remarks":null,"latitude":40.78,"total_snow":6.5,"total_liquid":null,"time":{"end_time":"2030/01/01 11:00:00 -0500","original":"0730 AM","granularity":"hour","time":"2030/01/01 10:00:00 -0500"},"county":"WELD","date":"10-26-2011","type":"HEAVY SNOW","longitude":-104.55,"id":"a65k5w1shnd5","state":"CO","location":"13 ENE NUNN"},"type":"Feature","geometry":{"type":"Point","coordinates":[-104.55,40.78]}},{"properties":{"remarks":null,"latitude":39.46,"total_snow":7.0,"total_liquid":null,"time":{"end_time":"2030/01/01 11:00:00 -0500","original":"0730 AM","granularity":"hour","time":"2030/01/01 10:00:00 -0500"},"county":"PARK","date":"10-26-2011","type":"HEAVY SNOW","longitude":-105.68,"id":"a65k5vwz0fyy","state":"CO","location":"1 NW GRANT"},"type":"Feature","geometry":{"type":"Point","coordinates":[-105.68,39.46]}},{"properties":{"remarks":null,"latitude":38.99,"total_snow":2.0,"total_liquid":null,"time":{"end_time":"2030/01/01 11:00:00 -0500","original":"0730 AM","granularity":"hour","time":"2030/01/01 10:00:00 -0500"},"county":"PARK","date":"10-26-2011","type":"SNOW","longitude":-105.89,"id":"a65k5w5xnpuu","state":"CO","location":"N ANTERO RESERVOIR"},"type":"Feature","geometry":{"type":"Point","coordinates":[-105.89,38.99]}},{"properties":{"remarks":null,"latitude":39.63,"total_snow":7.1,"total_liquid":null,"time":{"end_time":"2030/01/01 11:00:00 -0500","original":"0730 AM","granularity":"hour","time":"2030/01/01 10:00:00 -0500"},"county":"CLEAR CREEK","date":"10-26-2011","type":"HEAVY SNOW","longitude":-105.44,"id":"a65k5vu99dbk","state":"CO","location":"5 W EVERGREEN"},"type":"Feature","geometry":{"type":"Point","coordinates":[-105.44,39.63]}},{"properties":{"remarks":null,"latitude":39.94,"total_snow":5.0,"total_liquid":null,"time":{"end_time":"721/01/01 00:00:00 -0456","original":"0720","granularity":"year","time":"720/01/01 00:00:00 -0456"},"county":"BOULDER","date":"10-26-2011","type":"SNOW","longitude":-105.35,"id":"a65k5w48113y","state":"CO","location":"4 E PINECLIFFE"},"type":"Feature","geometry":{"type":"Point","coordinates":[-105.35,39.94]}},{"properties":{"remarks":null,"latitude":39.4,"total_snow":4.0,"total_liquid":null,"time":{"end_time":"2030/01/01 03:00:00 -0500","original":"0710 AM","granularity":"hour","time":"2030/01/01 02:00:00 -0500"},"county":"ELBERT","date":"10-26-2011","type":"SNOW","longitude":-104.65,"id":"a65k5vtzt2b7","state":"CO","location":"4 NW ELIZABETH"},"type":"Feature","geometry":{"type":"Point","coordinates":[-104.65,39.4]}},{"properties":{"remarks":null,"latitude":39.4,"total_snow":3.3,"total_liquid":null,"time":{"end_time":"2030/01/01 05:00:00 -0500","original":"0700 AM","granularity":"hour","time":"2030/01/01 04:00:00 -0500"},"county":"DOUGLAS","date":"10-26-2011","type":"SNOW","longitude":-104.92,"id":"a65k5vx7jbrx","state":"CO","location":"3 SSW CASTLE PINES"},"type":"Feature","geometry":{"type":"Point","coordinates":[-104.92,39.4]}},{"properties":{"remarks":null,"latitude":39.63,"total_snow":5.0,"total_liquid":null,"time":{"end_time":"2030/01/01 05:00:00 -0500","original":"0700 AM","granularity":"hour","time":"2030/01/01 04:00:00 -0500"},"county":"SUMMIT","date":"10-26-2011","type":"HEAVY SNOW","longitude":-106.04,"id":"a65k5w4rsall","state":"CO","location":"ENE DILLON"},"type":"Feature","geometry":{"type":"Point","coordinates":[-106.04,39.63]}},{"properties":{"remarks":null,"latitude":40.1,"total_snow":8.0,"total_liquid":null,"time":{"end_time":"2030/01/01 05:00:00 -0500","original":"0700 AM","granularity":"hour","time":"2030/01/01 04:00:00 -0500"},"county":"BOULDER","date":"10-26-2011","type":"HEAVY SNOW","longitude":-105.17,"id":"a65k5vsher99","state":"CO","location":"1 NW NIWOT"},"type":"Feature","geometry":{"type":"Point","coordinates":[-105.17,40.1]}},{"properties":{"remarks":null,"latitude":39.93,"total_snow":7.2,"total_liquid":null,"time":{"end_time":"2030/01/01 05:00:00 -0500","original":"0700 AM","granularity":"hour","time":"2030/01/01 04:00:00 -0500"},"county":"BROOMFIELD","date":"10-26-2011","type":"SNOW","longitude":-105.08,"id":"a65k5vxcfoi6","state":"CO","location":"1 WSW BROOMFIELD"},"type":"Feature","geometry":{"type":"Point","coordinates":[-105.08,39.93]}},{"properties":{"remarks":null,"latitude":40.37,"total_snow":14.0,"total_liquid":null,"time":{"end_time":"2030/01/01 05:00:00 -0500","original":"0700 AM","granularity":"hour","time":"2030/01/01 04:00:00 -0500"},"county":"LARIMER","date":"10-26-2011","type":"HEAVY SNOW","longitude":-105.51,"id":"a65k5vrf0nbv","state":"CO","location":"ESE ESTES PARK"},"type":"Feature","geometry":{"type":"Point","coordinates":[-105.51,40.37]}},{"properties":{"remarks":null,"latitude":40.42,"total_snow":12.0,"total_liquid":null,"time":{"end_time":"2030/01/01 05:00:00 -0500","original":"0700 AM","granularity":"hour","time":"2030/01/01 04:00:00 -0500"},"county":"WELD","date":"10-26-2011","type":"HEAVY SNOW","longitude":-104.82,"id":"a65k5vy67hya","state":"CO","location":"4 W GREELEY"},"type":"Feature","geometry":{"type":"Point","coordinates":[-104.82,40.42]}},{"properties":{"remarks":null,"latitude":40.7,"total_snow":8.0,"total_liquid":null,"time":{"end_time":"2030/01/01 05:00:00 -0500","original":"0700 AM","granularity":"hour","time":"2030/01/01 04:00:00 -0500"},"county":"LARIMER","date":"10-26-2011","type":"HEAVY SNOW","longitude":-105.71,"id":"a65k5vy3r0ih","state":"CO","location":"7 W RUSTIC"},"type":"Feature","geometry":{"type":"Point","coordinates":[-105.71,40.7]}},{"properties":{"remarks":null,"latitude":40.35,"total_snow":9.0,"total_liquid":null,"time":{"end_time":"2030/01/01 05:00:00 -0500","original":"0700 AM","granularity":"hour","time":"2030/01/01 04:00:00 -0500"},"county":"LARIMER","date":"10-26-2011","type":"HEAVY SNOW","longitude":-105.21,"id":"a65k5vu6ykdw","state":"CO","location":"7 WNW BERTHOUD"},"type":"Feature","geometry":{"type":"Point","coordinates":[-105.21,40.35]}},{"properties":{"remarks":null,"latitude":40.97,"total_snow":8.0,"total_liquid":null,"time":{"end_time":"2030/01/01 05:00:00 -0500","original":"0700 AM","granularity":"hour","time":"2030/01/01 04:00:00 -0500"},"county":"LARIMER","date":"10-26-2011","type":"HEAVY SNOW","longitude":-106.0,"id":"a65k5vv6jkyl","state":"CO","location":"8 NNW FOUR CORNERS"},"type":"Feature","geometry":{"type":"Point","coordinates":[-106.0,40.97]}},{"properties":{"remarks":null,"latitude":40.17,"total_snow":10.0,"total_liquid":null,"time":{"end_time":"2030/01/01 05:00:00 -0500","original":"0700 AM","granularity":"hour","time":"2030/01/01 04:00:00 -0500"},"county":"BOULDER","date":"10-26-2011","type":"HEAVY SNOW","longitude":-105.11,"id":"a65k5vwdmf81","state":"CO","location":"N LONGMONT"},"type":"Feature","geometry":{"type":"Point","coordinates":[-105.11,40.17]}},{"properties":{"remarks":null,"latitude":39.94,"total_snow":5.1,"total_liquid":null,"time":{"end_time":"2030/01/01 05:00:00 -0500","original":"0700 AM","granularity":"hour","time":"2030/01/01 04:00:00 -0500"},"county":"ADAMS","date":"10-26-2011","type":"HEAVY SNOW","longitude":-104.84,"id":"a65k5w3ea0pp","state":"CO","location":"3 W BARR LAKE"},"type":"Feature","geometry":{"type":"Point","coordinates":[-104.84,39.94]}},{"properties":{"remarks":null,"latitude":40.14,"total_snow":9.8,"total_liquid":null,"time":{"end_time":"2030/01/01 05:00:00 -0500","original":"0700 AM","granularity":"hour","time":"2030/01/01 04:00:00 -0500"},"county":"BOULDER","date":"10-26-2011","type":"SNOW","longitude":-105.15,"id":"a65k5vzkpxxw","state":"CO","location":"3 SW LONGMONT"},"type":"Feature","geometry":{"type":"Point","coordinates":[-105.15,40.14]}},{"properties":{"remarks":null,"latitude":39.84,"total_snow":8.9,"total_liquid":null,"time":{"end_time":"2030/01/01 11:00:00 -0500","original":"0658 AM","granularity":"hour","time":"2030/01/01 10:00:00 -0500"},"county":"GILPIN","date":"10-26-2011","type":"HEAVY SNOW","longitude":-105.48,"id":"a65k5vsv5hhs","state":"CO","location":"NNW ASPEN SPRINGS"},"type":"Feature","geometry":{"type":"Point","coordinates":[-105.48,39.84]}},{"properties":{"remarks":"SEVERAL BROKEN TREE BRANCHES","latitude":40.44,"total_snow":10.0,"total_liquid":null,"time":{"end_time":"2030/01/01 08:00:00 -0500","original":"0655 AM","granularity":"hour","time":"2030/01/01 07:00:00 -0500"},"county":"LARIMER","date":"10-26-2011","type":"HEAVY SNOW","longitude":-104.95,"id":"a65k5vuysxos","state":"CO","location":"4 SW WINDSOR"},"type":"Feature","geometry":{"type":"Point","coordinates":[-104.95,40.44]}},{"properties":{"remarks":null,"latitude":39.59,"total_snow":7.8,"total_liquid":null,"time":{"end_time":"649/01/01 00:00:00 -0456","original":"0648","granularity":"year","time":"648/01/01 00:00:00 -0456"},"county":"JEFFERSON","date":"10-26-2011","type":"HEAVY SNOW","longitude":-105.34,"id":"a65k5vwbusj7","state":"CO","location":"3 S EVERGREEN"},"type":"Feature","geometry":{"type":"Point","coordinates":[-105.34,39.59]}},{"properties":{"remarks":null,"latitude":40.37,"total_snow":8.0,"total_liquid":null,"time":{"end_time":"2030/01/01 07:00:00 -0500","original":"0630 AM","granularity":"hour","time":"2030/01/01 06:00:00 -0500"},"county":"LARIMER","date":"10-26-2011","type":"SNOW","longitude":-105.24,"id":"a65k5w4e062u","state":"CO","location":"7 SE DRAKE"},"type":"Feature","geometry":{"type":"Point","coordinates":[-105.24,40.37]}},{"properties":{"remarks":null,"latitude":39.92,"total_snow":4.1,"total_liquid":null,"time":{"end_time":"2030/01/01 07:00:00 -0500","original":"0630 AM","granularity":"hour","time":"2030/01/01 06:00:00 -0500"},"county":"ADAMS","date":"10-26-2011","type":"SNOW","longitude":-104.93,"id":"a65k5w4oh72l","state":"CO","location":"2 NE THORNTON"},"type":"Feature","geometry":{"type":"Point","coordinates":[-104.93,39.92]}},{"properties":{"remarks":null,"latitude":39.98,"total_snow":5.8,"total_liquid":null,"time":{"end_time":"2030/01/01 09:00:00 -0500","original":"0620 AM","granularity":"hour","time":"2030/01/01 08:00:00 -0500"},"county":"BOULDER","date":"10-26-2011","type":"SNOW","longitude":-105.11,"id":"a65k5w19ug3v","state":"CO","location":"1 SSW LAFAYETTE"},"type":"Feature","geometry":{"type":"Point","coordinates":[-105.11,39.98]}},{"properties":{"remarks":null,"latitude":39.63,"total_snow":6.5,"total_liquid":null,"time":{"end_time":"2030/01/01 09:00:00 -0500","original":"0620 AM","granularity":"hour","time":"2030/01/01 08:00:00 -0500"},"county":"JEFFERSON","date":"10-26-2011","type":"HEAVY SNOW","longitude":-105.34,"id":"a65k5vxp1w2d","state":"CO","location":"EVERGREEN"},"type":"Feature","geometry":{"type":"Point","coordinates":[-105.34,39.63]}},{"properties":{"remarks":null,"latitude":40.76,"total_snow":5.0,"total_liquid":null,"time":{"end_time":"601/01/01 00:00:00 -0456","original":"0600","granularity":"year","time":"600/01/01 00:00:00 -0456"},"county":"LOGAN","date":"10-26-2011","type":"SNOW","longitude":-103.07,"id":"a65k5vwlstw2","state":"CO","location":"NNW ILIFF"},"type":"Feature","geometry":{"type":"Point","coordinates":[-103.07,40.76]}},{"properties":{"remarks":null,"latitude":39.98,"total_snow":5.0,"total_liquid":null,"time":{"end_time":"601/01/01 00:00:00 -0456","original":"0600","granularity":"year","time":"600/01/01 00:00:00 -0456"},"county":"BOULDER","date":"10-26-2011","type":"SNOW","longitude":-105.11,"id":"a65k5vufyua3","state":"CO","location":"1 SSW LAFAYETTE"},"type":"Feature","geometry":{"type":"Point","coordinates":[-105.11,39.98]}},{"properties":{"remarks":null,"latitude":40.45,"total_snow":7.2,"total_liquid":null,"time":{"end_time":"601/01/01 00:00:00 -0456","original":"0600","granularity":"year","time":"600/01/01 00:00:00 -0456"},"county":"LARIMER","date":"10-26-2011","type":"HEAVY SNOW","longitude":-105.07,"id":"a65k5vye72gj","state":"CO","location":"2 N LOVELAND"},"type":"Feature","geometry":{"type":"Point","coordinates":[-105.07,40.45]}},{"properties":{"remarks":null,"latitude":39.74,"total_snow":5.9,"total_liquid":null,"time":{"end_time":"601/01/01 00:00:00 -0456","original":"0600","granularity":"year","time":"600/01/01 00:00:00 -0456"},"county":"CLEAR CREEK","date":"10-26-2011","type":"SNOW","longitude":-105.49,"id":"a65k5w5ueb76","state":"CO","location":"1 E IDAHO SPRINGS"},"type":"Feature","geometry":{"type":"Point","coordinates":[-105.49,39.74]}},{"properties":{"remarks":null,"latitude":40.11,"total_snow":15.8,"total_liquid":null,"time":{"end_time":"601/01/01 00:00:00 -0456","original":"0600","granularity":"year","time":"600/01/01 00:00:00 -0456"},"county":"BOULDER","date":"10-26-2011","type":"HEAVY SNOW","longitude":-105.44,"id":"a65k5vrn82yp","state":"CO","location":"3 W JAMESTOWN"},"type":"Feature","geometry":{"type":"Point","coordinates":[-105.44,40.11]}},{"properties":{"remarks":null,"latitude":39.73,"total_snow":4.0,"total_liquid":null,"time":{"end_time":"2030/01/01 03:00:00 -0500","original":"0530 AM","granularity":"hour","time":"2030/01/01 02:00:00 -0500"},"county":"DENVER","date":"10-26-2011","type":"SNOW","longitude":-104.96,"id":"a65k5w64mme8","state":"CO","location":"NW DENVER"},"type":"Feature","geometry":{"type":"Point","coordinates":[-104.96,39.73]}},{"properties":{"remarks":null,"latitude":39.87,"total_snow":4.0,"total_liquid":null,"time":{"end_time":"2030/01/01 03:00:00 -0500","original":"0518 AM","granularity":"hour","time":"2030/01/01 02:00:00 -0500"},"county":"JEFFERSON","date":"10-26-2011","type":"SNOW","longitude":-105.06,"id":"a65k5vs05myb","state":"CO","location":"1 SW WESTMINSTER"},"type":"Feature","geometry":{"type":"Point","coordinates":[-105.06,39.87]}},{"properties":{"remarks":null,"latitude":40.09,"total_snow":5.5,"total_liquid":null,"time":{"end_time":"2030/01/01 11:00:00 -0500","original":"0430 AM","granularity":"hour","time":"2030/01/01 10:00:00 -0500"},"county":"WELD","date":"10-26-2011","type":"SNOW","longitude":-104.93,"id":"a65k5w79ls4p","state":"CO","location":"1 SE FREDERICK"},"type":"Feature","geometry":{"type":"Point","coordinates":[-104.93,40.09]}},{"properties":{"remarks":null,"latitude":39.91,"total_snow":4.0,"total_liquid":null,"time":{"end_time":"2030/01/01 04:00:00 -0500","original":"0411 AM","granularity":"hour","time":"2030/01/01 03:00:00 -0500"},"county":"ADAMS","date":"10-26-2011","type":"SNOW","longitude":-104.99,"id":"a65k5vumfhlf","state":"CO","location":"1 W NORTHGLENN"},"type":"Feature","geometry":{"type":"Point","coordinates":[-104.99,39.91]}},{"properties":{"remarks":"6 IN DIAMETER BRANCH BROKEN","latitude":40.37,"total_snow":7.0,"total_liquid":null,"time":{"end_time":"409/01/01 00:00:00 -0456","original":"0408","granularity":"year","time":"408/01/01 00:00:00 -0456"},"county":"LARIMER","date":"10-26-2011","type":"HEAVY SNOW","longitude":-105.1,"id":"a65k5vuodgoe","state":"CO","location":"4 SSW LOVELAND"},"type":"Feature","geometry":{"type":"Point","coordinates":[-105.1,40.37]}},{"properties":{"remarks":"CONSIDERABLE TREE DAMAGE. SNOWFALL RATE OF 2 INCHES PER CONSIDERABLE TREE DAMAGE. SNOWFALL RATE OF 2 INCHES PER HOUR SINCE 2 AM.","latitude":40.44,"total_snow":10.3,"total_liquid":null,"time":{"end_time":"2030/01/01 12:00:00 -0500","original":"0359 AM","granularity":"hour","time":"2030/01/01 11:00:00 -0500"},"county":"WELD","date":"10-26-2011","type":"HEAVY SNOW","longitude":-104.74,"id":"a65k5w4phlro","state":"CO","location":"1 N GREELEY"},"type":"Feature","geometry":{"type":"Point","coordinates":[-104.74,40.44]}},{"properties":{"remarks":"NUMEROUS TREE BRANCHES DOWN","latitude":40.44,"total_snow":6.1,"total_liquid":null,"time":{"end_time":"2030/01/01 02:00:00 -0500","original":"0205 AM","granularity":"hour","time":"2030/01/01 01:00:00 -0500"},"county":"WELD","date":"10-26-2011","type":"HEAVY SNOW","longitude":-104.74,"id":"a65k5w7oi3un","state":"CO","location":"2 ENE GREELEY"},"type":"Feature","geometry":{"type":"Point","coordinates":[-104.74,40.44]}},{"properties":{"remarks":null,"latitude":39.99,"total_snow":3.5,"total_liquid":null,"time":{"end_time":"2030/01/01 09:00:00 -0500","original":"0200 AM","granularity":"hour","time":"2030/01/01 08:00:00 -0500"},"county":"BOULDER","date":"10-26-2011","type":"SNOW","longitude":-105.15,"id":"a65k5vwq5ado","state":"CO","location":"1 NNW LOUISVILLE"},"type":"Feature","geometry":{"type":"Point","coordinates":[-105.15,39.99]}},{"properties":{"remarks":null,"latitude":40.17,"total_snow":4.0,"total_liquid":null,"time":{"end_time":"2030/01/01 04:00:00 -0500","original":"0147 AM","granularity":"hour","time":"2030/01/01 03:00:00 -0500"},"county":"BOULDER","date":"10-26-2011","type":"SNOW","longitude":-105.07,"id":"a65k5vrwo8eg","state":"CO","location":"2 E LONGMONT"},"type":"Feature","geometry":{"type":"Point","coordinates":[-105.07,40.17]}},{"properties":{"remarks":"MULTIPLE TREE BRANCHES DOWN AS WELL AS POWER OUTAGES","latitude":40.56,"total_snow":6.0,"total_liquid":null,"time":{"end_time":"2030/01/01 11:00:00 -0500","original":"0130 AM","granularity":"hour","time":"2030/01/01 10:00:00 -0500"},"county":"LARIMER","date":"10-26-2011","type":"HEAVY SNOW","longitude":-105.07,"id":"a65k5vtl3kmy","state":"CO","location":"FORT COLLINS"},"type":"Feature","geometry":{"type":"Point","coordinates":[-105.07,40.56]}},{"properties":{"remarks":"0.43 LIQUID CONTENT","latitude":40.48,"total_snow":3.8,"total_liquid":null,"time":{"end_time":"2030/01/01 12:00:00 -0500","original":"1259 AM","granularity":"hour","time":"2030/01/01 11:00:00 -0500"},"county":"LARIMER","date":"10-26-2011","type":"SNOW","longitude":-105.07,"id":"a65k5vsbuf6s","state":"CO","location":"4 N LOVELAND"},"type":"Feature","geometry":{"type":"Point","coordinates":[-105.07,40.48]}},{"properties":{"remarks":null,"latitude":39.74,"total_snow":2.9,"total_liquid":null,"time":{"end_time":"2030/01/01 02:00:00 -0500","original":"1201 AM","granularity":"hour","time":"2030/01/01 01:00:00 -0500"},"county":"CLEAR CREEK","date":"10-26-2011","type":"SNOW","longitude":-105.49,"id":"a65k5vtr5l82","state":"CO","location":"1 E IDAHO SPRINGS"},"type":"Feature","geometry":{"type":"Point","coordinates":[-105.49,39.74]}},{"properties":{"remarks":"FALLING TREE LIMBS","latitude":40.55,"total_snow":2.5,"total_liquid":null,"time":{"end_time":"2030/01/01 23:00:00 -0500","original":"1102 PM","granularity":"hour","time":"2030/01/01 22:00:00 -0500"},"county":"LARIMER","date":"10-25-2011","type":"SNOW","longitude":-105.05,"id":"a65k5vzhax3b","state":"CO","location":"1 SE FORT COLLINS"},"type":"Feature","geometry":{"type":"Point","coordinates":[-105.05,40.55]}},{"properties":{"remarks":null,"latitude":39.99,"total_snow":2.0,"total_liquid":null,"time":{"end_time":"2030/01/01 23:00:00 -0500","original":"1030 PM","granularity":"hour","time":"2030/01/01 22:00:00 -0500"},"county":"ADAMS","date":"10-25-2011","type":"SNOW","longitude":-104.79,"id":"a65k5vwv85e2","state":"CO","location":"1 W NORTHGLENN"},"type":"Feature","geometry":{"type":"Point","coordinates":[-104.79,39.99]}},{"properties":{"remarks":"TREE LIMBS BEGINNING TO CRACK","latitude":40.58,"total_snow":3.5,"total_liquid":null,"time":{"end_time":"2030/01/01 23:00:00 -0500","original":"1030 PM","granularity":"hour","time":"2030/01/01 22:00:00 -0500"},"county":"LARIMER","date":"10-25-2011","type":"SNOW","longitude":-105.09,"id":"a65k5vy1olke","state":"CO","location":"2 NW FORT COLLINS"},"type":"Feature","geometry":{"type":"Point","coordinates":[-105.09,40.58]}},{"properties":{"remarks":null,"latitude":39.99,"total_snow":3.0,"total_liquid":null,"time":{"end_time":"2030/01/01 20:00:00 -0500","original":"1027 PM","granularity":"hour","time":"2030/01/01 19:00:00 -0500"},"county":"BOULDER","date":"10-25-2011","type":"SNOW","longitude":-105.45,"id":"a65k5w3ochd0","state":"CO","location":"4 ENE NEDERLAND"},"type":"Feature","geometry":{"type":"Point","coordinates":[-105.45,39.99]}},{"properties":{"remarks":null,"latitude":39.86,"total_snow":4.2,"total_liquid":null,"time":{"end_time":"2030/01/01 18:00:00 -0500","original":"1001 PM","granularity":"hour","time":"2030/01/01 17:00:00 -0500"},"county":"JEFFERSON","date":"10-25-2011","type":"SNOW","longitude":-105.38,"id":"a65k5vyqbdki","state":"CO","location":"12 NW GOLDEN"},"type":"Feature","geometry":{"type":"Point","coordinates":[-105.38,39.86]}},{"properties":{"remarks":null,"latitude":40.11,"total_snow":5.3,"total_liquid":null,"time":{"end_time":"2030/01/01 15:00:00 -0500","original":"0950 PM","granularity":"hour","time":"2030/01/01 14:00:00 -0500"},"county":"BOULDER","date":"10-25-2011","type":"SNOW","longitude":-105.44,"id":"a65k5vudehhl","state":"CO","location":"3 W JAMESTOWN"},"type":"Feature","geometry":{"type":"Point","coordinates":[-105.44,40.11]}},{"properties":{"remarks":null,"latitude":40.33,"total_snow":6.0,"total_liquid":null,"time":{"end_time":"2030/01/01 23:00:00 -0500","original":"0934 PM","granularity":"hour","time":"2030/01/01 22:00:00 -0500"},"county":"LARIMER","date":"10-25-2011","type":"HEAVY SNOW","longitude":-105.52,"id":"a65k5vv94bdt","state":"CO","location":"3 S ESTES PARK"},"type":"Feature","geometry":{"type":"Point","coordinates":[-105.52,40.33]}},{"properties":{"remarks":null,"latitude":40.88,"total_snow":5.0,"total_liquid":null,"time":{"end_time":"2030/01/01 19:00:00 -0500","original":"0930 PM","granularity":"hour","time":"2030/01/01 18:00:00 -0500"},"county":"LARIMER","date":"10-25-2011","type":"SNOW","longitude":-105.07,"id":"a65k5vzyt2o8","state":"CO","location":"4 NNE BUCKEYE"},"type":"Feature","geometry":{"type":"Point","coordinates":[-105.07,40.88]}}],"is_temporal":true,"author":{"url":"","metadata":null,"contact_name":null,"contact_address":null,"source":null,"contact_phone":null},"source":"","pagination":{"sort":null,"start":0,"total":125,"limit":1000000},"state":"complete","tags":"","published":"2014-08-13T11:20:44-04:00","id":169786}