{"type":"FeatureCollection","data_type":"Dataset","url_type":null,"permissions":[{"permissions":{"download":true,"view":true},"group_id":"everyone"}],"classification":null,"title":"Tsubasacon Attendees 2009","count":257,"stream_id":17009,"contributor":{"url":"http://geocommons.com/users/5607","name":"JLeeBly"},"data_attributes":null,"calculation_params":null,"icon_link":null,"link":"http://geocommons.com/overlays/17009.json","extent":[70.3456,28.5579,90.2385,43.5835],"geometry_types":["point"],"unique_name":null,"name":"Tsubasacon Attendees 2009","feature_count":257,"description":"","next_feature":null,"is_raster":false,"short_classification":"Y","stats":{"longwest":{"max":90.2385,"mean":81.7118490272374,"variance":4.20647002719632,"stdev":2.05096807074033,"min":70.3456,"median":81.7424},"zipcode":{"max":null,"min":null,"median":null},"formula":{"max":1191.47,"mean":663.0938671875,"variance":13504.654506947,"stdev":116.209528468827,"min":42.28,"median":666.68},"areacode":{"max":937.0,"mean":430.455252918288,"variance":42899.9989664396,"stdev":207.123149277041,"min":207.0,"median":304.0},"latnorth":{"max":43.58347,"mean":38.3166896887159,"variance":1.73727176458193,"stdev":1.31805605517441,"min":28.55792,"median":38.28581},"distance":{"max":724.0155712,"mean":100.816292375117,"variance":11807.2137682612,"stdev":108.661003898644,"min":0.0,"median":72.3998629},"frequency":{"max":39.0,"mean":3.56031128404669,"variance":29.9973249027237,"stdev":5.47698136775393,"min":1.0,"median":2.0}},"features":[{"properties":{"longwest":73.868,"city":"Bronx","timezone":"Eastern","county":"Bronx","zipcode":"10467","formula":218.69,"areacode":718.0,"id":"a6a3fek4u4lk","frequency":1.0,"distance":486.6290994,"latnorth":40.87197,"state":"NY"},"type":"Feature","geometry":{"type":"Point","coordinates":[73.868,40.87197]}},{"properties":{"longwest":73.8412,"city":"College Point","timezone":"Eastern","county":"Queens","zipcode":"11356","formula":222.03,"areacode":718.0,"id":"a6a3fer5loud","frequency":1.0,"distance":486.1731413,"latnorth":40.7847,"state":"NY"},"type":"Feature","geometry":{"type":"Point","coordinates":[73.8412,40.7847]}},{"properties":{"longwest":77.478,"city":"Atlanta","timezone":"Eastern","county":"Steuben","zipcode":"14808","formula":339.93,"areacode":716.0,"id":"a6a3fewbzku7","frequency":1.0,"distance":387.6462789,"latnorth":42.56248,"state":"NY"},"type":"Feature","geometry":{"type":"Point","coordinates":[77.478,42.56248]}},{"properties":{"longwest":80.234,"city":"Conway","timezone":"Eastern","county":"Beaver","zipcode":"15027","formula":512.49,"areacode":724.0,"id":"a6a3fekjeudm","frequency":1.0,"distance":195.2451341,"latnorth":40.66496,"state":"PA"},"type":"Feature","geometry":{"type":"Point","coordinates":[80.234,40.66496]}},{"properties":{"longwest":79.863,"city":"Braddock","timezone":"Eastern","county":"Allegheny","zipcode":"15104","formula":501.69,"areacode":412.0,"id":"a6a3fep7hevh","frequency":1.0,"distance":194.8163812,"latnorth":40.40472,"state":"PA"},"type":"Feature","geometry":{"type":"Point","coordinates":[79.863,40.40472]}},{"properties":{"longwest":79.9132,"city":"Pittsburgh","timezone":"Eastern","county":"Allegheny","zipcode":"15215","formula":501.27,"areacode":412.0,"id":"a6a3felvu7rb","frequency":1.0,"distance":197.8692432,"latnorth":40.5049,"state":"PA"},"type":"Feature","geometry":{"type":"Point","coordinates":[79.9132,40.5049]}},{"properties":{"longwest":80.0502,"city":"Pittsburgh","timezone":"Eastern","county":"Allegheny","zipcode":"15220","formula":510.25,"areacode":412.0,"id":"a6a3fel0oyh3","frequency":2.0,"distance":188.6199732,"latnorth":40.4193,"state":"PA"},"type":"Feature","geometry":{"type":"Point","coordinates":[80.0502,40.4193]}},{"properties":{"longwest":80.0136,"city":"Pittsburgh","timezone":"Eastern","county":"Allegheny","zipcode":"15226","formula":509.16,"areacode":412.0,"id":"a6a3feiexsaw","frequency":2.0,"distance":188.789036,"latnorth":40.396,"state":"PA"},"type":"Feature","geometry":{"type":"Point","coordinates":[80.0136,40.396]}},{"properties":{"longwest":80.027,"city":"Beallsville","timezone":"Eastern","county":"Washington","zipcode":"15313","formula":519.75,"areacode":724.0,"id":"a6a3fewx8rx8","frequency":1.0,"distance":172.3757291,"latnorth":40.06055,"state":"PA"},"type":"Feature","geometry":{"type":"Point","coordinates":[80.027,40.06055]}},{"properties":{"longwest":79.716,"city":"Irwin","timezone":"Eastern","county":"Westmoreland","zipcode":"15642","formula":496.94,"areacode":724.0,"id":"a6a3feuy5v50","frequency":3.0,"distance":196.843984,"latnorth":40.32699,"state":"PA"},"type":"Feature","geometry":{"type":"Point","coordinates":[79.716,40.32699]}},{"properties":{"longwest":75.272,"city":"Sharon Hill","timezone":"Eastern","county":"Delaware","zipcode":"19079","formula":318.3,"areacode":610.0,"id":"a6a3fesqdo6b","frequency":1.0,"distance":397.6430734,"latnorth":39.90273,"state":"PA"},"type":"Feature","geometry":{"type":"Point","coordinates":[75.272,39.90273]}},{"properties":{"longwest":76.5422,"city":"Baltimore","timezone":"Eastern","county":"Baltimore City","zipcode":"21224","formula":396.64,"areacode":410.0,"id":"a6a3fejqvenn","frequency":1.0,"distance":323.1305631,"latnorth":39.2844,"state":"MD"},"type":"Feature","geometry":{"type":"Point","coordinates":[76.5422,39.2844]}},{"properties":{"longwest":76.722,"city":"Baltimore","timezone":"Eastern","county":"Baltimore","zipcode":"21227","formula":406.78,"areacode":410.0,"id":"a6a3fekrvzb4","frequency":1.0,"distance":312.934407,"latnorth":39.2187,"state":"MD"},"type":"Feature","geometry":{"type":"Point","coordinates":[76.722,39.2187]}},{"properties":{"longwest":76.299,"city":"Norfolk","timezone":"Eastern","county":"Norfolk City","zipcode":"23508","formula":516.66,"areacode":757.0,"id":"a6a3femj18u2","frequency":2.0,"distance":352.0972289,"latnorth":36.88611,"state":"VA"},"type":"Feature","geometry":{"type":"Point","coordinates":[76.299,36.88611]}},{"properties":{"longwest":80.079,"city":"Salem","timezone":"Eastern","county":"Salem","zipcode":"24153","formula":631.01,"areacode":540.0,"id":"a6a3felq5884","frequency":1.0,"distance":150.247916,"latnorth":37.29303,"state":"VA"},"type":"Feature","geometry":{"type":"Point","coordinates":[80.079,37.29303]}},{"properties":{"longwest":82.004,"city":"Honaker","timezone":"Eastern","county":"Russell","zipcode":"24260","formula":723.48,"areacode":540.0,"id":"a6a3feki5dvz","frequency":1.0,"distance":98.14517962,"latnorth":37.0322,"state":"VA"},"type":"Feature","geometry":{"type":"Point","coordinates":[82.004,37.0322]}},{"properties":{"longwest":78.925,"city":"Cluster Springs","timezone":"Eastern","county":"Halifax","zipcode":"24535","formula":619.43,"areacode":804.0,"id":"a6a3fet672r8","frequency":1.0,"distance":229.1225764,"latnorth":36.61655,"state":"VA"},"type":"Feature","geometry":{"type":"Point","coordinates":[78.925,36.61655]}},{"properties":{"longwest":82.227,"city":"Big Rock","timezone":"Eastern","county":"Buchanan","zipcode":"24603","formula":721.08,"areacode":540.0,"id":"a6a3fesyz54o","frequency":1.0,"distance":76.36246173,"latnorth":37.31766,"state":"VA"},"type":"Feature","geometry":{"type":"Point","coordinates":[82.227,37.31766]}},{"properties":{"longwest":81.767,"city":"Cedar Bluff","timezone":"Eastern","county":"Tazewell","zipcode":"24609","formula":710.81,"areacode":540.0,"id":"a6a3ferp0jig","frequency":1.0,"distance":98.38470645,"latnorth":37.08967,"state":"VA"},"type":"Feature","geometry":{"type":"Point","coordinates":[81.767,37.08967]}},{"properties":{"longwest":82.122,"city":"Grundy","timezone":"Eastern","county":"Buchanan","zipcode":"24614","formula":715.94,"areacode":540.0,"id":"a6a3femppwl9","frequency":1.0,"distance":76.59328492,"latnorth":37.33039,"state":"VA"},"type":"Feature","geometry":{"type":"Point","coordinates":[82.122,37.33039]}},{"properties":{"longwest":81.796,"city":"Richlands","timezone":"Eastern","county":"Tazewell","zipcode":"24641","formula":711.91,"areacode":540.0,"id":"a6a3feih3tyq","frequency":1.0,"distance":97.58690474,"latnorth":37.093,"state":"VA"},"type":"Feature","geometry":{"type":"Point","coordinates":[81.796,37.093]}},{"properties":{"longwest":81.229,"city":"Bluefield","timezone":"Eastern","county":"Mercer","zipcode":"24701","formula":679.54,"areacode":304.0,"id":"a6a3fet47c3c","frequency":2.0,"distance":102.3572859,"latnorth":37.27978,"state":"WV"},"type":"Feature","geometry":{"type":"Point","coordinates":[81.229,37.27978]}},{"properties":{"longwest":80.9973,"city":"Athens","timezone":"Eastern","county":"Mercer","zipcode":"24712","formula":663.02,"areacode":304.0,"id":"a6a3fenkayh9","frequency":1.0,"distance":103.7465416,"latnorth":37.43229,"state":"WV"},"type":"Feature","geometry":{"type":"Point","coordinates":[80.9973,37.43229]}},{"properties":{"longwest":81.224,"city":"Bud","timezone":"Eastern","county":"Wyoming","zipcode":"24716","formula":677.51,"areacode":304.0,"id":"a6a3feww0hwj","frequency":1.0,"distance":100.3441529,"latnorth":37.3215,"state":"WV"},"type":"Feature","geometry":{"type":"Point","coordinates":[81.224,37.3215]}},{"properties":{"longwest":81.3467,"city":"Herndon","timezone":"Eastern","county":"Wyoming","zipcode":"24726","formula":673.96,"areacode":304.0,"id":"a6a3feso91yt","frequency":1.0,"distance":85.3565092,"latnorth":37.52643,"state":"WV"},"type":"Feature","geometry":{"type":"Point","coordinates":[81.3467,37.52643]}},{"properties":{"longwest":81.2138,"city":"Lashmeet","timezone":"Eastern","county":"Mercer","zipcode":"24733","formula":671.85,"areacode":304.0,"id":"a6a3fev3pcyh","frequency":1.0,"distance":94.62206946,"latnorth":37.44199,"state":"WV"},"type":"Feature","geometry":{"type":"Point","coordinates":[81.2138,37.44199]}},{"properties":{"longwest":81.0863,"city":"Princeton","timezone":"Eastern","county":"Mercer","zipcode":"24740","formula":669.67,"areacode":304.0,"id":"a6a3feovof23","frequency":9.0,"distance":103.2433924,"latnorth":37.36681,"state":"WV"},"type":"Feature","geometry":{"type":"Point","coordinates":[81.0863,37.36681]}},{"properties":{"longwest":81.2187,"city":"Rock","timezone":"Eastern","county":"Mercer","zipcode":"24747","formula":674.35,"areacode":304.0,"id":"a6a3feowbpn8","frequency":2.0,"distance":97.08199634,"latnorth":37.38889,"state":"WV"},"type":"Feature","geometry":{"type":"Point","coordinates":[81.2187,37.38889]}},{"properties":{"longwest":81.261,"city":"Anawalt","timezone":"Eastern","county":"Mcdowell","zipcode":"24808","formula":684.37,"areacode":304.0,"id":"a6a3fel0gtn3","frequency":2.0,"distance":105.5178096,"latnorth":37.2009,"state":"WV"},"type":"Feature","geometry":{"type":"Point","coordinates":[81.261,37.2009]}},{"properties":{"longwest":81.7078,"city":"Coal Mountain","timezone":"Eastern","county":"Wyoming","zipcode":"24823","formula":682.95,"areacode":304.0,"id":"a6a3fenlag4j","frequency":1.0,"distance":63.8777633,"latnorth":37.68848,"state":"WV"},"type":"Feature","geometry":{"type":"Point","coordinates":[81.7078,37.68848]}},{"properties":{"longwest":81.391,"city":"Northfork","timezone":"Eastern","county":"Mcdowell","zipcode":"24868","formula":681.0,"areacode":304.0,"id":"a6a3fewu69hl","frequency":1.0,"distance":89.96113543,"latnorth":37.40608,"state":"WV"},"type":"Feature","geometry":{"type":"Point","coordinates":[81.391,37.40608]}},{"properties":{"longwest":81.6215,"city":"Oceana","timezone":"Eastern","county":"Wyoming","zipcode":"24870","formula":678.52,"areacode":304.0,"id":"a6a3felk75vc","frequency":4.0,"distance":66.12442896,"latnorth":37.70387,"state":"WV"},"type":"Feature","geometry":{"type":"Point","coordinates":[81.6215,37.70387]}},{"properties":{"longwest":81.335,"city":"Wilcoe","timezone":"Eastern","county":"Mcdowell","zipcode":"24895","formula":686.44,"areacode":304.0,"id":"a6a3femi1yag","frequency":1.0,"distance":101.7376152,"latnorth":37.2252,"state":"WV"},"type":"Feature","geometry":{"type":"Point","coordinates":[81.335,37.2252]}},{"properties":{"longwest":80.4406,"city":"Lewisburg","timezone":"Eastern","county":"Greenbrier","zipcode":"24901","formula":623.0,"areacode":304.0,"id":"a6a3fey1y6vx","frequency":5.0,"distance":116.4847651,"latnorth":37.80825,"state":"WV"},"type":"Feature","geometry":{"type":"Point","coordinates":[80.4406,37.80825]}},{"properties":{"longwest":80.6713,"city":"Alderson","timezone":"Eastern","county":"Greenbrier","zipcode":"24910","formula":636.21,"areacode":304.0,"id":"a6a3feu0ln11","frequency":1.0,"distance":107.163667,"latnorth":37.73014,"state":"WV"},"type":"Feature","geometry":{"type":"Point","coordinates":[80.6713,37.73014]}},{"properties":{"longwest":80.7686,"city":"Peterstown","timezone":"Eastern","county":"Monroe","zipcode":"24963","formula":654.11,"areacode":304.0,"id":"a6a3feue7k4w","frequency":2.0,"distance":114.234858,"latnorth":37.4147,"state":"WV"},"type":"Feature","geometry":{"type":"Point","coordinates":[80.7686,37.4147]}},{"properties":{"longwest":80.668,"city":"Smoot","timezone":"Eastern","county":"Greenbrier","zipcode":"24977","formula":629.79,"areacode":304.0,"id":"a6a3feyqadji","frequency":1.0,"distance":103.1954834,"latnorth":37.87716,"state":"WV"},"type":"Feature","geometry":{"type":"Point","coordinates":[80.668,37.87716]}},{"properties":{"longwest":80.2746,"city":"White Sulphur Springs","timezone":"Eastern","county":"Greenbrier","zipcode":"24986","formula":615.67,"areacode":304.0,"id":"a6a3fer87bxq","frequency":3.0,"distance":124.8060973,"latnorth":37.81461,"state":"WV"},"type":"Feature","geometry":{"type":"Point","coordinates":[80.2746,37.81461]}},{"properties":{"longwest":81.7862,"city":"Alum Creek","timezone":"Eastern","county":"Kanawha","zipcode":"25003","formula":662.83,"areacode":304.0,"id":"a6a3fev4l9dc","frequency":2.0,"distance":36.56836728,"latnorth":38.28581,"state":"WV"},"type":"Feature","geometry":{"type":"Point","coordinates":[81.7862,38.28581]}},{"properties":{"longwest":81.5058,"city":"Belle","timezone":"Eastern","county":"Kanawha","zipcode":"25015","formula":652.51,"areacode":304.0,"id":"a6a3feibsm30","frequency":1.0,"distance":52.34042943,"latnorth":38.22538,"state":"WV"},"type":"Feature","geometry":{"type":"Point","coordinates":[81.5058,38.22538]}},{"properties":{"longwest":81.171,"city":"Boomer","timezone":"Eastern","county":"Fayette","zipcode":"25031","formula":642.95,"areacode":304.0,"id":"a6a3felmu92q","frequency":1.0,"distance":72.42683119,"latnorth":38.0902,"state":"WV"},"type":"Feature","geometry":{"type":"Point","coordinates":[81.171,38.0902]}},{"properties":{"longwest":81.9499,"city":"Buffalo","timezone":"Eastern","county":"Putnam","zipcode":"25033","formula":658.33,"areacode":304.0,"id":"a6a3fepgj4j7","frequency":2.0,"distance":29.97948177,"latnorth":38.60924,"state":"WV"},"type":"Feature","geometry":{"type":"Point","coordinates":[81.9499,38.60924]}},{"properties":{"longwest":81.0695,"city":"Clay","timezone":"Eastern","county":"Clay","zipcode":"25043","formula":623.22,"areacode":304.0,"id":"a6a3femizx6w","frequency":1.0,"distance":74.43189317,"latnorth":38.47635,"state":"WV"},"type":"Feature","geometry":{"type":"Point","coordinates":[81.0695,38.47635]}},{"properties":{"longwest":81.8542,"city":"Danville","timezone":"Eastern","county":"Boone","zipcode":"25053","formula":675.63,"areacode":304.0,"id":"a6a3feklytaf","frequency":2.0,"distance":41.16481457,"latnorth":38.03356,"state":"WV"},"type":"Feature","geometry":{"type":"Point","coordinates":[81.8542,38.03356]}},{"properties":{"longwest":81.4814,"city":"Dry Creek","timezone":"Eastern","county":"Raleigh","zipcode":"25062","formula":665.94,"areacode":304.0,"id":"a6a3feli5urv","frequency":1.0,"distance":64.54452906,"latnorth":37.86068,"state":"WV"},"type":"Feature","geometry":{"type":"Point","coordinates":[81.4814,37.86068]}},{"properties":{"longwest":81.7424,"city":"Dunbar","timezone":"Eastern","county":"Kanawha","zipcode":"25064","formula":657.72,"areacode":304.0,"id":"a6a3fekiwfoo","frequency":13.0,"distance":38.01189343,"latnorth":38.36827,"state":"WV"},"type":"Feature","geometry":{"type":"Point","coordinates":[81.7424,38.36827]}},{"properties":{"longwest":81.263,"city":"East Bank","timezone":"Eastern","county":"Kanawha","zipcode":"25067","formula":645.41,"areacode":304.0,"id":"a6a3femg5pmx","frequency":1.0,"distance":66.81645434,"latnorth":38.1305,"state":"WV"},"type":"Feature","geometry":{"type":"Point","coordinates":[81.263,38.1305]}},{"properties":{"longwest":81.4817,"city":"Elkview","timezone":"Eastern","county":"Kanawha","zipcode":"25071","formula":643.49,"areacode":304.0,"id":"a6a3fekys0sw","frequency":3.0,"distance":52.02261617,"latnorth":38.43231,"state":"WV"},"type":"Feature","geometry":{"type":"Point","coordinates":[81.4817,38.43231]}},{"properties":{"longwest":81.263,"city":"Eskdale","timezone":"Eastern","county":"Kanawha","zipcode":"25075","formula":648.52,"areacode":304.0,"id":"a6a3fetyxhqh","frequency":1.0,"distance":68.59129303,"latnorth":38.0528,"state":"WV"},"type":"Feature","geometry":{"type":"Point","coordinates":[81.263,38.0528]}},{"properties":{"longwest":82.011,"city":"Fraziers Bottom","timezone":"Eastern","county":"Putnam","zipcode":"25082","formula":663.22,"areacode":304.0,"id":"a6a3felrz7vs","frequency":1.0,"distance":25.30580208,"latnorth":38.55167,"state":"WV"},"type":"Feature","geometry":{"type":"Point","coordinates":[82.011,38.55167]}},{"properties":{"longwest":81.252,"city":"Glasgow","timezone":"Eastern","county":"Kanawha","zipcode":"25086","formula":645.12,"areacode":304.0,"id":"a6a3fexia9sp","frequency":1.0,"distance":67.48977811,"latnorth":38.1255,"state":"WV"},"type":"Feature","geometry":{"type":"Point","coordinates":[81.252,38.1255]}},{"properties":{"longwest":81.1575,"city":"Indore","timezone":"Eastern","county":"Clay","zipcode":"25111","formula":632.46,"areacode":304.0,"id":"a6a3fept0e0x","frequency":1.0,"distance":69.76120665,"latnorth":38.33967,"state":"WV"},"type":"Feature","geometry":{"type":"Point","coordinates":[81.1575,38.33967]}},{"properties":{"longwest":81.8003,"city":"Jeffrey","timezone":"Eastern","county":"Boone","zipcode":"25114","formula":676.23,"areacode":304.0,"id":"a6a3fek9hupk","frequency":1.0,"distance":46.84045045,"latnorth":37.95702,"state":"WV"},"type":"Feature","geometry":{"type":"Point","coordinates":[81.8003,37.95702]}},{"properties":{"longwest":81.3217,"city":"Kimberly","timezone":"Eastern","county":"Fayette","zipcode":"25118","formula":648.24,"areacode":304.0,"id":"a6a3fep0reg0","frequency":1.0,"distance":63.8944771,"latnorth":38.12492,"state":"WV"},"type":"Feature","geometry":{"type":"Point","coordinates":[81.3217,38.12492]}},{"properties":{"longwest":81.9092,"city":"Leon","timezone":"Eastern","county":"Mason","zipcode":"25123","formula":651.31,"areacode":304.0,"id":"a6a3fev7um4h","frequency":3.0,"distance":37.3063042,"latnorth":38.75304,"state":"WV"},"type":"Feature","geometry":{"type":"Point","coordinates":[81.9092,38.75304]}},{"properties":{"longwest":81.22,"city":"London","timezone":"Eastern","county":"Kanawha","zipcode":"25126","formula":644.16,"areacode":304.0,"id":"a6a3feqljv2p","frequency":1.0,"distance":69.38720097,"latnorth":38.114,"state":"WV"},"type":"Feature","geometry":{"type":"Point","coordinates":[81.22,38.114]}},{"properties":{"longwest":81.7937,"city":"Madison","timezone":"Eastern","county":"Boone","zipcode":"25130","formula":672.49,"areacode":304.0,"id":"a6a3fej45c0l","frequency":2.0,"distance":43.31706959,"latnorth":38.04442,"state":"WV"},"type":"Feature","geometry":{"type":"Point","coordinates":[81.7937,38.04442]}},{"properties":{"longwest":81.8293,"city":"Nitro","timezone":"Eastern","county":"Kanawha","zipcode":"25143","formula":659.76,"areacode":304.0,"id":"a6a3fevyf0l4","frequency":2.0,"distance":33.19261529,"latnorth":38.41932,"state":"WV"},"type":"Feature","geometry":{"type":"Point","coordinates":[81.8293,38.41932]}},{"properties":{"longwest":81.8051,"city":"Poca","timezone":"Eastern","county":"Putnam","zipcode":"25159","formula":656.1,"areacode":304.0,"id":"a6a3feqqw9e9","frequency":5.0,"distance":34.90436233,"latnorth":38.48829,"state":"WV"},"type":"Feature","geometry":{"type":"Point","coordinates":[81.8051,38.48829]}},{"properties":{"longwest":81.8304,"city":"Saint Albans","timezone":"Eastern","county":"Kanawha","zipcode":"25177","formula":661.38,"areacode":304.0,"id":"a6a3feulzu2n","frequency":30.0,"distance":33.21105804,"latnorth":38.37743,"state":"WV"},"type":"Feature","geometry":{"type":"Point","coordinates":[81.8304,38.37743]}},{"properties":{"longwest":81.182,"city":"Smithers","timezone":"Eastern","county":"Fayette","zipcode":"25186","formula":642.83,"areacode":304.0,"id":"a6a3fex6fuyl","frequency":2.0,"distance":71.54028635,"latnorth":38.1052,"state":"WV"},"type":"Feature","geometry":{"type":"Point","coordinates":[81.182,38.1052]}},{"properties":{"longwest":81.9966,"city":"Southside","timezone":"Eastern","county":"Mason","zipcode":"25187","formula":656.81,"areacode":304.0,"id":"a6a3feni0kv5","frequency":2.0,"distance":31.87500663,"latnorth":38.71199,"state":"WV"},"type":"Feature","geometry":{"type":"Point","coordinates":[81.9966,38.71199]}},{"properties":{"longwest":81.8475,"city":"Tornado","timezone":"Eastern","county":"Kanawha","zipcode":"25202","formula":663.73,"areacode":304.0,"id":"a6a3fenguv5h","frequency":4.0,"distance":32.62280601,"latnorth":38.33569,"state":"WV"},"type":"Feature","geometry":{"type":"Point","coordinates":[81.8475,38.33569]}},{"properties":{"longwest":81.403,"city":"Wharton","timezone":"Eastern","county":"Boone","zipcode":"25208","formula":675.77,"areacode":304.0,"id":"a6a3feqz2ihl","frequency":1.0,"distance":82.49234117,"latnorth":37.5412,"state":"WV"},"type":"Feature","geometry":{"type":"Point","coordinates":[81.403,37.5412]}},{"properties":{"longwest":81.534,"city":"Whitesville","timezone":"Eastern","county":"Boone","zipcode":"25209","formula":663.51,"areacode":304.0,"id":"a6a3feiinytu","frequency":2.0,"distance":57.61637804,"latnorth":37.97867,"state":"WV"},"type":"Feature","geometry":{"type":"Point","coordinates":[81.534,37.97867]}},{"properties":{"longwest":81.8899,"city":"Winfield","timezone":"Eastern","county":"Putnam","zipcode":"25213","formula":659.28,"areacode":304.0,"id":"a6a3fepw5tgc","frequency":3.0,"distance":30.63614978,"latnorth":38.50717,"state":"WV"},"type":"Feature","geometry":{"type":"Point","coordinates":[81.8899,38.50717]}},{"properties":{"longwest":81.8186,"city":"Cottageville","timezone":"Eastern","county":"Jackson","zipcode":"25239","formula":643.24,"areacode":304.0,"id":"a6a3few8otcg","frequency":1.0,"distance":45.99055844,"latnorth":38.86328,"state":"WV"},"type":"Feature","geometry":{"type":"Point","coordinates":[81.8186,38.86328]}},{"properties":{"longwest":81.7908,"city":"Evans","timezone":"Eastern","county":"Jackson","zipcode":"25241","formula":643.77,"areacode":304.0,"id":"a6a3fewncfj3","frequency":1.0,"distance":44.79970502,"latnorth":38.81128,"state":"WV"},"type":"Feature","geometry":{"type":"Point","coordinates":[81.7908,38.81128]}},{"properties":{"longwest":81.6517,"city":"Kenna","timezone":"Eastern","county":"Jackson","zipcode":"25248","formula":644.1,"areacode":304.0,"id":"a6a3fekeotu6","frequency":3.0,"distance":45.22913348,"latnorth":38.62389,"state":"WV"},"type":"Feature","geometry":{"type":"Point","coordinates":[81.6517,38.62389]}},{"properties":{"longwest":81.9751,"city":"Letart","timezone":"Eastern","county":"Mason","zipcode":"25253","formula":648.17,"areacode":304.0,"id":"a6a3feko6673","frequency":3.0,"distance":43.96304324,"latnorth":38.93107,"state":"WV"},"type":"Feature","geometry":{"type":"Point","coordinates":[81.9751,38.93107]}},{"properties":{"longwest":80.9419,"city":"Normantown","timezone":"Eastern","county":"Gilmer","zipcode":"25267","formula":602.27,"areacode":304.0,"id":"a6a3feu0q3z6","frequency":1.0,"distance":87.24719471,"latnorth":38.88017,"state":"WV"},"type":"Feature","geometry":{"type":"Point","coordinates":[80.9419,38.88017]}},{"properties":{"longwest":81.7019,"city":"Ripley","timezone":"Eastern","county":"Jackson","zipcode":"25271","formula":639.74,"areacode":304.0,"id":"a6a3fescxjaq","frequency":4.0,"distance":48.57142113,"latnorth":38.80904,"state":"WV"},"type":"Feature","geometry":{"type":"Point","coordinates":[81.7019,38.80904]}},{"properties":{"longwest":81.0935,"city":"Wallback","timezone":"Eastern","county":"Clay","zipcode":"25285","formula":620.62,"areacode":304.0,"id":"a6a3fekwc20q","frequency":1.0,"distance":73.80434398,"latnorth":38.57254,"state":"WV"},"type":"Feature","geometry":{"type":"Point","coordinates":[81.0935,38.57254]}},{"properties":{"longwest":81.3957,"city":"Walton","timezone":"Eastern","county":"Roane","zipcode":"25286","formula":633.2,"areacode":304.0,"id":"a6a3feu55xwx","frequency":1.0,"distance":58.13041619,"latnorth":38.60226,"state":"WV"},"type":"Feature","geometry":{"type":"Point","coordinates":[81.3957,38.60226]}},{"properties":{"longwest":81.6306,"city":"Charleston","timezone":"Eastern","county":"Kanawha","zipcode":"25301","formula":653.39,"areacode":304.0,"id":"a6a3fepss5u3","frequency":2.0,"distance":44.16403972,"latnorth":38.349,"state":"WV"},"type":"Feature","geometry":{"type":"Point","coordinates":[81.6306,38.349]}},{"properties":{"longwest":81.6238,"city":"Charleston","timezone":"Eastern","county":"Kanawha","zipcode":"25302","formula":651.78,"areacode":304.0,"id":"a6a3fejzh8cv","frequency":4.0,"distance":44.3601069,"latnorth":38.38317,"state":"WV"},"type":"Feature","geometry":{"type":"Point","coordinates":[81.6238,38.38317]}},{"properties":{"longwest":81.684,"city":"Charleston","timezone":"Eastern","county":"Kanawha","zipcode":"25303","formula":655.42,"areacode":304.0,"id":"a6a3feyoc9wc","frequency":7.0,"distance":41.21707382,"latnorth":38.35922,"state":"WV"},"type":"Feature","geometry":{"type":"Point","coordinates":[81.684,38.35922]}},{"properties":{"longwest":81.5902,"city":"Charleston","timezone":"Eastern","county":"Kanawha","zipcode":"25304","formula":652.77,"areacode":304.0,"id":"a6a3feqpwzyv","frequency":11.0,"distance":46.60236165,"latnorth":38.31728,"state":"WV"},"type":"Feature","geometry":{"type":"Point","coordinates":[81.5902,38.31728]}},{"properties":{"longwest":81.5368,"city":"Charleston","timezone":"Eastern","county":"Kanawha","zipcode":"25306","formula":651.01,"areacode":304.0,"id":"a6a3fes4kjsk","frequency":2.0,"distance":49.64058551,"latnorth":38.30028,"state":"WV"},"type":"Feature","geometry":{"type":"Point","coordinates":[81.5368,38.30028]}},{"properties":{"longwest":81.7344,"city":"Charleston","timezone":"Eastern","county":"Kanawha","zipcode":"25309","formula":658.24,"areacode":304.0,"id":"a6a3feqj2kur","frequency":12.0,"distance":38.60396276,"latnorth":38.3449,"state":"WV"},"type":"Feature","geometry":{"type":"Point","coordinates":[81.7344,38.3449]}},{"properties":{"longwest":81.5992,"city":"Charleston","timezone":"Eastern","county":"Kanawha","zipcode":"25311","formula":651.96,"areacode":304.0,"id":"a6a3fen83dfr","frequency":9.0,"distance":45.85714914,"latnorth":38.34903,"state":"WV"},"type":"Feature","geometry":{"type":"Point","coordinates":[81.5992,38.34903]}},{"properties":{"longwest":81.6746,"city":"Charleston","timezone":"Eastern","county":"Kanawha","zipcode":"25312","formula":653.09,"areacode":304.0,"id":"a6a3feuovzad","frequency":13.0,"distance":41.56374778,"latnorth":38.40956,"state":"WV"},"type":"Feature","geometry":{"type":"Point","coordinates":[81.6746,38.40956]}},{"properties":{"longwest":81.7648,"city":"Charleston","timezone":"Eastern","county":"Kanawha","zipcode":"25313","formula":656.61,"areacode":304.0,"id":"a6a3feo9f9ya","frequency":16.0,"distance":36.69152474,"latnorth":38.42498,"state":"WV"},"type":"Feature","geometry":{"type":"Point","coordinates":[81.7648,38.42498]}},{"properties":{"longwest":81.6689,"city":"Charleston","timezone":"Eastern","county":"Kanawha","zipcode":"25314","formula":655.94,"areacode":304.0,"id":"a6a3feymxryv","frequency":7.0,"distance":42.28006386,"latnorth":38.32744,"state":"WV"},"type":"Feature","geometry":{"type":"Point","coordinates":[81.6689,38.32744]}},{"properties":{"longwest":81.5543,"city":"Charleston","timezone":"Eastern","county":"Kanawha","zipcode":"25315","formula":654.39,"areacode":304.0,"id":"a6a3feu2k9pq","frequency":2.0,"distance":49.65473936,"latnorth":38.2333,"state":"WV"},"type":"Feature","geometry":{"type":"Point","coordinates":[81.5543,38.2333]}},{"properties":{"longwest":81.6295,"city":"Charleston","timezone":"Eastern","county":"Kanawha","zipcode":"25320","formula":647.3,"areacode":304.0,"id":"a6a3felp6ixn","frequency":3.0,"distance":44.51297183,"latnorth":38.50958,"state":"WV"},"type":"Feature","geometry":{"type":"Point","coordinates":[81.6295,38.50958]}},{"properties":{"longwest":81.375,"city":"Charleston","timezone":"Eastern","county":"Kanawha","zipcode":"25337","formula":647.42,"areacode":304.0,"id":"a6a3fey4psj1","frequency":1.0,"distance":59.55434653,"latnorth":38.2059,"state":"WV"},"type":"Feature","geometry":{"type":"Point","coordinates":[81.375,38.2059]}},{"properties":{"longwest":78.0241,"city":"Inwood","timezone":"Eastern","county":"Berkeley","zipcode":"25428","formula":453.76,"areacode":304.0,"id":"a6a3feu84o5l","frequency":1.0,"distance":246.6677405,"latnorth":39.37009,"state":"WV"},"type":"Feature","geometry":{"type":"Point","coordinates":[78.0241,39.37009]}},{"properties":{"longwest":81.9839,"city":"Alkol","timezone":"Eastern","county":"Lincoln","zipcode":"25501","formula":676.54,"areacode":304.0,"id":"a6a3feqcvhcu","frequency":1.0,"distance":30.22680044,"latnorth":38.16088,"state":"WV"},"type":"Feature","geometry":{"type":"Point","coordinates":[81.9839,38.16088]}},{"properties":{"longwest":82.1725,"city":"Apple Grove","timezone":"Eastern","county":"Mason","zipcode":"25502","formula":664.93,"areacode":304.0,"id":"a6a3felrw1vw","frequency":1.0,"distance":25.52922692,"latnorth":38.71306,"state":"WV"},"type":"Feature","geometry":{"type":"Point","coordinates":[82.1725,38.71306]}},{"properties":{"longwest":82.1089,"city":"Ashton","timezone":"Eastern","county":"Mason","zipcode":"25503","formula":663.96,"areacode":304.0,"id":"a6a3feykbhx1","frequency":4.0,"distance":24.8364686,"latnorth":38.6571,"state":"WV"},"type":"Feature","geometry":{"type":"Point","coordinates":[82.1089,38.6571]}},{"properties":{"longwest":82.2959,"city":"Barboursville","timezone":"Eastern","county":"Cabell","zipcode":"25504","formula":682.23,"areacode":304.0,"id":"a6a3fet1slrs","frequency":24.0,"distance":8.052257564,"latnorth":38.38927,"state":"WV"},"type":"Feature","geometry":{"type":"Point","coordinates":[82.2959,38.38927]}},{"properties":{"longwest":82.016,"city":"Big Creek","timezone":"Eastern","county":"Logan","zipcode":"25505","formula":684.03,"areacode":304.0,"id":"a6a3fekklyhh","frequency":1.0,"distance":36.32308058,"latnorth":38.00455,"state":"WV"},"type":"Feature","geometry":{"type":"Point","coordinates":[82.016,38.00455]}},{"properties":{"longwest":82.2683,"city":"Branchland","timezone":"Eastern","county":"Lincoln","zipcode":"25506","formula":685.38,"areacode":304.0,"id":"a6a3feqmmi1l","frequency":2.0,"distance":13.5225891,"latnorth":38.26944,"state":"WV"},"type":"Feature","geometry":{"type":"Point","coordinates":[82.2683,38.26944]}},{"properties":{"longwest":82.333,"city":"Ceredo","timezone":"Eastern","county":"Wayne","zipcode":"25507","formula":689.64,"areacode":304.0,"id":"a6a3fex9lx93","frequency":3.0,"distance":13.46611205,"latnorth":38.2347,"state":"WV"},"type":"Feature","geometry":{"type":"Point","coordinates":[82.333,38.2347]}},{"properties":{"longwest":82.0512,"city":"Chapmanville","timezone":"Eastern","county":"Logan","zipcode":"25508","formula":688.19,"areacode":304.0,"id":"a6a3fexm0vwb","frequency":11.0,"distance":38.87374201,"latnorth":37.93853,"state":"WV"},"type":"Feature","geometry":{"type":"Point","coordinates":[82.0512,37.93853]}},{"properties":{"longwest":82.0689,"city":"Culloden","timezone":"Eastern","county":"Cabell","zipcode":"25510","formula":670.69,"areacode":304.0,"id":"a6a3feitdc45","frequency":6.0,"distance":20.22677721,"latnorth":38.41983,"state":"WV"},"type":"Feature","geometry":{"type":"Point","coordinates":[82.0689,38.41983]}},{"properties":{"longwest":82.3279,"city":"East Lynn","timezone":"Eastern","county":"Wayne","zipcode":"25512","formula":690.72,"areacode":304.0,"id":"a6a3feue4w3n","frequency":1.0,"distance":15.79567418,"latnorth":38.19947,"state":"WV"},"type":"Feature","geometry":{"type":"Point","coordinates":[82.3279,38.19947]}},{"properties":{"longwest":82.5541,"city":"Fort Gay","timezone":"Eastern","county":"Wayne","zipcode":"25514","formula":703.52,"areacode":304.0,"id":"a6a3feiswozg","frequency":1.0,"distance":20.02597697,"latnorth":38.13349,"state":"WV"},"type":"Feature","geometry":{"type":"Point","coordinates":[82.5541,38.13349]}},{"properties":{"longwest":82.1434,"city":"Glenwood","timezone":"Eastern","county":"Mason","zipcode":"25520","formula":669.56,"areacode":304.0,"id":"a6a3fenzjuso","frequency":1.0,"distance":18.67251142,"latnorth":38.54493,"state":"WV"},"type":"Feature","geometry":{"type":"Point","coordinates":[82.1434,38.54493]}},{"properties":{"longwest":82.1047,"city":"Hamlin","timezone":"Eastern","county":"Lincoln","zipcode":"25523","formula":677.16,"areacode":304.0,"id":"a6a3fepkwb2g","frequency":1.0,"distance":20.08918383,"latnorth":38.28955,"state":"WV"},"type":"Feature","geometry":{"type":"Point","coordinates":[82.1047,38.28955]}},{"properties":{"longwest":82.1553,"city":"Harts","timezone":"Eastern","county":"Lincoln","zipcode":"25524","formula":690.13,"areacode":304.0,"id":"a6a3feje89w7","frequency":3.0,"distance":31.77810911,"latnorth":38.00887,"state":"WV"},"type":"Feature","geometry":{"type":"Point","coordinates":[82.1553,38.00887]}},{"properties":{"longwest":81.9943,"city":"Hurricane","timezone":"Eastern","county":"Putnam","zipcode":"25526","formula":667.06,"areacode":304.0,"id":"a6a3feuxdnri","frequency":22.0,"distance":24.27756937,"latnorth":38.42574,"state":"WV"},"type":"Feature","geometry":{"type":"Point","coordinates":[81.9943,38.42574]}},{"properties":{"longwest":81.8641,"city":"Julian","timezone":"Eastern","county":"Boone","zipcode":"25529","formula":672.46,"areacode":304.0,"id":"a6a3fem9jaak","frequency":1.0,"distance":36.97161765,"latnorth":38.12643,"state":"WV"},"type":"Feature","geometry":{"type":"Point","coordinates":[81.8641,38.12643]}},{"properties":{"longwest":82.5736,"city":"Kenova","timezone":"Eastern","county":"Wayne","zipcode":"25530","formula":695.14,"areacode":304.0,"id":"a6a3fexvpxn9","frequency":8.0,"distance":7.295820314,"latnorth":38.38603,"state":"WV"},"type":"Feature","geometry":{"type":"Point","coordinates":[82.5736,38.38603]}},{"properties":{"longwest":82.4287,"city":"Lavalette","timezone":"Eastern","county":"Wayne","zipcode":"25535","formula":690.49,"areacode":304.0,"id":"a6a3fey4261b","frequency":5.0,"distance":5.525669152,"latnorth":38.33046,"state":"WV"},"type":"Feature","geometry":{"type":"Point","coordinates":[82.4287,38.33046]}},{"properties":{"longwest":82.2956,"city":"Lesage","timezone":"Eastern","county":"Cabell","zipcode":"25537","formula":679.03,"areacode":304.0,"id":"a6a3ferh19r5","frequency":2.0,"distance":9.20032118,"latnorth":38.47702,"state":"WV"},"type":"Feature","geometry":{"type":"Point","coordinates":[82.2956,38.47702]}},{"properties":{"longwest":82.1457,"city":"Milton","timezone":"Eastern","county":"Cabell","zipcode":"25541","formula":674.43,"areacode":304.0,"id":"a6a3fere59bm","frequency":15.0,"distance":16.06035064,"latnorth":38.41398,"state":"WV"},"type":"Feature","geometry":{"type":"Point","coordinates":[82.1457,38.41398]}},{"properties":{"longwest":82.218,"city":"Ona","timezone":"Eastern","county":"Cabell","zipcode":"25545","formula":676.33,"areacode":304.0,"id":"a6a3fexrlq19","frequency":8.0,"distance":12.50052687,"latnorth":38.45285,"state":"WV"},"type":"Feature","geometry":{"type":"Point","coordinates":[82.218,38.45285]}},{"properties":{"longwest":82.1132,"city":"Point Pleasant","timezone":"Eastern","county":"Mason","zipcode":"25550","formula":656.95,"areacode":304.0,"id":"a6a3few3feww","frequency":7.0,"distance":36.01897265,"latnorth":38.86324,"state":"WV"},"type":"Feature","geometry":{"type":"Point","coordinates":[82.1132,38.86324]}},{"properties":{"longwest":82.5753,"city":"Prichard","timezone":"Eastern","county":"Wayne","zipcode":"25555","formula":700.91,"areacode":304.0,"id":"a6a3fepgfcej","frequency":3.0,"distance":14.35869714,"latnorth":38.23,"state":"WV"},"type":"Feature","geometry":{"type":"Point","coordinates":[82.5753,38.23]}},{"properties":{"longwest":82.247,"city":"Salt Rock","timezone":"Eastern","county":"Cabell","zipcode":"25559","formula":682.29,"areacode":304.0,"id":"a6a3fesqtqx8","frequency":2.0,"distance":12.03999128,"latnorth":38.32654,"state":"WV"},"type":"Feature","geometry":{"type":"Point","coordinates":[82.247,38.32654]}},{"properties":{"longwest":81.9004,"city":"Scott Depot","timezone":"Eastern","county":"Putnam","zipcode":"25560","formula":661.87,"areacode":304.0,"id":"a6a3fepqioow","frequency":5.0,"distance":29.46274842,"latnorth":38.45006,"state":"WV"},"type":"Feature","geometry":{"type":"Point","coordinates":[81.9004,38.45006]}},{"properties":{"longwest":82.4339,"city":"Wayne","timezone":"Eastern","county":"Wayne","zipcode":"25570","formula":694.58,"areacode":304.0,"id":"a6a3fesl8yo4","frequency":4.0,"distance":12.71511006,"latnorth":38.22581,"state":"WV"},"type":"Feature","geometry":{"type":"Point","coordinates":[82.4339,38.22581]}},{"properties":{"longwest":82.002,"city":"Logan","timezone":"Eastern","county":"Logan","zipcode":"25601","formula":689.57,"areacode":304.0,"id":"a6a3fejhctds","frequency":8.0,"distance":45.62621346,"latnorth":37.84748,"state":"WV"},"type":"Feature","geometry":{"type":"Point","coordinates":[82.002,37.84748]}},{"properties":{"longwest":81.52,"city":"Bruno","timezone":"Eastern","county":"Logan","zipcode":"25611","formula":686.29,"areacode":304.0,"id":"a6a3fenkdc47","frequency":1.0,"distance":85.28753597,"latnorth":37.4126,"state":"WV"},"type":"Feature","geometry":{"type":"Point","coordinates":[81.52,37.4126]}},{"properties":{"longwest":82.033,"city":"Holden","timezone":"Eastern","county":"Logan","zipcode":"25625","formula":705.3,"areacode":304.0,"id":"a6a3feitn0ty","frequency":3.0,"distance":67.16941162,"latnorth":37.4927,"state":"WV"},"type":"Feature","geometry":{"type":"Point","coordinates":[82.033,37.4927]}},{"properties":{"longwest":81.9292,"city":"Lyburn","timezone":"Eastern","county":"Logan","zipcode":"25632","formula":689.26,"areacode":304.0,"id":"a6a3fek0itdo","frequency":3.0,"distance":52.02114208,"latnorth":37.77426,"state":"WV"},"type":"Feature","geometry":{"type":"Point","coordinates":[81.9292,37.77426]}},{"properties":{"longwest":81.501,"city":"Mallory","timezone":"Eastern","county":"Logan","zipcode":"25634","formula":684.51,"areacode":304.0,"id":"a6a3fer07evf","frequency":2.0,"distance":84.66121341,"latnorth":37.435,"state":"WV"},"type":"Feature","geometry":{"type":"Point","coordinates":[81.501,37.435]}},{"properties":{"longwest":81.8652,"city":"Man","timezone":"Eastern","county":"Logan","zipcode":"25635","formula":688.22,"areacode":304.0,"id":"a6a3fely7s6k","frequency":3.0,"distance":56.51645251,"latnorth":37.72952,"state":"WV"},"type":"Feature","geometry":{"type":"Point","coordinates":[81.8652,37.72952]}},{"properties":{"longwest":82.0049,"city":"Omar","timezone":"Eastern","county":"Logan","zipcode":"25638","formula":694.71,"areacode":304.0,"id":"a6a3feu2mtb7","frequency":1.0,"distance":53.11865831,"latnorth":37.72236,"state":"WV"},"type":"Feature","geometry":{"type":"Point","coordinates":[82.0049,37.72236]}},{"properties":{"longwest":81.59,"city":"Peach Creek","timezone":"Eastern","county":"Logan","zipcode":"25639","formula":684.66,"areacode":304.0,"id":"a6a3fevujtru","frequency":1.0,"distance":76.87976208,"latnorth":37.5228,"state":"WV"},"type":"Feature","geometry":{"type":"Point","coordinates":[81.59,37.5228]}},{"properties":{"longwest":81.575,"city":"Stollings","timezone":"Eastern","county":"Logan","zipcode":"25646","formula":684.91,"areacode":304.0,"id":"a6a3fevlrtex","frequency":3.0,"distance":78.55064894,"latnorth":37.5015,"state":"WV"},"type":"Feature","geometry":{"type":"Point","coordinates":[81.575,37.5015]}},{"properties":{"longwest":82.012,"city":"Whitman","timezone":"Eastern","county":"Logan","zipcode":"25652","formula":704.71,"areacode":304.0,"id":"a6a3fews1bet","frequency":1.0,"distance":68.07046394,"latnorth":37.4848,"state":"WV"},"type":"Feature","geometry":{"type":"Point","coordinates":[82.012,37.4848]}},{"properties":{"longwest":82.2641,"city":"Williamson","timezone":"Eastern","county":"Mingo","zipcode":"25661","formula":707.53,"areacode":304.0,"id":"a6a3fejco88c","frequency":3.0,"distance":50.64793493,"latnorth":37.69024,"state":"WV"},"type":"Feature","geometry":{"type":"Point","coordinates":[82.2641,37.69024]}},{"properties":{"longwest":82.2547,"city":"Breeden","timezone":"Eastern","county":"Mingo","zipcode":"25666","formula":698.07,"areacode":304.0,"id":"a6a3feumptza","frequency":1.0,"distance":35.3543141,"latnorth":37.91975,"state":"WV"},"type":"Feature","geometry":{"type":"Point","coordinates":[82.2547,37.91975]}},{"properties":{"longwest":82.4623,"city":"Crum","timezone":"Eastern","county":"Wayne","zipcode":"25669","formula":706.71,"areacode":304.0,"id":"a6a3fetl53v4","frequency":1.0,"distance":32.55072491,"latnorth":37.93887,"state":"WV"},"type":"Feature","geometry":{"type":"Point","coordinates":[82.4623,37.93887]}},{"properties":{"longwest":82.1319,"city":"Delbarton","timezone":"Eastern","county":"Mingo","zipcode":"25670","formula":701.1,"areacode":304.0,"id":"a6a3fel0ae0p","frequency":2.0,"distance":51.61295893,"latnorth":37.70383,"state":"WV"},"type":"Feature","geometry":{"type":"Point","coordinates":[82.1319,37.70383]}},{"properties":{"longwest":82.1951,"city":"Dingess","timezone":"Eastern","county":"Mingo","zipcode":"25671","formula":697.32,"areacode":304.0,"id":"a6a3fetszifa","frequency":1.0,"distance":39.61532882,"latnorth":37.87033,"state":"WV"},"type":"Feature","geometry":{"type":"Point","coordinates":[82.1951,37.87033]}},{"properties":{"longwest":82.374,"city":"Kermit","timezone":"Eastern","county":"Mingo","zipcode":"25674","formula":705.61,"areacode":304.0,"id":"a6a3fej75bqy","frequency":4.0,"distance":37.87135347,"latnorth":37.86424,"state":"WV"},"type":"Feature","geometry":{"type":"Point","coordinates":[82.374,37.86424]}},{"properties":{"longwest":82.2693,"city":"Lenore","timezone":"Eastern","county":"Mingo","zipcode":"25676","formula":703.44,"areacode":304.0,"id":"a6a3feko7799","frequency":1.0,"distance":43.2032285,"latnorth":37.79943,"state":"WV"},"type":"Feature","geometry":{"type":"Point","coordinates":[82.2693,37.79943]}},{"properties":{"longwest":82.072,"city":"Varney","timezone":"Eastern","county":"Mingo","zipcode":"25696","formula":710.82,"areacode":304.0,"id":"a6a3fexjmv09","frequency":1.0,"distance":72.56703109,"latnorth":37.4009,"state":"WV"},"type":"Feature","geometry":{"type":"Point","coordinates":[82.072,37.4009]}},{"properties":{"longwest":82.3813,"city":"Wilsondale","timezone":"Eastern","county":"Wayne","zipcode":"25699","formula":702.55,"areacode":304.0,"id":"a6a3feptyvjv","frequency":1.0,"distance":31.82662906,"latnorth":37.95159,"state":"WV"},"type":"Feature","geometry":{"type":"Point","coordinates":[82.3813,37.95159]}},{"properties":{"longwest":82.4423,"city":"Huntington","timezone":"Eastern","county":"Cabell","zipcode":"25701","formula":null,"areacode":304.0,"id":"a6a3fexahvup","frequency":32.0,"distance":null,"latnorth":38.40972,"state":"WV"},"type":"Feature","geometry":{"type":"Point","coordinates":[82.4423,38.40972]}},{"properties":{"longwest":82.4423,"city":"Huntington","timezone":"Eastern","county":"Cabell","zipcode":"25701","formula":688.23,"areacode":304.0,"id":"a6a3fejt2xvb","frequency":32.0,"distance":0.0,"latnorth":38.40972,"state":"WV"},"type":"Feature","geometry":{"type":"Point","coordinates":[82.4423,38.40972]}},{"properties":{"longwest":82.391,"city":"Huntington","timezone":"Eastern","county":"Cabell","zipcode":"25702","formula":685.18,"areacode":304.0,"id":"a6a3fetp3pyo","frequency":19.0,"distance":3.068764328,"latnorth":38.42862,"state":"WV"},"type":"Feature","geometry":{"type":"Point","coordinates":[82.391,38.42862]}},{"properties":{"longwest":82.4226,"city":"Huntington","timezone":"Eastern","county":"Cabell","zipcode":"25703","formula":686.91,"areacode":304.0,"id":"a6a3fej76j74","frequency":18.0,"distance":1.325414206,"latnorth":38.42111,"state":"WV"},"type":"Feature","geometry":{"type":"Point","coordinates":[82.4226,38.42111]}},{"properties":{"longwest":82.5036,"city":"Huntington","timezone":"Eastern","county":"Cabell","zipcode":"25704","formula":691.95,"areacode":304.0,"id":"a6a3fexvlts5","frequency":28.0,"distance":3.734939818,"latnorth":38.38494,"state":"WV"},"type":"Feature","geometry":{"type":"Point","coordinates":[82.5036,38.38494]}},{"properties":{"longwest":82.369,"city":"Huntington","timezone":"Eastern","county":"Cabell","zipcode":"25705","formula":684.85,"areacode":304.0,"id":"a6a3feq34ixn","frequency":39.0,"distance":3.968529308,"latnorth":38.40958,"state":"WV"},"type":"Feature","geometry":{"type":"Point","coordinates":[82.369,38.40958]}},{"properties":{"longwest":82.264,"city":"Huntington","timezone":"Eastern","county":"Cabell","zipcode":"25755","formula":685.88,"areacode":304.0,"id":"a6a3fembsyi3","frequency":7.0,"distance":14.62210847,"latnorth":38.2509,"state":"WV"},"type":"Feature","geometry":{"type":"Point","coordinates":[82.264,38.2509]}},{"properties":{"longwest":81.206,"city":"Beckley","timezone":"Eastern","county":"Raleigh","zipcode":"25801","formula":656.64,"areacode":304.0,"id":"a6a3fej2z63h","frequency":8.0,"distance":79.57791523,"latnorth":37.79321,"state":"WV"},"type":"Feature","geometry":{"type":"Point","coordinates":[81.206,37.79321]}},{"properties":{"longwest":81.0954,"city":"Ansted","timezone":"Eastern","county":"Fayette","zipcode":"25812","formula":637.73,"areacode":304.0,"id":"a6a3feorrdek","frequency":2.0,"distance":75.45202231,"latnorth":38.13686,"state":"WV"},"type":"Feature","geometry":{"type":"Point","coordinates":[81.0954,38.13686]}},{"properties":{"longwest":81.0731,"city":"Beaver","timezone":"Eastern","county":"Raleigh","zipcode":"25813","formula":652.6,"areacode":304.0,"id":"a6a3fevb0cda","frequency":1.0,"distance":87.25068566,"latnorth":37.75158,"state":"WV"},"type":"Feature","geometry":{"type":"Point","coordinates":[81.0731,37.75158]}},{"properties":{"longwest":81.4156,"city":"Bolt","timezone":"Eastern","county":"Raleigh","zipcode":"25817","formula":666.87,"areacode":304.0,"id":"a6a3ferulxyu","frequency":1.0,"distance":71.32558937,"latnorth":37.7673,"state":"WV"},"type":"Feature","geometry":{"type":"Point","coordinates":[81.4156,37.7673]}},{"properties":{"longwest":81.113,"city":"Bradley","timezone":"Eastern","county":"Raleigh","zipcode":"25818","formula":664.36,"areacode":304.0,"id":"a6a3fepkjo60","frequency":1.0,"distance":95.18664238,"latnorth":37.5155,"state":"WV"},"type":"Feature","geometry":{"type":"Point","coordinates":[81.113,37.5155]}},{"properties":{"longwest":81.2491,"city":"Crab Orchard","timezone":"Eastern","county":"Raleigh","zipcode":"25827","formula":661.55,"areacode":304.0,"id":"a6a3fek7rf0m","frequency":1.0,"distance":80.50117018,"latnorth":37.72051,"state":"WV"},"type":"Feature","geometry":{"type":"Point","coordinates":[81.2491,37.72051]}},{"properties":{"longwest":81.1391,"city":"Daniels","timezone":"Eastern","county":"Raleigh","zipcode":"25832","formula":656.27,"areacode":304.0,"id":"a6a3fep6pfih","frequency":1.0,"distance":84.94494776,"latnorth":37.73224,"state":"WV"},"type":"Feature","geometry":{"type":"Point","coordinates":[81.1391,37.73224]}},{"properties":{"longwest":81.4017,"city":"Fairdale","timezone":"Eastern","county":"Raleigh","zipcode":"25839","formula":665.47,"areacode":304.0,"id":"a6a3femmjzx5","frequency":1.0,"distance":71.09888317,"latnorth":37.78657,"state":"WV"},"type":"Feature","geometry":{"type":"Point","coordinates":[81.4017,37.78657]}},{"properties":{"longwest":81.0809,"city":"Fayetteville","timezone":"Eastern","county":"Fayette","zipcode":"25840","formula":640.08,"areacode":304.0,"id":"a6a3fen80nnu","frequency":2.0,"distance":77.67443009,"latnorth":38.06277,"state":"WV"},"type":"Feature","geometry":{"type":"Point","coordinates":[81.0809,38.06277]}},{"properties":{"longwest":81.4032,"city":"Glen Daniel","timezone":"Eastern","county":"Raleigh","zipcode":"25844","formula":666.85,"areacode":304.0,"id":"a6a3fek1rbkc","frequency":3.0,"distance":72.3998629,"latnorth":37.75469,"state":"WV"},"type":"Feature","geometry":{"type":"Point","coordinates":[81.4032,37.75469]}},{"properties":{"longwest":80.9637,"city":"Hico","timezone":"Eastern","county":"Fayette","zipcode":"25854","formula":633.03,"areacode":304.0,"id":"a6a3fenvshgm","frequency":1.0,"distance":82.85823415,"latnorth":38.10937,"state":"WV"},"type":"Feature","geometry":{"type":"Point","coordinates":[80.9637,38.10937]}},{"properties":{"longwest":81.0277,"city":"Lansing","timezone":"Eastern","county":"Fayette","zipcode":"25862","formula":635.79,"areacode":304.0,"id":"a6a3feionyzy","frequency":1.0,"distance":79.47529823,"latnorth":38.11079,"state":"WV"},"type":"Feature","geometry":{"type":"Point","coordinates":[81.0277,38.11079]}},{"properties":{"longwest":81.3095,"city":"Lester","timezone":"Eastern","county":"Raleigh","zipcode":"25865","formula":663.93,"areacode":304.0,"id":"a6a3fesrvpd8","frequency":2.0,"distance":77.62118429,"latnorth":37.72652,"state":"WV"},"type":"Feature","geometry":{"type":"Point","coordinates":[81.3095,37.72652]}},{"properties":{"longwest":81.071,"city":"Minden","timezone":"Eastern","county":"Fayette","zipcode":"25879","formula":659.65,"areacode":304.0,"id":"a6a3fekmexse","frequency":2.0,"distance":93.99479168,"latnorth":37.5833,"state":"WV"},"type":"Feature","geometry":{"type":"Point","coordinates":[81.071,37.5833]}},{"properties":{"longwest":81.1704,"city":"Mount Hope","timezone":"Eastern","county":"Fayette","zipcode":"25880","formula":650.21,"areacode":304.0,"id":"a6a3fet8l9tl","frequency":1.0,"distance":77.21154188,"latnorth":37.91104,"state":"WV"},"type":"Feature","geometry":{"type":"Point","coordinates":[81.1704,37.91104]}},{"properties":{"longwest":81.389,"city":"Mullens","timezone":"Eastern","county":"Wyoming","zipcode":"25882","formula":673.35,"areacode":304.0,"id":"a6a3feuq4xq1","frequency":1.0,"distance":80.88549398,"latnorth":37.58417,"state":"WV"},"type":"Feature","geometry":{"type":"Point","coordinates":[81.389,37.58417]}},{"properties":{"longwest":81.1344,"city":"Oak Hill","timezone":"Eastern","county":"Fayette","zipcode":"25901","formula":645.61,"areacode":304.0,"id":"a6a3fewxqx1l","frequency":8.0,"distance":76.84480066,"latnorth":37.98487,"state":"WV"},"type":"Feature","geometry":{"type":"Point","coordinates":[81.1344,37.98487]}},{"properties":{"longwest":81.12,"city":"Prosperity","timezone":"Eastern","county":"Raleigh","zipcode":"25909","formula":665.28,"areacode":304.0,"id":"a6a3fekdxils","frequency":1.0,"distance":95.55294458,"latnorth":37.5011,"state":"WV"},"type":"Feature","geometry":{"type":"Point","coordinates":[81.12,37.5011]}},{"properties":{"longwest":81.2457,"city":"Scarbro","timezone":"Eastern","county":"Fayette","zipcode":"25917","formula":652.04,"areacode":304.0,"id":"a6a3feuuaeyx","frequency":2.0,"distance":72.42661025,"latnorth":37.94707,"state":"WV"},"type":"Feature","geometry":{"type":"Point","coordinates":[81.2457,37.94707]}},{"properties":{"longwest":81.1023,"city":"Shady Spring","timezone":"Eastern","county":"Raleigh","zipcode":"25918","formula":656.13,"areacode":304.0,"id":"a6a3fexhg89k","frequency":4.0,"distance":87.94504366,"latnorth":37.6978,"state":"WV"},"type":"Feature","geometry":{"type":"Point","coordinates":[81.1023,37.6978]}},{"properties":{"longwest":81.3391,"city":"Surveyor","timezone":"Eastern","county":"Raleigh","zipcode":"25932","formula":664.32,"areacode":304.0,"id":"a6a3feuvta72","frequency":2.0,"distance":75.43382199,"latnorth":37.748,"state":"WV"},"type":"Feature","geometry":{"type":"Point","coordinates":[81.3391,37.748]}},{"properties":{"longwest":80.782,"city":"Rainelle","timezone":"Eastern","county":"Greenbrier","zipcode":"25962","formula":630.98,"areacode":304.0,"id":"a6a3fewa3r8x","frequency":3.0,"distance":95.23053364,"latnorth":37.96611,"state":"WV"},"type":"Feature","geometry":{"type":"Point","coordinates":[80.782,37.96611]}},{"properties":{"longwest":80.9463,"city":"Pipestem","timezone":"Eastern","county":"Summers","zipcode":"25979","formula":656.59,"areacode":304.0,"id":"a6a3fexue4z6","frequency":2.0,"distance":101.6413875,"latnorth":37.53034,"state":"WV"},"type":"Feature","geometry":{"type":"Point","coordinates":[80.9463,37.53034]}},{"properties":{"longwest":81.0588,"city":"White Oak","timezone":"Eastern","county":"Raleigh","zipcode":"25989","formula":655.0,"areacode":304.0,"id":"a6a3few2e6xn","frequency":1.0,"distance":90.59965094,"latnorth":37.68008,"state":"WV"},"type":"Feature","geometry":{"type":"Point","coordinates":[81.0588,37.68008]}},{"properties":{"longwest":80.6851,"city":"Wheeling","timezone":"Eastern","county":"Ohio","zipcode":"26003","formula":550.68,"areacode":304.0,"id":"a6a3fejlb6ig","frequency":4.0,"distance":148.4669538,"latnorth":40.07273,"state":"WV"},"type":"Feature","geometry":{"type":"Point","coordinates":[80.6851,40.07273]}},{"properties":{"longwest":80.716,"city":"Benwood","timezone":"Eastern","county":"Marshall","zipcode":"26031","formula":553.92,"areacode":304.0,"id":"a6a3fen0fkqu","frequency":1.0,"distance":144.2730797,"latnorth":40.01329,"state":"WV"},"type":"Feature","geometry":{"type":"Point","coordinates":[80.716,40.01329]}},{"properties":{"longwest":80.7308,"city":"Mc Mechen","timezone":"Eastern","county":"Marshall","zipcode":"26040","formula":555.39,"areacode":304.0,"id":"a6a3fenaiid3","frequency":1.0,"distance":142.4244588,"latnorth":39.98779,"state":"WV"},"type":"Feature","geometry":{"type":"Point","coordinates":[80.7308,39.98779]}},{"properties":{"longwest":81.5354,"city":"Parkersburg","timezone":"Eastern","county":"Wood","zipcode":"26101","formula":616.35,"areacode":304.0,"id":"a6a3feqqbe8b","frequency":5.0,"distance":76.6131968,"latnorth":39.26443,"state":"WV"},"type":"Feature","geometry":{"type":"Point","coordinates":[81.5354,39.26443]}},{"properties":{"longwest":81.5261,"city":"Parkersburg","timezone":"Eastern","county":"Wood","zipcode":"26104","formula":615.22,"areacode":304.0,"id":"a6a3feiutg74","frequency":1.0,"distance":78.04128455,"latnorth":39.28531,"state":"WV"},"type":"Feature","geometry":{"type":"Point","coordinates":[81.5261,39.28531]}},{"properties":{"longwest":81.5411,"city":"Vienna","timezone":"Eastern","county":"Wood","zipcode":"26105","formula":614.62,"areacode":304.0,"id":"a6a3fei8xpc4","frequency":2.0,"distance":79.6881916,"latnorth":39.32508,"state":"WV"},"type":"Feature","geometry":{"type":"Point","coordinates":[81.5411,39.32508]}},{"properties":{"longwest":81.6923,"city":"Belleville","timezone":"Eastern","county":"Wood","zipcode":"26133","formula":628.15,"areacode":304.0,"id":"a6a3femxetuf","frequency":1.0,"distance":64.17679568,"latnorth":39.13141,"state":"WV"},"type":"Feature","geometry":{"type":"Point","coordinates":[81.6923,39.13141]}},{"properties":{"longwest":81.5191,"city":"Mineral Wells","timezone":"Eastern","county":"Wood","zipcode":"26150","formula":618.42,"areacode":304.0,"id":"a6a3fepp0cve","frequency":1.0,"distance":72.82029313,"latnorth":39.17984,"state":"WV"},"type":"Feature","geometry":{"type":"Point","coordinates":[81.5191,39.17984]}},{"properties":{"longwest":81.7523,"city":"Ravenswood","timezone":"Eastern","county":"Jackson","zipcode":"26164","formula":637.25,"areacode":304.0,"id":"a6a3fesnx3ow","frequency":3.0,"distance":52.55405409,"latnorth":38.94675,"state":"WV"},"type":"Feature","geometry":{"type":"Point","coordinates":[81.7523,38.94675]}},{"properties":{"longwest":80.2178,"city":"Buckhannon","timezone":"Eastern","county":"Upshur","zipcode":"26201","formula":565.58,"areacode":304.0,"id":"a6a3feonlobv","frequency":9.0,"distance":126.3453791,"latnorth":38.98407,"state":"WV"},"type":"Feature","geometry":{"type":"Point","coordinates":[80.2178,38.98407]}},{"properties":{"longwest":80.6443,"city":"Craigsville","timezone":"Eastern","county":"Nicholas","zipcode":"26205","formula":610.24,"areacode":304.0,"id":"a6a3femhac4u","frequency":2.0,"distance":97.57436982,"latnorth":38.32538,"state":"WV"},"type":"Feature","geometry":{"type":"Point","coordinates":[80.6443,38.32538]}},{"properties":{"longwest":80.547,"city":"Cowen","timezone":"Eastern","county":"Webster","zipcode":"26206","formula":602.27,"areacode":304.0,"id":"a6a3feiyx2hk","frequency":6.0,"distance":102.6071053,"latnorth":38.41709,"state":"WV"},"type":"Feature","geometry":{"type":"Point","coordinates":[80.547,38.41709]}},{"properties":{"longwest":80.2743,"city":"French Creek","timezone":"Eastern","county":"Upshur","zipcode":"26218","formula":573.16,"areacode":304.0,"id":"a6a3feptobub","frequency":1.0,"distance":120.9235481,"latnorth":38.85114,"state":"WV"},"type":"Feature","geometry":{"type":"Point","coordinates":[80.2743,38.85114]}},{"properties":{"longwest":80.3162,"city":"Rock Cave","timezone":"Eastern","county":"Upshur","zipcode":"26234","formula":577.72,"areacode":304.0,"id":"a6a3fewvdi56","frequency":1.0,"distance":117.6418621,"latnorth":38.78112,"state":"WV"},"type":"Feature","geometry":{"type":"Point","coordinates":[80.3162,38.78112]}},{"properties":{"longwest":80.3998,"city":"Webster Springs","timezone":"Eastern","county":"Webster","zipcode":"26288","formula":593.4,"areacode":304.0,"id":"a6a3fetuifjy","frequency":4.0,"distance":110.6249677,"latnorth":38.47636,"state":"WV"},"type":"Feature","geometry":{"type":"Point","coordinates":[80.3998,38.47636]}},{"properties":{"longwest":80.3486,"city":"Clarksburg","timezone":"Eastern","county":"Harrison","zipcode":"26301","formula":560.77,"areacode":304.0,"id":"a6a3fekldrxs","frequency":4.0,"distance":127.6549308,"latnorth":39.27842,"state":"WV"},"type":"Feature","geometry":{"type":"Point","coordinates":[80.3486,39.27842]}},{"properties":{"longwest":80.431,"city":"Jane Lew","timezone":"Eastern","county":"Lewis","zipcode":"26378","formula":570.59,"areacode":304.0,"id":"a6a3fexvunsm","frequency":2.0,"distance":118.6705723,"latnorth":39.10998,"state":"WV"},"type":"Feature","geometry":{"type":"Point","coordinates":[80.431,39.10998]}},{"properties":{"longwest":80.4736,"city":"Weston","timezone":"Eastern","county":"Lewis","zipcode":"26452","formula":575.05,"areacode":304.0,"id":"a6a3ferva06h","frequency":4.0,"distance":114.7329947,"latnorth":39.0411,"state":"WV"},"type":"Feature","geometry":{"type":"Point","coordinates":[80.4736,39.0411]}},{"properties":{"longwest":79.96,"city":"Morgantown","timezone":"Eastern","county":"Monongalia","zipcode":"26501","formula":530.72,"areacode":304.0,"id":"a6a3feuwu2mg","frequency":3.0,"distance":157.5777886,"latnorth":39.6273,"state":"WV"},"type":"Feature","geometry":{"type":"Point","coordinates":[79.96,39.6273]}},{"properties":{"longwest":79.9542,"city":"Morgantown","timezone":"Eastern","county":"Monongalia","zipcode":"26505","formula":530.22,"areacode":304.0,"id":"a6a3feqfwk8f","frequency":5.0,"distance":158.0774814,"latnorth":39.63385,"state":"WV"},"type":"Feature","geometry":{"type":"Point","coordinates":[79.9542,39.63385]}},{"properties":{"longwest":80.0618,"city":"Pursglove","timezone":"Eastern","county":"Monongalia","zipcode":"26546","formula":533.0,"areacode":304.0,"id":"a6a3fexvyczf","frequency":1.0,"distance":155.731669,"latnorth":39.69954,"state":"WV"},"type":"Feature","geometry":{"type":"Point","coordinates":[80.0618,39.69954]}},{"properties":{"longwest":80.146,"city":"Fairmont","timezone":"Eastern","county":"Marion","zipcode":"26554","formula":544.63,"areacode":304.0,"id":"a6a3few5ahv3","frequency":7.0,"distance":143.597329,"latnorth":39.47267,"state":"WV"},"type":"Feature","geometry":{"type":"Point","coordinates":[80.146,39.47267]}},{"properties":{"longwest":80.2566,"city":"Farmington","timezone":"Eastern","county":"Marion","zipcode":"26571","formula":548.7,"areacode":304.0,"id":"a6a3fen1ta74","frequency":1.0,"distance":139.6200172,"latnorth":39.50287,"state":"WV"},"type":"Feature","geometry":{"type":"Point","coordinates":[80.2566,39.50287]}},{"properties":{"longwest":80.3552,"city":"Mannington","timezone":"Eastern","county":"Marion","zipcode":"26582","formula":552.62,"areacode":304.0,"id":"a6a3fexue1z9","frequency":3.0,"distance":135.9266849,"latnorth":39.52203,"state":"WV"},"type":"Feature","geometry":{"type":"Point","coordinates":[80.3552,39.52203]}},{"properties":{"longwest":80.8352,"city":"Summersville","timezone":"Eastern","county":"Nicholas","zipcode":"26651","formula":619.65,"areacode":304.0,"id":"a6a3fep0jee1","frequency":1.0,"distance":87.39794546,"latnorth":38.30089,"state":"WV"},"type":"Feature","geometry":{"type":"Point","coordinates":[80.8352,38.30089]}},{"properties":{"longwest":80.8202,"city":"Mount Nebo","timezone":"Eastern","county":"Nicholas","zipcode":"26679","formula":623.16,"areacode":304.0,"id":"a6a3fenfe0t9","frequency":1.0,"distance":89.16837452,"latnorth":38.19706,"state":"WV"},"type":"Feature","geometry":{"type":"Point","coordinates":[80.8202,38.19706]}},{"properties":{"longwest":80.2228,"city":"Winston Salem","timezone":"Eastern","county":"Forsyth","zipcode":"27101","formula":694.35,"areacode":910.0,"id":"a6a3felghdtw","frequency":1.0,"distance":200.7679996,"latnorth":36.10237,"state":"NC"},"type":"Feature","geometry":{"type":"Point","coordinates":[80.2228,36.10237]}},{"properties":{"longwest":78.0858,"city":"Sims","timezone":"Eastern","county":"Wilson","zipcode":"27880","formula":637.72,"areacode":919.0,"id":"a6a3fer43sz7","frequency":1.0,"distance":302.6055724,"latnorth":35.74351,"state":"NC"},"type":"Feature","geometry":{"type":"Point","coordinates":[78.0858,35.74351]}},{"properties":{"longwest":81.1965,"city":"Irmo","timezone":"Eastern","county":"Richland","zipcode":"29063","formula":834.29,"areacode":803.0,"id":"a6a3feiyvt5o","frequency":2.0,"distance":305.0553804,"latnorth":34.11025,"state":"SC"},"type":"Feature","geometry":{"type":"Point","coordinates":[81.1965,34.11025]}},{"properties":{"longwest":80.9166,"city":"Columbia","timezone":"Eastern","county":"Richland","zipcode":"29223","formula":825.63,"areacode":803.0,"id":"a6a3fexlp3r8","frequency":1.0,"distance":310.6358484,"latnorth":34.08526,"state":"SC"},"type":"Feature","geometry":{"type":"Point","coordinates":[80.9166,34.08526]}},{"properties":{"longwest":84.3411,"city":"Atlanta","timezone":"Eastern","county":"Dekalb","zipcode":"30350","formula":962.13,"areacode":770.0,"id":"a6a3fewteooa","frequency":1.0,"distance":323.8710394,"latnorth":33.97947,"state":"GA"},"type":"Feature","geometry":{"type":"Point","coordinates":[84.3411,33.97947]}},{"properties":{"longwest":82.377,"city":"Brooksville","timezone":"Eastern","county":"Hernando","zipcode":"34601","formula":1191.47,"areacode":352.0,"id":"a6a3fenj2u58","frequency":2.0,"distance":680.7039758,"latnorth":28.55792,"state":"FL"},"type":"Feature","geometry":{"type":"Point","coordinates":[82.377,28.55792]}},{"properties":{"longwest":86.5059,"city":"Portland","timezone":"Central","county":"Sumner","zipcode":"37148","formula":944.5,"areacode":615.0,"id":"a6a3fex01z4v","frequency":2.0,"distance":256.5490198,"latnorth":36.5673,"state":"TN"},"type":"Feature","geometry":{"type":"Point","coordinates":[86.5059,36.5673]}},{"properties":{"longwest":86.2353,"city":"Westmoreland","timezone":"Central","county":"Sumner","zipcode":"37186","formula":931.65,"areacode":615.0,"id":"a6a3feloz7vr","frequency":1.0,"distance":243.4774791,"latnorth":36.57555,"state":"TN"},"type":"Feature","geometry":{"type":"Point","coordinates":[86.2353,36.57555]}},{"properties":{"longwest":84.0089,"city":"Louisville","timezone":"Eastern","county":"Blount","zipcode":"37777","formula":862.03,"areacode":865.0,"id":"a6a3feodxemn","frequency":3.0,"distance":197.5638925,"latnorth":35.83746,"state":"TN"},"type":"Feature","geometry":{"type":"Point","coordinates":[84.0089,35.83746]}},{"properties":{"longwest":83.8544,"city":"Knoxville","timezone":"Eastern","county":"Knox","zipcode":"37920","formula":852.14,"areacode":865.0,"id":"a6a3fexbudoo","frequency":1.0,"distance":189.3711444,"latnorth":35.9105,"state":"TN"},"type":"Feature","geometry":{"type":"Point","coordinates":[83.8544,35.9105]}},{"properties":{"longwest":83.9406,"city":"Knoxville","timezone":"Eastern","county":"Knox","zipcode":"37938","formula":846.64,"areacode":865.0,"id":"a6a3feso8vr4","frequency":2.0,"distance":178.1672886,"latnorth":36.1232,"state":"TN"},"type":"Feature","geometry":{"type":"Point","coordinates":[83.9406,36.1232]}},{"properties":{"longwest":85.7206,"city":"Louisville","timezone":"Eastern","county":"Jefferson","zipcode":"40213","formula":850.56,"areacode":502.0,"id":"a6a3fetca1dp","frequency":1.0,"distance":178.4842882,"latnorth":38.1779,"state":"KY"},"type":"Feature","geometry":{"type":"Point","coordinates":[85.7206,38.1779]}},{"properties":{"longwest":85.5415,"city":"Louisville","timezone":"Eastern","county":"Jefferson","zipcode":"40223","formula":839.25,"areacode":502.0,"id":"a6a3fep35xgm","frequency":1.0,"distance":168.2655192,"latnorth":38.2621,"state":"KY"},"type":"Feature","geometry":{"type":"Point","coordinates":[85.5415,38.2621]}},{"properties":{"longwest":83.385,"city":"Clearfield","timezone":"Eastern","county":"Rowan","zipcode":"40313","formula":741.9,"areacode":859.0,"id":"a6a3fep5g288","frequency":1.0,"distance":54.64579631,"latnorth":38.13086,"state":"KY"},"type":"Feature","geometry":{"type":"Point","coordinates":[83.385,38.13086]}},{"properties":{"longwest":84.559,"city":"Georgetown","timezone":"Eastern","county":"Scott","zipcode":"40324","formula":793.95,"areacode":502.0,"id":"a6a3fewg96q4","frequency":1.0,"distance":115.5218062,"latnorth":38.21675,"state":"KY"},"type":"Feature","geometry":{"type":"Point","coordinates":[84.559,38.21675]}},{"properties":{"longwest":83.645,"city":"Salt Lick","timezone":"Eastern","county":"Bath","zipcode":"40371","formula":753.5,"areacode":859.0,"id":"a6a3feln1v1i","frequency":1.0,"distance":67.75468381,"latnorth":38.14471,"state":"KY"},"type":"Feature","geometry":{"type":"Point","coordinates":[83.645,38.14471]}},{"properties":{"longwest":84.5009,"city":"Lexington","timezone":"Eastern","county":"Fayette","zipcode":"40508","formula":796.91,"areacode":859.0,"id":"a6a3fewar7xb","frequency":1.0,"distance":114.4528587,"latnorth":38.0504,"state":"KY"},"type":"Feature","geometry":{"type":"Point","coordinates":[84.5009,38.0504]}},{"properties":{"longwest":70.3456,"city":"Scarborough","timezone":"Eastern","county":"Cumberland","zipcode":"4074","formula":42.28,"areacode":207.0,"id":"a6a3fesrwpq2","frequency":2.0,"distance":724.0155712,"latnorth":43.58347,"state":"ME"},"type":"Feature","geometry":{"type":"Point","coordinates":[70.3456,43.58347]}},{"properties":{"longwest":82.6532,"city":"Ashland","timezone":"Eastern","county":"Boyd","zipcode":"41101","formula":695.67,"areacode":606.0,"id":"a6a3fenf087d","frequency":11.0,"distance":12.25690696,"latnorth":38.4744,"state":"KY"},"type":"Feature","geometry":{"type":"Point","coordinates":[82.6532,38.4744]}},{"properties":{"longwest":82.7237,"city":"Ashland","timezone":"Eastern","county":"Boyd","zipcode":"41102","formula":700.89,"areacode":606.0,"id":"a6a3feswdle2","frequency":12.0,"distance":15.24884292,"latnorth":38.4194,"state":"KY"},"type":"Feature","geometry":{"type":"Point","coordinates":[82.7237,38.4194]}},{"properties":{"longwest":82.601,"city":"Catlettsburg","timezone":"Eastern","county":"Boyd","zipcode":"41129","formula":695.96,"areacode":859.0,"id":"a6a3feui9wzt","frequency":3.0,"distance":8.627757644,"latnorth":38.39849,"state":"KY"},"type":"Feature","geometry":{"type":"Point","coordinates":[82.601,38.39849]}},{"properties":{"longwest":82.718,"city":"Flatwoods","timezone":"Eastern","county":"Greenup","zipcode":"41139","formula":697.0,"areacode":859.0,"id":"a6a3fetlvwq4","frequency":2.0,"distance":16.80967516,"latnorth":38.52193,"state":"KY"},"type":"Feature","geometry":{"type":"Point","coordinates":[82.718,38.52193]}},{"properties":{"longwest":83.191,"city":"Garrison","timezone":"Eastern","county":"Lewis","zipcode":"41141","formula":718.04,"areacode":859.0,"id":"a6a3feomj93a","frequency":1.0,"distance":41.68102501,"latnorth":38.55261,"state":"KY"},"type":"Feature","geometry":{"type":"Point","coordinates":[83.191,38.55261]}},{"properties":{"longwest":82.949,"city":"Grayson","timezone":"Eastern","county":"Carter","zipcode":"41143","formula":714.71,"areacode":859.0,"id":"a6a3fepjmkxe","frequency":2.0,"distance":28.06618766,"latnorth":38.32501,"state":"KY"},"type":"Feature","geometry":{"type":"Point","coordinates":[82.949,38.32501]}},{"properties":{"longwest":82.811,"city":"Greenup","timezone":"Eastern","county":"Greenup","zipcode":"41144","formula":699.83,"areacode":859.0,"id":"a6a3fetnm8vp","frequency":6.0,"distance":22.63774098,"latnorth":38.56483,"state":"KY"},"type":"Feature","geometry":{"type":"Point","coordinates":[82.811,38.56483]}},{"properties":{"longwest":82.739,"city":"Rush","timezone":"Eastern","county":"Boyd","zipcode":"41168","formula":705.49,"areacode":859.0,"id":"a6a3fexy8nz2","frequency":3.0,"distance":17.45746016,"latnorth":38.31116,"state":"KY"},"type":"Feature","geometry":{"type":"Point","coordinates":[82.739,38.31116]}},{"properties":{"longwest":82.725,"city":"Russell","timezone":"Eastern","county":"Greenup","zipcode":"41169","formula":697.13,"areacode":859.0,"id":"a6a3fes7onfy","frequency":1.0,"distance":17.32411025,"latnorth":38.52752,"state":"KY"},"type":"Feature","geometry":{"type":"Point","coordinates":[82.725,38.52752]}},{"properties":{"longwest":82.966,"city":"South Shore","timezone":"Eastern","county":"Greenup","zipcode":"41175","formula":701.68,"areacode":859.0,"id":"a6a3festn58a","frequency":6.0,"distance":35.62783412,"latnorth":38.72313,"state":"KY"},"type":"Feature","geometry":{"type":"Point","coordinates":[82.966,38.72313]}},{"properties":{"longwest":82.737,"city":"Worthington","timezone":"Eastern","county":"Greenup","zipcode":"41183","formula":696.86,"areacode":859.0,"id":"a6a3feq0tq1m","frequency":3.0,"distance":18.69438936,"latnorth":38.55109,"state":"KY"},"type":"Feature","geometry":{"type":"Point","coordinates":[82.737,38.55109]}},{"properties":{"longwest":82.516,"city":"Inez","timezone":"Eastern","county":"Martin","zipcode":"41224","formula":712.34,"areacode":859.0,"id":"a6a3fem32es8","frequency":2.0,"distance":38.48188277,"latnorth":37.85579,"state":"KY"},"type":"Feature","geometry":{"type":"Point","coordinates":[82.516,37.85579]}},{"properties":{"longwest":82.603,"city":"Louisa","timezone":"Eastern","county":"Lawrence","zipcode":"41230","formula":706.48,"areacode":859.0,"id":"a6a3fela29j6","frequency":4.0,"distance":22.20560526,"latnorth":38.11414,"state":"KY"},"type":"Feature","geometry":{"type":"Point","coordinates":[82.603,38.11414]}},{"properties":{"longwest":82.361,"city":"Lovely","timezone":"Eastern","county":"Martin","zipcode":"41231","formula":708.33,"areacode":859.0,"id":"a6a3feu1z83l","frequency":1.0,"distance":43.74994858,"latnorth":37.77976,"state":"KY"},"type":"Feature","geometry":{"type":"Point","coordinates":[82.361,37.77976]}},{"properties":{"longwest":82.886,"city":"Staffordsville","timezone":"Eastern","county":"Johnson","zipcode":"41256","formula":730.67,"areacode":859.0,"id":"a6a3felcpwmt","frequency":1.0,"distance":47.6170301,"latnorth":37.81551,"state":"KY"},"type":"Feature","geometry":{"type":"Point","coordinates":[82.886,37.81551]}},{"properties":{"longwest":83.0981,"city":"Hendricks","timezone":"Eastern","county":"Morgan","zipcode":"41441","formula":744.54,"areacode":859.0,"id":"a6a3fex7lx0p","frequency":1.0,"distance":60.36044742,"latnorth":37.70505,"state":"KY"},"type":"Feature","geometry":{"type":"Point","coordinates":[83.0981,37.70505]}},{"properties":{"longwest":82.513,"city":"Pikeville","timezone":"Eastern","county":"Pike","zipcode":"41501","formula":726.4,"areacode":859.0,"id":"a6a3fek7mctc","frequency":2.0,"distance":63.22106614,"latnorth":37.49641,"state":"KY"},"type":"Feature","geometry":{"type":"Point","coordinates":[82.513,37.49641]}},{"properties":{"longwest":82.308,"city":"Belfry","timezone":"Eastern","county":"Pike","zipcode":"41514","formula":711.09,"areacode":859.0,"id":"a6a3fetgdhhm","frequency":2.0,"distance":52.98020316,"latnorth":37.65026,"state":"KY"},"type":"Feature","geometry":{"type":"Point","coordinates":[82.308,37.65026]}},{"properties":{"longwest":82.392,"city":"Elkhorn City","timezone":"Eastern","county":"Pike","zipcode":"41522","formula":728.25,"areacode":859.0,"id":"a6a3femwdz2e","frequency":3.0,"distance":75.37273069,"latnorth":37.31956,"state":"KY"},"type":"Feature","geometry":{"type":"Point","coordinates":[82.392,37.31956]}},{"properties":{"longwest":82.466,"city":"Shelbiana","timezone":"Eastern","county":"Pike","zipcode":"41562","formula":728.35,"areacode":859.0,"id":"a6a3feynj1zq","frequency":2.0,"distance":69.98550279,"latnorth":37.39698,"state":"KY"},"type":"Feature","geometry":{"type":"Point","coordinates":[82.466,37.39698]}},{"properties":{"longwest":82.677,"city":"Ivel","timezone":"Eastern","county":"Floyd","zipcode":"41642","formula":729.91,"areacode":859.0,"id":"a6a3feiwdie1","frequency":1.0,"distance":57.91179513,"latnorth":37.59221,"state":"KY"},"type":"Feature","geometry":{"type":"Point","coordinates":[82.677,37.59221]}},{"properties":{"longwest":82.764,"city":"Prestonsburg","timezone":"Eastern","county":"Floyd","zipcode":"41653","formula":730.63,"areacode":859.0,"id":"a6a3feoa38wk","frequency":2.0,"distance":53.80216731,"latnorth":37.6734,"state":"KY"},"type":"Feature","geometry":{"type":"Point","coordinates":[82.764,37.6734]}},{"properties":{"longwest":83.01,"city":"Columbus","timezone":"Eastern","county":"Franklin","zipcode":"43085","formula":662.45,"areacode":614.0,"id":"a6a3fel8xzyw","frequency":1.0,"distance":121.0152806,"latnorth":40.10515,"state":"OH"},"type":"Feature","geometry":{"type":"Point","coordinates":[83.01,40.10515]}},{"properties":{"longwest":83.0669,"city":"Columbus","timezone":"Eastern","county":"Franklin","zipcode":"43220","formula":666.68,"areacode":614.0,"id":"a6a3feldfy21","frequency":1.0,"distance":118.1243707,"latnorth":40.04948,"state":"OH"},"type":"Feature","geometry":{"type":"Point","coordinates":[83.0669,40.04948]}},{"properties":{"longwest":80.6933,"city":"Girard","timezone":"Eastern","county":"Trumbull","zipcode":"44420","formula":523.34,"areacode":330.0,"id":"a6a3fekexay2","frequency":1.0,"distance":211.5598853,"latnorth":41.16113,"state":"OH"},"type":"Feature","geometry":{"type":"Point","coordinates":[80.6933,41.16113]}},{"properties":{"longwest":80.6666,"city":"Youngstown","timezone":"Eastern","county":"Mahoning","zipcode":"44512","formula":524.83,"areacode":330.0,"id":"a6a3fepclsan","frequency":1.0,"distance":204.2712768,"latnorth":41.03198,"state":"OH"},"type":"Feature","geometry":{"type":"Point","coordinates":[80.6666,41.03198]}},{"properties":{"longwest":80.7439,"city":"Youngstown","timezone":"Eastern","county":"Mahoning","zipcode":"44515","formula":527.29,"areacode":330.0,"id":"a6a3fexhecm2","frequency":3.0,"distance":206.2275339,"latnorth":41.0939,"state":"OH"},"type":"Feature","geometry":{"type":"Point","coordinates":[80.7439,41.0939]}},{"properties":{"longwest":84.5131,"city":"Cincinnati","timezone":"Eastern","county":"Hamilton","zipcode":"45219","formula":762.87,"areacode":513.0,"id":"a6a3feixog2n","frequency":1.0,"distance":122.0654725,"latnorth":39.12702,"state":"OH"},"type":"Feature","geometry":{"type":"Point","coordinates":[84.5131,39.12702]}},{"properties":{"longwest":84.3911,"city":"Cincinnati","timezone":"Eastern","county":"Hamilton","zipcode":"45241","formula":752.57,"areacode":513.0,"id":"a6a3fenguymi","frequency":1.0,"distance":120.7727167,"latnorth":39.27674,"state":"OH"},"type":"Feature","geometry":{"type":"Point","coordinates":[84.3911,39.27674]}},{"properties":{"longwest":84.6283,"city":"Cincinnati","timezone":"Eastern","county":"Hamilton","zipcode":"45252","formula":764.39,"areacode":513.0,"id":"a6a3feym3c1p","frequency":1.0,"distance":131.7045728,"latnorth":39.2668,"state":"OH"},"type":"Feature","geometry":{"type":"Point","coordinates":[84.6283,39.2668]}},{"properties":{"longwest":84.16,"city":"Dayton","timezone":"Eastern","county":"Montgomery","zipcode":"45410","formula":728.2,"areacode":937.0,"id":"a6a3feip7cvt","frequency":1.0,"distance":130.496484,"latnorth":39.74743,"state":"OH"},"type":"Feature","geometry":{"type":"Point","coordinates":[84.16,39.74743]}},{"properties":{"longwest":84.0941,"city":"Dayton","timezone":"Eastern","county":"Montgomery","zipcode":"45432","formula":725.15,"areacode":937.0,"id":"a6a3fem41k7y","frequency":1.0,"distance":127.6971413,"latnorth":39.74077,"state":"OH"},"type":"Feature","geometry":{"type":"Point","coordinates":[84.0941,39.74077]}},{"properties":{"longwest":83.365,"city":"Cherry Fork","timezone":"Eastern","county":"Adams","zipcode":"45618","formula":726.94,"areacode":937.0,"id":"a6a3fes20ixf","frequency":1.0,"distance":50.6175199,"latnorth":38.5315,"state":"OH"},"type":"Feature","geometry":{"type":"Point","coordinates":[83.365,38.5315]}},{"properties":{"longwest":82.4504,"city":"Chesapeake","timezone":"Eastern","county":"Lawrence","zipcode":"45619","formula":686.97,"areacode":614.0,"id":"a6a3fevg8w6m","frequency":14.0,"distance":3.164587131,"latnorth":38.45508,"state":"OH"},"type":"Feature","geometry":{"type":"Point","coordinates":[82.4504,38.45508]}},{"properties":{"longwest":82.8144,"city":"Franklin Furnace","timezone":"Eastern","county":"Scioto","zipcode":"45629","formula":697.8,"areacode":614.0,"id":"a6a3fej5ybnb","frequency":1.0,"distance":25.14989449,"latnorth":38.62821,"state":"OH"},"type":"Feature","geometry":{"type":"Point","coordinates":[82.8144,38.62821]}},{"properties":{"longwest":82.229,"city":"Gallipolis","timezone":"Eastern","county":"Gallia","zipcode":"45631","formula":664.02,"areacode":614.0,"id":"a6a3fethts8i","frequency":3.0,"distance":30.26351561,"latnorth":38.81478,"state":"OH"},"type":"Feature","geometry":{"type":"Point","coordinates":[82.229,38.81478]}},{"properties":{"longwest":82.6653,"city":"Ironton","timezone":"Eastern","county":"Lawrence","zipcode":"45638","formula":694.28,"areacode":614.0,"id":"a6a3feolava4","frequency":15.0,"distance":14.62618899,"latnorth":38.52942,"state":"OH"},"type":"Feature","geometry":{"type":"Point","coordinates":[82.6653,38.52942]}},{"properties":{"longwest":82.994,"city":"Lucasville","timezone":"Eastern","county":"Scioto","zipcode":"45648","formula":697.32,"areacode":740.0,"id":"a6a3fewuxhb2","frequency":1.0,"distance":44.7772504,"latnorth":38.89383,"state":"OH"},"type":"Feature","geometry":{"type":"Point","coordinates":[82.994,38.89383]}},{"properties":{"longwest":82.6477,"city":"Pedro","timezone":"Eastern","county":"Lawrence","zipcode":"45659","formula":689.24,"areacode":614.0,"id":"a6a3fev8v59y","frequency":1.0,"distance":19.9901366,"latnorth":38.65032,"state":"OH"},"type":"Feature","geometry":{"type":"Point","coordinates":[82.6477,38.65032]}},{"properties":{"longwest":82.3522,"city":"Proctorville","timezone":"Eastern","county":"Lawrence","zipcode":"45669","formula":682.13,"areacode":614.0,"id":"a6a3femdnuis","frequency":5.0,"distance":6.129018309,"latnorth":38.46346,"state":"OH"},"type":"Feature","geometry":{"type":"Point","coordinates":[82.3522,38.46346]}},{"properties":{"longwest":82.5528,"city":"South Point","timezone":"Eastern","county":"Lawrence","zipcode":"45680","formula":692.46,"areacode":614.0,"id":"a6a3fejn1bqt","frequency":12.0,"distance":6.209553356,"latnorth":38.43385,"state":"OH"},"type":"Feature","geometry":{"type":"Point","coordinates":[82.5528,38.43385]}},{"properties":{"longwest":81.4644,"city":"Marietta","timezone":"Eastern","county":"Washington","zipcode":"45750","formula":607.65,"areacode":614.0,"id":"a6a3feslalz7","frequency":1.0,"distance":87.83302248,"latnorth":39.42814,"state":"OH"},"type":"Feature","geometry":{"type":"Point","coordinates":[81.4644,39.42814]}},{"properties":{"longwest":86.1178,"city":"Indianapolis","timezone":"Eastern","county":"Marion","zipcode":"46203","formula":824.83,"areacode":317.0,"id":"a6a3fes77pn5","frequency":1.0,"distance":217.5824205,"latnorth":39.74302,"state":"IN"},"type":"Feature","geometry":{"type":"Point","coordinates":[86.1178,39.74302]}},{"properties":{"longwest":90.2385,"city":"Andover","timezone":"Central","county":"Clinton","zipcode":"52701","formula":990.03,"areacode":319.0,"id":"a6a3ferfdpgn","frequency":1.0,"distance":479.8623966,"latnorth":41.99255,"state":"IA"},"type":"Feature","geometry":{"type":"Point","coordinates":[90.2385,41.99255]}},{"properties":{"longwest":87.8619,"city":"Cudahy","timezone":"Central","county":"Milwaukee","zipcode":"53110","formula":860.33,"areacode":414.0,"id":"a6a3fevhs3yf","frequency":1.0,"distance":422.9030309,"latnorth":42.94897,"state":"WI"},"type":"Feature","geometry":{"type":"Point","coordinates":[87.8619,42.94897]}},{"properties":{"longwest":73.3231,"city":"Canaan","timezone":"Eastern","county":"Litchfield","zipcode":"6018","formula":147.14,"areacode":860.0,"id":"a6a3fey3rljr","frequency":2.0,"distance":541.6891872,"latnorth":42.02482,"state":"CT"},"type":"Feature","geometry":{"type":"Point","coordinates":[73.3231,42.02482]}},{"properties":{"longwest":89.23,"city":"Du Quoin","timezone":"Central","county":"Perry","zipcode":"62832","formula":1026.04,"areacode":618.0,"id":"a6a3fey64i1p","frequency":1.0,"distance":369.442485,"latnorth":38.01151,"state":"IL"},"type":"Feature","geometry":{"type":"Point","coordinates":[89.23,38.01151]}},{"properties":{"longwest":88.55,"city":"Harrisburg","timezone":"Central","county":"Saline","zipcode":"62946","formula":1001.77,"areacode":618.0,"id":"a6a3feos2rwm","frequency":3.0,"distance":335.5640847,"latnorth":37.72154,"state":"IL"},"type":"Feature","geometry":{"type":"Point","coordinates":[88.55,37.72154]}},{"properties":{"longwest":89.093,"city":"Royalton","timezone":"Central","county":"Franklin","zipcode":"62983","formula":1022.5,"areacode":618.0,"id":"a6a3femhssk4","frequency":1.0,"distance":362.9108658,"latnorth":37.90667,"state":"IL"},"type":"Feature","geometry":{"type":"Point","coordinates":[89.093,37.90667]}}],"is_temporal":false,"author":{"url":"","metadata":"","contact_name":"","contact_address":"","source":"","contact_phone":""},"source":"","pagination":{"sort":null,"start":0,"total":257,"limit":1000000},"state":"complete","tags":"","published":"2009-10-11T12:00:00Z","id":17009}