{"type":"FeatureCollection","data_type":"Dataset","url_type":null,"permissions":[{"permissions":{"download":true,"view":true},"group_id":"everyone"}],"classification":null,"title":"Sparton LTLZip3Weight.","count":51,"stream_id":17055,"contributor":{"url":"http://geocommons.com/users/6861","name":"pbiegen"},"data_attributes":null,"calculation_params":null,"icon_link":null,"link":"http://geocommons.com/overlays/17055.json","extent":[-118.819,25.729,-72.5938,43.221],"geometry_types":["point"],"unique_name":null,"name":"Sparton LTLZip3Weight.","feature_count":51,"description":"","next_feature":null,"is_raster":false,"short_classification":"Y","stats":{"latitude":{"max":43.220985,"mean":37.3789633137255,"variance":26.0869819018867,"stdev":5.10754166912877,"min":25.728985,"median":40.259864},"weight":{"max":100000.0,"mean":10133.6666666667,"variance":393019000.186666,"stdev":19824.7068121238,"min":0.0,"median":1711.0},"longitude":{"max":-72.593779,"mean":-84.2903870784314,"variance":101.6997221967,"stdev":10.0846280147906,"min":-118.818867,"median":-82.514804}},"features":[{"properties":{"city":"Madison","name":"357","latitude":34.705885,"weight":0.0,"longitude":-86.750929,"id":"a6lhycqp4k0e","state":"AL"},"type":"Feature","geometry":{"type":"Point","coordinates":[-86.750929,34.705885]}},{"properties":{"city":"ENTERPRISE","name":"363","latitude":31.315215,"weight":14072.0,"longitude":-85.854674,"id":"a6lhyd297gni","state":"AL"},"type":"Feature","geometry":{"type":"Point","coordinates":[-85.854674,31.315215]}},{"properties":{"city":"Anaheim","name":"928","latitude":33.83276,"weight":402.0,"longitude":-117.915719,"id":"a6lhycrd5pw0","state":"CA"},"type":"Feature","geometry":{"type":"Point","coordinates":[-117.915719,33.83276]}},{"properties":{"city":"San Pedro","name":"907","latitude":33.73787,"weight":0.0,"longitude":-118.284664,"id":"a6lhyd2et8b2","state":"CA"},"type":"Feature","geometry":{"type":"Point","coordinates":[-118.284664,33.73787]}},{"properties":{"city":"Westlake Village","name":"913","latitude":34.149368,"weight":3407.0,"longitude":-118.818867,"id":"a6lhycyiagcc","state":"CA"},"type":"Feature","geometry":{"type":"Point","coordinates":[-118.818867,34.149368]}},{"properties":{"city":"Kissimmee","name":"347","latitude":28.29443,"weight":29744.0,"longitude":-81.406744,"id":"a6lhycueu3bx","state":"FL"},"type":"Feature","geometry":{"type":"Point","coordinates":[-81.406744,28.29443]}},{"properties":{"city":"Miami","name":"331","latitude":25.728985,"weight":514.0,"longitude":-80.237419,"id":"a6lhyctpyx8j","state":"FL"},"type":"Feature","geometry":{"type":"Point","coordinates":[-80.237419,25.728985]}},{"properties":{"city":"Largo","name":"337","latitude":27.916045,"weight":3283.0,"longitude":-82.791469,"id":"a6lhycsweak7","state":"FL"},"type":"Feature","geometry":{"type":"Point","coordinates":[-82.791469,27.916045]}},{"properties":{"city":"Zellwood","name":"327","latitude":28.718446,"weight":2795.0,"longitude":-81.571133,"id":"a6lhycv58op3","state":"FL"},"type":"Feature","geometry":{"type":"Point","coordinates":[-81.571133,28.718446]}},{"properties":{"city":"Jacksonville","name":"322","latitude":30.33138,"weight":2260.0,"longitude":-81.655799,"id":"a6lhycvech5r","state":"FL"},"type":"Feature","geometry":{"type":"Point","coordinates":[-81.655799,30.33138]}},{"properties":{"city":"Boca Raton","name":"334","latitude":26.35049,"weight":3390.0,"longitude":-80.089004,"id":"a6lhycxa21uy","state":"FL"},"type":"Feature","geometry":{"type":"Point","coordinates":[-80.089004,26.35049]}},{"properties":{"city":"Orlando","name":"328","latitude":28.538235,"weight":13911.0,"longitude":-81.377389,"id":"a6lhycv1z28t","state":"FL"},"type":"Feature","geometry":{"type":"Point","coordinates":[-81.377389,28.538235]}},{"properties":{"city":"Valdosta","name":"316","latitude":30.834729,"weight":0.0,"longitude":-83.280929,"id":"a6lhyd1rlbn2","state":"GA"},"type":"Feature","geometry":{"type":"Point","coordinates":[-83.280929,30.834729]}},{"properties":{"city":"Duluth","name":"300","latitude":34.003365,"weight":0.0,"longitude":-84.144964,"id":"a6lhycxmnrip","state":"GA"},"type":"Feature","geometry":{"type":"Point","coordinates":[-84.144964,34.003365]}},{"properties":{"city":"Rome","name":"301","latitude":34.244895,"weight":10230.0,"longitude":-85.166794,"id":"a6lhyd06q789","state":"GA"},"type":"Feature","geometry":{"type":"Point","coordinates":[-85.166794,34.244895]}},{"properties":{"city":"Gainesville","name":"305","latitude":34.297274,"weight":64139.0,"longitude":-83.825503,"id":"a6lhyd3zd020","state":"GA"},"type":"Feature","geometry":{"type":"Point","coordinates":[-83.825503,34.297274]}},{"properties":{"city":"Schiller Park","name":"601","latitude":41.954925,"weight":110.0,"longitude":-87.866819,"id":"a6lhycpzbn3n","state":"IL"},"type":"Feature","geometry":{"type":"Point","coordinates":[-87.866819,41.954925]}},{"properties":{"city":"Chicago","name":"606","latitude":41.88415,"weight":546.0,"longitude":-87.632409,"id":"a6lhyd260m17","state":"IL"},"type":"Feature","geometry":{"type":"Point","coordinates":[-87.632409,41.88415]}},{"properties":{"city":"Lake Zurich","name":"600","latitude":42.197221,"weight":8785.0,"longitude":-88.092136,"id":"a6lhycyqiihe","state":"IL"},"type":"Feature","geometry":{"type":"Point","coordinates":[-88.092136,42.197221]}},{"properties":{"city":"New Haven","name":"467","latitude":41.072925,"weight":14043.0,"longitude":-85.017234,"id":"a6lhycon6zol","state":"IN"},"type":"Feature","geometry":{"type":"Point","coordinates":[-85.017234,41.072925]}},{"properties":{"city":"Muncie","name":"473","latitude":40.193165,"weight":425.0,"longitude":-85.381734,"id":"a6lhycuulucl","state":"IN"},"type":"Feature","geometry":{"type":"Point","coordinates":[-85.381734,40.193165]}},{"properties":{"city":"Louisville","name":"402","latitude":38.25486,"weight":1711.0,"longitude":-85.766404,"id":"a6lhyd46xjei","state":"KY"},"type":"Feature","geometry":{"type":"Point","coordinates":[-85.766404,38.25486]}},{"properties":{"city":"Holyoke","name":"104","latitude":42.206965,"weight":12809.0,"longitude":-72.607434,"id":"a6lhyd3wzesd","state":"MA"},"type":"Feature","geometry":{"type":"Point","coordinates":[-72.607434,42.206965]}},{"properties":{"city":"South Hadley","name":"107","latitude":42.214645,"weight":33587.0,"longitude":-72.593779,"id":"a6lhyd3mjmkh","state":"MA"},"type":"Feature","geometry":{"type":"Point","coordinates":[-72.593779,42.214645]}},{"properties":{"city":"Detroit","name":"482","latitude":42.331685,"weight":16635.0,"longitude":-83.047924,"id":"a6lhyd325qyo","state":"MI"},"type":"Feature","geometry":{"type":"Point","coordinates":[-83.047924,42.331685]}},{"properties":{"city":"Jonesville","name":"492","latitude":41.98354,"weight":0.0,"longitude":-84.662574,"id":"a6lhycouasf8","state":"MI"},"type":"Feature","geometry":{"type":"Point","coordinates":[-84.662574,41.98354]}},{"properties":{"city":"Warren","name":"480","latitude":42.511115,"weight":13758.0,"longitude":-83.028519,"id":"a6lhyd1nnub7","state":"MI"},"type":"Feature","geometry":{"type":"Point","coordinates":[-83.028519,42.511115]}},{"properties":{"city":"Joplin","name":"648","latitude":37.091455,"weight":0.0,"longitude":-94.513169,"id":"a6lhycpohyda","state":"MO"},"type":"Feature","geometry":{"type":"Point","coordinates":[-94.513169,37.091455]}},{"properties":{"city":"Southaven","name":"386","latitude":34.98794,"weight":15985.0,"longitude":-90.004849,"id":"a6lhyd0cnruw","state":"MS"},"type":"Feature","geometry":{"type":"Point","coordinates":[-90.004849,34.98794]}},{"properties":{"city":"Lincolnton","name":"280","latitude":35.47164,"weight":4596.0,"longitude":-81.256074,"id":"a6lhyd4dv903","state":"NC"},"type":"Feature","geometry":{"type":"Point","coordinates":[-81.256074,35.47164]}},{"properties":{"city":"Valdese","name":"286","latitude":35.744015,"weight":100000.0,"longitude":-81.564794,"id":"a6lhycs5h4lr","state":"NC"},"type":"Feature","geometry":{"type":"Point","coordinates":[-81.564794,35.744015]}},{"properties":{"city":"South Plainfield","name":"708","latitude":40.584949,"weight":1460.0,"longitude":-74.417187,"id":"a6lhyd4aqh1a","state":"NJ"},"type":"Feature","geometry":{"type":"Point","coordinates":[-74.417187,40.584949]}},{"properties":{"city":"Ronkonkoma","name":"117","latitude":40.81122,"weight":24070.0,"longitude":-73.098744,"id":"a6lhyd48emxz","state":"NY"},"type":"Feature","geometry":{"type":"Point","coordinates":[-73.098744,40.81122]}},{"properties":{"city":"Roslyn","name":"115","latitude":40.80015,"weight":0.0,"longitude":-73.649939,"id":"a6lhyd4wm132","state":"NY"},"type":"Feature","geometry":{"type":"Point","coordinates":[-73.649939,40.80015]}},{"properties":{"city":"Queens","name":"113","latitude":40.713985,"weight":0.0,"longitude":-73.829959,"id":"a6lhycs480xz","state":"NY"},"type":"Feature","geometry":{"type":"Point","coordinates":[-73.829959,40.713985]}},{"properties":{"city":"Liverpool","name":"130","latitude":43.10424,"weight":0.0,"longitude":-76.209649,"id":"a6lhycxwptzq","state":"NY"},"type":"Feature","geometry":{"type":"Point","coordinates":[-76.209649,43.10424]}},{"properties":{"city":"Wallkill","name":"125","latitude":41.463666,"weight":0.0,"longitude":-74.370534,"id":"a6lhycoy3wgf","state":"NY"},"type":"Feature","geometry":{"type":"Point","coordinates":[-74.370534,41.463666]}},{"properties":{"city":"Mansfield","name":"449","latitude":40.758515,"weight":356.0,"longitude":-82.514804,"id":"a6lhyd0dphh2","state":"OH"},"type":"Feature","geometry":{"type":"Point","coordinates":[-82.514804,40.758515]}},{"properties":{"city":"Dundee","name":"446","latitude":40.587701,"weight":73950.0,"longitude":-81.607075,"id":"a6lhycth2kx6","state":"OH"},"type":"Feature","geometry":{"type":"Point","coordinates":[-81.607075,40.587701]}},{"properties":{"city":"Elyria","name":"440","latitude":41.36768,"weight":29512.0,"longitude":-82.105839,"id":"a6lhycq8uj8h","state":"OH"},"type":"Feature","geometry":{"type":"Point","coordinates":[-82.105839,41.36768]}},{"properties":{"city":"Akron","name":"443","latitude":41.084195,"weight":0.0,"longitude":-81.514059,"id":"a6lhycy7bj53","state":"OH"},"type":"Feature","geometry":{"type":"Point","coordinates":[-81.514059,41.084195]}},{"properties":{"city":"London","name":"N5Z","latitude":42.986895,"weight":0.0,"longitude":-81.246214,"id":"a6lhycuvwc81","state":"ON"},"type":"Feature","geometry":{"type":"Point","coordinates":[-81.246214,42.986895]}},{"properties":{"city":"Bechtelsville","name":"195","latitude":40.374005,"weight":0.0,"longitude":-75.628909,"id":"a6lhyd27d8o2","state":"PA"},"type":"Feature","geometry":{"type":"Point","coordinates":[-75.628909,40.374005]}},{"properties":{"city":"Jonestown","name":"170","latitude":40.414055,"weight":0.0,"longitude":-76.478329,"id":"a6lhycyd4imi","state":"PA"},"type":"Feature","geometry":{"type":"Point","coordinates":[-76.478329,40.414055]}},{"properties":{"city":"Harrisburg","name":"171","latitude":40.259864,"weight":4280.0,"longitude":-76.882229,"id":"a6lhycsbp68b","state":"PA"},"type":"Feature","geometry":{"type":"Point","coordinates":[-76.882229,40.259864]}},{"properties":{"city":"East Butler","name":"160","latitude":40.87826,"weight":2537.0,"longitude":-79.847249,"id":"a6lhycpbg6pm","state":"PA"},"type":"Feature","geometry":{"type":"Point","coordinates":[-79.847249,40.87826]}},{"properties":{"city":"Hendersonville","name":"370","latitude":36.304861,"weight":150.0,"longitude":-86.620214,"id":"a6lhycr8j7pk","state":"TN"},"type":"Feature","geometry":{"type":"Point","coordinates":[-86.620214,36.304861]}},{"properties":{"city":"Mckinney","name":"750","latitude":33.19895,"weight":0.0,"longitude":-96.614994,"id":"a6lhyd1im4mb","state":"TX"},"type":"Feature","geometry":{"type":"Point","coordinates":[-96.614994,33.19895]}},{"properties":{"city":"Roanoke","name":"240","latitude":37.271525,"weight":0.0,"longitude":-79.940534,"id":"a6lhycy2npu4","state":"VA"},"type":"Feature","geometry":{"type":"Point","coordinates":[-79.940534,37.271525]}},{"properties":{"city":"Germantown","name":"530","latitude":43.220985,"weight":0.0,"longitude":-88.118584,"id":"a6lhyd22d53u","state":"WI"},"type":"Feature","geometry":{"type":"Point","coordinates":[-88.118584,43.220985]}},{"properties":{"city":"Milwaukee","name":"532","latitude":43.04181,"weight":9365.0,"longitude":-87.906844,"id":"a6lhyczf3x7z","state":"WI"},"type":"Feature","geometry":{"type":"Point","coordinates":[-87.906844,43.04181]}}],"is_temporal":false,"author":{"url":"","metadata":"","contact_name":"","contact_address":"","source":"","contact_phone":""},"source":"","pagination":{"sort":null,"start":0,"total":51,"limit":1000000},"state":"complete","tags":"","published":"2014-08-10T22:19:24-04:00","id":17055}