{"type":"FeatureCollection","data_type":"Dataset","url_type":null,"permissions":[{"permissions":{"download":true,"view":true},"group_id":"everyone"}],"classification":null,"title":"Sparton UPS Zip3CountBrooksville","count":214,"stream_id":17072,"contributor":{"url":"http://geocommons.com/users/6861","name":"pbiegen"},"data_attributes":null,"calculation_params":null,"icon_link":null,"link":"http://geocommons.com/overlays/17072.json","extent":[-123.044,18.0136,-66.6149,48.1191],"geometry_types":["point"],"unique_name":null,"name":"Sparton UPS Zip3CountBrooksville","feature_count":214,"description":"","next_feature":null,"is_raster":false,"short_classification":"Y","stats":{"latitude":{"max":48.11913,"mean":38.2673490560748,"variance":26.91789710389,"stdev":5.18824605275135,"min":18.013615,"median":40.038045},"weight":{"max":472.0,"mean":28.2663551401869,"variance":3512.11182045544,"stdev":59.2630729920027,"min":1.0,"median":7.0},"longitude":{"max":-66.614919,"mean":-88.0280253411215,"variance":252.828685968156,"stdev":15.9005875982039,"min":-123.043814,"median":-82.329219}},"features":[{"properties":{"city":"MADISON","name":"357","latitude":34.705885,"weight":32.0,"longitude":-86.750929,"id":"a6c910p0vhx8","state":"AL"},"type":"Feature","geometry":{"type":"Point","coordinates":[-86.750929,34.705885]}},{"properties":{"city":"HUNTSVILLE","name":"358","latitude":34.729121,"weight":81.0,"longitude":-86.584961,"id":"a6c910x13oqd","state":"AL"},"type":"Feature","geometry":{"type":"Point","coordinates":[-86.584961,34.729121]}},{"properties":{"city":"RIO RICO","name":"856","latitude":31.43018,"weight":57.0,"longitude":-110.965909,"id":"a6c910it3pi3","state":"AZ"},"type":"Feature","geometry":{"type":"Point","coordinates":[-110.965909,31.43018]}},{"properties":{"city":"TEMPE","name":"852","latitude":33.42551,"weight":258.0,"longitude":-111.937419,"id":"a6c910lnqzpm","state":"AZ"},"type":"Feature","geometry":{"type":"Point","coordinates":[-111.937419,33.42551]}},{"properties":{"city":"PHOENIX","name":"850","latitude":33.44826,"weight":37.0,"longitude":-112.075774,"id":"a6c910tcf0hr","state":"AZ"},"type":"Feature","geometry":{"type":"Point","coordinates":[-112.075774,33.44826]}},{"properties":{"city":"UNION CITY","name":"945","latitude":37.588395,"weight":4.0,"longitude":-122.025924,"id":"a6c910uhiizd","state":"CA"},"type":"Feature","geometry":{"type":"Point","coordinates":[-122.025924,37.588395]}},{"properties":{"city":"SUNNYVALE","name":"940","latitude":37.371612,"weight":55.0,"longitude":-122.038258,"id":"a6c910n7bp5u","state":"CA"},"type":"Feature","geometry":{"type":"Point","coordinates":[-122.038258,37.371612]}},{"properties":{"city":"LOMITA","name":"907","latitude":33.80525,"weight":3.0,"longitude":-118.319899,"id":"a6c910xthydl","state":"CA"},"type":"Feature","geometry":{"type":"Point","coordinates":[-118.319899,33.80525]}},{"properties":{"city":"COMMERCE","name":"900","latitude":34.00116,"weight":4.0,"longitude":-118.154959,"id":"a6c910jx3o44","state":"CA"},"type":"Feature","geometry":{"type":"Point","coordinates":[-118.154959,34.00116]}},{"properties":{"city":"GARDENA","name":"902","latitude":33.88379,"weight":15.0,"longitude":-118.307504,"id":"a6c910u8iwv7","state":"CA"},"type":"Feature","geometry":{"type":"Point","coordinates":[-118.307504,33.88379]}},{"properties":{"city":"INGLEWOOD","name":"903","latitude":33.96178,"weight":1.0,"longitude":-118.356226,"id":"a6c910tesq91","state":"CA"},"type":"Feature","geometry":{"type":"Point","coordinates":[-118.356226,33.96178]}},{"properties":{"city":"VISALIA","name":"932","latitude":36.33377,"weight":3.0,"longitude":-119.292914,"id":"a6c910t5swag","state":"CA"},"type":"Feature","geometry":{"type":"Point","coordinates":[-119.292914,36.33377]}},{"properties":{"city":"ORANGE","name":"928","latitude":33.787865,"weight":49.0,"longitude":-117.850399,"id":"a6c910vzsnsx","state":"CA"},"type":"Feature","geometry":{"type":"Point","coordinates":[-117.850399,33.787865]}},{"properties":{"city":"VALENCIA","name":"913","latitude":34.403655,"weight":42.0,"longitude":-118.552477,"id":"a6c910jeyjox","state":"CA"},"type":"Feature","geometry":{"type":"Point","coordinates":[-118.552477,34.403655]}},{"properties":{"city":"SANTA MARIA","name":"934","latitude":34.95313,"weight":1.0,"longitude":-120.434994,"id":"a6c910v4nb33","state":"CA"},"type":"Feature","geometry":{"type":"Point","coordinates":[-120.434994,34.95313]}},{"properties":{"city":"SANTA FE SPRINGS","name":"906","latitude":33.946154,"weight":18.0,"longitude":-118.082952,"id":"a6c910q5ddhe","state":"CA"},"type":"Feature","geometry":{"type":"Point","coordinates":[-118.082952,33.946154]}},{"properties":{"city":"SANTA MONICA","name":"904","latitude":34.011565,"weight":2.0,"longitude":-118.492289,"id":"a6c910wbaq09","state":"CA"},"type":"Feature","geometry":{"type":"Point","coordinates":[-118.492289,34.011565]}},{"properties":{"city":"TORRANCE","name":"905","latitude":33.836662,"weight":5.0,"longitude":-118.341662,"id":"a6c910nphl5c","state":"CA"},"type":"Feature","geometry":{"type":"Point","coordinates":[-118.341662,33.836662]}},{"properties":{"city":"SAN JOSE","name":"951","latitude":37.338475,"weight":49.0,"longitude":-121.885794,"id":"a6c910uwlxm6","state":"CA"},"type":"Feature","geometry":{"type":"Point","coordinates":[-121.885794,37.338475]}},{"properties":{"city":"SANTA ANA","name":"927","latitude":33.749074,"weight":4.0,"longitude":-117.873943,"id":"a6c910wfmj6c","state":"CA"},"type":"Feature","geometry":{"type":"Point","coordinates":[-117.873943,33.749074]}},{"properties":{"city":"SAN CLEMENTE","name":"926","latitude":33.428628,"weight":85.0,"longitude":-117.607327,"id":"a6c910ylgtx3","state":"CA"},"type":"Feature","geometry":{"type":"Point","coordinates":[-117.607327,33.428628]}},{"properties":{"city":"LA QUINTA","name":"922","latitude":33.67814,"weight":1.0,"longitude":-116.297229,"id":"a6c910s1hapw","state":"CA"},"type":"Feature","geometry":{"type":"Point","coordinates":[-116.297229,33.67814]}},{"properties":{"city":"SAN DIEGO","name":"921","latitude":32.715685,"weight":35.0,"longitude":-117.161724,"id":"a6c910j29jo8","state":"CA"},"type":"Feature","geometry":{"type":"Point","coordinates":[-117.161724,32.715685]}},{"properties":{"city":"SANTA CLARA","name":"950","latitude":37.355509,"weight":59.0,"longitude":-121.954262,"id":"a6c910qifvsb","state":"CA"},"type":"Feature","geometry":{"type":"Point","coordinates":[-121.954262,37.355509]}},{"properties":{"city":"SAN MARCOS","name":"920","latitude":33.140862,"weight":8.0,"longitude":-117.158827,"id":"a6c910kpkftj","state":"CA"},"type":"Feature","geometry":{"type":"Point","coordinates":[-117.158827,33.140862]}},{"properties":{"city":"WALNUT","name":"917","latitude":34.026081,"weight":31.0,"longitude":-117.841804,"id":"a6c910ptm9l4","state":"CA"},"type":"Feature","geometry":{"type":"Point","coordinates":[-117.841804,34.026081]}},{"properties":{"city":"SANTA ROSA","name":"954","latitude":38.437731,"weight":4.0,"longitude":-122.712427,"id":"a6c910sag6s0","state":"CA"},"type":"Feature","geometry":{"type":"Point","coordinates":[-122.712427,38.437731]}},{"properties":{"city":"LAKEWOOD","name":"802","latitude":39.71095,"weight":17.0,"longitude":-105.082738,"id":"a6c910rm63he","state":"CO"},"type":"Feature","geometry":{"type":"Point","coordinates":[-105.082738,39.71095]}},{"properties":{"city":"LITTLETON","name":"801","latitude":39.616905,"weight":3.0,"longitude":-105.014519,"id":"a6c910ob3slp","state":"CO"},"type":"Feature","geometry":{"type":"Point","coordinates":[-105.014519,39.616905]}},{"properties":{"city":"GRAND JUNCTION","name":"815","latitude":39.06879,"weight":1.0,"longitude":-108.564454,"id":"a6c910w5xmgx","state":"CO"},"type":"Feature","geometry":{"type":"Point","coordinates":[-108.564454,39.06879]}},{"properties":{"city":"STAMFORD","name":"069","latitude":41.05182,"weight":5.0,"longitude":-73.542234,"id":"a6c910ouks0h","state":"CT"},"type":"Feature","geometry":{"type":"Point","coordinates":[-73.542234,41.05182]}},{"properties":{"city":"TORRINGTON","name":"067","latitude":41.800911,"weight":2.0,"longitude":-73.086407,"id":"a6c910o3obxw","state":"CT"},"type":"Feature","geometry":{"type":"Point","coordinates":[-73.086407,41.800911]}},{"properties":{"city":"STAFFORD SPRINGS","name":"060","latitude":41.953243,"weight":84.0,"longitude":-72.316829,"id":"a6c910xo3uv9","state":"CT"},"type":"Feature","geometry":{"type":"Point","coordinates":[-72.316829,41.953243]}},{"properties":{"city":"WEST HARTFORD","name":"061","latitude":41.758718,"weight":8.0,"longitude":-72.742538,"id":"a6c910t2s2v4","state":"CT"},"type":"Feature","geometry":{"type":"Point","coordinates":[-72.742538,41.758718]}},{"properties":{"city":"NEW HAVEN","name":"065","latitude":41.307115,"weight":4.0,"longitude":-72.924959,"id":"a6c910xf4nwm","state":"CT"},"type":"Feature","geometry":{"type":"Point","coordinates":[-72.924959,41.307115]}},{"properties":{"city":"WAUREGAN","name":"063","latitude":41.744876,"weight":3.0,"longitude":-71.910734,"id":"a6c910ykue72","state":"CT"},"type":"Feature","geometry":{"type":"Point","coordinates":[-71.910734,41.744876]}},{"properties":{"city":"OXFORD","name":"064","latitude":41.438649,"weight":6.0,"longitude":-73.122314,"id":"a6c910pmizv7","state":"CT"},"type":"Feature","geometry":{"type":"Point","coordinates":[-73.122314,41.438649]}},{"properties":{"city":"ST PETERSBURG","name":"337","latitude":27.771185,"weight":35.0,"longitude":-82.639319,"id":"a6c910p4y0nq","state":"FL"},"type":"Feature","geometry":{"type":"Point","coordinates":[-82.639319,27.771185]}},{"properties":{"city":"WEST PALM BEACH","name":"334","latitude":26.714388,"weight":72.0,"longitude":-80.052689,"id":"a6c910o4rle0","state":"FL"},"type":"Feature","geometry":{"type":"Point","coordinates":[-80.052689,26.714388]}},{"properties":{"city":"DE LEON SPRINGS","name":"321","latitude":29.120085,"weight":15.0,"longitude":-81.351757,"id":"a6c910mjyym6","state":"FL"},"type":"Feature","geometry":{"type":"Point","coordinates":[-81.351757,29.120085]}},{"properties":{"city":"JACKSONVILLE","name":"322","latitude":30.33138,"weight":116.0,"longitude":-81.655799,"id":"a6c910piccbv","state":"FL"},"type":"Feature","geometry":{"type":"Point","coordinates":[-81.655799,30.33138]}},{"properties":{"city":"PENSACOLA","name":"325","latitude":30.420845,"weight":8.0,"longitude":-87.217239,"id":"a6c910t8f9lz","state":"FL"},"type":"Feature","geometry":{"type":"Point","coordinates":[-87.217239,30.420845]}},{"properties":{"city":"WINTER PARK","name":"327","latitude":28.594574,"weight":472.0,"longitude":-81.350716,"id":"a6c910tgat87","state":"FL"},"type":"Feature","geometry":{"type":"Point","coordinates":[-81.350716,28.594574]}},{"properties":{"city":"ORLANDO","name":"328","latitude":28.538235,"weight":64.0,"longitude":-81.377389,"id":"a6c910q4l1gt","state":"FL"},"type":"Feature","geometry":{"type":"Point","coordinates":[-81.377389,28.538235]}},{"properties":{"city":"W MELBOURNE","name":"329","latitude":28.072522,"weight":28.0,"longitude":-80.670692,"id":"a6c910v33af9","state":"FL"},"type":"Feature","geometry":{"type":"Point","coordinates":[-80.670692,28.072522]}},{"properties":{"city":"STUART","name":"349","latitude":27.20019,"weight":16.0,"longitude":-80.255579,"id":"a6c910sycu49","state":"FL"},"type":"Feature","geometry":{"type":"Point","coordinates":[-80.255579,27.20019]}},{"properties":{"city":"SAINT CLOUD","name":"347","latitude":28.24966,"weight":30.0,"longitude":-81.284114,"id":"a6c910ojigle","state":"FL"},"type":"Feature","geometry":{"type":"Point","coordinates":[-81.284114,28.24966]}},{"properties":{"city":"OLDSMAR","name":"346","latitude":28.037035,"weight":4.0,"longitude":-82.662674,"id":"a6c910wixpgn","state":"FL"},"type":"Feature","geometry":{"type":"Point","coordinates":[-82.662674,28.037035]}},{"properties":{"city":"DUNNELLON","name":"344","latitude":29.047497,"weight":2.0,"longitude":-82.463067,"id":"a6c910k3ieal","state":"FL"},"type":"Feature","geometry":{"type":"Point","coordinates":[-82.463067,29.047497]}},{"properties":{"city":"FORT MYERS","name":"339","latitude":26.640845,"weight":1.0,"longitude":-81.868194,"id":"a6c910xr8jt1","state":"FL"},"type":"Feature","geometry":{"type":"Point","coordinates":[-81.868194,26.640845]}},{"properties":{"city":"LAKELAND","name":"338","latitude":28.04419,"weight":11.0,"longitude":-81.947864,"id":"a6c910q9y06u","state":"FL"},"type":"Feature","geometry":{"type":"Point","coordinates":[-81.947864,28.04419]}},{"properties":{"city":"MIRAMAR","name":"330","latitude":25.982056,"weight":63.0,"longitude":-80.220529,"id":"a6c910y2nv99","state":"FL"},"type":"Feature","geometry":{"type":"Point","coordinates":[-80.220529,25.982056]}},{"properties":{"city":"TEMPLE TERRACE","name":"336","latitude":28.050445,"weight":66.0,"longitude":-82.393764,"id":"a6c910y4761c","state":"FL"},"type":"Feature","geometry":{"type":"Point","coordinates":[-82.393764,28.050445]}},{"properties":{"city":"RIVERVIEW","name":"335","latitude":27.87171,"weight":1.0,"longitude":-82.329219,"id":"a6c910w6w30w","state":"FL"},"type":"Feature","geometry":{"type":"Point","coordinates":[-82.329219,27.87171]}},{"properties":{"city":"MIAMI","name":"331","latitude":25.728985,"weight":1.0,"longitude":-80.237419,"id":"a6c910phpxrt","state":"FL"},"type":"Feature","geometry":{"type":"Point","coordinates":[-80.237419,25.728985]}},{"properties":{"city":"FORT LAUDERDALE","name":"333","latitude":26.12367,"weight":40.0,"longitude":-80.143564,"id":"a6c910iq761f","state":"FL"},"type":"Feature","geometry":{"type":"Point","coordinates":[-80.143564,26.12367]}},{"properties":{"city":"DALTON","name":"307","latitude":34.76145,"weight":24.0,"longitude":-84.972179,"id":"a6c910n7074f","state":"GA"},"type":"Feature","geometry":{"type":"Point","coordinates":[-84.972179,34.76145]}},{"properties":{"city":"MABLETON","name":"301","latitude":33.818631,"weight":3.0,"longitude":-84.578363,"id":"a6c910wu9o4v","state":"GA"},"type":"Feature","geometry":{"type":"Point","coordinates":[-84.578363,33.818631]}},{"properties":{"city":"NORCROSS","name":"300","latitude":33.942634,"weight":21.0,"longitude":-84.211316,"id":"a6c910t7071o","state":"GA"},"type":"Feature","geometry":{"type":"Point","coordinates":[-84.211316,33.942634]}},{"properties":{"city":"ATLANTA","name":"303","latitude":33.748315,"weight":43.0,"longitude":-84.391109,"id":"a6c910w4r4gc","state":"GA"},"type":"Feature","geometry":{"type":"Point","coordinates":[-84.391109,33.748315]}},{"properties":{"city":"HAWARDEN","name":"510","latitude":42.99746,"weight":133.0,"longitude":-96.488089,"id":"a6c910wanfsw","state":"IA"},"type":"Feature","geometry":{"type":"Point","coordinates":[-96.488089,42.99746]}},{"properties":{"city":"DES MOINES","name":"503","latitude":41.58979,"weight":1.0,"longitude":-93.615659,"id":"a6c910wdtut6","state":"IA"},"type":"Feature","geometry":{"type":"Point","coordinates":[-93.615659,41.58979]}},{"properties":{"city":"TWIN FALLS","name":"833","latitude":42.5562,"weight":1.0,"longitude":-114.469609,"id":"a6c910rfiqe7","state":"ID"},"type":"Feature","geometry":{"type":"Point","coordinates":[-114.469609,42.5562]}},{"properties":{"city":"BOISE","name":"837","latitude":43.60698,"weight":12.0,"longitude":-116.193409,"id":"a6c910mmcpqx","state":"ID"},"type":"Feature","geometry":{"type":"Point","coordinates":[-116.193409,43.60698]}},{"properties":{"city":"CHICAGO","name":"606","latitude":41.88415,"weight":3.0,"longitude":-87.632409,"id":"a6c910qxyhg7","state":"IL"},"type":"Feature","geometry":{"type":"Point","coordinates":[-87.632409,41.88415]}},{"properties":{"city":"ROBINSON","name":"624","latitude":39.005805,"weight":4.0,"longitude":-87.739604,"id":"a6c910xysca8","state":"IL"},"type":"Feature","geometry":{"type":"Point","coordinates":[-87.739604,39.005805]}},{"properties":{"city":"MELROSE PARK","name":"601","latitude":41.896205,"weight":99.0,"longitude":-87.864114,"id":"a6c910rrlra1","state":"IL"},"type":"Feature","geometry":{"type":"Point","coordinates":[-87.864114,41.896205]}},{"properties":{"city":"VERNON HILLS","name":"600","latitude":42.22225,"weight":32.0,"longitude":-87.970871,"id":"a6c910twfe0e","state":"IL"},"type":"Feature","geometry":{"type":"Point","coordinates":[-87.970871,42.22225]}},{"properties":{"city":"NILES","name":"607","latitude":42.024526,"weight":2.0,"longitude":-87.801446,"id":"a6c910seiijh","state":"IL"},"type":"Feature","geometry":{"type":"Point","coordinates":[-87.801446,42.024526]}},{"properties":{"city":"COLUMBIA CITY","name":"467","latitude":41.15647,"weight":11.0,"longitude":-85.491289,"id":"a6c910v4p1ew","state":"IN"},"type":"Feature","geometry":{"type":"Point","coordinates":[-85.491289,41.15647]}},{"properties":{"city":"FORT WAYNE","name":"468","latitude":41.075525,"weight":1.0,"longitude":-85.099064,"id":"a6c910uzc2x4","state":"IN"},"type":"Feature","geometry":{"type":"Point","coordinates":[-85.099064,41.075525]}},{"properties":{"city":"SOUTH BEND","name":"466","latitude":41.679058,"weight":2.0,"longitude":-86.254044,"id":"a6c910m45dj6","state":"IN"},"type":"Feature","geometry":{"type":"Point","coordinates":[-86.254044,41.679058]}},{"properties":{"city":"INDIANAPOLIS","name":"462","latitude":39.76691,"weight":5.0,"longitude":-86.149964,"id":"a6c910xkdx6b","state":"IN"},"type":"Feature","geometry":{"type":"Point","coordinates":[-86.149964,39.76691]}},{"properties":{"city":"NEW ALBANY","name":"471","latitude":38.285518,"weight":16.0,"longitude":-85.82463,"id":"a6c910qyzh6v","state":"IN"},"type":"Feature","geometry":{"type":"Point","coordinates":[-85.82463,38.285518]}},{"properties":{"city":"WICHITA","name":"672","latitude":37.68698,"weight":2.0,"longitude":-97.335579,"id":"a6c910y57x8r","state":"KS"},"type":"Feature","geometry":{"type":"Point","coordinates":[-97.335579,37.68698]}},{"properties":{"city":"PAOLA","name":"660","latitude":38.57896,"weight":38.0,"longitude":-94.875979,"id":"a6c910uyc01b","state":"KS"},"type":"Feature","geometry":{"type":"Point","coordinates":[-94.875979,38.57896]}},{"properties":{"city":"SHAWNEE","name":"662","latitude":39.022905,"weight":8.0,"longitude":-94.715434,"id":"a6c910r0x5b0","state":"KS"},"type":"Feature","geometry":{"type":"Point","coordinates":[-94.715434,39.022905]}},{"properties":{"city":"LEXINGTON","name":"405","latitude":38.048595,"weight":1.0,"longitude":-84.500319,"id":"a6c910inj4n4","state":"KY"},"type":"Feature","geometry":{"type":"Point","coordinates":[-84.500319,38.048595]}},{"properties":{"city":"LOUISVILLE","name":"402","latitude":38.25486,"weight":9.0,"longitude":-85.766404,"id":"a6c910k42ed5","state":"KY"},"type":"Feature","geometry":{"type":"Point","coordinates":[-85.766404,38.25486]}},{"properties":{"city":"STERLING","name":"015","latitude":42.437521,"weight":3.0,"longitude":-71.760468,"id":"a6c910ihmafg","state":"MA"},"type":"Feature","geometry":{"type":"Point","coordinates":[-71.760468,42.437521]}},{"properties":{"city":"WORCESTER","name":"016","latitude":42.26299,"weight":10.0,"longitude":-71.802354,"id":"a6c910rnp2uf","state":"MA"},"type":"Feature","geometry":{"type":"Point","coordinates":[-71.802354,42.26299]}},{"properties":{"city":"MARLBOROUGH","name":"017","latitude":42.346806,"weight":23.0,"longitude":-71.547991,"id":"a6c910isgihq","state":"MA"},"type":"Feature","geometry":{"type":"Point","coordinates":[-71.547991,42.346806]}},{"properties":{"city":"THREE RIVERS","name":"010","latitude":42.183287,"weight":3.0,"longitude":-72.355277,"id":"a6c910xm3px9","state":"MA"},"type":"Feature","geometry":{"type":"Point","coordinates":[-72.355277,42.183287]}},{"properties":{"city":"NEWBURYPORT","name":"019","latitude":42.811978,"weight":58.0,"longitude":-70.872638,"id":"a6c910pactm8","state":"MA"},"type":"Feature","geometry":{"type":"Point","coordinates":[-70.872638,42.811978]}},{"properties":{"city":"WESTWOOD","name":"020","latitude":42.227195,"weight":19.0,"longitude":-71.221841,"id":"a6c910xl1k1l","state":"MA"},"type":"Feature","geometry":{"type":"Point","coordinates":[-71.221841,42.227195]}},{"properties":{"city":"WOBURN","name":"018","latitude":42.479195,"weight":110.0,"longitude":-71.150604,"id":"a6c910ijl5on","state":"MA"},"type":"Feature","geometry":{"type":"Point","coordinates":[-71.150604,42.479195]}},{"properties":{"city":"SWANSEA","name":"027","latitude":41.749498,"weight":8.0,"longitude":-71.192907,"id":"a6c910nksyfk","state":"MA"},"type":"Feature","geometry":{"type":"Point","coordinates":[-71.192907,41.749498]}},{"properties":{"city":"MIDDLEBORO","name":"023","latitude":41.89442,"weight":20.0,"longitude":-70.906864,"id":"a6c910irtdzx","state":"MA"},"type":"Feature","geometry":{"type":"Point","coordinates":[-70.906864,41.89442]}},{"properties":{"city":"SALISBURY","name":"218","latitude":38.365735,"weight":6.0,"longitude":-75.595319,"id":"a6c910ux5bft","state":"MD"},"type":"Feature","geometry":{"type":"Point","coordinates":[-75.595319,38.365735]}},{"properties":{"city":"FREDERICK","name":"217","latitude":39.415745,"weight":1.0,"longitude":-77.412034,"id":"a6c910vrpcsf","state":"MD"},"type":"Feature","geometry":{"type":"Point","coordinates":[-77.412034,39.415745]}},{"properties":{"city":"HUNT VALLEY","name":"210","latitude":39.493485,"weight":27.0,"longitude":-76.658884,"id":"a6c910vpqzyk","state":"MD"},"type":"Feature","geometry":{"type":"Point","coordinates":[-76.658884,39.493485]}},{"properties":{"city":"BALTIMORE","name":"212","latitude":39.290555,"weight":4.0,"longitude":-76.609604,"id":"a6c910pdsj7y","state":"MD"},"type":"Feature","geometry":{"type":"Point","coordinates":[-76.609604,39.290555]}},{"properties":{"city":"GUILFORD","name":"044","latitude":45.168105,"weight":3.0,"longitude":-69.385825,"id":"a6c910ju5v4m","state":"ME"},"type":"Feature","geometry":{"type":"Point","coordinates":[-69.385825,45.168105]}},{"properties":{"city":"KITTERY","name":"039","latitude":43.086874,"weight":1.0,"longitude":-70.749885,"id":"a6c910mzpyqe","state":"ME"},"type":"Feature","geometry":{"type":"Point","coordinates":[-70.749885,43.086874]}},{"properties":{"city":"JACKSON","name":"492","latitude":42.244765,"weight":186.0,"longitude":-84.400524,"id":"a6c910yc5df6","state":"MI"},"type":"Feature","geometry":{"type":"Point","coordinates":[-84.400524,42.244765]}},{"properties":{"city":"WIXOM","name":"483","latitude":42.524515,"weight":3.0,"longitude":-83.530374,"id":"a6c910ojvld8","state":"MI"},"type":"Feature","geometry":{"type":"Point","coordinates":[-83.530374,42.524515]}},{"properties":{"city":"LIVONIA","name":"481","latitude":42.39658,"weight":3.0,"longitude":-83.369574,"id":"a6c910mtnnrl","state":"MI"},"type":"Feature","geometry":{"type":"Point","coordinates":[-83.369574,42.39658]}},{"properties":{"city":"MANKATO","name":"560","latitude":44.167597,"weight":3.0,"longitude":-94.002889,"id":"a6c910r665xk","state":"MN"},"type":"Feature","geometry":{"type":"Point","coordinates":[-94.002889,44.167597]}},{"properties":{"city":"SAINT LOUIS PARK","name":"554","latitude":44.94848,"weight":7.0,"longitude":-93.343394,"id":"a6c910sb79p1","state":"MN"},"type":"Feature","geometry":{"type":"Point","coordinates":[-93.343394,44.94848]}},{"properties":{"city":"MARSHALL","name":"562","latitude":44.44901,"weight":3.0,"longitude":-95.791673,"id":"a6c910ww22w4","state":"MN"},"type":"Feature","geometry":{"type":"Point","coordinates":[-95.791673,44.44901]}},{"properties":{"city":"THIEF RIVER FALLS","name":"567","latitude":48.11913,"weight":249.0,"longitude":-96.180774,"id":"a6c910jzr59d","state":"MN"},"type":"Feature","geometry":{"type":"Point","coordinates":[-96.180774,48.11913]}},{"properties":{"city":"LAKEVILLE","name":"550","latitude":44.657015,"weight":7.0,"longitude":-93.242734,"id":"a6c910jakdgw","state":"MN"},"type":"Feature","geometry":{"type":"Point","coordinates":[-93.242734,44.657015]}},{"properties":{"city":"MINNETONKA","name":"553","latitude":44.939448,"weight":105.0,"longitude":-93.467869,"id":"a6c910x5cath","state":"MN"},"type":"Feature","geometry":{"type":"Point","coordinates":[-93.467869,44.939448]}},{"properties":{"city":"CHESTERFIELD","name":"630","latitude":38.653663,"weight":2.0,"longitude":-90.553177,"id":"a6c910st3yeo","state":"MO"},"type":"Feature","geometry":{"type":"Point","coordinates":[-90.553177,38.653663]}},{"properties":{"city":"CAMDENTON","name":"650","latitude":38.008025,"weight":5.0,"longitude":-92.744381,"id":"a6c910s1qm9t","state":"MO"},"type":"Feature","geometry":{"type":"Point","coordinates":[-92.744381,38.008025]}},{"properties":{"city":"SPRINGFIELD","name":"658","latitude":37.208975,"weight":15.0,"longitude":-93.291564,"id":"a6c910mxr44r","state":"MO"},"type":"Feature","geometry":{"type":"Point","coordinates":[-93.291564,37.208975]}},{"properties":{"city":"MOUNT VERNON","name":"657","latitude":37.097505,"weight":16.0,"longitude":-93.819078,"id":"a6c910q0atzb","state":"MO"},"type":"Feature","geometry":{"type":"Point","coordinates":[-93.819078,37.097505]}},{"properties":{"city":"SOUTHAVEN","name":"386","latitude":34.98794,"weight":117.0,"longitude":-90.004849,"id":"a6c910tckc4c","state":"MS"},"type":"Feature","geometry":{"type":"Point","coordinates":[-90.004849,34.98794]}},{"properties":{"city":"SANFORD","name":"273","latitude":35.466257,"weight":10.0,"longitude":-79.159328,"id":"a6c910q4s8y2","state":"NC"},"type":"Feature","geometry":{"type":"Point","coordinates":[-79.159328,35.466257]}},{"properties":{"city":"GREENSBORO","name":"274","latitude":36.068994,"weight":7.0,"longitude":-79.794704,"id":"a6c910p4dz9f","state":"NC"},"type":"Feature","geometry":{"type":"Point","coordinates":[-79.794704,36.068994]}},{"properties":{"city":"WAKE FOREST","name":"275","latitude":35.97508,"weight":2.0,"longitude":-78.507324,"id":"a6c910mi9ima","state":"NC"},"type":"Feature","geometry":{"type":"Point","coordinates":[-78.507324,35.97508]}},{"properties":{"city":"WINSTON-SALEM","name":"271","latitude":36.099625,"weight":1.0,"longitude":-80.241094,"id":"a6c910kztts3","state":"NC"},"type":"Feature","geometry":{"type":"Point","coordinates":[-80.241094,36.099625]}},{"properties":{"city":"WILMINGTON","name":"284","latitude":34.23497,"weight":34.0,"longitude":-77.945992,"id":"a6c910p2y0ri","state":"NC"},"type":"Feature","geometry":{"type":"Point","coordinates":[-77.945992,34.23497]}},{"properties":{"city":"BOONE","name":"286","latitude":36.220364,"weight":6.0,"longitude":-81.686965,"id":"a6c910rff0t4","state":"NC"},"type":"Feature","geometry":{"type":"Point","coordinates":[-81.686965,36.220364]}},{"properties":{"city":"CHARLOTTE","name":"282","latitude":35.2225,"weight":20.0,"longitude":-80.837539,"id":"a6c910tgmgx6","state":"NC"},"type":"Feature","geometry":{"type":"Point","coordinates":[-80.837539,35.2225]}},{"properties":{"city":"COLUMBUS","name":"686","latitude":41.430937,"weight":13.0,"longitude":-97.371806,"id":"a6c910mg5wej","state":"NE"},"type":"Feature","geometry":{"type":"Point","coordinates":[-97.371806,41.430937]}},{"properties":{"city":"MANCHESTER","name":"031","latitude":42.991175,"weight":22.0,"longitude":-71.463089,"id":"a6c910njnm1f","state":"NH"},"type":"Feature","geometry":{"type":"Point","coordinates":[-71.463089,42.991175]}},{"properties":{"city":"NASHUA","name":"030","latitude":42.758365,"weight":32.0,"longitude":-71.464209,"id":"a6c910od33al","state":"NH"},"type":"Feature","geometry":{"type":"Point","coordinates":[-71.464209,42.758365]}},{"properties":{"city":"HAMPTON","name":"038","latitude":42.937256,"weight":18.0,"longitude":-70.832138,"id":"a6c910we85yf","state":"NH"},"type":"Feature","geometry":{"type":"Point","coordinates":[-70.832138,42.937256]}},{"properties":{"city":"HALEDON","name":"075","latitude":40.94135,"weight":1.0,"longitude":-74.185219,"id":"a6c910nx8y7u","state":"NJ"},"type":"Feature","geometry":{"type":"Point","coordinates":[-74.185219,40.94135]}},{"properties":{"city":"LAKEWOOD","name":"087","latitude":40.09325,"weight":1.0,"longitude":-74.213584,"id":"a6c910rga60i","state":"NJ"},"type":"Feature","geometry":{"type":"Point","coordinates":[-74.213584,40.09325]}},{"properties":{"city":"NORTHVALE","name":"076","latitude":41.007765,"weight":5.0,"longitude":-73.951854,"id":"a6c910pfp643","state":"NJ"},"type":"Feature","geometry":{"type":"Point","coordinates":[-73.951854,41.007765]}},{"properties":{"city":"FAIRFIELD","name":"070","latitude":40.87998,"weight":36.0,"longitude":-74.289624,"id":"a6c910s4txrf","state":"NJ"},"type":"Feature","geometry":{"type":"Point","coordinates":[-74.289624,40.87998]}},{"properties":{"city":"DENVILLE","name":"078","latitude":40.86189,"weight":20.0,"longitude":-74.496414,"id":"a6c910lrtk48","state":"NJ"},"type":"Feature","geometry":{"type":"Point","coordinates":[-74.496414,40.86189]}},{"properties":{"city":"ROBBINSVILLE","name":"086","latitude":40.220175,"weight":1.0,"longitude":-74.633387,"id":"a6c910ome5qd","state":"NJ"},"type":"Feature","geometry":{"type":"Point","coordinates":[-74.633387,40.220175]}},{"properties":{"city":"HOLMDEL","name":"077","latitude":40.342615,"weight":42.0,"longitude":-74.166604,"id":"a6c910jmskan","state":"NJ"},"type":"Feature","geometry":{"type":"Point","coordinates":[-74.166604,40.342615]}},{"properties":{"city":"EAST HANOVER","name":"079","latitude":40.825975,"weight":1.0,"longitude":-74.360619,"id":"a6c910opztl1","state":"NJ"},"type":"Feature","geometry":{"type":"Point","coordinates":[-74.360619,40.825975]}},{"properties":{"city":"SWEDESBORO","name":"080","latitude":39.747545,"weight":21.0,"longitude":-75.310604,"id":"a6c910q7fgt3","state":"NJ"},"type":"Feature","geometry":{"type":"Point","coordinates":[-75.310604,39.747545]}},{"properties":{"city":"SOMERSET","name":"088","latitude":40.497508,"weight":54.0,"longitude":-74.524099,"id":"a6c910rjkh38","state":"NJ"},"type":"Feature","geometry":{"type":"Point","coordinates":[-74.524099,40.497508]}},{"properties":{"city":"FERNLEY","name":"894","latitude":39.601215,"weight":1.0,"longitude":-119.246374,"id":"a6c910tvtovt","state":"NV"},"type":"Feature","geometry":{"type":"Point","coordinates":[-119.246374,39.601215]}},{"properties":{"city":"CARSON CITY","name":"897","latitude":39.164885,"weight":7.0,"longitude":-119.766999,"id":"a6c910w9r3uv","state":"NV"},"type":"Feature","geometry":{"type":"Point","coordinates":[-119.766999,39.164885]}},{"properties":{"city":"RENO","name":"895","latitude":39.527395,"weight":300.0,"longitude":-119.813414,"id":"a6c910mhg3b0","state":"NV"},"type":"Feature","geometry":{"type":"Point","coordinates":[-119.813414,39.527395]}},{"properties":{"city":"PLAINVIEW","name":"118","latitude":40.77636,"weight":1.0,"longitude":-73.466224,"id":"a6c910nu3fq3","state":"NY"},"type":"Feature","geometry":{"type":"Point","coordinates":[-73.466224,40.77636]}},{"properties":{"city":"CLINTON","name":"133","latitude":44.95417,"weight":17.0,"longitude":-73.929394,"id":"a6c910or4o3v","state":"NY"},"type":"Feature","geometry":{"type":"Point","coordinates":[-73.929394,44.95417]}},{"properties":{"city":"WHITNEY POINT","name":"138","latitude":42.3294,"weight":45.0,"longitude":-75.963754,"id":"a6c910nu48od","state":"NY"},"type":"Feature","geometry":{"type":"Point","coordinates":[-75.963754,42.3294]}},{"properties":{"city":"BINGHAMTON","name":"139","latitude":42.098687,"weight":61.0,"longitude":-75.911271,"id":"a6c910njhbaq","state":"NY"},"type":"Feature","geometry":{"type":"Point","coordinates":[-75.911271,42.098687]}},{"properties":{"city":"ARCADE","name":"140","latitude":42.533811,"weight":1.0,"longitude":-78.429009,"id":"a6c910p8c03k","state":"NY"},"type":"Feature","geometry":{"type":"Point","coordinates":[-78.429009,42.533811]}},{"properties":{"city":"LONG ISLAND CITY","name":"111","latitude":40.75087,"weight":7.0,"longitude":-73.941359,"id":"a6c910iy91da","state":"NY"},"type":"Feature","geometry":{"type":"Point","coordinates":[-73.941359,40.75087]}},{"properties":{"city":"BROOKLYN","name":"112","latitude":40.692385,"weight":17.0,"longitude":-73.989872,"id":"a6c910s6hcs0","state":"NY"},"type":"Feature","geometry":{"type":"Point","coordinates":[-73.989872,40.692385]}},{"properties":{"city":"MASPETH","name":"113","latitude":40.727682,"weight":3.0,"longitude":-73.895471,"id":"a6c910nm81o4","state":"NY"},"type":"Feature","geometry":{"type":"Point","coordinates":[-73.895471,40.727682]}},{"properties":{"city":"JAMAICA","name":"114","latitude":40.701782,"weight":4.0,"longitude":-73.80842,"id":"a6c910o4xa52","state":"NY"},"type":"Feature","geometry":{"type":"Point","coordinates":[-73.80842,40.701782]}},{"properties":{"city":"WESTBURY","name":"115","latitude":40.757105,"weight":4.0,"longitude":-73.586829,"id":"a6c910sp6qqm","state":"NY"},"type":"Feature","geometry":{"type":"Point","coordinates":[-73.586829,40.757105]}},{"properties":{"city":"WEST BABYLON","name":"117","latitude":40.701239,"weight":429.0,"longitude":-73.348353,"id":"a6c910ioo9vj","state":"NY"},"type":"Feature","geometry":{"type":"Point","coordinates":[-73.348353,40.701239]}},{"properties":{"city":"JOHNSON CITY","name":"137","latitude":42.115894,"weight":8.0,"longitude":-75.957673,"id":"a6c910w8k3sn","state":"NY"},"type":"Feature","geometry":{"type":"Point","coordinates":[-75.957673,42.115894]}},{"properties":{"city":"ORCHARD PARK","name":"141","latitude":42.76619,"weight":8.0,"longitude":-78.743869,"id":"a6c910uq1uwg","state":"NY"},"type":"Feature","geometry":{"type":"Point","coordinates":[-78.743869,42.76619]}},{"properties":{"city":"NIAGARA FALLS","name":"143","latitude":43.095498,"weight":1.0,"longitude":-79.055849,"id":"a6c910v4qsvu","state":"NY"},"type":"Feature","geometry":{"type":"Point","coordinates":[-79.055849,43.095498]}},{"properties":{"city":"HONEOYE FALLS","name":"144","latitude":42.95257,"weight":7.0,"longitude":-77.590687,"id":"a6c910y88w5g","state":"NY"},"type":"Feature","geometry":{"type":"Point","coordinates":[-77.590687,42.95257]}},{"properties":{"city":"ROCHESTER","name":"146","latitude":43.1555,"weight":5.0,"longitude":-77.616033,"id":"a6c910pqdqyt","state":"NY"},"type":"Feature","geometry":{"type":"Point","coordinates":[-77.616033,43.1555]}},{"properties":{"city":"OLEAN","name":"147","latitude":42.077555,"weight":2.0,"longitude":-78.428875,"id":"a6c910q6u2f7","state":"NY"},"type":"Feature","geometry":{"type":"Point","coordinates":[-78.428875,42.077555]}},{"properties":{"city":"HORNELL","name":"148","latitude":42.32733,"weight":6.0,"longitude":-77.660819,"id":"a6c910wt305q","state":"NY"},"type":"Feature","geometry":{"type":"Point","coordinates":[-77.660819,42.32733]}},{"properties":{"city":"SHIRLEY","name":"119","latitude":40.80063,"weight":6.0,"longitude":-72.872189,"id":"a6c910pt5e4v","state":"NY"},"type":"Feature","geometry":{"type":"Point","coordinates":[-72.872189,40.80063]}},{"properties":{"city":"NEW HYDE PARK","name":"110","latitude":40.733541,"weight":17.0,"longitude":-73.680648,"id":"a6c910ooy4bz","state":"NY"},"type":"Feature","geometry":{"type":"Point","coordinates":[-73.680648,40.733541]}},{"properties":{"city":"TARRYTOWN","name":"105","latitude":41.080075,"weight":19.0,"longitude":-73.858649,"id":"a6c910t7o9gk","state":"NY"},"type":"Feature","geometry":{"type":"Point","coordinates":[-73.858649,41.080075]}},{"properties":{"city":"SCHOHARIE","name":"121","latitude":42.664035,"weight":5.0,"longitude":-74.311904,"id":"a6c910o9idqa","state":"NY"},"type":"Feature","geometry":{"type":"Point","coordinates":[-74.311904,42.664035]}},{"properties":{"city":"WOODSTOCK","name":"124","latitude":42.041945,"weight":1.0,"longitude":-74.118299,"id":"a6c910jkdfh7","state":"NY"},"type":"Feature","geometry":{"type":"Point","coordinates":[-74.118299,42.041945]}},{"properties":{"city":"NEW PALTZ","name":"125","latitude":41.746115,"weight":2.0,"longitude":-74.078459,"id":"a6c910loi948","state":"NY"},"type":"Feature","geometry":{"type":"Point","coordinates":[-74.078459,41.746115]}},{"properties":{"city":"PELHAM","name":"108","latitude":40.911444,"weight":34.0,"longitude":-73.809612,"id":"a6c910mnp2jh","state":"NY"},"type":"Feature","geometry":{"type":"Point","coordinates":[-73.809612,40.911444]}},{"properties":{"city":"GLENS FALLS","name":"128","latitude":43.31122,"weight":1.0,"longitude":-73.643759,"id":"a6c910par5yl","state":"NY"},"type":"Feature","geometry":{"type":"Point","coordinates":[-73.643759,43.31122]}},{"properties":{"city":"BUFFALO","name":"142","latitude":42.88544,"weight":3.0,"longitude":-78.878464,"id":"a6c910itlp5k","state":"NY"},"type":"Feature","geometry":{"type":"Point","coordinates":[-78.878464,42.88544]}},{"properties":{"city":"CUYAHOGA FALLS","name":"442","latitude":41.138411,"weight":1.0,"longitude":-81.483727,"id":"a6c910qt16k4","state":"OH"},"type":"Feature","geometry":{"type":"Point","coordinates":[-81.483727,41.138411]}},{"properties":{"city":"MENTOR","name":"440","latitude":41.697995,"weight":4.0,"longitude":-81.337269,"id":"a6c910n25shs","state":"OH"},"type":"Feature","geometry":{"type":"Point","coordinates":[-81.337269,41.697995]}},{"properties":{"city":"STRONGSVILLE","name":"441","latitude":41.296986,"weight":15.0,"longitude":-81.869394,"id":"a6c910lznz94","state":"OH"},"type":"Feature","geometry":{"type":"Point","coordinates":[-81.869394,41.296986]}},{"properties":{"city":"MANSFIELD","name":"449","latitude":40.758515,"weight":7.0,"longitude":-82.514804,"id":"a6c910irolzb","state":"OH"},"type":"Feature","geometry":{"type":"Point","coordinates":[-82.514804,40.758515]}},{"properties":{"city":"LIMA","name":"458","latitude":40.742695,"weight":4.0,"longitude":-84.107294,"id":"a6c910tosh5d","state":"OH"},"type":"Feature","geometry":{"type":"Point","coordinates":[-84.107294,40.742695]}},{"properties":{"city":"MIAMISBURG","name":"453","latitude":39.642739,"weight":4.0,"longitude":-84.287565,"id":"a6c910r89hfy","state":"OH"},"type":"Feature","geometry":{"type":"Point","coordinates":[-84.287565,39.642739]}},{"properties":{"city":"CINCINNATI","name":"452","latitude":39.106441,"weight":14.0,"longitude":-84.504694,"id":"a6c910uxprzz","state":"OH"},"type":"Feature","geometry":{"type":"Point","coordinates":[-84.504694,39.106441]}},{"properties":{"city":"BEAVERTON","name":"970","latitude":45.484895,"weight":12.0,"longitude":-122.796153,"id":"a6c910yaurcw","state":"OR"},"type":"Feature","geometry":{"type":"Point","coordinates":[-122.796153,45.484895]}},{"properties":{"city":"SALEM","name":"973","latitude":44.93326,"weight":1.0,"longitude":-123.043814,"id":"a6c910nj9rfs","state":"OR"},"type":"Feature","geometry":{"type":"Point","coordinates":[-123.043814,44.93326]}},{"properties":{"city":"DOVER","name":"173","latitude":40.003465,"weight":147.0,"longitude":-76.848009,"id":"a6c910sjx2li","state":"PA"},"type":"Feature","geometry":{"type":"Point","coordinates":[-76.848009,40.003465]}},{"properties":{"city":"STATE COLLEGE","name":"168","latitude":40.79373,"weight":8.0,"longitude":-77.860704,"id":"a6c910xhonsa","state":"PA"},"type":"Feature","geometry":{"type":"Point","coordinates":[-77.860704,40.79373]}},{"properties":{"city":"DOWNINGTOWN","name":"193","latitude":40.004545,"weight":1.0,"longitude":-75.707144,"id":"a6c910t63qam","state":"PA"},"type":"Feature","geometry":{"type":"Point","coordinates":[-75.707144,40.004545]}},{"properties":{"city":"LITITZ","name":"175","latitude":40.1575,"weight":1.0,"longitude":-76.307357,"id":"a6c910l187ox","state":"PA"},"type":"Feature","geometry":{"type":"Point","coordinates":[-76.307357,40.1575]}},{"properties":{"city":"PHILADELPHIA","name":"191","latitude":39.95227,"weight":24.0,"longitude":-75.162369,"id":"a6c910lpxuwi","state":"PA"},"type":"Feature","geometry":{"type":"Point","coordinates":[-75.162369,39.95227]}},{"properties":{"city":"FAIRLESS HILLS","name":"190","latitude":40.173732,"weight":5.0,"longitude":-74.851023,"id":"a6c910ondqhh","state":"PA"},"type":"Feature","geometry":{"type":"Point","coordinates":[-74.851023,40.173732]}},{"properties":{"city":"WARRINGTON","name":"189","latitude":40.253424,"weight":53.0,"longitude":-75.136479,"id":"a6c910kxtmm8","state":"PA"},"type":"Feature","geometry":{"type":"Point","coordinates":[-75.136479,40.253424]}},{"properties":{"city":"LANCASTER","name":"176","latitude":40.038045,"weight":1.0,"longitude":-76.301269,"id":"a6c910xnc600","state":"PA"},"type":"Feature","geometry":{"type":"Point","coordinates":[-76.301269,40.038045]}},{"properties":{"city":"WORCESTER","name":"194","latitude":40.20004,"weight":12.0,"longitude":-75.347427,"id":"a6c910nevzlq","state":"PA"},"type":"Feature","geometry":{"type":"Point","coordinates":[-75.347427,40.20004]}},{"properties":{"city":"NEW KINGSTOWN","name":"170","latitude":40.23303,"weight":13.0,"longitude":-77.082604,"id":"a6c910muskrc","state":"PA"},"type":"Feature","geometry":{"type":"Point","coordinates":[-77.082604,40.23303]}},{"properties":{"city":"PONCE","name":"007","latitude":18.013615,"weight":3.0,"longitude":-66.614919,"id":"a6c910ykc6nd","state":"PR"},"type":"Feature","geometry":{"type":"Point","coordinates":[-66.614919,18.013615]}},{"properties":{"city":"EAST PROVIDENCE","name":"029","latitude":41.819705,"weight":29.0,"longitude":-71.375829,"id":"a6c910mlhaz1","state":"RI"},"type":"Feature","geometry":{"type":"Point","coordinates":[-71.375829,41.819705]}},{"properties":{"city":"PORTSMOUTH","name":"028","latitude":41.588797,"weight":10.0,"longitude":-71.253192,"id":"a6c910vauopk","state":"RI"},"type":"Feature","geometry":{"type":"Point","coordinates":[-71.253192,41.588797]}},{"properties":{"city":"W COLUMBIA","name":"291","latitude":33.988977,"weight":7.0,"longitude":-81.073284,"id":"a6c910uf73hi","state":"SC"},"type":"Feature","geometry":{"type":"Point","coordinates":[-81.073284,33.988977]}},{"properties":{"city":"FOUNTAIN INN","name":"296","latitude":34.694795,"weight":1.0,"longitude":-82.200944,"id":"a6c910iosyep","state":"SC"},"type":"Feature","geometry":{"type":"Point","coordinates":[-82.200944,34.694795]}},{"properties":{"city":"FORT MILL","name":"297","latitude":35.006675,"weight":1.0,"longitude":-80.943162,"id":"a6c910yltmgz","state":"SC"},"type":"Feature","geometry":{"type":"Point","coordinates":[-80.943162,35.006675]}},{"properties":{"city":"GAFFNEY","name":"293","latitude":35.073624,"weight":51.0,"longitude":-81.648667,"id":"a6c910k0pwqy","state":"SC"},"type":"Feature","geometry":{"type":"Point","coordinates":[-81.648667,35.073624]}},{"properties":{"city":"YANKTON","name":"570","latitude":42.87179,"weight":5.0,"longitude":-97.397054,"id":"a6c910tibe1j","state":"SD"},"type":"Feature","geometry":{"type":"Point","coordinates":[-97.397054,42.87179]}},{"properties":{"city":"WATERTOWN","name":"572","latitude":44.900588,"weight":2.0,"longitude":-97.105744,"id":"a6c910khcjwt","state":"SD"},"type":"Feature","geometry":{"type":"Point","coordinates":[-97.105744,44.900588]}},{"properties":{"city":"NASHVILLE","name":"372","latitude":36.167783,"weight":2.0,"longitude":-86.778365,"id":"a6c910nk34c4","state":"TN"},"type":"Feature","geometry":{"type":"Point","coordinates":[-86.778365,36.167783]}},{"properties":{"city":"JACKSON","name":"383","latitude":35.6139,"weight":1.0,"longitude":-88.819399,"id":"a6c910py92sq","state":"TN"},"type":"Feature","geometry":{"type":"Point","coordinates":[-88.819399,35.6139]}},{"properties":{"city":"COLUMBIA","name":"384","latitude":35.615725,"weight":1.0,"longitude":-87.035447,"id":"a6c910mxkze3","state":"TN"},"type":"Feature","geometry":{"type":"Point","coordinates":[-87.035447,35.615725]}},{"properties":{"city":"MEMPHIS","name":"381","latitude":35.14968,"weight":4.0,"longitude":-90.048929,"id":"a6c910xlp5os","state":"TN"},"type":"Feature","geometry":{"type":"Point","coordinates":[-90.048929,35.14968]}},{"properties":{"city":"RICHARDSON","name":"750","latitude":32.960745,"weight":65.0,"longitude":-96.732969,"id":"a6c910ss7sv5","state":"TX"},"type":"Feature","geometry":{"type":"Point","coordinates":[-96.732969,32.960745]}},{"properties":{"city":"DALLAS","name":"752","latitude":32.778155,"weight":2.0,"longitude":-96.795404,"id":"a6c910pmb4nf","state":"TX"},"type":"Feature","geometry":{"type":"Point","coordinates":[-96.795404,32.778155]}},{"properties":{"city":"TYLER","name":"757","latitude":32.347475,"weight":3.0,"longitude":-95.294299,"id":"a6c910sruqqp","state":"TX"},"type":"Feature","geometry":{"type":"Point","coordinates":[-95.294299,32.347475]}},{"properties":{"city":"MANSFIELD","name":"760","latitude":32.564385,"weight":138.0,"longitude":-97.141939,"id":"a6c910wf6hyb","state":"TX"},"type":"Feature","geometry":{"type":"Point","coordinates":[-97.141939,32.564385]}},{"properties":{"city":"FORT WORTH","name":"761","latitude":32.74863,"weight":105.0,"longitude":-97.329249,"id":"a6c910wuz918","state":"TX"},"type":"Feature","geometry":{"type":"Point","coordinates":[-97.329249,32.74863]}},{"properties":{"city":"HOUSTON","name":"770","latitude":29.76045,"weight":16.0,"longitude":-95.369784,"id":"a6c910lr1j8z","state":"TX"},"type":"Feature","geometry":{"type":"Point","coordinates":[-95.369784,29.76045]}},{"properties":{"city":"CORPUS CHRISTI","name":"784","latitude":27.79641,"weight":18.0,"longitude":-97.403564,"id":"a6c910m6uoe9","state":"TX"},"type":"Feature","geometry":{"type":"Point","coordinates":[-97.403564,27.79641]}},{"properties":{"city":"LAGO VISTA","name":"786","latitude":30.45319,"weight":12.0,"longitude":-97.987589,"id":"a6c910p2sr1y","state":"TX"},"type":"Feature","geometry":{"type":"Point","coordinates":[-97.987589,30.45319]}},{"properties":{"city":"EL PASO","name":"799","latitude":31.759165,"weight":12.0,"longitude":-106.487494,"id":"a6c910ngma65","state":"TX"},"type":"Feature","geometry":{"type":"Point","coordinates":[-106.487494,31.759165]}},{"properties":{"city":"AUSTIN","name":"787","latitude":30.267605,"weight":8.0,"longitude":-97.742984,"id":"a6c910lphcj0","state":"TX"},"type":"Feature","geometry":{"type":"Point","coordinates":[-97.742984,30.267605]}},{"properties":{"city":"SALT LAKE CITY","name":"841","latitude":40.75952,"weight":1.0,"longitude":-111.888229,"id":"a6c910wgevwj","state":"UT"},"type":"Feature","geometry":{"type":"Point","coordinates":[-111.888229,40.75952]}},{"properties":{"city":"LYNCHBURG","name":"245","latitude":37.41402,"weight":2.0,"longitude":-79.142839,"id":"a6c910p4yzbl","state":"VA"},"type":"Feature","geometry":{"type":"Point","coordinates":[-79.142839,37.41402]}},{"properties":{"city":"HILLSVILLE","name":"243","latitude":36.76946,"weight":6.0,"longitude":-80.738784,"id":"a6c910poanw9","state":"VA"},"type":"Feature","geometry":{"type":"Point","coordinates":[-80.738784,36.76946]}},{"properties":{"city":"BRATTLEBORO","name":"053","latitude":42.85275,"weight":1.0,"longitude":-72.558298,"id":"a6c910pqpelc","state":"VT"},"type":"Feature","geometry":{"type":"Point","coordinates":[-72.558298,42.85275]}},{"properties":{"city":"VERGENNES","name":"054","latitude":44.16728,"weight":49.0,"longitude":-73.253394,"id":"a6c910qf520n","state":"VT"},"type":"Feature","geometry":{"type":"Point","coordinates":[-73.253394,44.16728]}},{"properties":{"city":"SNOHOMISH","name":"982","latitude":47.9124,"weight":4.0,"longitude":-122.093064,"id":"a6c910uthqjz","state":"WA"},"type":"Feature","geometry":{"type":"Point","coordinates":[-122.093064,47.9124]}},{"properties":{"city":"KIRKLAND","name":"980","latitude":47.678855,"weight":7.0,"longitude":-122.207244,"id":"a6c910o7e0b2","state":"WA"},"type":"Feature","geometry":{"type":"Point","coordinates":[-122.207244,47.678855]}},{"properties":{"city":"DEER PARK","name":"990","latitude":47.954315,"weight":1.0,"longitude":-117.471979,"id":"a6c910sd784t","state":"WA"},"type":"Feature","geometry":{"type":"Point","coordinates":[-117.471979,47.954315]}},{"properties":{"city":"GREENDALE","name":"531","latitude":42.9424,"weight":2.0,"longitude":-87.995704,"id":"a6c910pahh0o","state":"WI"},"type":"Feature","geometry":{"type":"Point","coordinates":[-87.995704,42.9424]}},{"properties":{"city":"MILWAUKEE","name":"532","latitude":43.04181,"weight":22.0,"longitude":-87.906844,"id":"a6c910mxcekf","state":"WI"},"type":"Feature","geometry":{"type":"Point","coordinates":[-87.906844,43.04181]}},{"properties":{"city":"PRAIRIE DU SAC","name":"535","latitude":43.292945,"weight":27.0,"longitude":-89.722819,"id":"a6c910smrv5f","state":"WI"},"type":"Feature","geometry":{"type":"Point","coordinates":[-89.722819,43.292945]}},{"properties":{"city":"SOMERSET","name":"540","latitude":45.12402,"weight":2.0,"longitude":-92.675379,"id":"a6c910vg3pgx","state":"WI"},"type":"Feature","geometry":{"type":"Point","coordinates":[-92.675379,45.12402]}},{"properties":{"city":"THIENSVILLE","name":"530","latitude":43.23218,"weight":124.0,"longitude":-87.980479,"id":"a6c910kymg8f","state":"WI"},"type":"Feature","geometry":{"type":"Point","coordinates":[-87.980479,43.23218]}}],"is_temporal":false,"author":{"url":"","metadata":"","contact_name":"","contact_address":"","source":"","contact_phone":""},"source":"","pagination":{"sort":null,"start":0,"total":214,"limit":1000000},"state":"complete","tags":"","published":"2014-08-10T22:20:19-04:00","id":17072}