{"type":"FeatureCollection","data_type":"Dataset","url_type":null,"permissions":[{"permissions":{"download":true,"edit":true,"view":true},"group_id":34863},{"permissions":{"download":true,"view":true},"group_id":"everyone"}],"classification":null,"title":"FATAL COLLISION DATA","count":77,"stream_id":170889,"contributor":{"url":"http://geocommons.com/users/33375","name":"lakeit"},"data_attributes":null,"calculation_params":null,"icon_link":null,"link":"http://geocommons.com/overlays/170889.json","extent":[-123.029,38.6814,-122.442,39.1866],"geometry_types":["point"],"unique_name":null,"name":"FATAL COLLISION DATA","feature_count":77,"description":"This Lake County News special series was produced as a project for the California Endowment Health Journalism Fellowships, a program of the University of Southern Californiaâ€™s Annenberg School for Communication &amp; Journalism.\r\n","next_feature":null,"is_raster":false,"short_classification":"Y","stats":{},"features":[{"properties":{"collision type:":"Fatal","city":"Middletown","date:":"Sat, Jan 28, 06","time:":"21:07","additional factors:":"Undetermined","agency":"CHP","id":"0","weather":"Rain","address":"SR-29 at Butts Canyon Road","state":"California"},"type":"Feature","geometry":{"type":"Point","coordinates":[-122.606963,38.756918]}},{"properties":{"collision type:":"Fatal","city":"Kelseyville","date:":"Mon, Feb 27, 06","time:":"8:30","additional factors:":"Undetermined","agency":"CHP","id":"1","weather":"light, rain, overcast","address":"SR-29 at Bottle Rock Road","state":"California"},"type":"Feature","geometry":{"type":"Point","coordinates":[-122.815234,38.944553]}},{"properties":{"collision type:":"Fatal","city":"Lakeport","date:":"Tue, Apr 25, 06","time:":"11:25","additional factors:":"Undetermined","agency":"CHP","id":"2","weather":"Cloudy,","address":"SR-20 at Scotts Valley Road","state":"California"},"type":"Feature","geometry":{"type":"Point","coordinates":[-122.993506,39.15824]}},{"properties":{"collision type:":"Fatal","city":"Hidden Valley Lake","date:":"Sun, May 14, 06","time:":"1:20","additional factors:":"Undetermined","agency":"CHP","id":"3","weather":"Clear,","address":"SR-29 at Spruce Grove Road","state":"California"},"type":"Feature","geometry":{"type":"Point","coordinates":[-122.576607,38.819894]}},{"properties":{"collision type:":"Fatal","city":"Upper Lake","date:":"Wed, Jun 14, 06","time:":"10:50","additional factors:":"Undetermined","agency":"CHP","id":"4","weather":"Overcast","address":"SR-20 at MPM 1.49 near Blue Lakes","state":"California"},"type":"Feature","geometry":{"type":"Point","coordinates":[-122.910551,39.164613]}},{"properties":{"collision type:":"Fatal","city":"Hidden Valley Lake","date:":"Sat, Jul 8, 06","time:":"10:30","additional factors:":"Undetermined","agency":"CHP","id":"5","weather":"Clear,","address":"SR-29 at Hofacker Lane","state":"California"},"type":"Feature","geometry":{"type":"Point","coordinates":[-122.558315,38.807957]}},{"properties":{"collision type:":"Fatal","city":"Kelseyville","date:":"Thu, Sep 28, 06","time:":"12:27","additional factors:":"Undetermined","agency":"CHP","id":"6","weather":"Clear,","address":"SR-281 at SR-29","state":"California"},"type":"Feature","geometry":{"type":"Point","coordinates":[-122.741459,38.929699]}},{"properties":{"collision type:":"Fatal","city":"Middletown","date:":"Fri, Oct 20, 06","time:":"8:50","additional factors:":"Undetermined","agency":"CHP","id":"7","weather":"Clear, dry, sunny","address":"SR-29 at Bradford Road","state":"California"},"type":"Feature","geometry":{"type":"Point","coordinates":[-122.601484,38.699565]}},{"properties":{"collision type:":"Fatal","city":"Clearlake Oaks","date:":"Sun, Nov 5, 06","time:":"18:35","additional factors:":"Undetermined","agency":"CHP","id":"8","weather":"Clear,","address":"SR-20 at Catholic Church Road","state":"California"},"type":"Feature","geometry":{"type":"Point","coordinates":[-122.634765,39.013652]}},{"properties":{"collision type:":"Fatal","city":"Upper Lake","date:":"Sun, Mar 11, 07","time:":"0:40","additional factors:":"DUI","agency":"CHP","id":"9","weather":"Clear,","address":"Elk Mountain Road at Soda Creek","state":"California"},"type":"Feature","geometry":{"type":"Point","coordinates":[-122.910551,39.164613]}},{"properties":{"collision type:":"Fatal","city":"Kelseyville","date:":"Wed, Mar 14, 07","time:":"7:50","additional factors:":"Undetermined","agency":"CHP","id":"10","weather":"Clear,","address":"SR-29 at Diener Drive","state":"California"},"type":"Feature","geometry":{"type":"Point","coordinates":[-122.839438,38.977953]}},{"properties":{"collision type:":"Fatal","city":"Clearlake Oaks","date:":"Sat, Apr 21, 07","time:":"10:20","additional factors:":"Undetermined","agency":"CHP","id":"11","weather":"wet, rain, cool","address":"SR-20 at Henderson Drive","state":"California"},"type":"Feature","geometry":{"type":"Point","coordinates":[-122.714272,39.021829]}},{"properties":{"collision type:":"Fatal","city":"Clearlake Oaks","date:":"Sat, Apr 28, 07","time:":"12:39","additional factors:":"Undetermined","agency":"CHP","id":"12","weather":"Warm, clear,","address":"SR-20 just at Beryl Way","state":"California"},"type":"Feature","geometry":{"type":"Point","coordinates":[-122.694574,39.020648]}},{"properties":{"collision type:":"Fatal","city":"Clearlake","date:":"Fri, Jun 8, 07","time:":"12:52","additional factors:":"Undetermined","agency":"CHP","id":"13","weather":"Clear, dry, warm","address":"SR-53 at SR-20","state":"California"},"type":"Feature","geometry":{"type":"Point","coordinates":[-122.613813,39.008786]}},{"properties":{"collision type:":"Fatal","city":"Kelseyville","date:":"Fri, Jul 6, 07","time:":"13:05","additional factors:":"Speed","agency":"CHP","id":"14","weather":"Sunny","address":"Bell Hill Road at Renfro Drive","state":"California"},"type":"Feature","geometry":{"type":"Point","coordinates":[-122.857075,38.975106]}},{"properties":{"collision type:":"Fatal","city":"Nice","date:":"Thu, Aug 2, 07","time:":"17:55","additional factors:":"Speed","agency":"CHP","id":"15","weather":"Clear, dry","address":"SR-20 at Bartlett Springs Road","state":"California"},"type":"Feature","geometry":{"type":"Point","coordinates":[-122.82011,39.112288]}},{"properties":{"collision type:":"Fatal","city":"Lower Lake","date:":"Fri, Aug 31, 07","time:":"9:30","additional factors:":"Undetermined","agency":"CHP","id":"16","weather":"Hot, clear","address":"Point Lakeview Road at SR-29","state":"California"},"type":"Feature","geometry":{"type":"Point","coordinates":[-122.646097,38.910405]}},{"properties":{"collision type:":"Fatal","city":"Lucerne","date:":"Fri, Sep 7, 07","time:":"8:30","additional factors:":"Speed","agency":"CHP","id":"17","weather":"Warm, clear","address":"SR-20 at Bruner Drive","state":"California"},"type":"Feature","geometry":{"type":"Point","coordinates":[-122.775704,39.042963]}},{"properties":{"collision type:":"Fatal","city":"Upper Lake","date:":"Sat, Nov 10, 07","time:":"13:30","additional factors:":"Speed","agency":"CHP","id":"18","weather":"Rain","address":"SR-20 at Scotts Valley Road","state":"California"},"type":"Feature","geometry":{"type":"Point","coordinates":[-122.993506,39.15824]}},{"properties":{"collision type:":"Fatal","city":"Clearlake","date:":"Sun, Nov 25, 07","time:":"5:37","additional factors:":"Undetermined","agency":"CHP","id":"19","weather":"Clear, dry","address":"SR-29 at St. Helena Lane","state":"California"},"type":"Feature","geometry":{"type":"Point","coordinates":[-122.600108,38.762541]}},{"properties":{"collision type:":"Fatal","city":"Lower Lake","date:":"Fri, Feb 15, 08","time:":"9:50","additional factors:":"Undetermined","agency":"CHP","id":"20","weather":"Sunny, clear","address":"SR-29 at Hofacker Lane","state":"California"},"type":"Feature","geometry":{"type":"Point","coordinates":[-122.610976,38.847745]}},{"properties":{"collision type:":"Fatal","city":"Hidden Valley Lake","date:":"Mon, Feb 25, 08","time:":"18:23","additional factors:":"Undetermined","agency":"CHP","id":"21","weather":"Partly, cloudy, dry, cool","address":"SR-29 at Spruce Grove Road South","state":"California"},"type":"Feature","geometry":{"type":"Point","coordinates":[-122.576607,38.819894]}},{"properties":{"collision type:":"Fatal","city":"Hidden Valley Lake","date:":"Mon, Feb 25, 08","time:":"18:23","additional factors:":"Undetermined","agency":"CHP","id":"22","weather":"Partly, cloudy, dry, cool","address":"SR-29  at Spruce Grove Road","state":"California"},"type":"Feature","geometry":{"type":"Point","coordinates":[-122.576607,38.819894]}},{"properties":{"collision type:":"Fatal","city":"Middletown","date:":"Thu, Feb 28, 08","time:":"15:00","additional factors:":"Undetermined","agency":"CHP","id":"23","weather":"Overcast, dry","address":"Butts Canyon Road near Napa County Line","state":"California"},"type":"Feature","geometry":{"type":"Point","coordinates":[-122.614985,38.752404]}},{"properties":{"collision type:":"Fatal","city":"Clearlake Oaks","date:":"Sat, Jul 19, 08","time:":"n/a","additional factors:":"Speed","agency":"CHP","id":"24","weather":"Warm, clear, dry","address":"175 Hopland Grade","state":"California"},"type":"Feature","geometry":{"type":"Point","coordinates":[-122.93151,38.99468]}},{"properties":{"collision type:":"Fatal","city":"Upper Lake","date:":"Sun, Aug 10, 08","time:":"10:40","additional factors:":"Undetermined","agency":"CHP","id":"25","weather":"Clear,","address":"SR-29  at Doten Road","state":"California"},"type":"Feature","geometry":{"type":"Point","coordinates":[-122.910551,39.164613]}},{"properties":{"collision type:":"Fatal","city":"Clearlake Oaks","date:":"Tue, Apr 7, 09","time:":"16:00","additional factors:":"Undetermined","agency":"CHP","id":"26","weather":"Rain, cloudy, wet","address":"SR-20 at Walker Ridge Road","state":"California"},"type":"Feature","geometry":{"type":"Point","coordinates":[-122.44159,39.01496]}},{"properties":{"collision type:":"Fatal","city":"Kelseyville","date:":"Sat, Apr 25, 09","time:":"19:00","additional factors:":"Undetermined","agency":"CHP","id":"27","weather":"Warm, sunny","address":"Hummel Lane at Bell Hill Road","state":"California"},"type":"Feature","geometry":{"type":"Point","coordinates":[-122.868087,38.968436]}},{"properties":{"collision type:":"Fatal","city":"Hidden Valley Lake","date:":"Sat, Aug 1, 09","time:":"10:20","additional factors:":"Undetermined","agency":"CHP","id":"28","weather":"Clear, hot","address":"SR-29 at Spruce Grove Road extension","state":"California"},"type":"Feature","geometry":{"type":"Point","coordinates":[-122.558315,38.807957]}},{"properties":{"collision type:":"Fatal","city":"Hidden Valley Lake","date:":"Thu, Aug 20, 09","time:":"11:02","additional factors:":"Undetermined","agency":"CHP","id":"29","weather":"Clear, dry, warm","address":"SR-29 at Spruce Grove Road South","state":"California"},"type":"Feature","geometry":{"type":"Point","coordinates":[-122.576607,38.819894]}},{"properties":{"collision type:":"Fatal","city":"Kelseyville","date:":"Fri, Sep 11, 09","time:":"21:42","additional factors:":"Speed DUI","agency":"CHP","id":"30","weather":"Clear, dry","address":"SR-29 just at SR-175","state":"California"},"type":"Feature","geometry":{"type":"Point","coordinates":[-122.839438,38.977953]}},{"properties":{"collision type:":"Fatal","city":"Middletown","date:":"Fri, Sep 25, 09","time:":"6:58","additional factors:":"Undetermined","agency":"CHP","id":"31","weather":"Clear,","address":"Butts Canyon Road at SR-29","state":"California"},"type":"Feature","geometry":{"type":"Point","coordinates":[-122.606963,38.756918]}},{"properties":{"collision type:":"Fatal","city":"Upper Lake","date:":"Wed, Jan 13, 10","time:":"2:20","additional factors:":"Undetermined","agency":"CHP","id":"32","weather":"Rain, cold","address":"SR-20 west at MidLake Road","state":"California"},"type":"Feature","geometry":{"type":"Point","coordinates":[-123.005189,39.16797]}},{"properties":{"collision type:":"Fatal","city":"Nice","date:":"Fri, Apr 9, 10","time:":"14:35","additional factors:":"Undetermined","agency":"CHP","id":"33","weather":"Clear, dry","address":"SR-20 at Bartlett Springs Road","state":"California"},"type":"Feature","geometry":{"type":"Point","coordinates":[-122.82011,39.112288]}},{"properties":{"collision type:":"Fatal","city":"Lower Lake","date:":"Wed, May 5, 10","time:":"3:10","additional factors:":"Undetermined","agency":"CHP","id":"34","weather":"Cool, dry","address":"Seigler Canyon Road","state":"California"},"type":"Feature","geometry":{"type":"Point","coordinates":[-122.640714,38.902665]}},{"properties":{"collision type:":"Fatal","city":"Lower Lake","date:":"Thu, May 20, 10","time:":"14:25","additional factors:":"Undetermined","agency":"CHP","id":"35","weather":"Clear, dry","address":"SR-29 at B Street","state":"California"},"type":"Feature","geometry":{"type":"Point","coordinates":[-122.61821,38.877581]}},{"properties":{"collision type:":"Fatal","city":"Middletown","date:":"Sat, May 29, 10","time:":"8:30","additional factors:":"Undetermined","agency":"CHP","id":"36","weather":"Cool, dry","address":"SR-29 at Hartmann Road","state":"California"},"type":"Feature","geometry":{"type":"Point","coordinates":[-122.565924,38.792313]}},{"properties":{"collision type:":"Fatal","city":"Upper Lake","date:":"Fri, Jun 25, 10","time:":"13:20","additional factors:":"Undetermined","agency":"CHP","id":"37","weather":"Clear, sunny","address":"SR-29 at Grange Road","state":"California"},"type":"Feature","geometry":{"type":"Point","coordinates":[-122.910551,39.164613]}},{"properties":{"collision type:":"Fatal","city":"Lucerne","date:":"Sun, Jul 18, 10","time:":"13:31","additional factors:":"Undetermined","agency":"CHP","id":"38","weather":"Clear, dry","address":"SR-20 at Verna Way","state":"California"},"type":"Feature","geometry":{"type":"Point","coordinates":[-122.764898,39.03941]}},{"properties":{"collision type:":"Fatal","city":"Kelseyville","date:":"Sat, Aug 28, 10","time:":"23:00","additional factors:":"Undetermined","agency":"CHP","id":"39","weather":"Cool","address":"SR-29 at SR-175","state":"California"},"type":"Feature","geometry":{"type":"Point","coordinates":[-122.815234,38.944553]}},{"properties":{"collision type:":"Fatal","city":"Lower Lake","date:":"Fri, Sep 24, 10","time:":"10:17","additional factors:":"Undetermined","agency":"CHP","id":"40","weather":"Clear, dry","address":"SR-29 at Seigler Canyon Road","state":"California"},"type":"Feature","geometry":{"type":"Point","coordinates":[-122.636842,38.910389]}},{"properties":{"collision type:":"Fatal","city":"Lucerne","date:":"Wed, Oct 6, 10","time:":"18:20","additional factors:":"Undetermined","agency":"CHP","id":"41","weather":"Cloudy, dry","address":"SR-20 at Rosemont Drive","state":"California"},"type":"Feature","geometry":{"type":"Point","coordinates":[-122.783486,39.067181]}},{"properties":{"collision type:":"Fatal","city":"Clearlake Oaks","date:":"Thu, Dec 30, 10","time:":"11:30","additional factors:":"Undetermined","agency":"CHP","id":"42","weather":"Cold","address":"Lakeview Drive S/of Widgeon Way","state":"California"},"type":"Feature","geometry":{"type":"Point","coordinates":[-122.688221,39.021761]}},{"properties":{"collision type:":"Fatal","city":"Upper Lake","date:":"Mon, May 23, 11","time:":"17:05","additional factors:":"Undetermined","agency":"CHP","id":"43","weather":"Clear, dry","address":"Elk Mountain Road 2.2 miles at Pitney Lane","state":"California"},"type":"Feature","geometry":{"type":"Point","coordinates":[-122.910551,39.164613]}},{"properties":{"collision type:":"Fatal","city":"Kelseyville","date:":"Thu, Jun 16, 11","time:":"15:02","additional factors:":"Undetermined","agency":"CHP","id":"44","weather":"Clear, warm","address":"6915 Echo Drive","state":"California"},"type":"Feature","geometry":{"type":"Point","coordinates":[-122.78007,39.000552]}},{"properties":{"collision type:":"Fatal","city":"Middletown","date:":"Thu, Jun 23, 11","time:":"15:06","additional factors:":"Undetermined","agency":"CHP","id":"45","weather":"Sunny, dry, warm","address":"SR-29 at Hartmann Road","state":"California"},"type":"Feature","geometry":{"type":"Point","coordinates":[-122.565924,38.792313]}},{"properties":{"collision type:":"Fatal","city":"Middletown","date:":"Sat, Jul 16, 11","time:":"12:03","additional factors:":"Undetermined","agency":"CHP","id":"46","weather":"Clear,","address":"SR-29 at Hillside Lane","state":"California"},"type":"Feature","geometry":{"type":"Point","coordinates":[-122.591404,38.681424]}},{"properties":{"collision type:":"Fatal","city":"Clearlake","date:":"Sun, Sep 16, 07","time:":"1346","additional factors:":"Pedestrian outside crosswalk","agency":"CPD","id":"47","weather":"Weather, conditions, n/a","address":"4224 OLD HIGHWAY 53","state":"California"},"type":"Feature","geometry":{"type":"Point","coordinates":[-122.630782,38.952939]}},{"properties":{"collision type:":"Fatal","city":"Clearlake","date:":"Thu, Jun 19, 08","time:":"1041","additional factors:":"Unsafe left or U turn","agency":"CPD","id":"48","weather":"Weather, conditions, n/a","address":"SR 53  at  OLYMPIC DR","state":"California"},"type":"Feature","geometry":{"type":"Point","coordinates":[-122.618908,38.964091]}},{"properties":{"collision type:":"Fatal","city":"Clearlake","date:":"Thu, Jul 31, 08","time:":"1415","additional factors:":"Unsafe left or U turn","agency":"CPD","id":"49","weather":"Weather, conditions, n/a","address":"OLYMPIC DR at HWY 53","state":"California"},"type":"Feature","geometry":{"type":"Point","coordinates":[-122.618908,38.964091]}},{"properties":{"collision type:":"Fatal","city":"Clearlake","date:":"Fri, Apr 16, 10","time:":"1300","additional factors:":"Crossing double yellow lines","agency":"CPD","id":"50","weather":"Weather, conditions, n/a","address":"OLD HWY 53  at  KONOCTI VIEW RD","state":"California"},"type":"Feature","geometry":{"type":"Point","coordinates":[-122.631038,38.946632]}},{"properties":{"collision type:":"Fatal","city":"Clearlake","date:":"Mon, Apr 19, 10","time:":"2227","additional factors:":"Crossing double yellow lines","agency":"CPD","id":"51","weather":"Weather, conditions, n/a","address":"HWY 53 at OLYMPIC","state":"California"},"type":"Feature","geometry":{"type":"Point","coordinates":[-122.618908,38.964091]}},{"properties":{"collision type:":"Fatal","city":"Clearlake","date:":"Sat, Apr 9, 11","time:":"239","additional factors:":"Failure to signal","agency":"CPD","id":"52","weather":"Weather, conditions, n/a","address":"6035 OLD HIGHWAY 53","state":"California"},"type":"Feature","geometry":{"type":"Point","coordinates":[-122.634088,38.939085]}},{"properties":{"collision type:":"Fatal","city":"Clearlake","date:":"Sun, Jun 19, 11","time:":"1852","additional factors:":"Failure to heed stoplight or sign","agency":"CPD","id":"53","weather":"Weather, conditions, n/a","address":"DAM RD  at  HWY 53","state":"California"},"type":"Feature","geometry":{"type":"Point","coordinates":[-122.618887,38.930062]}},{"properties":{"collision type:":"Fatal","city":"Clearlake","date:":"Tue, Jul 26, 11","time:":"1605","additional factors:":"Unsafe left turn","agency":"CPD","id":"54","weather":"Weather, conditions, n/a","address":"SAN JOAQUIN AVE at  CARTER LN","state":"California"},"type":"Feature","geometry":{"type":"Point","coordinates":[-122.667923,38.974477]}},{"properties":{"collision type:":"Fatal","city":"Clearlake","date:":"Fri, Nov 10, 06","time:":"1200","additional factors:":"Unattended vehicle","agency":"CPD","id":"55","weather":"Weather, conditions, n/a","address":"16395 34th Avenue","state":"California"},"type":"Feature","geometry":{"type":"Point","coordinates":[-122.605526,38.946384]}},{"properties":{"collision type:":"Fatal","city":"Lower Lake-Middletown","date:":"Sat, Jul 16, 11","time:":"12:03 PM","additional factors:":"Crossing double yellow lines","agency":"CHP","id":"56","weather":"Clear,","address":"California 29 at Hillside Ln","state":"California"},"type":"Feature","geometry":{"type":"Point","coordinates":[-122.591404,38.681424]}},{"properties":{"collision type:":"Fatal","city":"Lower Lake-Middletown","date:":"Mon, Jul 18, 11","time:":"08:52 AM","additional factors:":"Unknown Cause","agency":"CHP","id":"57","weather":"n/a","address":"SR-29 at Hillside Lane","state":"California"},"type":"Feature","geometry":{"type":"Point","coordinates":[-122.591404,38.681424]}},{"properties":{"collision type:":"Fatal","city":"Nice","date:":"Thu, Feb 9, 06","time:":"01:30 AM","additional factors:":"Rollover","agency":"CHP","id":"58","weather":"Clear,","address":"Bartlett Springs Road at Highway 20","state":"California"},"type":"Feature","geometry":{"type":"Point","coordinates":[-122.82011,39.112288]}},{"properties":{"collision type:":"Fatal","city":"Clearlake","date:":"Fri, Mar 3, 06","time:":"09:38 PM","additional factors:":"Vehicle versus fixed object","agency":"CPD","id":"59","weather":"Dry, dark","address":"Moss Avenue at 40th Avenue","state":"California"},"type":"Feature","geometry":{"type":"Point","coordinates":[-122.622285,38.950701]}},{"properties":{"collision type:":"Fatal","city":"Lower Lake","date:":"Sat, Jul 8, 06","time:":"10:30 AM","additional factors:":"Head-on","agency":"CHP","id":"60","weather":"Clear, and, dry","address":"Highway 29 at Hofacker Lane","state":"California"},"type":"Feature","geometry":{"type":"Point","coordinates":[-122.610976,38.847745]}},{"properties":{"collision type:":"Fatal","city":"Clearlake","date:":"Fri, Aug 11, 06","time:":"08:25 PM","additional factors:":"Pedestrian","agency":"CPD","id":"61","weather":"Clear, and, dry, dusk","address":"Lakeshore Drive at Old Highway 53","state":"California"},"type":"Feature","geometry":{"type":"Point","coordinates":[-122.631412,38.949934]}},{"properties":{"collision type:":"Fatal","city":"Upper Lake","date:":"Fri, Sep 1, 06","time:":"05:40 PM","additional factors:":"Wrong side of the road","agency":"CHP","id":"62","weather":"Clear, and, dry","address":"Highway 20 at Blue Lakes Road","state":"California"},"type":"Feature","geometry":{"type":"Point","coordinates":[-123.029457,39.18661]}},{"properties":{"collision type:":"Fatal","city":"Upper Lake","date:":"Sun, Oct 22, 06","time:":"02:50 PM","additional factors:":"Rollover","agency":"CHP","id":"63","weather":"Clear,","address":"Blue Lakes Road atf Highway 20","state":"California"},"type":"Feature","geometry":{"type":"Point","coordinates":[-122.93646,39.171044]}},{"properties":{"collision type:":"Fatal","city":"Kelseyville","date:":"Tue, May 29, 07","time:":"03:40 PM","additional factors:":"Right of way broadside","agency":"CHP","id":"64","weather":"Clear, and, dry,","address":"Highway 29 at Highway 281","state":"California"},"type":"Feature","geometry":{"type":"Point","coordinates":[-122.741459,38.929699]}},{"properties":{"collision type:":"Fatal","city":"Lower Lake","date:":"Sun, Aug 26, 07","time:":"08:43 PM","additional factors:":"Wrong side head-on","agency":"CHP","id":"65","weather":"Clear, and, dry, dark","address":"Highway 29 at Diener Road","state":"California"},"type":"Feature","geometry":{"type":"Point","coordinates":[-122.671415,38.906018]}},{"properties":{"collision type:":"Fatal","city":"Lower Lake","date:":"Fri, Aug 31, 07","time:":"07:30 PM","additional factors:":"Head-on wrong side","agency":"CHP","id":"66","weather":"Clear, and, dry,","address":"Point Lakeview Road at Highway 29","state":"California"},"type":"Feature","geometry":{"type":"Point","coordinates":[-122.646097,38.910405]}},{"properties":{"collision type:":"Fatal","city":"Lakeport","date:":"Thu, May 15, 08","time:":"03:14 PM","additional factors:":"Wrong side head-on","agency":"CHP","id":"67","weather":"Clear, and, dry,","address":"Highway 29 at Highland Springs","state":"California"},"type":"Feature","geometry":{"type":"Point","coordinates":[-122.894058,39.000818]}},{"properties":{"collision type:":"Fatal","city":"Clearlake Oaks","date:":"Mon, May 26, 08","time:":"02:20 PM","additional factors:":"Unsafe speed broadside","agency":"CHP","id":"68","weather":"Raining,","address":"Highway 20 at Walker Ridge Road","state":"California"},"type":"Feature","geometry":{"type":"Point","coordinates":[-122.45358,39.022928]}},{"properties":{"collision type:":"Fatal","city":"Lower Lake","date:":"Fri, Aug 8, 08","time:":"10:40 PM","additional factors:":"Pedestrian violation","agency":"CHP","id":"69","weather":"Clear, and, dry, dark","address":"Highway 29 at Diener Road","state":"California"},"type":"Feature","geometry":{"type":"Point","coordinates":[-122.671415,38.906018]}},{"properties":{"collision type:":"Fatal","city":"Nice","date:":"Sun, Aug 24, 08","time:":"11:55 AM","additional factors:":"Improper turn head-on","agency":"CHP","id":"70","weather":"Clear, and, dry","address":"Highway 20 at Stokes Avenue","state":"California"},"type":"Feature","geometry":{"type":"Point","coordinates":[-122.865611,39.127684]}},{"properties":{"collision type:":"Fatal","city":"Clearlake Oaks","date:":"Sat, Nov 15, 08","time:":"11:20 AM","additional factors:":"Improper passing head-on","agency":"CHP","id":"71","weather":"Clear, and, dry","address":"Highway 20 at New Long Valley Road","state":"California"},"type":"Feature","geometry":{"type":"Point","coordinates":[-122.571726,39.017696]}},{"properties":{"collision type:":"Fatal","city":"Middletown","date:":"Sat, Feb 28, 09","time:":"02:30 PM","additional factors:":"Unsafe speed hit fixed object","agency":"CHP","id":"72","weather":"Cloudy, and, dry","address":"Butts Canyon Road at Oat Hill Road","state":"California"},"type":"Feature","geometry":{"type":"Point","coordinates":[-122.54246,38.723019]}},{"properties":{"collision type:":"Fatal","city":"Cobb","date:":"Wed, Aug 26, 09","time:":"06:50 AM","additional factors:":"Unsafe speed hit fixed object","agency":"CHP","id":"73","weather":"Clear, and, dry,","address":"Harrington Flat at Sulphur Creek","state":"California"},"type":"Feature","geometry":{"type":"Point","coordinates":[-122.741287,38.857845]}},{"properties":{"collision type:":"Fatal","city":"Clearlake Oaks","date:":"Sat, Jul 3, 10","time:":"05:20 PM","additional factors:":"Improper turn sideswipe","agency":"CHP","id":"74","weather":"Clear, and, dry","address":"Highway 20 at Orchard Shore","state":"California"},"type":"Feature","geometry":{"type":"Point","coordinates":[-122.651878,39.021776]}},{"properties":{"collision type:":"Fatal","city":"Clearlake","date:":"Sun, Apr 10, 11","time:":"02:35 AM","additional factors:":"Vehicle versus Bicycle Hit and Run","agency":"CPD","id":"75","weather":"Clear,","address":"Old Highway 53 at Park Street","state":"California"},"type":"Feature","geometry":{"type":"Point","coordinates":[-122.631415,38.939516]}},{"properties":{"collision type:":"Fatal","city":"Upper Lake","date:":"Thu, Sep 9, 10","time:":"3:10","additional factors:":"Undetermined Hit/Run","agency":"CHP","id":"76","weather":"Cold","address":"SR-20 at Old Lucerne Road","state":"California"},"type":"Feature","geometry":{"type":"Point","coordinates":[-122.897927,39.160691]}}],"is_temporal":false,"author":{"url":"http://www.lakeconews.com","metadata":"","contact_name":"","contact_address":"","source":"CALIFORNIA HIGHWAY PATROL, LAKEPORT POLICE DEPARTMENT, CLEARLAKE POLICE DEPARTMENT","contact_phone":""},"source":"http://www.lakeconews.com","pagination":{"sort":null,"start":0,"total":77,"limit":1000000},"state":"complete","tags":"","published":"2011-10-31T02:04:12Z","id":170889}