{"type":"FeatureCollection","data_type":"Dataset","url_type":null,"permissions":[{"permissions":{"download":true,"edit":true,"view":true},"group_id":34863},{"permissions":{"download":true,"view":true},"group_id":"everyone"}],"classification":null,"title":"INJURY COLLISION DATA","count":291,"stream_id":170892,"contributor":{"url":"http://geocommons.com/users/33375","name":"lakeit"},"data_attributes":null,"calculation_params":null,"icon_link":null,"link":"http://geocommons.com/overlays/170892.json","extent":[-123.029,38.7079,-122.454,39.3132],"geometry_types":["point"],"unique_name":null,"name":"INJURY COLLISION DATA","feature_count":291,"description":"This Lake County News special series was produced as a project for the California Endowment Health Journalism Fellowships, a program of the University of Southern Californiaâ€™s Annenberg School for Communication &amp; Journalism.\r\n","next_feature":null,"is_raster":false,"short_classification":"Y","stats":{},"features":[{"properties":{"collision type:":"Injury","city":"Lakeport","date:":"Thu, Feb 2, 06","time:":"10:30:00 PM","additional factors:":"Hit and Run","agency":"LPD","id":"0","weather":"Cloudy, Dark, Wet","address":"E Oak Knoll at S Main","state":"California"},"type":"Feature","geometry":{"type":"Point","coordinates":[-122.915245,39.03742]}},{"properties":{"collision type:":"Injury","city":"Lakeport","date:":"Fri, Mar 17, 06","time:":"0740","additional factors:":"Undetermined","agency":"LPD","id":"1","weather":"Clear, Daylight, Wet","address":"S Main St at Kimberly Ln","state":"California"},"type":"Feature","geometry":{"type":"Point","coordinates":[-122.915949,39.03234]}},{"properties":{"collision type:":"Injury","city":"Lakeport","date:":"Fri, May 26, 06","time:":"1700","additional factors:":"Following too closely","agency":"LPD","id":"2","weather":"Cloudy, Daylight, Dry","address":"S Main St at Sixth St","state":"California"},"type":"Feature","geometry":{"type":"Point","coordinates":[-122.915117,39.045914]}},{"properties":{"collision type:":"Injury","city":"Lakeport","date:":"Tue, Jun 13, 06","time:":"1215","additional factors:":"Driving wrong direction","agency":"LPD","id":"3","weather":"Clear, Daylight, Dry","address":"125 Russel St","state":"California"},"type":"Feature","geometry":{"type":"Point","coordinates":[-122.924109,39.041841]}},{"properties":{"collision type:":"Injury","city":"Lakeport","date:":"Thu, Jun 15, 06","time:":"1420","additional factors:":"Driving on Sidewalk","agency":"LPD","id":"4","weather":"Clear, Daylight, Dry","address":"11th St at Tunis St","state":"California"},"type":"Feature","geometry":{"type":"Point","coordinates":[-122.918967,39.048976]}},{"properties":{"collision type:":"Injury","city":"Lakeport","date:":"Wed, Dec 20, 06","time:":"1807","additional factors:":"inattention","agency":"LPD","id":"5","weather":"Clear, Dark, Dry","address":"949 Eleventh St","state":"California"},"type":"Feature","geometry":{"type":"Point","coordinates":[-122.923501,39.049007]}},{"properties":{"collision type:":"Injury","city":"Lakeport","date:":"Tue, Feb 6, 07","time:":"1428","additional factors:":"Undetermined","agency":"LPD","id":"6","weather":"Cloudy, Daylight, Dry","address":"1675 S Main Street","state":"California"},"type":"Feature","geometry":{"type":"Point","coordinates":[-122.916256,39.030972]}},{"properties":{"collision type:":"Injury","city":"Lakeport","date:":"Thu, Mar 22, 07","time:":"0950","additional factors:":"Suspended or revoked license","agency":"LPD","id":"7","weather":"Clear, Daylight, Dry","address":"965 Parallel Drive","state":"California"},"type":"Feature","geometry":{"type":"Point","coordinates":[-122.9273,39.035867]}},{"properties":{"collision type:":"Injury","city":"Lakeport","date:":"Mon, Mar 26, 07","time:":"1050","additional factors:":"inattention","agency":"LPD","id":"8","weather":"Raining, Daylight, Wet","address":"1305 South Main St.","state":"California"},"type":"Feature","geometry":{"type":"Point","coordinates":[-122.915829,39.033735]}},{"properties":{"collision type:":"Injury","city":"Lakeport","date:":"Fri, Mar 30, 07","time:":"1530","additional factors:":"Right of way on Sidewalk","agency":"LPD","id":"9","weather":"Clear, Daylight, Dry","address":"Library Park at 3rd St","state":"California"},"type":"Feature","geometry":{"type":"Point","coordinates":[-122.918098,39.043909]}},{"properties":{"collision type:":"Injury","city":"Lakeport","date:":"Fri, Apr 6, 07","time:":"1230","additional factors:":"Speeding","agency":"LPD","id":"10","weather":"Clear, Daylight, Dry","address":"11th St at Central Park road","state":"California"},"type":"Feature","geometry":{"type":"Point","coordinates":[-122.929201,39.049436]}},{"properties":{"collision type:":"Injury","city":"Lakeport","date:":"Wed, Apr 18, 07","time:":"1345","additional factors:":"Failure to signal","agency":"LPD","id":"11","weather":"Cloudy, Daylight, Dry","address":"S Main St at Industrial Ave","state":"California"},"type":"Feature","geometry":{"type":"Point","coordinates":[-122.916064,39.028097]}},{"properties":{"collision type:":"Injury","city":"Lakeport","date:":"Sat, May 12, 07","time:":"0145","additional factors:":"Failure to provide identification after accident","agency":"LPD","id":"12","weather":"Clear, Dark, Dry","address":"Spurr St at Bryce Ct","state":"California"},"type":"Feature","geometry":{"type":"Point","coordinates":[-122.926274,39.04436]}},{"properties":{"collision type:":"Injury","city":"Lakeport","date:":"Sat, Jun 9, 07","time:":"2220","additional factors:":"inattention","agency":"LPD","id":"13","weather":"Clear, Dark, Dry","address":"Lake County Fairgrounds","state":"California"},"type":"Feature","geometry":{"type":"Point","coordinates":[-122.920759,39.039411]}},{"properties":{"collision type:":"Injury","city":"Lakeport","date:":"Wed, Jun 27, 07","time:":"1404","additional factors:":"Failure to yield","agency":"LPD","id":"14","weather":"Clear, Daylight, Dry","address":"S Main St at Lakeport Blvd","state":"California"},"type":"Feature","geometry":{"type":"Point","coordinates":[-122.915649,39.034705]}},{"properties":{"collision type:":"Injury","city":"Lakeport","date:":"Tue, Aug 28, 07","time:":"1704","additional factors:":"Failure to heed yield sign","agency":"LPD","id":"15","weather":"Clear, Daylight, Dry","address":"Lakeport Boulevard at S Main","state":"California"},"type":"Feature","geometry":{"type":"Point","coordinates":[-122.915649,39.034705]}},{"properties":{"collision type:":"Injury","city":"Lakeport","date:":"Thu, Aug 30, 07","time:":"1715","additional factors:":"Failure to heed yield sign","agency":"LPD","id":"16","weather":"Clear, Daylight, Dry","address":"11th at N Forbes","state":"California"},"type":"Feature","geometry":{"type":"Point","coordinates":[-122.916077,39.048945]}},{"properties":{"collision type:":"Injury","city":"Lakeport","date:":"Thu, Nov 8, 07","time:":"2000","additional factors:":"Unsafe entry onto roadway","agency":"LPD","id":"17","weather":"Clear, Dark, Dry","address":"Konocti Ave at S Forbes","state":"California"},"type":"Feature","geometry":{"type":"Point","coordinates":[-122.916636,39.035287]}},{"properties":{"collision type:":"Injury","city":"Lakeport","date:":"Fri, Nov 9, 07","time:":"0830","additional factors:":"Failure to heed stop sign","agency":"LPD","id":"18","weather":"Clear, Daylight, Dry","address":"11th St  at N forbes","state":"California"},"type":"Feature","geometry":{"type":"Point","coordinates":[-122.916077,39.048945]}},{"properties":{"collision type:":"Injury","city":"Lakeport","date:":"Wed, Nov 14, 07","time:":"1500","additional factors:":"Unsafe entry onto roadway","agency":"LPD","id":"19","weather":"Clear, Daylight, Dry","address":"Pool St at 11th St","state":"California"},"type":"Feature","geometry":{"type":"Point","coordinates":[-122.921542,39.048991]}},{"properties":{"collision type:":"Injury","city":"Lakeport","date:":"Mon, Nov 26, 07","time:":"0900","additional factors:":"Following too closely","agency":"LPD","id":"20","weather":"Clear, Daylight, Dry","address":"Clearlake Ave at N Forbes","state":"California"},"type":"Feature","geometry":{"type":"Point","coordinates":[-122.916091,39.049928]}},{"properties":{"collision type:":"Injury","city":"Lakeport","date:":"Tue, Feb 12, 08","time:":"0800","additional factors:":"Following too closely","agency":"LPD","id":"21","weather":"Clear, Daylight, Dry","address":"Central Park Ave at Eleventh St","state":"California"},"type":"Feature","geometry":{"type":"Point","coordinates":[-122.929201,39.049436]}},{"properties":{"collision type:":"Injury","city":"Lakeport","date:":"Thu, Mar 20, 08","time:":"0950","additional factors:":"Following too closely","agency":"LPD","id":"22","weather":"Clear, Daylight, Dry","address":"Jones St. at Lakeshore Blvd.","state":"California"},"type":"Feature","geometry":{"type":"Point","coordinates":[-122.912891,39.057847]}},{"properties":{"collision type:":"Injury","city":"Lakeport","date:":"Wed, May 28, 08","time:":"1830","additional factors:":"Speeding","agency":"LPD","id":"23","weather":"Clear, Daylight, Dry","address":"Lakeport Blvd. At Larrecuo Lane.","state":"California"},"type":"Feature","geometry":{"type":"Point","coordinates":[-122.915829,39.042951]}},{"properties":{"collision type:":"Injury","city":"Lakeport","date:":"Thu, Jun 12, 08","time:":"0001","additional factors:":"Following too closely","agency":"LPD","id":"24","weather":"Clear, Night, Dry","address":"Martin St. at S. Main St.","state":"California"},"type":"Feature","geometry":{"type":"Point","coordinates":[-122.915195,39.040433]}},{"properties":{"collision type:":"Injury","city":"Lakeport","date:":"Thu, Jun 19, 08","time:":"1400","additional factors:":"Failure to yield","agency":"LPD","id":"25","weather":"Clear, Daylight, Dry","address":"Peckham Ct. at S. Main St.","state":"California"},"type":"Feature","geometry":{"type":"Point","coordinates":[-122.916007,39.025925]}},{"properties":{"collision type:":"Injury","city":"Lakeport","date:":"Fri, Jun 20, 08","time:":"1825","additional factors:":"Unsafe entry onto roadway","agency":"LPD","id":"26","weather":"Clear, Daylight, Dry","address":"N. Main Street.","state":"California"},"type":"Feature","geometry":{"type":"Point","coordinates":[-122.915105,39.048257]}},{"properties":{"collision type:":"Injury","city":"Lakeport","date:":"Tue, Jul 15, 08","time:":"1045","additional factors:":"Failure to yield","agency":"LPD","id":"27","weather":"Clear, Daylight, Dry","address":"Eleventh St. at Mellor St.","state":"California"},"type":"Feature","geometry":{"type":"Point","coordinates":[-122.92329,39.049021]}},{"properties":{"collision type:":"Injury","city":"Lakeport","date:":"Wed, Jul 23, 08","time:":"1445","additional factors:":"Following too closely","agency":"LPD","id":"28","weather":"Clear, Daylight, Dry","address":"Lakeshore Blvd. At Lange Street.","state":"California"},"type":"Feature","geometry":{"type":"Point","coordinates":[-122.913277,39.059225]}},{"properties":{"collision type:":"Injury","city":"Lakeport","date:":"Thu, Jul 24, 08","time:":"0925","additional factors:":"Failure to yield right of way at stop sign","agency":"LPD","id":"29","weather":"Clear, Daylight, Dry","address":"Sixteenth St. at Hartley Street.","state":"California"},"type":"Feature","geometry":{"type":"Point","coordinates":[-122.91882,39.052736]}},{"properties":{"collision type:":"Injury","city":"Lakeport","date:":"Sat, Aug 16, 08","time:":"1637","additional factors:":"medical condition","agency":"LPD","id":"30","weather":"Clear, Daylight, Dry","address":"Tunis Street at Eleventh Street.","state":"California"},"type":"Feature","geometry":{"type":"Point","coordinates":[-122.918967,39.048976]}},{"properties":{"collision type:":"Injury","city":"Lakeport","date:":"Sun, Oct 12, 08","time:":"1407","additional factors:":"Following too closely","agency":"LPD","id":"31","weather":"Clear, Daylight, Dry","address":"N. Main St. at Third St.","state":"California"},"type":"Feature","geometry":{"type":"Point","coordinates":[-122.915142,39.043895]}},{"properties":{"collision type:":"Injury","city":"Lakeport","date:":"Mon, Nov 17, 08","time:":"1410","additional factors:":"Speeding","agency":"LPD","id":"32","weather":"Clear, Daylight, Dry","address":"Eleventh Street at Pool Street","state":"California"},"type":"Feature","geometry":{"type":"Point","coordinates":[-122.921542,39.048991]}},{"properties":{"collision type:":"Injury","city":"Lakeport","date:":"Mon, Dec 29, 08","time:":"1712","additional factors:":"Unsafe entry onto roadway","agency":"LPD","id":"33","weather":"Cloudy, Dusk, Clear","address":"State Route 29 at Hopland Road","state":"California"},"type":"Feature","geometry":{"type":"Point","coordinates":[-122.91285,39.016848]}},{"properties":{"collision type:":"Injury","city":"Lakeport","date:":"Mon, Jan 19, 09","time:":"1730","additional factors:":"medical condition","agency":"LPD","id":"34","weather":"Clear, Daylight","address":"D Street at South Main Street.","state":"California"},"type":"Feature","geometry":{"type":"Point","coordinates":[-122.915226,39.038444]}},{"properties":{"collision type:":"Injury","city":"Lakeport","date:":"Thu, Mar 26, 09","time:":"0845","additional factors:":"Speeding","agency":"LPD","id":"35","weather":"Clear, Daylight","address":"Todd Rd. and Parallel Dr.","state":"California"},"type":"Feature","geometry":{"type":"Point","coordinates":[-122.925494,39.032003]}},{"properties":{"collision type:":"Injury","city":"Lakeport","date:":"Wed, Jun 17, 09","time:":"1725","additional factors:":"Following too closely","agency":"LPD","id":"36","weather":"Clear, Daylight","address":"State Route 29 at Hopland Road","state":"California"},"type":"Feature","geometry":{"type":"Point","coordinates":[-122.91285,39.016848]}},{"properties":{"collision type:":"Injury","city":"Lakeport","date:":"Fri, Jul 3, 09","time:":"1400","additional factors:":"Failure to yield right of way at crosswalk","agency":"LPD","id":"37","weather":"Clear, Daylight","address":"S. Main St. at Helena Ave.","state":"California"},"type":"Feature","geometry":{"type":"Point","coordinates":[-122.915339,39.036343]}},{"properties":{"collision type:":"Injury","city":"Lakeport","date:":"Tue, Jul 7, 09","time:":"1120","additional factors:":"Failure to yield","agency":"LPD","id":"38","weather":"Clear, Daylight","address":"Main St at E Royale Ave.","state":"California"},"type":"Feature","geometry":{"type":"Point","coordinates":[-122.915801,39.033772]}},{"properties":{"collision type:":"Injury","city":"Lakeport","date:":"Wed, Aug 12, 09","time:":"1009","additional factors:":"Speeding","agency":"LPD","id":"39","weather":"Clear, Daylight","address":"North St. at Eleventh St.","state":"California"},"type":"Feature","geometry":{"type":"Point","coordinates":[-122.919798,39.048986]}},{"properties":{"collision type:":"Injury","city":"Lakeport","date:":"Thu, Sep 10, 09","time:":"0935","additional factors:":"Unsafe entry onto roadway","agency":"LPD","id":"40","weather":"Clear, Daylight","address":"Starr St. at Second St.","state":"California"},"type":"Feature","geometry":{"type":"Point","coordinates":[-122.92272,39.043165]}},{"properties":{"collision type:":"Injury","city":"Lakeport","date:":"Thu, Oct 22, 09","time:":"1415","additional factors:":"Failure to yield","agency":"LPD","id":"41","weather":"Clear, Daylight","address":"Tenth Street at N. Main Street.","state":"California"},"type":"Feature","geometry":{"type":"Point","coordinates":[-122.915105,39.048257]}},{"properties":{"collision type:":"Injury","city":"Lakeport","date:":"Sat, Nov 21, 09","time:":"1530","additional factors:":"Passing on the right","agency":"LPD","id":"42","weather":"Clear, Daylight","address":"Lily Cove Ave. at S. Main St.","state":"California"},"type":"Feature","geometry":{"type":"Point","coordinates":[-122.915257,39.036872]}},{"properties":{"collision type:":"Injury","city":"Lakeport","date:":"Thu, Dec 3, 09","time:":"1810","additional factors:":"Unsafe entry onto roadway","agency":"LPD","id":"43","weather":"Clear, Dark, Clear","address":"S. Main St.","state":"California"},"type":"Feature","geometry":{"type":"Point","coordinates":[-122.916064,39.029619]}},{"properties":{"collision type:":"Injury","city":"Lakeport","date:":"Fri, Jan 29, 10","time:":"2130","additional factors:":"Failure to signal","agency":"LPD","id":"44","weather":"Clear, Dark, Clear","address":"Martin St at S. Main St.","state":"California"},"type":"Feature","geometry":{"type":"Point","coordinates":[-122.915195,39.040433]}},{"properties":{"collision type:":"Injury","city":"Lakeport","date:":"Sat, Mar 13, 10","time:":"2010","additional factors:":"Undetermined","agency":"LPD","id":"45","weather":"Clear, Dark, Clear","address":"Lupoyoma Circle at S. Main St.","state":"California"},"type":"Feature","geometry":{"type":"Point","coordinates":[-122.915289,39.036666]}},{"properties":{"collision type:":"Injury","city":"Lakeport","date:":"Thu, Apr 15, 10","time:":"1145","additional factors:":"Undetermined","agency":"LPD","id":"46","weather":"Clear, Daylight","address":"Grace Ln. at S. Main St.","state":"California"},"type":"Feature","geometry":{"type":"Point","coordinates":[-122.916093,39.03018]}},{"properties":{"collision type:":"Injury","city":"Lakeport","date:":"Fri, Apr 23, 10","time:":"1255","additional factors:":"Speeding","agency":"LPD","id":"47","weather":"Clear, Daylight","address":"Larrecou Lane at Lakeport blvd.","state":"California"},"type":"Feature","geometry":{"type":"Point","coordinates":[-122.920252,39.034631]}},{"properties":{"collision type:":"Injury","city":"Lakeport","date:":"Mon, Aug 2, 10","time:":"1442","additional factors:":"Failure to yield right of way at stop sign","agency":"LPD","id":"48","weather":"Clear, Daylight","address":"N. Forbes Street at Seventh Street.","state":"California"},"type":"Feature","geometry":{"type":"Point","coordinates":[-122.916088,39.046537]}},{"properties":{"collision type:":"Injury","city":"Lakeport","date:":"Wed, Aug 4, 10","time:":"1735","additional factors:":"Unsafe lane change","agency":"LPD","id":"49","weather":"Clear, Daylight","address":"South Main Street at Lakeport Boulevard.","state":"California"},"type":"Feature","geometry":{"type":"Point","coordinates":[-122.915649,39.034705]}},{"properties":{"collision type:":"Injury","city":"Lakeport","date:":"Wed, Aug 18, 10","time:":"1211","additional factors:":"Unsafe left or U-turn","agency":"LPD","id":"50","weather":"Clear, Daylight","address":"N. High Street at Fifteenth Street.","state":"California"},"type":"Feature","geometry":{"type":"Point","coordinates":[-122.916966,39.051972]}},{"properties":{"collision type:":"Injury","city":"Lakeport","date:":"Tue, Sep 14, 10","time:":"0800","additional factors:":"Bicycle in traffic","agency":"LPD","id":"51","weather":"Clear, Daylight","address":"Thirteenth Street at N. High Street.","state":"California"},"type":"Feature","geometry":{"type":"Point","coordinates":[-122.916977,39.050758]}},{"properties":{"collision type:":"Injury","city":"Lakeport","date:":"Mon, Oct 4, 10","time:":"1420","additional factors:":"Speeding","agency":"LPD","id":"52","weather":"Cloudy, Day, Clear","address":"S. Main Street at Lupoyoma Ht.","state":"California"},"type":"Feature","geometry":{"type":"Point","coordinates":[-122.915829,39.042951]}},{"properties":{"collision type:":"Injury","city":"Lakeport","date:":"Fri, Oct 15, 10","time:":"0840","additional factors:":"inattention","agency":"LPD","id":"53","weather":"Clear, Daylight","address":"1175 Parallel Drive","state":"California"},"type":"Feature","geometry":{"type":"Point","coordinates":[-122.926693,39.033708]}},{"properties":{"collision type:":"Injury","city":"Lakeport","date:":"Thu, Nov 11, 10","time:":"1530","additional factors:":"Following too closely","agency":"LPD","id":"54","weather":"Clear, Daylight","address":"Eleventh St. at North St.","state":"California"},"type":"Feature","geometry":{"type":"Point","coordinates":[-122.919798,39.048986]}},{"properties":{"collision type:":"Injury","city":"Lakeport","date:":"Fri, Dec 3, 10","time:":"1600","additional factors:":"Operating phone while driving","agency":"LPD","id":"55","weather":"Cloudy, Day, Clear","address":"North Tunis Street at Eleventh Street","state":"California"},"type":"Feature","geometry":{"type":"Point","coordinates":[-122.918967,39.048976]}},{"properties":{"collision type:":"Injury","city":"Lakeport","date:":"Sat, Jan 1, 11","time:":"1600","additional factors:":"Undetermined","agency":"LPD","id":"56","weather":"Rain, Day, Wet","address":"Brush St. at Tenth St.","state":"California"},"type":"Feature","geometry":{"type":"Point","coordinates":[-122.918103,39.048281]}},{"properties":{"collision type:":"Injury","city":"Lakeport","date:":"Sat, Mar 5, 11","time:":"0530","additional factors:":"Speeding","agency":"LPD","id":"57","weather":"Clear, Dark, Cleat","address":"Clearlake Ave. at Eleventh St.","state":"California"},"type":"Feature","geometry":{"type":"Point","coordinates":[-122.92329,39.049021]}},{"properties":{"collision type:":"Injury","city":"Lakeport","date:":"Sat, Jun 11, 11","time:":"1350","additional factors:":"Failure to yield","agency":"LPD","id":"58","weather":"Clear, Daylight","address":"11th St at Poole","state":"California"},"type":"Feature","geometry":{"type":"Point","coordinates":[-122.915829,39.042951]}},{"properties":{"collision type:":"Injury","city":"Lakeport","date:":"Sun, Jul 3, 11","time:":"1830","additional factors:":"Hit and run","agency":"LPD","id":"59","weather":"Clear, Dusk, Clear","address":"Main St at 3rd St.","state":"California"},"type":"Feature","geometry":{"type":"Point","coordinates":[-122.915142,39.043895]}},{"properties":{"collision type:":"Injury","city":"Lakeport","date:":"Sat, Jul 9, 11","time:":"1100","additional factors:":"Failure to signal","agency":"LPD","id":"60","weather":"Clear, Daylight","address":"S. Forbes St. at Armstrong St.","state":"California"},"type":"Feature","geometry":{"type":"Point","coordinates":[-122.916138,39.041255]}},{"properties":{"collision type:":"Injury","city":"Lakeport","date:":"Tue, Jul 26, 11","time:":"2330","additional factors:":"Undetermined","agency":"LPD","id":"61","weather":"Clear, Dark, Cleat","address":"Martin at S. Forbes St","state":"California"},"type":"Feature","geometry":{"type":"Point","coordinates":[-122.916127,39.040434]}},{"properties":{"collision type:":"Injury","city":"Lakeport","date:":"Tue, Aug 2, 11","time:":"1800","additional factors:":"Unsafe entry onto roadway","agency":"LPD","id":"62","weather":"Clear, Daylight","address":"N. Main St. at C St.","state":"California"},"type":"Feature","geometry":{"type":"Point","coordinates":[-122.915209,39.039422]}},{"properties":{"collision type:":"Injury","city":"Lakeport","date:":"Fri, Aug 5, 11","time:":"0740","additional factors:":"Unsafe entry onto roadway","agency":"LPD","id":"63","weather":"Clear, Daylight","address":"Parallel Dr. at Lakeport Boulevard","state":"California"},"type":"Feature","geometry":{"type":"Point","coordinates":[-122.920252,39.034631]}},{"properties":{"collision type:":"Injury","city":"Lakeport","date:":"Fri, Aug 12, 11","time:":"2045","additional factors:":"Speeding","agency":"LPD","id":"64","weather":"Clear, Dark, Cleat","address":"Main St. at Fifth St.","state":"California"},"type":"Feature","geometry":{"type":"Point","coordinates":[-122.915126,39.045303]}},{"properties":{"collision type:":"Injury","city":"Lakeport","date:":"Sun, Apr 9, 06","time:":"1000","additional factors:":"Failure to heed yield sign","agency":"LPD","id":"65","weather":"Raining, Daylight, Wet","address":"Mellor St at Fifteenth St","state":"California"},"type":"Feature","geometry":{"type":"Point","coordinates":[-122.923285,39.05204]}},{"properties":{"collision type:":"Injury","city":"Lakeport","date:":"Tue, May 9, 06","time:":"1721","additional factors:":"Unsafe left or U-turn","agency":"LPD","id":"66","weather":"Clear, Daylight, Dry","address":"1200 block S Main St at Royal Ave","state":"California"},"type":"Feature","geometry":{"type":"Point","coordinates":[-122.915736,39.034113]}},{"properties":{"collision type:":"Injury","city":"Lakeport","date:":"Tue, Feb 27, 07","time:":"0820","additional factors:":"Failure to yield right of way at crosswalk","agency":"LPD","id":"67","weather":"Cloudy, Snow, Daylight, Wet","address":"N Forbes St at 3rd St","state":"California"},"type":"Feature","geometry":{"type":"Point","coordinates":[-122.916131,39.043911]}},{"properties":{"collision type:":"Injury","city":"Lakeport","date:":"Sat, Aug 11, 07","time:":"1846","additional factors:":"Speeding","agency":"LPD","id":"68","weather":"Clear, Daylight, Dry","address":"2019 South Main Street","state":"California"},"type":"Feature","geometry":{"type":"Point","coordinates":[-122.917568,39.026898]}},{"properties":{"collision type:":"Injury","city":"Lakeport","date:":"Fri, Oct 26, 07","time:":"2100","additional factors:":"Evading a police officer or reckless driving","agency":"LPD","id":"69","weather":"Clear, Dark, Slippery, Holes, Loose, Material","address":"1 1st Street","state":"California"},"type":"Feature","geometry":{"type":"Point","coordinates":[-122.912838,39.041175]}},{"properties":{"collision type:":"Injury","city":"Lakeport","date:":"Mon, Sep 15, 08","time:":"1715","additional factors:":"Following too closely","agency":"LPD","id":"70","weather":"Clear, Daylight, Dry","address":"1151 11th Street","state":"California"},"type":"Feature","geometry":{"type":"Point","coordinates":[-122.926653,39.048576]}},{"properties":{"collision type:":"Injury","city":"Lakeport","date:":"Fri, Jan 23, 09","time:":"1200","additional factors:":"Speeding","agency":"LPD","id":"71","weather":"Clear, Daylight","address":"Clearlake Ave. at High St.","state":"California"},"type":"Feature","geometry":{"type":"Point","coordinates":[-122.916989,39.049927]}},{"properties":{"collision type:":"Injury","city":"Lakeport","date:":"Sat, Mar 7, 09","time:":"0935","additional factors:":"Failure to yield","agency":"LPD","id":"72","weather":"Clear, Daylight","address":"1665 South Main St.","state":"California"},"type":"Feature","geometry":{"type":"Point","coordinates":[-122.916807,39.031136]}},{"properties":{"collision type:":"Injury","city":"Lakeport","date:":"Tue, Mar 24, 09","time:":"1751","additional factors:":"Speeding","agency":"LPD","id":"73","weather":"Clear, Daylight","address":"Tunis Street at Eleventh Street.","state":"California"},"type":"Feature","geometry":{"type":"Point","coordinates":[-122.918967,39.048976]}},{"properties":{"collision type:":"Injury","city":"Lakeport","date:":"Mon, Apr 13, 09","time:":"1515","additional factors:":"Following too closely","agency":"LPD","id":"74","weather":"Clear, Daylight","address":"C Street at Main St.","state":"California"},"type":"Feature","geometry":{"type":"Point","coordinates":[-122.915209,39.039422]}},{"properties":{"collision type:":"Injury","city":"Lakeport","date:":"Fri, May 1, 09","time:":"1430","additional factors:":"Non-conforming motorcycle","agency":"LPD","id":"75","weather":"Rain, Reduced Visibility, Wet","address":"Eleventh St. at Brush St.","state":"California"},"type":"Feature","geometry":{"type":"Point","coordinates":[-122.91808,39.048967]}},{"properties":{"collision type:":"Injury","city":"Lakeport","date:":"Thu, Sep 3, 09","time:":"1650","additional factors:":"Failure to yield right of way at crosswalk","agency":"LPD","id":"76","weather":"Clear, Daylight","address":"Main St. at First St.","state":"California"},"type":"Feature","geometry":{"type":"Point","coordinates":[-122.915166,39.042258]}},{"properties":{"collision type:":"Injury","city":"Lakeport","date:":"Tue, Sep 22, 09","time:":"1217","additional factors:":"Failure to signal","agency":"LPD","id":"77","weather":"Clear, Daylight","address":"Lakeport Bl. At Lakeport Bl.","state":"California"},"type":"Feature","geometry":{"type":"Point","coordinates":[-122.920252,39.034631]}},{"properties":{"collision type:":"Injury","city":"Lakeport","date:":"Mon, Nov 30, 09","time:":"1040","additional factors:":"Unsafe left or U-turn","agency":"LPD","id":"78","weather":"Clear, Daylight","address":"Eleventh St. at Pool St.","state":"California"},"type":"Feature","geometry":{"type":"Point","coordinates":[-122.921542,39.048991]}},{"properties":{"collision type:":"Injury","city":"Lakeport","date:":"Mon, May 17, 10","time:":"1145","additional factors:":"Failure to yield","agency":"LPD","id":"79","weather":"Rain, Day, Wey","address":"S. Main Street at Industrial Lane","state":"California"},"type":"Feature","geometry":{"type":"Point","coordinates":[-122.916064,39.028097]}},{"properties":{"collision type:":"Injury","city":"Lakeport","date:":"Mon, Jul 26, 10","time:":"1055","additional factors:":"Pedestrian on roadway","agency":"LPD","id":"80","weather":"Clear, Daylight","address":"Main Street between Second and Third Street","state":"California"},"type":"Feature","geometry":{"type":"Point","coordinates":[-122.918098,39.043909]}},{"properties":{"collision type:":"Injury","city":"Lakeport","date:":"Fri, Feb 18, 11","time:":"2002","additional factors:":"Pedestrian on roadway","agency":"LPD","id":"81","weather":"Rain, Dark, Wet","address":"Armstrong St. at Polk St.","state":"California"},"type":"Feature","geometry":{"type":"Point","coordinates":[-122.921711,39.041304]}},{"properties":{"collision type:":"Injury","city":"Lakeport","date:":"Sun, Feb 20, 11","time:":"2320","additional factors:":"Operating phone while driving","agency":"LPD","id":"82","weather":"Clear, Dark, Cleat","address":"Pool St at Eleventh St.","state":"California"},"type":"Feature","geometry":{"type":"Point","coordinates":[-122.921542,39.048991]}},{"properties":{"collision type:":"Injury","city":"Lakeport","date:":"Tue, Mar 29, 11","time:":"1900","additional factors:":"Unsafe entry onto roadway","agency":"LPD","id":"83","weather":"Clear, Dusk, Clear","address":"Second Street at Main St.","state":"California"},"type":"Feature","geometry":{"type":"Point","coordinates":[-122.915153,39.043129]}},{"properties":{"collision type:":"Injury","city":"Lakeport","date:":"Thu, Jun 9, 11","time:":"1400","additional factors:":"Speeding","agency":"LPD","id":"84","weather":"Clear, Daylight","address":"N Forbes Street at Third St.","state":"California"},"type":"Feature","geometry":{"type":"Point","coordinates":[-122.916131,39.043911]}},{"properties":{"collision type:":"Injury","city":"Lakeport","date:":"Thu, Jul 14, 11","time:":"0700","additional factors:":"wildlife in roadway","agency":"LPD","id":"85","weather":"Clear, Daylight","address":"Hartley Road at Stardust","state":"California"},"type":"Feature","geometry":{"type":"Point","coordinates":[-122.915829,39.042951]}},{"properties":{"collision type:":"Injury","city":"Lakeport","date:":"Wed, Aug 3, 11","time:":"1945","additional factors:":"Failure to yield right of way at stop sign","agency":"LPD","id":"86","weather":"Clear, Dusk, Clear","address":"North St at 11th St","state":"California"},"type":"Feature","geometry":{"type":"Point","coordinates":[-122.919798,39.048986]}},{"properties":{"collision type:":"Injury","city":"Lakeport","date:":"Sat, Aug 20, 11","time:":"1450","additional factors:":"Unsafe entry onto roadway","agency":"LPD","id":"87","weather":"Clear, Daylight","address":"N. Forbes St. at Third St.","state":"California"},"type":"Feature","geometry":{"type":"Point","coordinates":[-122.916131,39.043911]}},{"properties":{"collision type:":"Injury","city":"Lakeport","date:":"Fri, Sep 2, 11","time:":"1630","additional factors:":"Speeding","agency":"LPD","id":"88","weather":"Clear, Daylight","address":"Eleventh St. at Mellor Dr.","state":"California"},"type":"Feature","geometry":{"type":"Point","coordinates":[-122.92329,39.049021]}},{"properties":{"collision type:":"Injury","city":"Kelseyville","date:":"Sat, Mar 11, 06","time:":"13:42","additional factors:":"Undetermined","agency":"CHP","id":"89","weather":"Clear, dry","address":"Siegler Canyon Road 1.1 miles at SR-29","state":"California"},"type":"Feature","geometry":{"type":"Point","coordinates":[-122.839438,38.977953]}},{"properties":{"collision type:":"Injury","city":"Clearlake Oaks","date:":"Wed, Apr 5, 06","time:":"15:25","additional factors:":"Undetermined","agency":"CHP","id":"90","weather":"Fair","address":"SR-53 at SR-20","state":"California"},"type":"Feature","geometry":{"type":"Point","coordinates":[-122.613813,39.008786]}},{"properties":{"collision type:":"Injury","city":"Cobb","date:":"Tue, Apr 11, 06","time:":"21:40","additional factors:":"Undetermined","agency":"CHP","id":"91","weather":"Rain","address":"SR-29 at SR-175","state":"California"},"type":"Feature","geometry":{"type":"Point","coordinates":[-122.720299,38.83886]}},{"properties":{"collision type:":"Injury","city":"Lakeport","date:":"Mon, Apr 17, 06","time:":"18:40","additional factors:":"Speed DUI","agency":"CHP","id":"92","weather":"Cool","address":"SR-175 Hopland at the Lake/Mendocino County line","state":"California"},"type":"Feature","geometry":{"type":"Point","coordinates":[-122.988298,38.988955]}},{"properties":{"collision type:":"Injury","city":"Middletown","date:":"Tue, May 30, 06","time:":"19:20","additional factors:":"Undetermined","agency":"CHP","id":"93","weather":"Clear, dry, warm","address":"SR-29 at West Road","state":"California"},"type":"Feature","geometry":{"type":"Point","coordinates":[-122.608356,38.707868]}},{"properties":{"collision type:":"Injury","city":"Clearlake Oaks","date:":"Mon, Jun 19, 06","time:":"8:30","additional factors:":"Undetermined","agency":"CHP","id":"94","weather":"Clear, dry, warm","address":"California 20 at Walker Ridge Road","state":"California"},"type":"Feature","geometry":{"type":"Point","coordinates":[-122.45358,39.022928]}},{"properties":{"collision type:":"Injury","city":"Cobb","date:":"Sat, Jul 29, 06","time:":"16:05","additional factors:":"Undetermined","agency":"CHP","id":"95","weather":"Clear,","address":"Bottle Rock Road at Harrington Flat Road","state":"California"},"type":"Feature","geometry":{"type":"Point","coordinates":[-122.732473,38.854947]}},{"properties":{"collision type:":"Injury","city":"Lower Lake","date:":"Sat, Aug 19, 06","time:":"7:17","additional factors:":"Undetermined","agency":"CHP","id":"96","weather":"Clear, dry, warm","address":"SR-29 at Epidendio Construction Yard","state":"California"},"type":"Feature","geometry":{"type":"Point","coordinates":[-122.610261,38.910455]}},{"properties":{"collision type:":"Injury","city":"Kelseyville","date:":"Tue, Sep 12, 06","time:":"17:20","additional factors:":"Undetermined","agency":"CHP","id":"97","weather":"Clear,","address":"SR-29 at SR-281","state":"California"},"type":"Feature","geometry":{"type":"Point","coordinates":[-122.741459,38.929699]}},{"properties":{"collision type:":"Injury","city":"Clearlake Oaks","date:":"Thu, Oct 12, 06","time:":"9:40","additional factors:":"Speed","agency":"CHP","id":"98","weather":"Clear, dry","address":"SR-20 eastbound .2 mile at Henderson Drive","state":"California"},"type":"Feature","geometry":{"type":"Point","coordinates":[-122.67193,39.026284]}},{"properties":{"collision type:":"Injury","city":"Lakeport","date:":"Thu, Oct 12, 06","time:":"10:35","additional factors:":"Undetermined","agency":"CHP","id":"99","weather":"Clear, dry,","address":"Westbound Nice-Lucerne Cutoff .7 at West Lake Road","state":"California"},"type":"Feature","geometry":{"type":"Point","coordinates":[-122.915829,39.042951]}},{"properties":{"collision type:":"Injury","city":"Middletown","date:":"Sat, Nov 4, 06","time:":"23:55","additional factors:":"Undetermined","agency":"CHP","id":"100","weather":"Partly, cloudy,","address":"SR-29 at Twin Pines Casino","state":"California"},"type":"Feature","geometry":{"type":"Point","coordinates":[-122.614985,38.752404]}},{"properties":{"collision type:":"Injury","city":"Clearlake Oaks","date:":"Sun, Nov 26, 06","time:":"18:07","additional factors:":"Undetermined","agency":"CHP","id":"101","weather":"Overcast, light, rain","address":"SR-20 at Walker Ridge Road","state":"California"},"type":"Feature","geometry":{"type":"Point","coordinates":[-122.45358,39.022928]}},{"properties":{"collision type:":"Injury","city":"Kelseyville","date:":"Thu, Nov 30, 06","time:":"7:00","additional factors:":"Undetermined","agency":"CHP","id":"102","weather":"Cold, clear","address":"SR-29 at Live Oak Drive","state":"California"},"type":"Feature","geometry":{"type":"Point","coordinates":[-122.832834,38.972356]}},{"properties":{"collision type:":"Injury","city":"Cobb","date:":"Sat, Mar 3, 07","time:":"18:09","additional factors:":"Undetermined","agency":"CHP","id":"103","weather":"Clear, dry","address":"SR-175 at Entrance Road","state":"California"},"type":"Feature","geometry":{"type":"Point","coordinates":[-122.722326,38.844134]}},{"properties":{"collision type:":"Injury","city":"Cobb","date:":"Sat, Mar 3, 07","time:":"18:09","additional factors:":"Speed","agency":"CHP","id":"104","weather":"Clear, dry","address":"SR-175 at Entrance Road","state":"California"},"type":"Feature","geometry":{"type":"Point","coordinates":[-122.722326,38.844134]}},{"properties":{"collision type:":"Injury","city":"Lower Lake","date:":"Tue, Mar 6, 07","time:":"10:05","additional factors:":"Undetermined","agency":"CHP","id":"105","weather":"Clear,","address":"SR-29 at SR-53","state":"California"},"type":"Feature","geometry":{"type":"Point","coordinates":[-122.61225,38.910195]}},{"properties":{"collision type:":"Injury","city":"Clearlake Oaks","date:":"Tue, Mar 13, 07","time:":"19:08","additional factors:":"Speed","agency":"CHP","id":"106","weather":"Clear,","address":"SR-20 at Walker Ridge Road","state":"California"},"type":"Feature","geometry":{"type":"Point","coordinates":[-122.45358,39.022928]}},{"properties":{"collision type:":"Injury","city":"Upper Lake","date:":"Fri, Apr 6, 07","time:":"15:39","additional factors:":"Undetermined","agency":"CHP","id":"107","weather":"Clear,","address":"SR-20 at Blue Lakes Road","state":"California"},"type":"Feature","geometry":{"type":"Point","coordinates":[-123.029457,39.18661]}},{"properties":{"collision type:":"Injury","city":"Middletown","date:":"Wed, May 2, 07","time:":"21:55","additional factors:":"Undetermined","agency":"CHP","id":"108","weather":"Cool, clear","address":"SR-29 at Grange Road","state":"California"},"type":"Feature","geometry":{"type":"Point","coordinates":[-122.568813,38.78397]}},{"properties":{"collision type:":"Injury","city":"Upper Lake","date:":"Wed, May 30, 07","time:":"6:30","additional factors:":"Speed","agency":"CHP","id":"109","weather":"Clear, dry, mild","address":"Red Mountain Campground area Cow Mountain","state":"California"},"type":"Feature","geometry":{"type":"Point","coordinates":[-122.910551,39.164613]}},{"properties":{"collision type:":"Injury","city":"Kelseyville","date:":"Tue, Jul 24, 07","time:":"10:20","additional factors:":"Undetermined","agency":"CHP","id":"110","weather":"Clear, dry","address":"Soda Bay Road at Blower Road","state":"California"},"type":"Feature","geometry":{"type":"Point","coordinates":[-122.861554,39.014922]}},{"properties":{"collision type:":"Injury","city":"Kelseyville","date:":"Sun, Aug 5, 07","time:":"n/a","additional factors:":"Undetermined","agency":"CHP","id":"111","weather":"Warm, clear","address":"Deiner Drive at SR-29","state":"California"},"type":"Feature","geometry":{"type":"Point","coordinates":[-122.839438,38.977953]}},{"properties":{"collision type:":"Injury","city":"Lucerne","date:":"Wed, Aug 29, 07","time:":"10:30","additional factors:":"Undetermined","agency":"CHP","id":"112","weather":"Daylight, hot","address":"Westbound SR-20 at Bruner Drive","state":"California"},"type":"Feature","geometry":{"type":"Point","coordinates":[-122.771846,39.043516]}},{"properties":{"collision type:":"Injury","city":"Lakeport","date:":"Sun, Sep 23, 07","time:":"17:00","additional factors:":"Undetermined","agency":"CHP","id":"113","weather":"Clear,","address":"Cow Mountain recreation area","state":"California"},"type":"Feature","geometry":{"type":"Point","coordinates":[-122.915829,39.042951]}},{"properties":{"collision type:":"Injury","city":"Lucerne","date:":"Wed, Dec 26, 07","time:":"21:40","additional factors:":"Speed DUI","agency":"CHP","id":"114","weather":"Cold, clear","address":"SR-20 at Cora Drive","state":"California"},"type":"Feature","geometry":{"type":"Point","coordinates":[-122.765622,39.039099]}},{"properties":{"collision type:":"Injury","city":"Lower Lake","date:":"Sun, Mar 16, 08","time:":"16:35","additional factors:":"Undetermined","agency":"CHP","id":"115","weather":"Clear,","address":"SR-29  at Clayton Creek Road","state":"California"},"type":"Feature","geometry":{"type":"Point","coordinates":[-122.611666,38.901912]}},{"properties":{"collision type:":"Injury","city":"Upper Lake","date:":"Sat, May 17, 08","time:":"12:15","additional factors:":"Undetermined","agency":"CHP","id":"116","weather":"Clear,","address":"SR-20 at Van Sleeper Road","state":"California"},"type":"Feature","geometry":{"type":"Point","coordinates":[-122.926862,39.165854]}},{"properties":{"collision type:":"Injury","city":"Hidden Valley Lake","date:":"Tue, Jul 15, 08","time:":"14:56","additional factors:":"Speed DUI","agency":"CHP","id":"117","weather":"Hot, dry","address":"SR-29 at Spruce Grove Road (South)","state":"California"},"type":"Feature","geometry":{"type":"Point","coordinates":[-122.576607,38.819894]}},{"properties":{"collision type:":"Injury","city":"Clearlake Oaks","date:":"Thu, Aug 14, 08","time:":"10:38","additional factors:":"Undetermined","agency":"CHP","id":"118","weather":"Clear,","address":"SR-20 at SR-53","state":"California"},"type":"Feature","geometry":{"type":"Point","coordinates":[-122.613813,39.008786]}},{"properties":{"collision type:":"Injury","city":"Kelseyville","date:":"Mon, Sep 1, 08","time:":"15:32","additional factors:":"Undetermined","agency":"CHP","id":"119","weather":"Clear, warm","address":"SR-29 at Kelseyville Auto Salvage","state":"California"},"type":"Feature","geometry":{"type":"Point","coordinates":[-122.839438,38.977953]}},{"properties":{"collision type:":"Injury","city":"Middletown","date:":"Sat, Nov 15, 08","time:":"11:05","additional factors:":"Undetermined","agency":"CHP","id":"120","weather":"Clear,","address":"SR-20 at South Fork/Cache Creek Bridge","state":"California"},"type":"Feature","geometry":{"type":"Point","coordinates":[-122.614985,38.752404]}},{"properties":{"collision type:":"Injury","city":"Clearlake","date:":"Wed, Feb 4, 09","time:":"19:55","additional factors:":"Undetermined","agency":"CHP","id":"121","weather":"Cool, dark","address":"Manzanita Drive at SR-20","state":"California"},"type":"Feature","geometry":{"type":"Point","coordinates":[-122.83615,39.120119]}},{"properties":{"collision type:":"Injury","city":"Nice","date:":"Sun, Apr 26, 09","time:":"10:12","additional factors:":"Speed DUI","agency":"CHP","id":"122","weather":"Clear, dry","address":"Lakeview Drive @ Sayre Street","state":"California"},"type":"Feature","geometry":{"type":"Point","coordinates":[-122.847492,39.123645]}},{"properties":{"collision type:":"Injury","city":"Clearlake","date:":"Sun, Jun 7, 09","time:":"11:28","additional factors:":"Undetermined","agency":"CHP","id":"123","weather":"Clear, dry","address":"SR-20 at Pomo Way","state":"California"},"type":"Feature","geometry":{"type":"Point","coordinates":[-122.88279,39.141557]}},{"properties":{"collision type:":"Injury","city":"Clearlake Oaks","date:":"Mon, Jun 15, 09","time:":"7:00","additional factors:":"Undetermined","agency":"CHP","id":"124","weather":"Clear, dry","address":"SR-20 at Walker Ridge Road","state":"California"},"type":"Feature","geometry":{"type":"Point","coordinates":[-122.45358,39.022928]}},{"properties":{"collision type:":"Injury","city":"Clearlake Oaks","date:":"Mon, Oct 19, 09","time:":"7:20","additional factors:":"Undetermined","agency":"CHP","id":"125","weather":"Rain","address":"SR-20 at Hillside Lane","state":"California"},"type":"Feature","geometry":{"type":"Point","coordinates":[-122.686179,39.019719]}},{"properties":{"collision type:":"Injury","city":"Upper Lake","date:":"Fri, Nov 27, 09","time:":"15:27","additional factors:":"Undetermined","agency":"CHP","id":"126","weather":"Light, Rain","address":"Elk Mountain Road","state":"California"},"type":"Feature","geometry":{"type":"Point","coordinates":[-122.946037,39.313239]}},{"properties":{"collision type:":"Injury","city":"Clearlake Oaks","date:":"Thu, Dec 24, 09","time:":"5:40","additional factors:":"Undetermined","agency":"CHP","id":"127","weather":"Cold","address":"SR-20 1 1/2 miles at the Cache Creek bridge","state":"California"},"type":"Feature","geometry":{"type":"Point","coordinates":[-122.67193,39.026284]}},{"properties":{"collision type:":"Injury","city":"Middletown","date:":"Mon, Apr 12, 10","time:":"8:30","additional factors:":"Undetermined","agency":"CHP","id":"128","weather":"Rain,","address":"SR-29 at Hartmann Road","state":"California"},"type":"Feature","geometry":{"type":"Point","coordinates":[-122.565924,38.792313]}},{"properties":{"collision type:":"Injury","city":"Clearlake Oaks","date:":"Tue, Apr 27, 10","time:":"8:44","additional factors:":"Undetermined","agency":"CHP","id":"129","weather":"Rain, clouds, wet, roadway","address":"SR-20 at Henderson Drive","state":"California"},"type":"Feature","geometry":{"type":"Point","coordinates":[-122.714272,39.021829]}},{"properties":{"collision type:":"Injury","city":"Clearlake","date:":"Thu, Apr 29, 10","time:":"7:58","additional factors:":"Undetermined","agency":"CHP","id":"130","weather":"Cool, dry","address":"SR-53 at Dam Road","state":"California"},"type":"Feature","geometry":{"type":"Point","coordinates":[-122.618887,38.930062]}},{"properties":{"collision type:":"Injury","city":"Hidden Valley Lake","date:":"Thu, May 6, 10","time:":"5:25","additional factors:":"Undetermined","agency":"CHP","id":"131","weather":"Clear, cool, dry","address":"SR-29 at Arabian Lane","state":"California"},"type":"Feature","geometry":{"type":"Point","coordinates":[-122.567247,38.794991]}},{"properties":{"collision type:":"Injury","city":"Middletown","date:":"Fri, Jun 11, 10","time:":"23:00","additional factors:":"Undetermined","agency":"CHP","id":"132","weather":"Clear, dry, cool,","address":"Spruce Grove Road North at Noble Ranch Road","state":"California"},"type":"Feature","geometry":{"type":"Point","coordinates":[-122.556026,38.853935]}},{"properties":{"collision type:":"Injury","city":"Kelseyville","date:":"Tue, Jun 22, 10","time:":"13:15","additional factors:":"Undetermined","agency":"CHP","id":"133","weather":"Warm, clear","address":"Soda Bay Road at Crystal Drive","state":"California"},"type":"Feature","geometry":{"type":"Point","coordinates":[-122.75304,38.998551]}},{"properties":{"collision type:":"Injury","city":"Middletown","date:":"Fri, Jun 25, 10","time:":"12:57","additional factors:":"Undetermined","agency":"CHP","id":"134","weather":"Clear, dry","address":"SR-175 at Santa Barbara Avenue","state":"California"},"type":"Feature","geometry":{"type":"Point","coordinates":[-122.634888,38.757474]}},{"properties":{"collision type:":"Injury","city":"Clearlake Oaks","date:":"Sat, Jul 3, 10","time:":"21:49","additional factors:":"Undetermined","agency":"CHP","id":"135","weather":"Clear, dry","address":"SR-20 at Orchard Shores Drive","state":"California"},"type":"Feature","geometry":{"type":"Point","coordinates":[-122.654394,39.018218]}},{"properties":{"collision type:":"Injury","city":"Lucerne","date:":"Mon, Jul 5, 10","time:":"6:00","additional factors:":"Undetermined","agency":"CHP","id":"136","weather":"Clear,","address":"SR-20 at Oak Crest Avenue","state":"California"},"type":"Feature","geometry":{"type":"Point","coordinates":[-122.782005,39.071252]}},{"properties":{"collision type:":"Injury","city":"Cobb","date:":"Thu, Jul 22, 10","time:":"15:00","additional factors:":"Undetermined","agency":"CHP","id":"137","weather":"Warm","address":"SR-175 at McKinley Drive","state":"California"},"type":"Feature","geometry":{"type":"Point","coordinates":[-122.720299,38.83886]}},{"properties":{"collision type:":"Injury","city":"Middletown","date:":"Tue, Aug 17, 10","time:":"10:04","additional factors:":"Undetermined","agency":"CHP","id":"138","weather":"Clear, warm","address":"SR-29 at Butts Canyon Road","state":"California"},"type":"Feature","geometry":{"type":"Point","coordinates":[-122.606963,38.756918]}},{"properties":{"collision type:":"Injury","city":"Lakeport","date:":"Thu, Mar 3, 11","time:":"n/a","additional factors:":"Undetermined","agency":"CHP","id":"139","weather":"Clear, dry, dusk","address":"Nice Lucerne Cut-Off westbound","state":"California"},"type":"Feature","geometry":{"type":"Point","coordinates":[-122.915829,39.042951]}},{"properties":{"collision type:":"Injury","city":"Kelseyville","date:":"Wed, Apr 6, 11","time:":"12:10","additional factors:":"Undetermined","agency":"CHP","id":"140","weather":"Clear,","address":"SR-29 at Cruickshank Road","state":"California"},"type":"Feature","geometry":{"type":"Point","coordinates":[-122.828613,38.967388]}},{"properties":{"collision type:":"Injury","city":"Cobb","date:":"Sat, May 28, 11","time:":"13:10","additional factors:":"Undetermined","agency":"CHP","id":"141","weather":"Cloudy, raining","address":"SR-175 at Arroyo Vista Road","state":"California"},"type":"Feature","geometry":{"type":"Point","coordinates":[-122.709476,38.808358]}},{"properties":{"collision type:":"Injury","city":"Clearlake","date:":"Sun, Dec 3, 06","time:":"820","additional factors:":"Unsafe entry Onto Highway","agency":"CPD","id":"142","weather":"Weather, conditions, n/a","address":"OLD HWY 53  at  LAKEVIEW WAY","state":"California"},"type":"Feature","geometry":{"type":"Point","coordinates":[-122.627463,38.936867]}},{"properties":{"collision type:":"Injury","city":"Clearlake","date:":"Sat, Dec 9, 06","time:":"1741","additional factors:":"Speeding","agency":"CPD","id":"143","weather":"Weather, conditions, n/a","address":"OLD HIGHWAY 53 at HILLCREST AV","state":"California"},"type":"Feature","geometry":{"type":"Point","coordinates":[-122.631179,38.952608]}},{"properties":{"collision type:":"Injury","city":"Clearlake","date:":"Tue, Dec 12, 06","time:":"1926","additional factors:":"Speeding","agency":"CPD","id":"144","weather":"Weather, conditions, n/a","address":"HWY 53 at DAM RD","state":"California"},"type":"Feature","geometry":{"type":"Point","coordinates":[-122.618887,38.930062]}},{"properties":{"collision type:":"Injury","city":"Clearlake","date:":"Thu, Dec 21, 06","time:":"2138","additional factors:":"Failure to signal","agency":"CPD","id":"145","weather":"Weather, conditions, n/a","address":"3670 PARK ST","state":"California"},"type":"Feature","geometry":{"type":"Point","coordinates":[-122.654291,38.968197]}},{"properties":{"collision type:":"Injury","city":"Clearlake","date:":"Fri, Jan 12, 07","time:":"1030","additional factors:":"Unsafe lane change","agency":"CPD","id":"146","weather":"Weather, conditions, n/a","address":"ST HWY 53 at  DAM RD","state":"California"},"type":"Feature","geometry":{"type":"Point","coordinates":[-122.619528,38.929958]}},{"properties":{"collision type:":"Injury","city":"Clearlake","date:":"Sun, Jan 28, 07","time:":"922","additional factors:":"Undetermined","agency":"CPD","id":"147","weather":"Weather, conditions, n/a","address":"15630 18TH AV","state":"California"},"type":"Feature","geometry":{"type":"Point","coordinates":[-122.62023,38.936198]}},{"properties":{"collision type:":"Injury","city":"Clearlake","date:":"Mon, Jan 29, 07","time:":"1202","additional factors:":"Failure to stop","agency":"CPD","id":"148","weather":"Weather, conditions, n/a","address":"LAKESHORE DR at GOLF AV","state":"California"},"type":"Feature","geometry":{"type":"Point","coordinates":[-122.635349,38.949936]}},{"properties":{"collision type:":"Injury","city":"Clearlake","date:":"Sat, Feb 3, 07","time:":"156","additional factors:":"Unsafe left turn","agency":"CPD","id":"149","weather":"Weather, conditions, n/a","address":"VALLEY at CARROL","state":"California"},"type":"Feature","geometry":{"type":"Point","coordinates":[-122.634563,38.953478]}},{"properties":{"collision type:":"Injury","city":"Clearlake","date:":"Sat, Mar 10, 07","time:":"1300","additional factors:":"Starting Parked Vehicles or Backing into roadway","agency":"CPD","id":"150","weather":"Weather, conditions, n/a","address":"3724 KOLOKO","state":"California"},"type":"Feature","geometry":{"type":"Point","coordinates":[-122.647205,38.962807]}},{"properties":{"collision type:":"Injury","city":"Clearlake","date:":"Tue, Mar 13, 07","time:":"1215","additional factors:":"Following too close","agency":"CPD","id":"151","weather":"Weather, conditions, n/a","address":"14590 LAKESHORE DR","state":"California"},"type":"Feature","geometry":{"type":"Point","coordinates":[-122.63912,38.950937]}},{"properties":{"collision type:":"Injury","city":"Clearlake","date:":"Wed, Mar 14, 07","time:":"1230","additional factors:":"Speeding","agency":"CPD","id":"152","weather":"Weather, conditions, n/a","address":"13804 LAKESHORE DR","state":"California"},"type":"Feature","geometry":{"type":"Point","coordinates":[-122.653997,38.967699]}},{"properties":{"collision type:":"Injury","city":"Clearlake","date:":"Thu, Mar 29, 07","time:":"1829","additional factors:":"Failure to stop","agency":"CPD","id":"153","weather":"Weather, conditions, n/a","address":"HOWARD AVE  at  PEARL AVE","state":"California"},"type":"Feature","geometry":{"type":"Point","coordinates":[-122.643545,38.954461]}},{"properties":{"collision type:":"Injury","city":"Clearlake","date:":"Wed, Apr 4, 07","time:":"939","additional factors:":"Crossing double yellow lines","agency":"CPD","id":"154","weather":"Weather, conditions, n/a","address":"LAKESHORE DR at MESA DR","state":"California"},"type":"Feature","geometry":{"type":"Point","coordinates":[-122.690848,38.981423]}},{"properties":{"collision type:":"Injury","city":"Clearlake","date:":"Sun, Apr 8, 07","time:":"2200","additional factors:":"Failure to heed stoplight or sign","agency":"CPD","id":"155","weather":"Weather, conditions, n/a","address":"40TH AV  at  HWY 53","state":"California"},"type":"Feature","geometry":{"type":"Point","coordinates":[-122.623107,38.950713]}},{"properties":{"collision type:":"Injury","city":"Clearlake","date:":"Thu, Apr 12, 07","time:":"1340","additional factors:":"Unsafe left or U turn","agency":"CPD","id":"156","weather":"Weather, conditions, n/a","address":"15010 LAKESHORE DR","state":"California"},"type":"Feature","geometry":{"type":"Point","coordinates":[-122.631471,38.949948]}},{"properties":{"collision type:":"Injury","city":"Clearlake","date:":"Sat, Apr 21, 07","time:":"1150","additional factors:":"Speeding","agency":"CPD","id":"157","weather":"Weather, conditions, n/a","address":"40TH AV at MOSS AV","state":"California"},"type":"Feature","geometry":{"type":"Point","coordinates":[-122.622285,38.950701]}},{"properties":{"collision type:":"Injury","city":"Clearlake","date:":"Thu, Apr 26, 07","time:":"1700","additional factors:":"Starting Parked Vehicles or Backing into roadway","agency":"CPD","id":"158","weather":"Weather, conditions, n/a","address":"BALLPARK AV at GOLF AV","state":"California"},"type":"Feature","geometry":{"type":"Point","coordinates":[-122.635157,38.948354]}},{"properties":{"collision type:":"Injury","city":"Clearlake","date:":"Wed, May 2, 07","time:":"1425","additional factors:":"Speeding","agency":"CPD","id":"159","weather":"Weather, conditions, n/a","address":"OLD HWY 53 at HIGHLANDS HARBOR DR","state":"California"},"type":"Feature","geometry":{"type":"Point","coordinates":[-122.62182,38.930984]}},{"properties":{"collision type:":"Injury","city":"Clearlake","date:":"Mon, May 21, 07","time:":"1258","additional factors:":"Bicycle on roadway or highway","agency":"CPD","id":"160","weather":"Weather, conditions, n/a","address":"15100 LAKESHORE DR","state":"California"},"type":"Feature","geometry":{"type":"Point","coordinates":[-122.629759,38.949907]}},{"properties":{"collision type:":"Injury","city":"Clearlake","date:":"Fri, May 25, 07","time:":"1540","additional factors:":"Failure to yield at intersection","agency":"CPD","id":"161","weather":"Weather, conditions, n/a","address":"3581 HALIKA","state":"California"},"type":"Feature","geometry":{"type":"Point","coordinates":[-122.64848,38.967212]}},{"properties":{"collision type:":"Injury","city":"Clearlake","date:":"Thu, Jun 21, 07","time:":"1850","additional factors:":"Failure to yield right of way","agency":"CPD","id":"162","weather":"Weather, conditions, n/a","address":"MANAKEE at HUNTINGTON","state":"California"},"type":"Feature","geometry":{"type":"Point","coordinates":[-122.651541,38.968466]}},{"properties":{"collision type:":"Injury","city":"Clearlake","date:":"Sat, Jun 23, 07","time:":"8129","additional factors:":"Failure to heed stoplight or sign","agency":"CPD","id":"163","weather":"Weather, conditions, n/a","address":"HWY 53 at DAM RD","state":"California"},"type":"Feature","geometry":{"type":"Point","coordinates":[-122.618887,38.930062]}},{"properties":{"collision type:":"Injury","city":"Clearlake","date:":"Thu, Jun 28, 07","time:":"1630","additional factors:":"Speeding","agency":"CPD","id":"164","weather":"Weather, conditions, n/a","address":"MEMORY LANE at OLYMPIC DR","state":"California"},"type":"Feature","geometry":{"type":"Point","coordinates":[-122.644536,38.96095]}},{"properties":{"collision type:":"Injury","city":"Clearlake","date:":"Mon, Jul 9, 07","time:":"1300","additional factors:":"Unsafe left turn","agency":"CPD","id":"165","weather":"Weather, conditions, n/a","address":"SONOMA AV at OLEANDER","state":"California"},"type":"Feature","geometry":{"type":"Point","coordinates":[-122.65226,38.971104]}},{"properties":{"collision type:":"Injury","city":"Clearlake","date:":"Thu, Jul 19, 07","time:":"1806","additional factors:":"Driving on wrong side of road","agency":"CPD","id":"166","weather":"Weather, conditions, n/a","address":"SYCAMORE at OLYMPIC DRIVE","state":"California"},"type":"Feature","geometry":{"type":"Point","coordinates":[-122.637193,38.961832]}},{"properties":{"collision type:":"Injury","city":"Clearlake","date:":"Fri, Aug 17, 07","time:":"1400","additional factors:":"Undetermined","agency":"CPD","id":"167","weather":"Weather, conditions, n/a","address":"PHILLIPS at DAVIS","state":"California"},"type":"Feature","geometry":{"type":"Point","coordinates":[-122.615009,38.954302]}},{"properties":{"collision type:":"Injury","city":"Clearlake","date:":"Wed, Aug 22, 07","time:":"1346","additional factors:":"Undetermined","agency":"CPD","id":"168","weather":"Weather, conditions, n/a","address":"SR HWY 53 at OLYMPIC","state":"California"},"type":"Feature","geometry":{"type":"Point","coordinates":[-122.626373,38.958231]}},{"properties":{"collision type:":"Injury","city":"Clearlake","date:":"Wed, Aug 22, 07","time:":"1345","additional factors:":"Speeding","agency":"CPD","id":"169","weather":"Weather, conditions, n/a","address":"15630 18TH AV","state":"California"},"type":"Feature","geometry":{"type":"Point","coordinates":[-122.62023,38.936198]}},{"properties":{"collision type:":"Injury","city":"Clearlake","date:":"Mon, Aug 27, 07","time:":"1132","additional factors:":"runaway vehicle","agency":"CPD","id":"170","weather":"Weather, conditions, n/a","address":"15630 18TH AV","state":"California"},"type":"Feature","geometry":{"type":"Point","coordinates":[-122.62023,38.936198]}},{"properties":{"collision type:":"Injury","city":"Clearlake","date:":"Mon, Aug 27, 07","time:":"1142","additional factors:":"Undetermined","agency":"CPD","id":"171","weather":"Weather, conditions, n/a","address":"7145 OLD HIGHWAY 53","state":"California"},"type":"Feature","geometry":{"type":"Point","coordinates":[-122.623231,38.931559]}},{"properties":{"collision type:":"Injury","city":"Clearlake","date:":"Wed, Aug 29, 07","time:":"304","additional factors:":"pending","agency":"CPD","id":"172","weather":"Weather, conditions, n/a","address":"BURNS VALLEY RD at REID LANE","state":"California"},"type":"Feature","geometry":{"type":"Point","coordinates":[-122.640746,38.969074]}},{"properties":{"collision type:":"Injury","city":"Clearlake","date:":"Wed, Sep 5, 07","time:":"1503","additional factors:":"20001","agency":"CPD","id":"173","weather":"Weather, conditions, n/a","address":"SR 53 AND OLD HWY 53","state":"California"},"type":"Feature","geometry":{"type":"Point","coordinates":[-122.612697,38.976361]}},{"properties":{"collision type:":"Injury","city":"Clearlake","date:":"Wed, Sep 19, 07","time:":"2007","additional factors:":"Unsafe left or U turn","agency":"CPD","id":"174","weather":"Weather, conditions, n/a","address":"STATE HWY 53 at OLYMPIC DR","state":"California"},"type":"Feature","geometry":{"type":"Point","coordinates":[-122.618908,38.964091]}},{"properties":{"collision type:":"Injury","city":"Clearlake","date:":"Mon, Sep 24, 07","time:":"1738","additional factors:":"Pedestrian outside crosswalk","agency":"CPD","id":"175","weather":"Weather, conditions, n/a","address":"5743 COTTAGE AV","state":"California"},"type":"Feature","geometry":{"type":"Point","coordinates":[-122.630612,38.941575]}},{"properties":{"collision type:":"Injury","city":"Clearlake","date:":"Mon, Oct 22, 07","time:":"2346","additional factors:":"Unsafe left turn","agency":"CPD","id":"176","weather":"Weather, conditions, n/a","address":"3975 OLD HIGHWAY 53","state":"California"},"type":"Feature","geometry":{"type":"Point","coordinates":[-122.63116,38.954593]}},{"properties":{"collision type:":"Injury","city":"Clearlake","date:":"Fri, Nov 16, 07","time:":"2042","additional factors:":"Failure to heed stoplight or sign","agency":"CPD","id":"177","weather":"Weather, conditions, n/a","address":"SR 53  at  LAKESHORE DR","state":"California"},"type":"Feature","geometry":{"type":"Point","coordinates":[-122.623107,38.950713]}},{"properties":{"collision type:":"Injury","city":"Clearlake","date:":"Fri, Dec 7, 07","time:":"1748","additional factors:":"Speeding","agency":"CPD","id":"178","weather":"Weather, conditions, n/a","address":"SR 53 AT POLK","state":"California"},"type":"Feature","geometry":{"type":"Point","coordinates":[-122.622153,38.959962]}},{"properties":{"collision type:":"Injury","city":"Clearlake","date:":"Wed, Jan 16, 08","time:":"0","additional factors:":"Undetermined","agency":"CPD","id":"179","weather":"Weather, conditions, n/a","address":"45TH  AV at PHILLIPS AV","state":"California"},"type":"Feature","geometry":{"type":"Point","coordinates":[-122.615017,38.95387]}},{"properties":{"collision type:":"Injury","city":"Clearlake","date:":"Fri, Jan 18, 08","time:":"1615","additional factors:":"Driving on wrong side of road","agency":"CPD","id":"180","weather":"Weather, conditions, n/a","address":"OLYMPIC DR at BROWN","state":"California"},"type":"Feature","geometry":{"type":"Point","coordinates":[-122.624519,38.962283]}},{"properties":{"collision type:":"Injury","city":"Clearlake","date:":"Tue, Jan 22, 08","time:":"1225","additional factors:":"Driving on wrong side of road","agency":"CPD","id":"181","weather":"Weather, conditions, n/a","address":"OLD HIGHWAY 53 at AUSTIN DR","state":"California"},"type":"Feature","geometry":{"type":"Point","coordinates":[-122.631369,38.958323]}},{"properties":{"collision type:":"Injury","city":"Clearlake","date:":"Fri, Feb 1, 08","time:":"719","additional factors:":"Speeding","agency":"CPD","id":"182","weather":"Weather, conditions, n/a","address":"NB HWY 53 at N OF 18TH AV","state":"California"},"type":"Feature","geometry":{"type":"Point","coordinates":[-122.615392,38.936107]}},{"properties":{"collision type:":"Injury","city":"Clearlake","date:":"Sat, Feb 9, 08","time:":"2324","additional factors:":"Speeding","agency":"CPD","id":"183","weather":"Weather, conditions, n/a","address":"OLD HIGHWAY 53 at AIRPORT RD","state":"California"},"type":"Feature","geometry":{"type":"Point","coordinates":[-122.624592,38.933246]}},{"properties":{"collision type:":"Injury","city":"Clearlake","date:":"Fri, Feb 15, 08","time:":"1415","additional factors:":"Speeding","agency":"CPD","id":"184","weather":"Weather, conditions, n/a","address":"14624 LAKESHORE DR","state":"California"},"type":"Feature","geometry":{"type":"Point","coordinates":[-122.638835,38.95077]}},{"properties":{"collision type:":"Injury","city":"Clearlake","date:":"Mon, Mar 3, 08","time:":"747","additional factors:":"Undetermined","agency":"CPD","id":"185","weather":"Weather, conditions, n/a","address":"5645 OLD HIGHWAY 53","state":"California"},"type":"Feature","geometry":{"type":"Point","coordinates":[-122.632522,38.9425]}},{"properties":{"collision type:":"Injury","city":"Clearlake","date:":"Thu, Mar 6, 08","time:":"1240","additional factors:":"Starting Parked Vehicles or Backing into roadway","agency":"CPD","id":"186","weather":"Weather, conditions, n/a","address":"32D AV at EUREKA AV","state":"California"},"type":"Feature","geometry":{"type":"Point","coordinates":[-122.617623,38.945351]}},{"properties":{"collision type:":"Injury","city":"Clearlake","date:":"Tue, Mar 18, 08","time:":"1010","additional factors:":"Unsafe left or U turn","agency":"CPD","id":"187","weather":"Weather, conditions, n/a","address":"STATE HIGHWAY 53 at 40TH","state":"California"},"type":"Feature","geometry":{"type":"Point","coordinates":[-122.623107,38.950713]}},{"properties":{"collision type:":"Injury","city":"Clearlake","date:":"Fri, Mar 21, 08","time:":"2050","additional factors:":"Failure to yield right of way","agency":"CPD","id":"188","weather":"Weather, conditions, n/a","address":"27TH AV at BOYLES AV","state":"California"},"type":"Feature","geometry":{"type":"Point","coordinates":[-122.610596,38.941962]}},{"properties":{"collision type:":"Injury","city":"Clearlake","date:":"Thu, Mar 27, 08","time:":"1800","additional factors:":"Driving on wrong side of road","agency":"CPD","id":"189","weather":"Weather, conditions, n/a","address":"SAN JOAQUIN at PARKVIEW","state":"California"},"type":"Feature","geometry":{"type":"Point","coordinates":[-122.68109,38.977534]}},{"properties":{"collision type:":"Injury","city":"Clearlake","date:":"Sat, Mar 29, 08","time:":"1545","additional factors:":"Undetermined","agency":"CPD","id":"190","weather":"Weather, conditions, n/a","address":"13580 SANTA CLARA AV","state":"California"},"type":"Feature","geometry":{"type":"Point","coordinates":[-122.657547,38.971287]}},{"properties":{"collision type:":"Injury","city":"Clearlake","date:":"Sun, Mar 30, 08","time:":"1247","additional factors:":"Unsafe entry Onto Highway","agency":"CPD","id":"191","weather":"Weather, conditions, n/a","address":"7050 OLD HIGHWAY 53","state":"California"},"type":"Feature","geometry":{"type":"Point","coordinates":[-122.622966,38.932013]}},{"properties":{"collision type:":"Injury","city":"Clearlake","date:":"Thu, Apr 3, 08","time:":"1510","additional factors:":"Speeding","agency":"CPD","id":"192","weather":"Weather, conditions, n/a","address":"DAM RD at LAKE","state":"California"},"type":"Feature","geometry":{"type":"Point","coordinates":[-122.611821,38.926097]}},{"properties":{"collision type:":"Injury","city":"Clearlake","date:":"Fri, Apr 11, 08","time:":"1842","additional factors:":"Unsafe entry Onto Highway","agency":"CPD","id":"193","weather":"Weather, conditions, n/a","address":"OLYMPIC DR at JACKSON STREET","state":"California"},"type":"Feature","geometry":{"type":"Point","coordinates":[-122.627853,38.961815]}},{"properties":{"collision type:":"Injury","city":"Clearlake","date:":"Mon, Apr 14, 08","time:":"1645","additional factors:":"Pedestrian on Roadway","agency":"CPD","id":"194","weather":"Weather, conditions, n/a","address":"BUSH AT 11TH ST","state":"California"},"type":"Feature","geometry":{"type":"Point","coordinates":[-122.662578,38.976234]}},{"properties":{"collision type:":"Injury","city":"Clearlake","date:":"Sun, Apr 20, 08","time:":"1825","additional factors:":"Starting Parked Vehicles or Backing into roadway","agency":"CPD","id":"195","weather":"Weather, conditions, n/a","address":"RIDGEVIEW DR at OLD HIGHWAY 53","state":"California"},"type":"Feature","geometry":{"type":"Point","coordinates":[-122.630941,38.939103]}},{"properties":{"collision type:":"Injury","city":"Clearlake","date:":"Sat, May 31, 08","time:":"155","additional factors:":"Speeding","agency":"CPD","id":"196","weather":"Weather, conditions, n/a","address":"COUNTRY CLUB DR  at  12TH ST","state":"California"},"type":"Feature","geometry":{"type":"Point","coordinates":[-122.663431,38.972845]}},{"properties":{"collision type:":"Injury","city":"Clearlake","date:":"Sat, May 31, 08","time:":"1256","additional factors:":"Failure to yield right of way","agency":"CPD","id":"197","weather":"Weather, conditions, n/a","address":"LAKESHORE DR at OLD HWY 53","state":"California"},"type":"Feature","geometry":{"type":"Point","coordinates":[-122.631412,38.949934]}},{"properties":{"collision type:":"Injury","city":"Clearlake","date:":"Fri, Jun 6, 08","time:":"1646","additional factors:":"Speeding","agency":"CPD","id":"198","weather":"Weather, conditions, n/a","address":"STATE HIGHWAY 53 at LAKESHORE DR","state":"California"},"type":"Feature","geometry":{"type":"Point","coordinates":[-122.623107,38.950713]}},{"properties":{"collision type:":"Injury","city":"Clearlake","date:":"Thu, Jun 12, 08","time:":"815","additional factors:":"Speeding","agency":"CPD","id":"199","weather":"Weather, conditions, n/a","address":"SR HWY 53  at at OLYMPIC","state":"California"},"type":"Feature","geometry":{"type":"Point","coordinates":[-122.626373,38.958231]}},{"properties":{"collision type:":"Injury","city":"Clearlake","date:":"Sat, Jun 28, 08","time:":"1857","additional factors:":"Failure to heed stoplight or sign","agency":"CPD","id":"200","weather":"Weather, conditions, n/a","address":"STATE HIGHWAY 53","state":"California"},"type":"Feature","geometry":{"type":"Point","coordinates":[-122.615645,38.967399]}},{"properties":{"collision type:":"Injury","city":"Clearlake","date:":"Sat, Jul 19, 08","time:":"2350","additional factors:":"Undetermined","agency":"CPD","id":"201","weather":"Weather, conditions, n/a","address":"OLD HIGHWAY 53 at HILLCREST AV","state":"California"},"type":"Feature","geometry":{"type":"Point","coordinates":[-122.631179,38.952608]}},{"properties":{"collision type:":"Injury","city":"Clearlake","date:":"Wed, Jul 23, 08","time:":"1205","additional factors:":"Speeding","agency":"CPD","id":"202","weather":"Weather, conditions, n/a","address":"CYPRESS AV at OLD HIGHWAY 53","state":"California"},"type":"Feature","geometry":{"type":"Point","coordinates":[-122.631418,38.941722]}},{"properties":{"collision type:":"Injury","city":"Clearlake","date:":"Mon, Jul 28, 08","time:":"1240","additional factors:":"Speeding","agency":"CPD","id":"203","weather":"Weather, conditions, n/a","address":"SR 53 at  18TH AV","state":"California"},"type":"Feature","geometry":{"type":"Point","coordinates":[-122.622243,38.936926]}},{"properties":{"collision type:":"Injury","city":"Clearlake","date:":"Fri, Aug 29, 08","time:":"1209","additional factors:":"Speeding","agency":"CPD","id":"204","weather":"Weather, conditions, n/a","address":"LAKESHORE DR at GOLF AV","state":"California"},"type":"Feature","geometry":{"type":"Point","coordinates":[-122.635349,38.949936]}},{"properties":{"collision type:":"Injury","city":"Clearlake","date:":"Wed, Sep 3, 08","time:":"1140","additional factors:":"Failure to heed stoplight or sign","agency":"CPD","id":"205","weather":"Weather, conditions, n/a","address":"SR53  at  LAKESHORE DR","state":"California"},"type":"Feature","geometry":{"type":"Point","coordinates":[-122.674489,38.974193]}},{"properties":{"collision type:":"Injury","city":"Clearlake","date:":"Thu, Sep 4, 08","time:":"1425","additional factors:":"Starting Parked Vehicles or Backing into roadway","agency":"CPD","id":"206","weather":"Weather, conditions, n/a","address":"15945 DAM RD","state":"California"},"type":"Feature","geometry":{"type":"Point","coordinates":[-122.617878,38.929731]}},{"properties":{"collision type:":"Injury","city":"Clearlake","date:":"Thu, Sep 4, 08","time:":"1605","additional factors:":"Failure to yield right of way","agency":"CPD","id":"207","weather":"Weather, conditions, n/a","address":"PHILLIPS at 37TH","state":"California"},"type":"Feature","geometry":{"type":"Point","coordinates":[-122.615221,38.948629]}},{"properties":{"collision type:":"Injury","city":"Clearlake","date:":"Sun, Sep 21, 08","time:":"100","additional factors:":"Unsafe left turn","agency":"CPD","id":"208","weather":"Weather, conditions, n/a","address":"WEST 40TH at MULLEN AV","state":"California"},"type":"Feature","geometry":{"type":"Point","coordinates":[-122.63894,38.954973]}},{"properties":{"collision type:":"Injury","city":"Clearlake","date:":"Tue, Sep 30, 08","time:":"844","additional factors:":"Speeding","agency":"CPD","id":"209","weather":"Weather, conditions, n/a","address":"18TH AV at STATE HIGHWAY 53","state":"California"},"type":"Feature","geometry":{"type":"Point","coordinates":[-122.622243,38.936926]}},{"properties":{"collision type:":"Injury","city":"Clearlake","date:":"Wed, Oct 15, 08","time:":"1855","additional factors:":"Failure to heed stoplight or sign","agency":"CPD","id":"210","weather":"Weather, conditions, n/a","address":"OLD HIGHWAY 53 at  KONOCTI VIEW RD","state":"California"},"type":"Feature","geometry":{"type":"Point","coordinates":[-122.631038,38.946632]}},{"properties":{"collision type:":"Injury","city":"Clearlake","date:":"Sat, Nov 1, 08","time:":"200","additional factors:":"Crossing double yellow lines","agency":"CPD","id":"211","weather":"Weather, conditions, n/a","address":"OGULIN CANYON RD","state":"California"},"type":"Feature","geometry":{"type":"Point","coordinates":[-122.603838,38.981787]}},{"properties":{"collision type:":"Injury","city":"Clearlake","date:":"Mon, Nov 17, 08","time:":"1527","additional factors:":"Unsafe entry Onto Highway","agency":"CPD","id":"212","weather":"Weather, conditions, n/a","address":"15010 LAKESHORE DR","state":"California"},"type":"Feature","geometry":{"type":"Point","coordinates":[-122.631471,38.949948]}},{"properties":{"collision type:":"Injury","city":"Clearlake","date:":"Fri, Dec 5, 08","time:":"2143","additional factors:":"Failure to signal","agency":"CPD","id":"213","weather":"Weather, conditions, n/a","address":"ARROWHEAD RD at FRESNO ST","state":"California"},"type":"Feature","geometry":{"type":"Point","coordinates":[-122.659514,38.970694]}},{"properties":{"collision type:":"Injury","city":"Clearlake","date:":"Sun, Dec 14, 08","time:":"1907","additional factors:":"Failure to heed stoplight or sign","agency":"CPD","id":"214","weather":"Weather, conditions, n/a","address":"LAKESHORE DR at HWY 53","state":"California"},"type":"Feature","geometry":{"type":"Point","coordinates":[-122.623107,38.950713]}},{"properties":{"collision type:":"Injury","city":"Clearlake","date:":"Tue, Jan 13, 09","time:":"1110","additional factors:":null,"agency":"CPD","id":"215","weather":"Weather, conditions, n/a","address":"15140 LAKESHORE DR","state":"California"},"type":"Feature","geometry":{"type":"Point","coordinates":[-122.628964,38.950338]}},{"properties":{"collision type:":"Injury","city":"Clearlake","date:":"Tue, Feb 3, 09","time:":"1450","additional factors:":"Speeding","agency":"CPD","id":"216","weather":"Weather, conditions, n/a","address":"STATE HIGHWAY 53 at OLD HIGHWAY 53","state":"California"},"type":"Feature","geometry":{"type":"Point","coordinates":[-122.612697,38.976361]}},{"properties":{"collision type:":"Injury","city":"Clearlake","date:":"Fri, Feb 20, 09","time:":"1530","additional factors:":"Speeding","agency":"CPD","id":"217","weather":"Weather, conditions, n/a","address":"14822 LAKESHORE DR","state":"California"},"type":"Feature","geometry":{"type":"Point","coordinates":[-122.63486,38.950171]}},{"properties":{"collision type:":"Injury","city":"Clearlake","date:":"Mon, Mar 2, 09","time:":"1450","additional factors:":"Undetermined","agency":"CPD","id":"218","weather":"Weather, conditions, n/a","address":"14772 LAKESHORE DR","state":"California"},"type":"Feature","geometry":{"type":"Point","coordinates":[-122.635641,38.950102]}},{"properties":{"collision type:":"Injury","city":"Clearlake","date:":"Sun, Mar 22, 09","time:":"1315","additional factors:":"Speeding","agency":"CPD","id":"219","weather":"Weather, conditions, n/a","address":"OLYMPIC DR  at PINE ST","state":"California"},"type":"Feature","geometry":{"type":"Point","coordinates":[-122.645277,38.960974]}},{"properties":{"collision type:":"Injury","city":"Clearlake","date:":"Fri, Mar 27, 09","time:":"1225","additional factors:":"Failure to signal","agency":"CPD","id":"220","weather":"Weather, conditions, n/a","address":"RIDGEVIEW DR at OLD HIGHWAY 53","state":"California"},"type":"Feature","geometry":{"type":"Point","coordinates":[-122.630941,38.939103]}},{"properties":{"collision type:":"Injury","city":"Clearlake","date:":"Sun, Apr 5, 09","time:":"1456","additional factors:":"Speeding","agency":"CPD","id":"221","weather":"Weather, conditions, n/a","address":"14350 LAKESHORE DR","state":"California"},"type":"Feature","geometry":{"type":"Point","coordinates":[-122.643945,38.954241]}},{"properties":{"collision type:":"Injury","city":"Clearlake","date:":"Sat, Apr 18, 09","time:":"1220","additional factors:":"Failure to signal","agency":"CPD","id":"222","weather":"Weather, conditions, n/a","address":"14852 LAKESHORE DR","state":"California"},"type":"Feature","geometry":{"type":"Point","coordinates":[-122.634254,38.950326]}},{"properties":{"collision type:":"Injury","city":"Clearlake","date:":"Wed, May 6, 09","time:":"2138","additional factors:":"Evading a Police Officer","agency":"CPD","id":"223","weather":"Weather, conditions, n/a","address":"2ND ST at  OAK ST","state":"California"},"type":"Feature","geometry":{"type":"Point","coordinates":[-122.660924,38.979047]}},{"properties":{"collision type:":"Injury","city":"Clearlake","date:":"Sun, May 17, 09","time:":"955","additional factors:":"Speeding","agency":"CPD","id":"224","weather":"Weather, conditions, n/a","address":"6673 OLD HIGHWAY 53","state":"California"},"type":"Feature","geometry":{"type":"Point","coordinates":[-122.62692,38.936057]}},{"properties":{"collision type:":"Injury","city":"Clearlake","date:":"Sat, Jun 20, 09","time:":"1040","additional factors:":"Medical","agency":"CPD","id":"225","weather":"Weather, conditions, n/a","address":"OLYMPIC DR at LAKESHORE DR","state":"California"},"type":"Feature","geometry":{"type":"Point","coordinates":[-122.649528,38.960823]}},{"properties":{"collision type:":"Injury","city":"Clearlake","date:":"Mon, Jun 22, 09","time:":"1233","additional factors:":"Crossing double yellow lines","agency":"CPD","id":"226","weather":"Weather, conditions, n/a","address":"14570 LAKESHORE DR","state":"California"},"type":"Feature","geometry":{"type":"Point","coordinates":[-122.640349,38.951267]}},{"properties":{"collision type:":"Injury","city":"Clearlake","date:":"Tue, Jul 21, 09","time:":"530","additional factors:":"Failure to signal","agency":"CPD","id":"227","weather":"Weather, conditions, n/a","address":"2865 OLD HIGHWAY 53","state":"California"},"type":"Feature","geometry":{"type":"Point","coordinates":[-122.617791,38.972204]}},{"properties":{"collision type:":"Injury","city":"Clearlake","date:":"Wed, Jul 29, 09","time:":"1600","additional factors:":"Failure to signal","agency":"CPD","id":"228","weather":"Weather, conditions, n/a","address":"14085 LAKESHORE DR","state":"California"},"type":"Feature","geometry":{"type":"Point","coordinates":[-122.64932,38.958498]}},{"properties":{"collision type:":"Injury","city":"Clearlake","date:":"Sat, Aug 22, 09","time:":"1400","additional factors:":"Speeding","agency":"CPD","id":"229","weather":"Weather, conditions, n/a","address":"14560 LAKESHORE DR","state":"California"},"type":"Feature","geometry":{"type":"Point","coordinates":[-122.640754,38.951539]}},{"properties":{"collision type:":"Injury","city":"Clearlake","date:":"Sun, Aug 30, 09","time:":"1110","additional factors:":"Failure to stop","agency":"CPD","id":"230","weather":"Weather, conditions, n/a","address":"LAKE ST  at  DAM RD","state":"California"},"type":"Feature","geometry":{"type":"Point","coordinates":[-122.611821,38.926097]}},{"properties":{"collision type:":"Injury","city":"Clearlake","date:":"Sun, Sep 6, 09","time:":"820","additional factors:":"Starting Parked Vehicles or Backing into roadway","agency":"CPD","id":"231","weather":"Weather, conditions, n/a","address":"PLUMAS at LAKESHORE DR","state":"California"},"type":"Feature","geometry":{"type":"Point","coordinates":[-122.670176,38.97096]}},{"properties":{"collision type:":"Injury","city":"Clearlake","date:":"Sat, Sep 19, 09","time:":"1225","additional factors:":"Passing on right","agency":"CPD","id":"232","weather":"Weather, conditions, n/a","address":"BURNS VALLEY  at  OLYMPIC DR","state":"California"},"type":"Feature","geometry":{"type":"Point","coordinates":[-122.63127,38.961801]}},{"properties":{"collision type:":"Injury","city":"Clearlake","date:":"Thu, Oct 15, 09","time:":"1258","additional factors:":"Failure to signal","agency":"CPD","id":"233","weather":"Weather, conditions, n/a","address":"15630 18TH AV","state":"California"},"type":"Feature","geometry":{"type":"Point","coordinates":[-122.62023,38.936198]}},{"properties":{"collision type:":"Injury","city":"Clearlake","date:":"Wed, Nov 25, 09","time:":"1445","additional factors:":"Following to closely","agency":"CPD","id":"234","weather":"Weather, conditions, n/a","address":"3400 GARFIELD ST","state":"California"},"type":"Feature","geometry":{"type":"Point","coordinates":[-122.622158,38.963093]}},{"properties":{"collision type:":"Injury","city":"Clearlake","date:":"Fri, Dec 11, 09","time:":"1430","additional factors:":"Failure to yield right of way","agency":"CPD","id":"235","weather":"Weather, conditions, n/a","address":"OLYMPIC DR at BROWN","state":"California"},"type":"Feature","geometry":{"type":"Point","coordinates":[-122.624519,38.962283]}},{"properties":{"collision type:":"Injury","city":"Clearlake","date:":"Mon, Dec 21, 09","time:":"1555","additional factors:":"Driver error","agency":"CPD","id":"236","weather":"Weather, conditions, n/a","address":"STATE HIGHWAY 53  at  DAM RD","state":"California"},"type":"Feature","geometry":{"type":"Point","coordinates":[-122.618887,38.930062]}},{"properties":{"collision type:":"Injury","city":"Clearlake","date:":"Mon, Jan 11, 10","time:":"1200","additional factors:":"Unsafe left or U turn","agency":"CPD","id":"237","weather":"Weather, conditions, n/a","address":"HWY 53  at  OLYMPIC DR","state":"California"},"type":"Feature","geometry":{"type":"Point","coordinates":[-122.618908,38.964091]}},{"properties":{"collision type:":"Injury","city":"Clearlake","date:":"Tue, Jan 12, 10","time:":"1549","additional factors:":"Crossing double yellow lines","agency":"CPD","id":"238","weather":"Weather, conditions, n/a","address":"MODOC ST at  SANTA CLARA AV","state":"California"},"type":"Feature","geometry":{"type":"Point","coordinates":[-122.655528,38.97028]}},{"properties":{"collision type:":"Injury","city":"Clearlake","date:":"Mon, Jan 25, 10","time:":"1200","additional factors:":"Speeding","agency":"CPD","id":"239","weather":"Weather, conditions, n/a","address":"AUSTIN RD at MANCHESTER AV","state":"California"},"type":"Feature","geometry":{"type":"Point","coordinates":[-122.636467,38.958839]}},{"properties":{"collision type:":"Injury","city":"Clearlake","date:":"Thu, Jan 28, 10","time:":"806","additional factors:":"Speeding","agency":"CPD","id":"240","weather":"Weather, conditions, n/a","address":"STATE HIGHWAY 53 at LAKESHORE DR","state":"California"},"type":"Feature","geometry":{"type":"Point","coordinates":[-122.623107,38.950713]}},{"properties":{"collision type:":"Injury","city":"Clearlake","date:":"Fri, Jan 29, 10","time:":"1338","additional factors:":"Unsafe left turn","agency":"CPD","id":"241","weather":"Weather, conditions, n/a","address":"4810 OLD HIGHWAY 53","state":"California"},"type":"Feature","geometry":{"type":"Point","coordinates":[-122.630993,38.948437]}},{"properties":{"collision type:":"Injury","city":"Clearlake","date:":"Fri, Feb 5, 10","time:":"1155","additional factors:":"Speeding","agency":"CPD","id":"242","weather":"Weather, conditions, n/a","address":"LAKESHORE DR at GOLF AV","state":"California"},"type":"Feature","geometry":{"type":"Point","coordinates":[-122.635349,38.949936]}},{"properties":{"collision type:":"Injury","city":"Clearlake","date:":"Tue, Mar 2, 10","time:":"1350","additional factors:":"Speeding","agency":"CPD","id":"243","weather":"Weather, conditions, n/a","address":"OLYMPIC DR at HWY 53","state":"California"},"type":"Feature","geometry":{"type":"Point","coordinates":[-122.618908,38.964091]}},{"properties":{"collision type:":"Injury","city":"Clearlake","date:":"Thu, Mar 4, 10","time:":"1220","additional factors:":"Failure to heed stoplight or sign","agency":"CPD","id":"244","weather":"Weather, conditions, n/a","address":"HWY 53 at 18TH AV","state":"California"},"type":"Feature","geometry":{"type":"Point","coordinates":[-122.622243,38.936926]}},{"properties":{"collision type:":"Injury","city":"Clearlake","date:":"Wed, Mar 17, 10","time:":"752","additional factors:":"Failure to signal","agency":"CPD","id":"245","weather":"Weather, conditions, n/a","address":"MULLEN AV at AUSTIN RD","state":"California"},"type":"Feature","geometry":{"type":"Point","coordinates":[-122.638196,38.95885]}},{"properties":{"collision type:":"Injury","city":"Clearlake","date:":"Sun, Apr 18, 10","time:":"1415","additional factors:":"Failure to stop","agency":"CPD","id":"246","weather":"Weather, conditions, n/a","address":"OLYMPIC DR  at  HWY 53","state":"California"},"type":"Feature","geometry":{"type":"Point","coordinates":[-122.618908,38.964091]}},{"properties":{"collision type:":"Injury","city":"Clearlake","date:":"Tue, Apr 20, 10","time:":"1225","additional factors:":"Failure to heed stoplight or sign","agency":"CPD","id":"247","weather":"Weather, conditions, n/a","address":"HWY 53 at 18TH AV","state":"California"},"type":"Feature","geometry":{"type":"Point","coordinates":[-122.622243,38.936926]}},{"properties":{"collision type:":"Injury","city":"Clearlake","date:":"Tue, Apr 20, 10","time:":"1830","additional factors:":"Undetermined","agency":"CPD","id":"248","weather":"Weather, conditions, n/a","address":"MOSS AV at DAVIS AV","state":"California"},"type":"Feature","geometry":{"type":"Point","coordinates":[-122.61951,38.954346]}},{"properties":{"collision type:":"Injury","city":"Clearlake","date:":"Tue, Apr 27, 10","time:":"941","additional factors:":"Unsafe left turn","agency":"CPD","id":"249","weather":"Weather, conditions, n/a","address":"OLYMPIC DR at  OLIVE ST","state":"California"},"type":"Feature","geometry":{"type":"Point","coordinates":[-122.643682,38.960961]}},{"properties":{"collision type:":"Injury","city":"Clearlake","date:":"Sat, May 1, 10","time:":"2057","additional factors:":"Crossing double yellow lines","agency":"CPD","id":"250","weather":"Weather, conditions, n/a","address":"15991 DAM RD","state":"California"},"type":"Feature","geometry":{"type":"Point","coordinates":[-122.614255,38.926097]}},{"properties":{"collision type:":"Injury","city":"Clearlake","date:":"Mon, May 3, 10","time:":"1658","additional factors:":"Driving on wrong side of road","agency":"CPD","id":"251","weather":"Weather, conditions, n/a","address":"LASKY AV at HILLCREST AV","state":"California"},"type":"Feature","geometry":{"type":"Point","coordinates":[-122.632857,38.952622]}},{"properties":{"collision type:":"Injury","city":"Clearlake","date:":"Tue, May 4, 10","time:":"49","additional factors:":"Pedestrian outside crosswalk","agency":"CPD","id":"252","weather":"Weather, conditions, n/a","address":"OLD HIGHWAY 53  at  MENDO MILL","state":"California"},"type":"Feature","geometry":{"type":"Point","coordinates":[-122.626373,38.958231]}},{"properties":{"collision type:":"Injury","city":"Clearlake","date:":"Wed, May 26, 10","time:":"2232","additional factors:":"Driving on wrong side of road","agency":"CPD","id":"253","weather":"Weather, conditions, n/a","address":"OLD HIGHWAY 53 at AIRPORT RD","state":"California"},"type":"Feature","geometry":{"type":"Point","coordinates":[-122.624592,38.933246]}},{"properties":{"collision type:":"Injury","city":"Clearlake","date:":"Mon, May 31, 10","time:":"1844","additional factors:":"Unsafe left turn","agency":"CPD","id":"254","weather":"Weather, conditions, n/a","address":"13885 LAKESHORE DR","state":"California"},"type":"Feature","geometry":{"type":"Point","coordinates":[-122.652183,38.965982]}},{"properties":{"collision type:":"Injury","city":"Clearlake","date:":"Thu, Jun 24, 10","time:":"1815","additional factors:":"Failure to stop","agency":"CPD","id":"255","weather":"Weather, conditions, n/a","address":"10TH ST at COUNTRY CLUB DR","state":"California"},"type":"Feature","geometry":{"type":"Point","coordinates":[-122.661711,38.981771]}},{"properties":{"collision type:":"Injury","city":"Clearlake","date:":"Fri, Jun 25, 10","time:":"1719","additional factors:":"Unsafe left or U turn","agency":"CPD","id":"256","weather":"Weather, conditions, n/a","address":"OLYMPIC DR  at  BROWN","state":"California"},"type":"Feature","geometry":{"type":"Point","coordinates":[-122.624519,38.962283]}},{"properties":{"collision type:":"Injury","city":"Clearlake","date:":"Thu, Jul 1, 10","time:":"1910","additional factors:":"Failure to signal","agency":"CPD","id":"257","weather":"Weather, conditions, n/a","address":"14050 OLYMPIC DR","state":"California"},"type":"Feature","geometry":{"type":"Point","coordinates":[-122.649139,38.961338]}},{"properties":{"collision type:":"Injury","city":"Clearlake","date:":"Wed, Aug 11, 10","time:":"1335","additional factors:":"Failure to heed stoplight or sign","agency":"CPD","id":"258","weather":"Weather, conditions, n/a","address":"HWY 53 at 18TH AV","state":"California"},"type":"Feature","geometry":{"type":"Point","coordinates":[-122.622243,38.936926]}},{"properties":{"collision type:":"Injury","city":"Clearlake","date:":"Mon, Aug 23, 10","time:":"1923","additional factors:":"Undetermined","agency":"CPD","id":"259","weather":"Weather, conditions, n/a","address":"3550 ARROWHEAD RD","state":"California"},"type":"Feature","geometry":{"type":"Point","coordinates":[-122.658218,38.970273]}},{"properties":{"collision type:":"Injury","city":"Clearlake","date:":"Sun, Aug 29, 10","time:":"1130","additional factors:":"Failure to heed stoplight or sign","agency":"CPD","id":"260","weather":"Weather, conditions, n/a","address":"HIGHWAY 53 at OLYMPIC","state":"California"},"type":"Feature","geometry":{"type":"Point","coordinates":[-122.618908,38.964091]}},{"properties":{"collision type:":"Injury","city":"Clearlake","date:":"Mon, Sep 13, 10","time:":"1120","additional factors:":"Failure to heed stoplight or sign","agency":"CPD","id":"261","weather":"Weather, conditions, n/a","address":"14772 LAKESHORE DR","state":"California"},"type":"Feature","geometry":{"type":"Point","coordinates":[-122.635641,38.950102]}},{"properties":{"collision type:":"Injury","city":"Clearlake","date:":"Sat, Sep 25, 10","time:":"1958","additional factors:":"Right of way at Crosswalk - Pedestrian at fault","agency":"CPD","id":"262","weather":"Weather, conditions, n/a","address":"AUSTIN PARK","state":"California"},"type":"Feature","geometry":{"type":"Point","coordinates":[-122.647879,38.96021]}},{"properties":{"collision type:":"Injury","city":"Clearlake","date:":"Mon, Oct 25, 10","time:":"1307","additional factors:":"Failure to stop","agency":"CPD","id":"263","weather":"Weather, conditions, n/a","address":"40TH AV  at  PHILLIPS AV","state":"California"},"type":"Feature","geometry":{"type":"Point","coordinates":[-122.615159,38.950582]}},{"properties":{"collision type:":"Injury","city":"Clearlake","date:":"Fri, Dec 3, 10","time:":"2209","additional factors:":"Speeding","agency":"CPD","id":"264","weather":"Weather, conditions, n/a","address":"10TH ST at BUSH","state":"California"},"type":"Feature","geometry":{"type":"Point","coordinates":[-122.661774,38.976228]}},{"properties":{"collision type:":"Injury","city":"Clearlake","date:":"Tue, Dec 7, 10","time:":"1803","additional factors:":"Following to closely","agency":"CPD","id":"265","weather":"Weather, conditions, n/a","address":"HWY 53 at 18TH AV","state":"California"},"type":"Feature","geometry":{"type":"Point","coordinates":[-122.622243,38.936926]}},{"properties":{"collision type:":"Injury","city":"Clearlake","date:":"Fri, Dec 17, 10","time:":"1640","additional factors:":"Failure to signal","agency":"CPD","id":"266","weather":"Weather, conditions, n/a","address":"13939 LAKESHORE DR","state":"California"},"type":"Feature","geometry":{"type":"Point","coordinates":[-122.651112,38.965534]}},{"properties":{"collision type:":"Injury","city":"Clearlake","date:":"Tue, Jan 4, 11","time:":"1420","additional factors:":"Pedestrian outside crosswalk","agency":"CPD","id":"267","weather":"Weather, conditions, n/a","address":"HWY 53 at DAM RD","state":"California"},"type":"Feature","geometry":{"type":"Point","coordinates":[-122.618887,38.930062]}},{"properties":{"collision type:":"Injury","city":"Clearlake","date:":"Sun, Feb 13, 11","time:":"2015","additional factors:":"Failure to heed stoplight or sign","agency":"CPD","id":"268","weather":"Weather, conditions, n/a","address":"HWY 53 at  OLD HWY  53","state":"California"},"type":"Feature","geometry":{"type":"Point","coordinates":[-122.612697,38.976361]}},{"properties":{"collision type:":"Injury","city":"Clearlake","date:":"Sun, Mar 20, 11","time:":"241","additional factors:":"Failure to signal","agency":"CPD","id":"269","weather":"Weather, conditions, n/a","address":"15195 LAKESHORE DR","state":"California"},"type":"Feature","geometry":{"type":"Point","coordinates":[-122.626902,38.949366]}},{"properties":{"collision type:":"Injury","city":"Clearlake","date:":"Thu, Apr 7, 11","time:":"2020","additional factors:":"Unsafe left turn","agency":"CPD","id":"270","weather":"Weather, conditions, n/a","address":"OLD HIGHWAY 53 at AUSTIN DR","state":"California"},"type":"Feature","geometry":{"type":"Point","coordinates":[-122.631369,38.958323]}},{"properties":{"collision type:":"Injury","city":"Clearlake","date:":"Fri, Apr 8, 11","time:":"718","additional factors:":"Failure to signal","agency":"CPD","id":"271","weather":"Weather, conditions, n/a","address":"SAN JOAQUIN AV","state":"California"},"type":"Feature","geometry":{"type":"Point","coordinates":[-122.682259,38.978213]}},{"properties":{"collision type:":"Injury","city":"Clearlake","date:":"Tue, May 3, 11","time:":"1736","additional factors:":"Driving on wrong side of road","agency":"CPD","id":"272","weather":"Weather, conditions, n/a","address":"OLD HIGHWAY 53 at HIGHLANDS HARBOR RD","state":"California"},"type":"Feature","geometry":{"type":"Point","coordinates":[-122.62182,38.930984]}},{"properties":{"collision type:":"Injury","city":"Clearlake","date:":"Mon, May 9, 11","time:":"820","additional factors:":"Speeding","agency":"CPD","id":"273","weather":"Weather, conditions, n/a","address":"HWY 53 at 40TH AV","state":"California"},"type":"Feature","geometry":{"type":"Point","coordinates":[-122.623107,38.950713]}},{"properties":{"collision type:":"Injury","city":"Clearlake","date:":"Thu, May 19, 11","time:":"1657","additional factors:":"Failure to stop","agency":"CPD","id":"274","weather":"Weather, conditions, n/a","address":"3002 6TH ST","state":"California"},"type":"Feature","geometry":{"type":"Point","coordinates":[-122.65828,38.978921]}},{"properties":{"collision type:":"Injury","city":"Clearlake","date:":"Tue, Jun 21, 11","time:":"1450","additional factors:":"Speeding","agency":"CPD","id":"275","weather":"Weather, conditions, n/a","address":"40TH  at  ST HWY 53","state":"California"},"type":"Feature","geometry":{"type":"Point","coordinates":[-122.623107,38.950713]}},{"properties":{"collision type:":"Injury","city":"Clearlake","date:":"Mon, Jul 18, 11","time:":"1622","additional factors:":"Driving on wrong side of road","agency":"CPD","id":"276","weather":"Weather, conditions, n/a","address":"14667 LAKESHORE DR","state":"California"},"type":"Feature","geometry":{"type":"Point","coordinates":[-122.638354,38.949755]}},{"properties":{"collision type:":"Injury","city":"Clearlake","date:":"Mon, Aug 1, 11","time:":"1250","additional factors:":"Unsafe left turn","agency":"CPD","id":"277","weather":"Weather, conditions, n/a","address":"OLD HIGHWAY 53 at CRAWFORD AV","state":"California"},"type":"Feature","geometry":{"type":"Point","coordinates":[-122.629316,38.939188]}},{"properties":{"collision type:":"Injury","city":"Clearlake","date:":"Wed, Aug 3, 11","time:":"1415","additional factors:":"Unsafe left turn","agency":"CPD","id":"278","weather":"Weather, conditions, n/a","address":"OLD HWY 53 at  HWY 53","state":"California"},"type":"Feature","geometry":{"type":"Point","coordinates":[-122.612697,38.976361]}},{"properties":{"collision type:":"Injury","city":"Clearlake","date:":"Tue, Aug 9, 11","time:":"700","additional factors:":"Starting Parked Vehicles or Backing into roadway","agency":"CPD","id":"279","weather":"Weather, conditions, n/a","address":"HWY 53 at OLYMPIC DR","state":"California"},"type":"Feature","geometry":{"type":"Point","coordinates":[-122.618908,38.964091]}},{"properties":{"collision type:":"Injury","city":"Clearlake","date:":"Thu, Aug 11, 11","time:":"1910","additional factors:":"Speeding","agency":"CPD","id":"280","weather":"Weather, conditions, n/a","address":"40TH AV at PHILLIPS AV","state":"California"},"type":"Feature","geometry":{"type":"Point","coordinates":[-122.615159,38.950582]}},{"properties":{"collision type:":"Injury","city":"Clearlake","date:":"Wed, Aug 24, 11","time:":"1744","additional factors:":"Failure to yield","agency":"CPD","id":"281","weather":"Weather, conditions, n/a","address":"HWY 53 at DAM RD","state":"California"},"type":"Feature","geometry":{"type":"Point","coordinates":[-122.618887,38.930062]}},{"properties":{"collision type:":"Injury","city":"Lakeport","date:":"Mon, Jun 2, 08","time:":"1520","additional factors:":"Speeding","agency":"LPD","id":"282","weather":"Clear, Daylight, Dry","address":"Safeway 11th Street","state":"California"},"type":"Feature","geometry":{"type":"Point","coordinates":[-122.92329,39.049021]}},{"properties":{"collision type:":"Injury","city":"Lakeport","date:":"Sat, Dec 12, 09","time:":"1100","additional factors:":"Inattention","agency":"LPD","id":"283","weather":"Rain, Day, Wrt","address":"Safeway 11th Street","state":"California"},"type":"Feature","geometry":{"type":"Point","coordinates":[-122.92329,39.049021]}},{"properties":{"collision type:":"Injury","city":"Lakeport","date:":"Wed, Sep 7, 11","time:":"0000","additional factors:":"Failure to yield","agency":"LPD","id":"284","weather":"Clear, Daylight","address":"Safeway 11th Street","state":"California"},"type":"Feature","geometry":{"type":"Point","coordinates":[-122.92329,39.049021]}},{"properties":{"collision type:":"Injury","city":"Lakeport","date:":"Wed, Sep 7, 11","time:":"1358","additional factors:":"Speeding","agency":"LPD","id":"285","weather":"Clear, Daylight","address":"Safeway 11th Street","state":"California"},"type":"Feature","geometry":{"type":"Point","coordinates":[-122.92329,39.049021]}},{"properties":{"collision type:":"Injury","city":"Clearlake","date:":"Sat, Dec 6, 08","time:":"1220","additional factors:":"Speeding","agency":"CPD","id":"286","weather":"Weather, conditions, n/a","address":"LAGUNA Road at  OLD HWY 53","state":"California"},"type":"Feature","geometry":{"type":"Point","coordinates":[-122.631038,38.946632]}},{"properties":{"collision type:":"Injury","city":"Lower Lake","date:":"Sun, Aug 14, 11","time:":"11:40 AM","additional factors:":"Transportation of Controlled Substance","agency":"CHP","id":"287","weather":"Clear,","address":"Morgan Valley Road at Bonham Road","state":"California"},"type":"Feature","geometry":{"type":"Point","coordinates":[-122.590152,38.908947]}},{"properties":{"collision type:":"Injury","city":"Lakeport","date:":"Sun, Jul 24, 11","time:":"10:05 AM","additional factors:":"Unsafe Left turn","agency":"CHP","id":"288","weather":"Clear,","address":"SR-20 at Irvine Ave","state":"California"},"type":"Feature","geometry":{"type":"Point","coordinates":[-123.006322,39.169084]}},{"properties":{"collision type:":"Injury","city":"Upper Lake","date:":"Tue, Jul 26, 11","time:":"02:35 PM","additional factors:":"Fell Asleep","agency":"CHP","id":"289","weather":"n/a","address":"SR-29 at Mockingbird Lane","state":"California"},"type":"Feature","geometry":{"type":"Point","coordinates":[-122.912751,39.140921]}},{"properties":{"collision type:":"Injury","city":"Lakeport","date:":"Mon, Aug 29, 11","time:":"10:35 AM","additional factors:":"Failure to yield","agency":"CHP","id":"290","weather":"n/a","address":"Park Drive at Soda Bay Road","state":"California"},"type":"Feature","geometry":{"type":"Point","coordinates":[-122.847628,39.011232]}}],"is_temporal":false,"author":{"url":"http://www.lakeconews.com","metadata":"","contact_name":"","contact_address":"","source":"CALIFORNIA HIGHWAY PATROL, LAKEPORT POLICE DEPARTMENT, CLEARLAKE POLICE DEPARTMENT","contact_phone":""},"source":"http://www.lakeconews.com","pagination":{"sort":null,"start":0,"total":291,"limit":1000000},"state":"complete","tags":"accidents,california,chp,clearlake,county,lake,lake county accidents,lakeport,lcn","published":"2011-10-31T01:59:10Z","id":170892}