{"type":"FeatureCollection","data_type":"Dataset","url_type":null,"permissions":[{"permissions":{"download":true,"edit":true,"view":true},"group_id":34863},{"permissions":{"download":true,"view":true},"group_id":"everyone"}],"classification":null,"title":"NON-INJURY DUI COLLISION DATA","count":44,"stream_id":170896,"contributor":{"url":"http://geocommons.com/users/33375","name":"lakeit"},"data_attributes":null,"calculation_params":null,"icon_link":null,"link":"http://geocommons.com/overlays/170896.json","extent":[-122.842,38.7524,-122.609,39.1006],"geometry_types":["point"],"unique_name":null,"name":"NON-INJURY DUI COLLISION DATA","feature_count":44,"description":"This Lake County News special series was produced as a project for the California Endowment Health Journalism Fellowships, a program of the University of Southern Californiaâ€™s Annenberg School for Communication &amp; Journalism.","next_feature":null,"is_raster":false,"short_classification":"Y","stats":{},"features":[{"properties":{"collision type:":"Non-Injury DUI","city":"Clearlake","date:":"Mon, Mar 10, 08","time:":"2050","additional factors:":"DUI","agency":"CPD","id":"0","weather":"Weather, conditions, n/a","address":"32ND AV at PINE AV","state":"California"},"type":"Feature","geometry":{"type":"Point","coordinates":[-122.622166,38.945413]}},{"properties":{"collision type:":"Non-Injury DUI","city":"Clearlake","date:":"Sat, Jan 2, 10","time:":"1915","additional factors:":"DUI","agency":"CPD","id":"1","weather":"Weather, conditions, n/a","address":"14830 AUSTIN RD","state":"California"},"type":"Feature","geometry":{"type":"Point","coordinates":[-122.634434,38.959512]}},{"properties":{"collision type:":"Non-Injury DUI","city":"Clearlake","date:":"Mon, Apr 25, 11","time:":"2100","additional factors:":"DUI","agency":"CPD","id":"2","weather":"Weather, conditions, n/a","address":"4617 WEST 40TH","state":"California"},"type":"Feature","geometry":{"type":"Point","coordinates":[-122.638394,38.95428]}},{"properties":{"collision type:":"Non-Injury DUI","city":"Clearlake","date:":"Sun, Nov 4, 07","time:":"01:32:00 AM","additional factors:":"DUI","agency":"CPD","id":"3","weather":"Weather, conditions, n/a","address":"14395 LAKESHORE Drive","state":"California"},"type":"Feature","geometry":{"type":"Point","coordinates":[-122.643766,38.953168]}},{"properties":{"collision type:":"Non-Injury DUI","city":"Lucerne","date:":"Fri, Apr 7, 06","time:":"18:00","additional factors:":"DUI","agency":"CHP","id":"4","weather":"Rain","address":"Roland Road at Arden","state":"California"},"type":"Feature","geometry":{"type":"Point","coordinates":[-122.803603,39.10059]}},{"properties":{"collision type:":"Non-Injury DUI","city":"Clearlake","date:":"Sat, Nov 11, 06","time:":"153","additional factors:":"DUI","agency":"CPD","id":"5","weather":"Weather, conditions, n/a","address":"OLD HWY 53  at  RIDGEVIEW DR","state":"California"},"type":"Feature","geometry":{"type":"Point","coordinates":[-122.630941,38.939103]}},{"properties":{"collision type:":"Non-Injury DUI","city":"Clearlake","date:":"Wed, Mar 7, 07","time:":"1650","additional factors:":"DUI","agency":"CPD","id":"6","weather":"Weather, conditions, n/a","address":"LAKESHORE DR at OLD HIGHWAY 53","state":"California"},"type":"Feature","geometry":{"type":"Point","coordinates":[-122.631412,38.949934]}},{"properties":{"collision type:":"Non-Injury DUI","city":"Clearlake","date:":"Sat, Mar 17, 07","time:":"1450","additional factors:":"DUI","agency":"CPD","id":"7","weather":"Weather, conditions, n/a","address":"14922 OLYMPIC DR","state":"California"},"type":"Feature","geometry":{"type":"Point","coordinates":[-122.632159,38.962495]}},{"properties":{"collision type:":"Non-Injury DUI","city":"Clearlake","date:":"Sun, Mar 25, 07","time:":"2302","additional factors:":"DUI","agency":"CPD","id":"8","weather":"Weather, conditions, n/a","address":"14225 LAKESHORE DR","state":"California"},"type":"Feature","geometry":{"type":"Point","coordinates":[-122.646332,38.954229]}},{"properties":{"collision type:":"Non-Injury DUI","city":"Clearlake","date:":"Sun, Dec 16, 07","time:":"1841","additional factors:":"DUI","agency":"CPD","id":"9","weather":"Weather, conditions, n/a","address":"OLD HWY 53 at RIDGEVIEW","state":"California"},"type":"Feature","geometry":{"type":"Point","coordinates":[-122.630941,38.939103]}},{"properties":{"collision type:":"Non-Injury DUI","city":"Clearlake","date:":"Sat, Feb 16, 08","time:":"2316","additional factors:":"DUI","agency":"CPD","id":"10","weather":"Weather, conditions, n/a","address":"5255 OLD HIGHWAY 53","state":"California"},"type":"Feature","geometry":{"type":"Point","coordinates":[-122.632601,38.945238]}},{"properties":{"collision type:":"Non-Injury DUI","city":"Clearlake","date:":"Sat, Mar 22, 08","time:":"2225","additional factors:":"DUI","agency":"CPD","id":"11","weather":"Weather, conditions, n/a","address":"14375 LAKESHORE DR","state":"California"},"type":"Feature","geometry":{"type":"Point","coordinates":[-122.643694,38.953779]}},{"properties":{"collision type:":"Non-Injury DUI","city":"Clearlake","date:":"Mon, Apr 14, 08","time:":"1837","additional factors:":"DUI","agency":"CPD","id":"12","weather":"Weather, conditions, n/a","address":"16207 30TH AV","state":"California"},"type":"Feature","geometry":{"type":"Point","coordinates":[-122.609304,38.943733]}},{"properties":{"collision type:":"Non-Injury DUI","city":"Clearlake","date:":"Wed, May 7, 08","time:":"1230","additional factors:":"DUI","agency":"CPD","id":"13","weather":"Weather, conditions, n/a","address":"AUSTIN DR  at  OLD HWY 53","state":"California"},"type":"Feature","geometry":{"type":"Point","coordinates":[-122.631369,38.958323]}},{"properties":{"collision type:":"Non-Injury DUI","city":"Clearlake","date:":"Sat, May 17, 08","time:":"108","additional factors:":"DUI","agency":"CPD","id":"14","weather":"Weather, conditions, n/a","address":"4641 WEST 40TH AV","state":"California"},"type":"Feature","geometry":{"type":"Point","coordinates":[-122.638188,38.953372]}},{"properties":{"collision type:":"Non-Injury DUI","city":"Clearlake","date:":"Thu, May 22, 08","time:":"1700","additional factors:":"DUI","agency":"CPD","id":"15","weather":"Weather, conditions, n/a","address":"14050 OLYMPIC DR","state":"California"},"type":"Feature","geometry":{"type":"Point","coordinates":[-122.649139,38.961338]}},{"properties":{"collision type:":"Non-Injury DUI","city":"Clearlake","date:":"Wed, Jun 4, 08","time:":"1545","additional factors:":"DUI","agency":"CPD","id":"16","weather":"Weather, conditions, n/a","address":"14772 LAKESHORE DR","state":"California"},"type":"Feature","geometry":{"type":"Point","coordinates":[-122.635641,38.950102]}},{"properties":{"collision type:":"Non-Injury DUI","city":"Clearlake","date:":"Fri, Jul 25, 08","time:":"1451","additional factors:":"DUI","agency":"CPD","id":"17","weather":"Weather, conditions, n/a","address":"OLD HWY 53  at  RIDGEVIEW DR","state":"California"},"type":"Feature","geometry":{"type":"Point","coordinates":[-122.630941,38.939103]}},{"properties":{"collision type:":"Non-Injury DUI","city":"Clearlake","date:":"Mon, Aug 4, 08","time:":"48","additional factors:":"DUI","agency":"CPD","id":"18","weather":"Weather, conditions, n/a","address":"3278 14TH ST","state":"California"},"type":"Feature","geometry":{"type":"Point","coordinates":[-122.664904,38.975215]}},{"properties":{"collision type:":"Non-Injury DUI","city":"Clearlake","date:":"Tue, Mar 3, 09","time:":"1725","additional factors:":"DUI","agency":"CPD","id":"19","weather":"Weather, conditions, n/a","address":"STATE HIGHWAY 53 at POLK AV","state":"California"},"type":"Feature","geometry":{"type":"Point","coordinates":[-122.622153,38.959962]}},{"properties":{"collision type:":"Non-Injury DUI","city":"Clearlake","date:":"Sat, May 2, 09","time:":"120","additional factors:":"DUI","agency":"CPD","id":"20","weather":"Weather, conditions, n/a","address":"AIRPORT RD","state":"California"},"type":"Feature","geometry":{"type":"Point","coordinates":[-122.624047,38.933575]}},{"properties":{"collision type:":"Non-Injury DUI","city":"Clearlake","date:":"Sun, Aug 2, 09","time:":"2045","additional factors:":"DUI","agency":"CPD","id":"21","weather":"Weather, conditions, n/a","address":"MULLEN AV  at  AUSTIN RD","state":"California"},"type":"Feature","geometry":{"type":"Point","coordinates":[-122.638196,38.95885]}},{"properties":{"collision type:":"Non-Injury DUI","city":"Clearlake","date:":"Fri, Sep 18, 09","time:":"1927","additional factors:":"DUI","agency":"CPD","id":"22","weather":"Weather, conditions, n/a","address":"14825 CLEMENT DR","state":"California"},"type":"Feature","geometry":{"type":"Point","coordinates":[-122.634895,38.944113]}},{"properties":{"collision type:":"Non-Injury DUI","city":"Clearlake","date:":"Thu, Jan 14, 10","time:":"11420","additional factors:":"DUI","agency":"CPD","id":"23","weather":"Weather, conditions, n/a","address":"15097 OLYMPIC DR","state":"California"},"type":"Feature","geometry":{"type":"Point","coordinates":[-122.629463,38.961154]}},{"properties":{"collision type:":"Non-Injury DUI","city":"Clearlake","date:":"Tue, Feb 2, 10","time:":"1428","additional factors:":"DUI","agency":"CPD","id":"24","weather":"Weather, conditions, n/a","address":"SANTA CLARA AV at GOLF CLUB RD","state":"California"},"type":"Feature","geometry":{"type":"Point","coordinates":[-122.661147,38.972157]}},{"properties":{"collision type:":"Non-Injury DUI","city":"Clearlake","date:":"Wed, Apr 21, 10","time:":"1402","additional factors:":"DUI","agency":"CPD","id":"25","weather":"Weather, conditions, n/a","address":"SAN JOAQUIN AV","state":"California"},"type":"Feature","geometry":{"type":"Point","coordinates":[-122.682259,38.978213]}},{"properties":{"collision type:":"Non-Injury DUI","city":"Clearlake","date:":"Thu, Jun 17, 10","time:":"1335","additional factors:":"DUI","agency":"CPD","id":"26","weather":"Weather, conditions, n/a","address":"15290 LAKESHORE DR","state":"California"},"type":"Feature","geometry":{"type":"Point","coordinates":[-122.626879,38.949871]}},{"properties":{"collision type:":"Non-Injury DUI","city":"Clearlake","date:":"Tue, Sep 21, 10","time:":"619","additional factors:":"DUI","agency":"CPD","id":"27","weather":"Weather, conditions, n/a","address":"3805 ALVITA AV","state":"California"},"type":"Feature","geometry":{"type":"Point","coordinates":[-122.646197,38.957264]}},{"properties":{"collision type:":"Non-Injury DUI","city":"Clearlake","date:":"Sun, May 15, 11","time:":"1650","additional factors:":"DUI","agency":"CPD","id":"28","weather":"Weather, conditions, n/a","address":"OLD HWY 53 at  J &amp; L MARKET","state":"California"},"type":"Feature","geometry":{"type":"Point","coordinates":[-122.626373,38.958231]}},{"properties":{"collision type:":"Non-Injury DUI","city":"Clearlake","date:":"Sun, Jun 19, 11","time:":"625","additional factors:":"DUI","agency":"CPD","id":"29","weather":"Weather, conditions, n/a","address":"BURNS VALLEY at ARCATA","state":"California"},"type":"Feature","geometry":{"type":"Point","coordinates":[-122.642949,38.968865]}},{"properties":{"collision type:":"Non-Injury DUI","city":"Clearlake","date:":"Tue, Aug 16, 11","time:":"350","additional factors:":"DUI","agency":"CPD","id":"30","weather":"Weather, conditions, n/a","address":"16026 33D AV","state":"California"},"type":"Feature","geometry":{"type":"Point","coordinates":[-122.612537,38.946139]}},{"properties":{"collision type:":"Non-Injury DUI","city":"Clearlake","date:":"Sun, Jun 24, 07","time:":"1630","additional factors:":"DUI","agency":"CPD","id":"31","weather":"Weather, conditions, n/a","address":"SR 53 at LAKESHORE DR","state":"California"},"type":"Feature","geometry":{"type":"Point","coordinates":[-122.623107,38.950713]}},{"properties":{"collision type:":"Non-Injury DUI","city":"Clearlake","date:":"Thu, Feb 7, 08","time:":"1510","additional factors:":"DUI","agency":"CPD","id":"32","weather":"Weather, conditions, n/a","address":"AUSTIN RD  at  OLD HWY 53","state":"California"},"type":"Feature","geometry":{"type":"Point","coordinates":[-122.631369,38.958323]}},{"properties":{"collision type:":"Non-Injury DUI","city":"Clearlake","date:":"Thu, Apr 17, 08","time:":"2245","additional factors:":"DUI","agency":"CPD","id":"33","weather":"Weather, conditions, n/a","address":"4144 OLD HIGHWAY 53","state":"California"},"type":"Feature","geometry":{"type":"Point","coordinates":[-122.630578,38.953767]}},{"properties":{"collision type:":"Non-Injury DUI","city":"Clearlake","date:":"Mon, May 26, 08","time:":"2230","additional factors:":"DUI","agency":"CPD","id":"34","weather":"Weather, conditions, n/a","address":"15150 HIGHLANDS HARBOR DR","state":"California"},"type":"Feature","geometry":{"type":"Point","coordinates":[-122.628946,38.932451]}},{"properties":{"collision type:":"Non-Injury DUI","city":"Clearlake","date:":"Sun, Apr 18, 10","time:":"1846","additional factors:":"DUI","agency":"CPD","id":"35","weather":"Weather, conditions, n/a","address":"13923 LAKESHORE DR","state":"California"},"type":"Feature","geometry":{"type":"Point","coordinates":[-122.651485,38.965555]}},{"properties":{"collision type:":"Non-Injury DUI","city":"Clearlake","date:":"Thu, Sep 16, 10","time:":"2040","additional factors:":"DUI","agency":"CPD","id":"36","weather":"Weather, conditions, n/a","address":"OLD HIGHWAY 53 at DAVIS AV","state":"California"},"type":"Feature","geometry":{"type":"Point","coordinates":[-122.6307,38.95448]}},{"properties":{"collision type:":"Non-Injury DUI","city":"Middletown","date:":"Thu, Apr 17, 08","time:":"19:45","additional factors:":"Speed DUI","agency":"CHP","id":"37","weather":"Clear, dry, warm","address":"SR-29  at Perry's Deli","state":"California"},"type":"Feature","geometry":{"type":"Point","coordinates":[-122.614985,38.752404]}},{"properties":{"collision type:":"Non-Injury DUI","city":"Kelseyville","date:":"Tue, Jul 17, 07","time:":"4:35","additional factors:":"Speed DUI","agency":"CHP","id":"38","weather":"Clear, dry, cool","address":"Gunn Street","state":"California"},"type":"Feature","geometry":{"type":"Point","coordinates":[-122.842245,38.98027]}},{"properties":{"collision type:":"Non-Injury DUI","city":"Clearlake","date:":"Sat, Nov 17, 07","time:":"2127","additional factors:":"DUI","agency":"CPD","id":"39","weather":"Weather, conditions, n/a","address":"OLD HWY 53 at MENDO MLL","state":"California"},"type":"Feature","geometry":{"type":"Point","coordinates":[-122.626373,38.958231]}},{"properties":{"collision type:":"Non-Injury DUI","city":"Clearlake","date:":"Sat, Dec 1, 07","time:":"1830","additional factors:":"DUI","agency":"CPD","id":"40","weather":"Weather, conditions, n/a","address":"5645 OLD HIGHWAY 53","state":"California"},"type":"Feature","geometry":{"type":"Point","coordinates":[-122.632522,38.9425]}},{"properties":{"collision type:":"Non-Injury DUI","city":"Clearlake","date:":"Sat, Dec 22, 07","time:":"2258","additional factors:":"DUI","agency":"CPD","id":"41","weather":"Weather, conditions, n/a","address":"OLD HIGHWAY 53 at AUSTIN DR","state":"California"},"type":"Feature","geometry":{"type":"Point","coordinates":[-122.631369,38.958323]}},{"properties":{"collision type:":"Non-Injury DUI","city":"Clearlake","date:":"Sun, May 25, 08","time:":"2150","additional factors:":"DUI","agency":"CPD","id":"42","weather":"Weather, conditions, n/a","address":"15995 37TH AV","state":"California"},"type":"Feature","geometry":{"type":"Point","coordinates":[-122.613223,38.948391]}},{"properties":{"collision type:":"Non-Injury DUI","city":"Clearlake","date:":"Sun, Mar 22, 09","time:":"2145","additional factors:":"DUI","agency":"CPD","id":"43","weather":"Weather, conditions, n/a","address":"CYPRESS ST at COTTAGE","state":"California"},"type":"Feature","geometry":{"type":"Point","coordinates":[-122.630863,38.941682]}}],"is_temporal":false,"author":{"url":"http://www.lakeconews.com","metadata":"","contact_name":"","contact_address":"","source":"CALIFORNIA HIGHWAY PATROL, LAKEPORT POLICE DEPARTMENT, CLEARLAKE POLICE DEPARTMENT","contact_phone":""},"source":"http://www.lakeconews.com","pagination":{"sort":null,"start":0,"total":44,"limit":1000000},"state":"complete","tags":"accidents,california,chp,clearlake,county,lake,lake county accidents,lakeport,lcn","published":"2011-10-31T16:00:00Z","id":170896}