{"type":"FeatureCollection","data_type":"Dataset","url_type":null,"permissions":[{"permissions":{"download":true,"edit":true,"view":true},"group_id":34863},{"permissions":{"download":true,"view":true},"group_id":"everyone"}],"classification":null,"title":"HIT AND RUN COLLISION DATA","count":3,"stream_id":170891,"contributor":{"url":"http://geocommons.com/users/33375","name":"lakeit"},"data_attributes":null,"calculation_params":null,"icon_link":null,"link":"http://geocommons.com/overlays/170891.json","extent":[-122.839,38.9545,-122.718,38.9799],"geometry_types":["point"],"unique_name":null,"name":"HIT AND RUN COLLISION DATA","feature_count":3,"description":"This Lake County News special series was produced as a project for the California Endowment Health Journalism Fellowships, a program of the University of Southern Californiaâ€™s Annenberg School for Communication &amp; Journalism.","next_feature":null,"is_raster":false,"short_classification":"Y","stats":{},"features":[{"properties":{"collision type:":"Hit and Run","city":"Kelseyville","date:":"Mon, Nov 20, 06","time:":"14:03","additional factors:":"Undetermined","agency":"CHP","id":"0","weather":"Cloudy, dry","address":"Point Lakeview Road at Hawaina Place","state":"California"},"type":"Feature","geometry":{"type":"Point","coordinates":[-122.718488,38.954485]}},{"properties":{"collision type:":"Hit and Run","city":"Kelseyville","date:":"Sat, Jul 19, 08","time:":"11:00","additional factors:":"DUI","agency":"CHP","id":"1","weather":"Clear, dry","address":"Konocti Harbor Resort Parking Lot","state":"California"},"type":"Feature","geometry":{"type":"Point","coordinates":[-122.839438,38.977953]}},{"properties":{"collision type:":"Hit and Run","city":"Kelseyville","date:":"Thu, Feb 10, 11","time:":"19:11","additional factors:":"DUI","agency":"CHP","id":"2","weather":"Clear, 50, degrees","address":"Main Street @ State Street","state":"California"},"type":"Feature","geometry":{"type":"Point","coordinates":[-122.832475,38.979949]}}],"is_temporal":false,"author":{"url":"http://www.lakeconews.com","metadata":"","contact_name":"","contact_address":"","source":"CALIFORNIA HIGHWAY PATROL, LAKEPORT POLICE DEPARTMENT, CLEARLAKE POLICE DEPARTMENT","contact_phone":""},"source":"http://www.lakeconews.com","pagination":{"sort":null,"start":0,"total":3,"limit":1000000},"state":"complete","tags":"accidents,california,chp,clearlake,county,lake,lake county accidents,lakeport,lcn","published":"2011-10-31T02:00:33Z","id":170891}