{"type":"FeatureCollection","data_type":"Dataset","url_type":null,"permissions":[{"permissions":{"download":true,"view":true},"group_id":"everyone"}],"classification":null,"title":"PNPM UPK offices","count":372,"stream_id":171007,"contributor":{"url":"http://geocommons.com/users/35145","name":"wulandee"},"data_attributes":null,"calculation_params":null,"icon_link":null,"link":"http://geocommons.com/overlays/171007.json","extent":[95.8216,-8.75964,128.204,5.27537],"geometry_types":["point"],"unique_name":null,"name":"PNPM UPK offices","feature_count":372,"description":"","next_feature":null,"is_raster":false,"short_classification":"Y","stats":{"sub-district code":{"max":8201090,"mean":3546892.6344086,"variance":2923838304201.6,"stdev":1709923.47904858,"min":1109030,"median":3307040},"latitude":{"max":5.275371315,"mean":-5.07469872224193,"variance":12.5474238583,"stdev":3.54223430313411,"min":-8.759638179,"median":-6.882015767},"province code":{"max":444,"mean":258.5,"variance":11563.0,"stdev":107.531390765674,"min":73,"median":259},"longitude":{"max":128.204287,"mean":109.630060239704,"variance":35.4637648347729,"stdev":5.95514608005319,"min":95.82158125,"median":109.4171671},"district code":{"max":8201,"mean":3546.79838709677,"variance":2923850.25304321,"stdev":1709.9269730147,"min":1109,"median":3307}},"features":[{"properties":{"sub-district code":7317040,"pnpm office":"<a href=\"http://www.facebook.com/profile.php?id=100001185281827\">Upk Bajo</a>","latitude":-3.360015865,"district":"KAB. LUWU","province code":73,"longitude":120.2982101,"id":"a65e07hjxhwt","sub-district":"BAJO","district code":7317,"province":"SULAWESI SELATAN"},"type":"Feature","geometry":{"type":"Point","coordinates":[120.2982101,-3.360015865]}},{"properties":{"sub-district code":3509080,"pnpm office":"<a href=\"http://www.facebook.com/pnpm.mayang\">Upk Mayang</a>","latitude":-8.213209728,"district":"KAB. JEMBER","province code":74,"longitude":113.7830221,"id":"a65e07dfykez","sub-district":"MAYANG","district code":3509,"province":"JAWA TIMUR"},"type":"Feature","geometry":{"type":"Point","coordinates":[113.7830221,-8.213209728]}},{"properties":{"sub-district code":3205261,"pnpm office":"<a href=\"http://www.facebook.com/profile.php?id=100000911552950\">Upk Kersamanah</a>","latitude":-7.07314574,"district":"KAB. GARUT","province code":75,"longitude":108.0249432,"id":"a65e07ew309p","sub-district":"KERSAMANAH","district code":3205,"province":"JAWA BARAT"},"type":"Feature","geometry":{"type":"Point","coordinates":[108.0249432,-7.07314574]}},{"properties":{"sub-district code":3507110,"pnpm office":"<a href=\"http://www.facebook.com/profile.php?id=100001565427742\">Upk Wajak</a>","latitude":-8.139900343,"district":"KAB. MALANG","province code":76,"longitude":112.779499,"id":"a65e07csksc4","sub-district":"WAJAK","district code":3507,"province":"JAWA TIMUR"},"type":"Feature","geometry":{"type":"Point","coordinates":[112.779499,-8.139900343]}},{"properties":{"sub-district code":3203080,"pnpm office":"<a href=\"http://www.facebook.com/profile.php?id=100001072143973\">Upk Takokak Cianjur</a>","latitude":-7.103640055,"district":"KAB. CIANJUR","province code":77,"longitude":106.9873131,"id":"a65e07h52qzk","sub-district":"TAKOKAK","district code":3203,"province":"JAWA BARAT"},"type":"Feature","geometry":{"type":"Point","coordinates":[106.9873131,-7.103640055]}},{"properties":{"sub-district code":1219030,"pnpm office":"<a href=\"http://www.facebook.com/upk.talawi\">Upk Kecamatan Talawi</a>","latitude":3.16739377,"district":"KAB. BATU BARA","province code":78,"longitude":99.53443469,"id":"a65e07ahyuf7","sub-district":"TALAWI","district code":1219,"province":"SUMATERA UTARA"},"type":"Feature","geometry":{"type":"Point","coordinates":[99.53443469,3.16739377]}},{"properties":{"sub-district code":3505160,"pnpm office":"<a href=\"http://www.facebook.com/upk.garum\">Upk Garum</a>","latitude":-8.034145335,"district":"KAB. BLITAR","province code":79,"longitude":112.2411418,"id":"a65e07723q2z","sub-district":"GARUM","district code":3505,"province":"JAWA TIMUR"},"type":"Feature","geometry":{"type":"Point","coordinates":[112.2411418,-8.034145335]}},{"properties":{"sub-district code":3521060,"pnpm office":"<a href=\"http://www.facebook.com/profile.php?id=100000671316416\">Upk Kwadungan</a>","latitude":-7.498496479,"district":"KAB. NGAWI","province code":80,"longitude":111.4851762,"id":"a65e07doo271","sub-district":"KWADUNGAN","district code":3521,"province":"JAWA TIMUR"},"type":"Feature","geometry":{"type":"Point","coordinates":[111.4851762,-7.498496479]}},{"properties":{"sub-district code":3320040,"pnpm office":"<a href=\"http://www.facebook.com/profile.php?id=100000834730042\">Upk Mayong</a>","latitude":-6.702289169,"district":"KAB. JEPARA","province code":81,"longitude":110.7820266,"id":"a65e07f4ygq0","sub-district":"MAYONG","district code":3320,"province":"JAWA TENGAH"},"type":"Feature","geometry":{"type":"Point","coordinates":[110.7820266,-6.702289169]}},{"properties":{"sub-district code":3301030,"pnpm office":"<a href=\"http://www.facebook.com/profile.php?id=100000088826275\">Upk Majenang Kabupaten Cilacap</a>","latitude":-7.261799441,"district":"KAB. CILACAP","province code":82,"longitude":108.7610157,"id":"a65e07jepmm2","sub-district":"MAJENANG","district code":3301,"province":"JAWA TENGAH"},"type":"Feature","geometry":{"type":"Point","coordinates":[108.7610157,-7.261799441]}},{"properties":{"sub-district code":3206020,"pnpm office":"<a href=\"http://www.facebook.com/upk.karangnunggal\">Upk Karangnunggal</a>","latitude":-7.635540914,"district":"KAB. TASIKMALAYA","province code":83,"longitude":108.162914,"id":"a65e07cgflm6","sub-district":"KARANGNUNGGAL","district code":3206,"province":"JAWA BARAT"},"type":"Feature","geometry":{"type":"Point","coordinates":[108.162914,-7.635540914]}},{"properties":{"sub-district code":1111070,"pnpm office":"<a href=\"http://www.facebook.com/profile.php?id=100001482014284\">Pnpm Mp Upk Cotgirek</a>","latitude":4.871280887,"district":"KAB. ACEH UTARA","province code":84,"longitude":97.31915109,"id":"a65e07ksfsyn","sub-district":"COT GIREK","district code":1111,"province":"NANGGROE ACEH DARUSSALAM"},"type":"Feature","geometry":{"type":"Point","coordinates":[97.31915109,4.871280887]}},{"properties":{"sub-district code":3214060,"pnpm office":"<a href=\"http://www.facebook.com/upkbinangkit\">Upk Darangdan Purwakarta</a>","latitude":-6.67616073,"district":"KAB. PURWAKARTA","province code":85,"longitude":107.4506305,"id":"a65e076zb5la","sub-district":"DARANGDAN","district code":3214,"province":"JAWA BARAT"},"type":"Feature","geometry":{"type":"Point","coordinates":[107.4506305,-6.67616073]}},{"properties":{"sub-district code":3514130,"pnpm office":"<a href=\"http://www.facebook.com/profile.php?id=100000530934129\">Upk Gempol</a>","latitude":-7.593187692,"district":"KAB. PASURUAN","province code":86,"longitude":112.6838262,"id":"a65e07fx0xvl","sub-district":"GEMPOL","district code":3514,"province":"JAWA TIMUR"},"type":"Feature","geometry":{"type":"Point","coordinates":[112.6838262,-7.593187692]}},{"properties":{"sub-district code":7405080,"pnpm office":"<a href=\"http://www.facebook.com/profile.php?id=100001244297248\">Ex Upk Konda Pnpm</a>","latitude":-4.130078481,"district":"KAB. KONAWE SELATAN","province code":87,"longitude":122.479254,"id":"a65e07iy0sg3","sub-district":"KONDA","district code":7405,"province":"SULAWESI TENGGARA"},"type":"Feature","geometry":{"type":"Point","coordinates":[122.479254,-4.130078481]}},{"properties":{"sub-district code":3206261,"pnpm office":"<a href=\"http://www.facebook.com/profile.php?id=100000437122655\">Upk Kadipaten Tasikmalaya</a>","latitude":-7.129767676,"district":"KAB. TASIKMALAYA","province code":88,"longitude":108.1167945,"id":"a65e07fsg52o","sub-district":"KADIPATEN","district code":3206,"province":"JAWA BARAT"},"type":"Feature","geometry":{"type":"Point","coordinates":[108.1167945,-7.129767676]}},{"properties":{"sub-district code":3321120,"pnpm office":"<a href=\"http://www.facebook.com/upkmijen\">Upk Mijen Demak</a>","latitude":-6.813597076,"district":"KAB. DEMAK","province code":89,"longitude":110.6965296,"id":"a65e07cztsrw","sub-district":"MIJEN","district code":3321,"province":"JAWA TENGAH"},"type":"Feature","geometry":{"type":"Point","coordinates":[110.6965296,-6.813597076]}},{"properties":{"sub-district code":1607030,"pnpm office":"<a href=\"http://www.facebook.com/profile.php?id=1824120338\">Mrd Tamim Upk</a>","latitude":-2.556671614,"district":"KAB. BANYU ASIN","province code":90,"longitude":104.36909,"id":"a65e076pllcc","sub-district":"PULAU RIMAU","district code":1607,"province":"SUMATERA SELATAN"},"type":"Feature","geometry":{"type":"Point","coordinates":[104.36909,-2.556671614]}},{"properties":{"sub-district code":1403120,"pnpm office":"<a href=\"http://www.facebook.com/profile.php?id=100002365210727\">Upk Kateman</a>","latitude":0.162069743,"district":"KAB. INDRAGIRI HILIR","province code":91,"longitude":103.6783999,"id":"a65e07mjfbo1","sub-district":"KATEMAN","district code":1403,"province":"RIAU"},"type":"Feature","geometry":{"type":"Point","coordinates":[103.6783999,0.162069743]}},{"properties":{"sub-district code":3529190,"pnpm office":"<a href=\"http://www.facebook.com/profile.php?id=100002567614818\">Upk Dungkek</a>","latitude":-6.967460962,"district":"KAB. SUMENEP","province code":92,"longitude":114.0655628,"id":"a65e07asdhzp","sub-district":"DUNGKEK","district code":3529,"province":"JAWA TIMUR"},"type":"Feature","geometry":{"type":"Point","coordinates":[114.0655628,-6.967460962]}},{"properties":{"sub-district code":1706030,"pnpm office":"<a href=\"http://www.facebook.com/profile.php?id=100002560717345\">Upk Terasterunjam</a>","latitude":-2.581547129,"district":"KAB. MUKOMUKO","province code":93,"longitude":101.2521822,"id":"a65e07mmbdb5","sub-district":"TERAS TERUNJAM","district code":1706,"province":"BENGKULU"},"type":"Feature","geometry":{"type":"Point","coordinates":[101.2521822,-2.581547129]}},{"properties":{"sub-district code":3212200,"pnpm office":"<a href=\"http://www.facebook.com/upk.bongas\">Upk Bongas</a>","latitude":-6.392529002,"district":"KAB. INDRAMAYU","province code":94,"longitude":108.0221611,"id":"a65e076ip7ss","sub-district":"BONGAS","district code":3212,"province":"JAWA BARAT"},"type":"Feature","geometry":{"type":"Point","coordinates":[108.0221611,-6.392529002]}},{"properties":{"sub-district code":3307090,"pnpm office":"<a href=\"http://www.facebook.com/profile.php?id=100000207611138\">Titien Upk</a>","latitude":-7.373138319,"district":"KAB. WONOSOBO","province code":95,"longitude":109.916725,"id":"a65e07c66x6r","sub-district":"WONOSOBO","district code":3307,"province":"JAWA TENGAH"},"type":"Feature","geometry":{"type":"Point","coordinates":[109.916725,-7.373138319]}},{"properties":{"sub-district code":6404041,"pnpm office":"<a href=\"http://www.facebook.com/profile.php?id=100000208433213\">Upk Pnpm Bengalon</a>","latitude":0.839451473,"district":"KAB. KUTAI TIMUR","province code":96,"longitude":117.4416143,"id":"a65e07ggfy4i","sub-district":"BENGALON","district code":6404,"province":"KALIMANTAN TIMUR"},"type":"Feature","geometry":{"type":"Point","coordinates":[117.4416143,0.839451473]}},{"properties":{"sub-district code":1206070,"pnpm office":"<a href=\"http://www.facebook.com/delima.h.upkporsea\">Delima Herty Upk Porsea</a>","latitude":2.463775957,"district":"KAB. TOBA SAMOSIR","province code":97,"longitude":99.1595075,"id":"a65e07byb5bi","sub-district":"PORSEA","district code":1206,"province":"SUMATERA UTARA"},"type":"Feature","geometry":{"type":"Point","coordinates":[99.1595075,2.463775957]}},{"properties":{"sub-district code":3206111,"pnpm office":"<a href=\"http://www.facebook.com/profile.php?id=100000112084229\">Upk Puspahiang</a>","latitude":-7.413280716,"district":"KAB. TASIKMALAYA","province code":98,"longitude":108.0185088,"id":"a65e07ik9joh","sub-district":"PUSPAHIANG","district code":3206,"province":"JAWA BARAT"},"type":"Feature","geometry":{"type":"Point","coordinates":[108.0185088,-7.413280716]}},{"properties":{"sub-district code":3507330,"pnpm office":"<a href=\"http://www.facebook.com/profile.php?id=100000129989228\">Upk Pnpm Kasembon</a>","latitude":-7.809631385,"district":"KAB. MALANG","province code":99,"longitude":112.3540532,"id":"a65e07bifb9s","sub-district":"KASEMBON","district code":3507,"province":"JAWA TIMUR"},"type":"Feature","geometry":{"type":"Point","coordinates":[112.3540532,-7.809631385]}},{"properties":{"sub-district code":3506050,"pnpm office":"<a href=\"http://www.facebook.com/profile.php?id=100000392359416\">Upk Ringinrejo</a>","latitude":-7.970194299,"district":"KAB. KEDIRI","province code":100,"longitude":112.0682007,"id":"a65e07kgohfe","sub-district":"RINGINREJO","district code":3506,"province":"JAWA TIMUR"},"type":"Feature","geometry":{"type":"Point","coordinates":[112.0682007,-7.970194299]}},{"properties":{"sub-district code":1206060,"pnpm office":"<a href=\"http://www.facebook.com/profile.php?id=100000263729095\">Upk Silaen</a>","latitude":2.392082177,"district":"KAB. TOBA SAMOSIR","province code":101,"longitude":99.23429303,"id":"a65e07bx1acc","sub-district":"SILAEN","district code":1206,"province":"SUMATERA UTARA"},"type":"Feature","geometry":{"type":"Point","coordinates":[99.23429303,2.392082177]}},{"properties":{"sub-district code":3308030,"pnpm office":"<a href=\"http://www.facebook.com/profile.php?id=100000170786157\">Upk Ngluwar</a>","latitude":-7.654427217,"district":"KAB. MAGELANG","province code":102,"longitude":110.2787365,"id":"a65e07d2v4cn","sub-district":"NGLUWAR","district code":3308,"province":"JAWA TENGAH"},"type":"Feature","geometry":{"type":"Point","coordinates":[110.2787365,-7.654427217]}},{"properties":{"sub-district code":1214030,"pnpm office":"<a href=\"http://www.facebook.com/profile.php?id=100000165578681\">Upk Teluk Dalam Asahan</a>","latitude":0.63814792,"district":"KAB. NIAS SELATAN","province code":103,"longitude":97.79568521,"id":"a65e07kryt6o","sub-district":"TELUK DALAM","district code":1214,"province":"SUMATERA UTARA"},"type":"Feature","geometry":{"type":"Point","coordinates":[97.79568521,0.63814792]}},{"properties":{"sub-district code":7201061,"pnpm office":"<a href=\"http://www.facebook.com/upkpnpm.bulangoselatan\">Upk Pnpm Bulango Selatan</a>","latitude":-1.453923112,"district":"KAB. BANGGAI KEPULAUAN","province code":104,"longitude":122.9625712,"id":"a65e07c1ivc0","sub-district":"BULAGI SELATAN","district code":7201,"province":"SULAWESI TENGAH"},"type":"Feature","geometry":{"type":"Point","coordinates":[122.9625712,-1.453923112]}},{"properties":{"sub-district code":3518020,"pnpm office":"<a href=\"http://www.facebook.com/profile.php?id=100000102516934\">Upk Ngetos</a>","latitude":-7.738486267,"district":"KAB. NGANJUK","province code":105,"longitude":111.8321392,"id":"a65e07cc6gub","sub-district":"NGETOS","district code":3518,"province":"JAWA TIMUR"},"type":"Feature","geometry":{"type":"Point","coordinates":[111.8321392,-7.738486267]}},{"properties":{"sub-district code":3402020,"pnpm office":"<a href=\"http://www.facebook.com/profile.php?id=100000037262390\">Upk Pnpm</a>","latitude":-7.978686873,"district":"KAB. BANTUL","province code":106,"longitude":110.2720572,"id":"a65e077u08k6","sub-district":"SANDEN","district code":3402,"province":"DAERAH ISTIMEWA YOGYAKARTA"},"type":"Feature","geometry":{"type":"Point","coordinates":[110.2720572,-7.978686873]}},{"properties":{"sub-district code":7504010,"pnpm office":"<a href=\"http://www.facebook.com/profile.php?id=100000010730293\">Upk Tapa</a>","latitude":0.673709118,"district":"KAB. BONE BOLANGO","province code":107,"longitude":123.1441812,"id":"a65e07h8igow","sub-district":"TAPA","district code":7504,"province":"GORONTALO"},"type":"Feature","geometry":{"type":"Point","coordinates":[123.1441812,0.673709118]}},{"properties":{"sub-district code":3301170,"pnpm office":"<a href=\"http://www.facebook.com/profile.php?id=100000372814397\">Upk Sampang Cilacap Pnpm</a>","latitude":-7.577169779,"district":"KAB. CILACAP","province code":108,"longitude":109.1904619,"id":"a65e07hvlz8e","sub-district":"SAMPANG","district code":3301,"province":"JAWA TENGAH"},"type":"Feature","geometry":{"type":"Point","coordinates":[109.1904619,-7.577169779]}},{"properties":{"sub-district code":7502030,"pnpm office":"<a href=\"http://www.facebook.com/profile.php?id=100000028249537\">Upk Tibawa</a>","latitude":0.685075731,"district":"KAB. GORONTALO","province code":109,"longitude":122.8185635,"id":"a65e07jvtxa2","sub-district":"TIBAWA","district code":7502,"province":"GORONTALO"},"type":"Feature","geometry":{"type":"Point","coordinates":[122.8185635,0.685075731]}},{"properties":{"sub-district code":3404080,"pnpm office":"<a href=\"http://www.facebook.com/profile.php?id=100000124034130\">Upkppkberbah Pnpm Mpd</a>","latitude":-7.807389004,"district":"KAB. SLEMAN","province code":110,"longitude":110.4525212,"id":"a65e077nxnu0","sub-district":"BERBAH","district code":3404,"province":"DAERAH ISTIMEWA YOGYAKARTA"},"type":"Feature","geometry":{"type":"Point","coordinates":[110.4525212,-7.807389004]}},{"properties":{"sub-district code":3305160,"pnpm office":"<a href=\"http://www.facebook.com/profile.php?id=100000321430490\">Upk Pnpm Kuwarasan</a>","latitude":-7.658661317,"district":"KAB. KEBUMEN","province code":111,"longitude":109.509973,"id":"a65e07dexzvm","sub-district":"KUWARASAN","district code":3305,"province":"JAWA TENGAH"},"type":"Feature","geometry":{"type":"Point","coordinates":[109.509973,-7.658661317]}},{"properties":{"sub-district code":1208040,"pnpm office":"<a href=\"http://www.facebook.com/profile.php?id=100000113398781\">Upk Seikepayang Asahan</a>","latitude":2.865441948,"district":"KAB. ASAHAN","province code":112,"longitude":99.87325025,"id":"a65e07bt55et","sub-district":"SEI KEPAYANG","district code":1208,"province":"SUMATERA UTARA"},"type":"Feature","geometry":{"type":"Point","coordinates":[99.87325025,2.865441948]}},{"properties":{"sub-district code":7308070,"pnpm office":"<a href=\"http://www.facebook.com/profile.php?id=100000279158272\">Upk Mallawa</a>","latitude":-4.81073019,"district":"KAB. MAROS","province code":113,"longitude":119.8770603,"id":"a65e07iwwp6f","sub-district":"MALLAWA","district code":7308,"province":"SULAWESI SELATAN"},"type":"Feature","geometry":{"type":"Point","coordinates":[119.8770603,-4.81073019]}},{"properties":{"sub-district code":3301160,"pnpm office":"<a href=\"http://www.facebook.com/profile.php?id=100000511758306\">Upk Maos</a>","latitude":-7.602279974,"district":"KAB. CILACAP","province code":114,"longitude":109.1384866,"id":"a65e07gm0bak","sub-district":"MAOS","district code":3301,"province":"JAWA TENGAH"},"type":"Feature","geometry":{"type":"Point","coordinates":[109.1384866,-7.602279974]}},{"properties":{"sub-district code":3209011,"pnpm office":"<a href=\"http://www.facebook.com/profile.php?id=100000628553095\">Ike Upk Pasaleman</a>","latitude":-6.952006343,"district":"KAB. CIREBON","province code":115,"longitude":108.7388831,"id":"a65e076yev6p","sub-district":"PASALEMAN","district code":3209,"province":"JAWA BARAT"},"type":"Feature","geometry":{"type":"Point","coordinates":[108.7388831,-6.952006343]}},{"properties":{"sub-district code":3205010,"pnpm office":"<a href=\"http://www.facebook.com/upk.cisewu\">Upk Cisewu (Upk Kec Cisewu)</a>","latitude":-7.372648641,"district":"KAB. GARUT","province code":116,"longitude":107.525445,"id":"a65e07ixvmkc","sub-district":"CISEWU","district code":3205,"province":"JAWA BARAT"},"type":"Feature","geometry":{"type":"Point","coordinates":[107.525445,-7.372648641]}},{"properties":{"sub-district code":3507240,"pnpm office":"<a href=\"http://www.facebook.com/profile.php?id=100000644857947\">Upk Tumpang</a>","latitude":-8.010402839,"district":"KAB. MALANG","province code":117,"longitude":112.7465348,"id":"a65e0783x515","sub-district":"TUMPANG","district code":3507,"province":"JAWA TIMUR"},"type":"Feature","geometry":{"type":"Point","coordinates":[112.7465348,-8.010402839]}},{"properties":{"sub-district code":6102061,"pnpm office":"<a href=\"http://www.facebook.com/profile.php?id=100000591500643\">Upktujuhbelas Bky</a>","latitude":1.025648604,"district":"KAB. BENGKAYANG","province code":118,"longitude":109.7861916,"id":"a65e07b79dky","sub-district":"TUJUHBELAS","district code":6102,"province":"KALIMANTAN BARAT"},"type":"Feature","geometry":{"type":"Point","coordinates":[109.7861916,1.025648604]}},{"properties":{"sub-district code":3517020,"pnpm office":"<a href=\"http://www.facebook.com/profile.php?id=100000617577364\">Upk Perak</a>","latitude":-7.570635083,"district":"KAB. JOMBANG","province code":119,"longitude":112.1739917,"id":"a65e07kxwbab","sub-district":"PERAK","district code":3517,"province":"JAWA TIMUR"},"type":"Feature","geometry":{"type":"Point","coordinates":[112.1739917,-7.570635083]}},{"properties":{"sub-district code":6301030,"pnpm office":"<a href=\"http://www.facebook.com/profile.php?id=100000417076006\">Upk Kurau</a>","latitude":-3.597232353,"district":"KAB. TANAH LAUT","province code":120,"longitude":114.6448724,"id":"a65e07l4cndf","sub-district":"KURAU","district code":6301,"province":"KALIMANTAN SELATAN"},"type":"Feature","geometry":{"type":"Point","coordinates":[114.6448724,-3.597232353]}},{"properties":{"sub-district code":1301020,"pnpm office":"<a href=\"http://www.facebook.com/profile.php?id=100000569175790\">Upk Laggaisimaeruk</a>","latitude":-2.19716598,"district":"KAB. KEPULAUAN MENTAWAI","province code":121,"longitude":99.66770712,"id":"a65e07gpnkgp","sub-district":"SIPORA","district code":1301,"province":"SUMATERA BARAT"},"type":"Feature","geometry":{"type":"Point","coordinates":[99.66770712,-2.19716598]}},{"properties":{"sub-district code":3301110,"pnpm office":"<a href=\"http://www.facebook.com/profile.php?id=100000479686994\">Upk Bantarsari</a>","latitude":-7.512810069,"district":"KAB. CILACAP","province code":122,"longitude":108.9093,"id":"a65e07ieb3xc","sub-district":"BANTARSARI","district code":3301,"province":"JAWA TENGAH"},"type":"Feature","geometry":{"type":"Point","coordinates":[108.9093,-7.512810069]}},{"properties":{"sub-district code":3213060,"pnpm office":"<a href=\"http://www.facebook.com/profile.php?id=100000591289649\">Upk Cibogo</a>","latitude":-6.576438374,"district":"KAB. SUBANG","province code":123,"longitude":107.8206847,"id":"a65e07hv27h7","sub-district":"CIBOGO","district code":3213,"province":"JAWA BARAT"},"type":"Feature","geometry":{"type":"Point","coordinates":[107.8206847,-6.576438374]}},{"properties":{"sub-district code":3326080,"pnpm office":"<a href=\"http://www.facebook.com/profile.php?id=100000520272225\">Upk Kajen-Pekalongan</a>","latitude":-7.064661979,"district":"KAB. PEKALONGAN","province code":124,"longitude":109.5725874,"id":"a65e07mn0rpb","sub-district":"KAJEN","district code":3326,"province":"JAWA TENGAH"},"type":"Feature","geometry":{"type":"Point","coordinates":[109.5725874,-7.064661979]}},{"properties":{"sub-district code":1305110,"pnpm office":"<a href=\"http://www.facebook.com/profile.php?id=100000443749186\">Upk Vela Inda Slp</a>","latitude":-0.34163298,"district":"KAB. TANAH DATAR","province code":125,"longitude":100.5470965,"id":"a65e07fkvgjw","sub-district":"SALIMPAUNG","district code":1305,"province":"SUMATERA BARAT"},"type":"Feature","geometry":{"type":"Point","coordinates":[100.5470965,-0.34163298]}},{"properties":{"sub-district code":3320101,"pnpm office":"<a href=\"http://www.facebook.com/profile.php?id=100000617121808\">Upkembang Jepara</a>","latitude":-6.529217555,"district":"KAB. JEPARA","province code":126,"longitude":110.84895,"id":"a65e077k0y2x","sub-district":"KEMBANG","district code":3320,"province":"JAWA TENGAH"},"type":"Feature","geometry":{"type":"Point","coordinates":[110.84895,-6.529217555]}},{"properties":{"sub-district code":3604240,"pnpm office":"<a href=\"http://www.facebook.com/profile.php?id=100000506781161\">Upk Ciruas</a>","latitude":-6.100387133,"district":"KAB. SERANG","province code":127,"longitude":106.2401021,"id":"a65e07ec2k7n","sub-district":"CIRUAS","district code":3604,"province":"BANTEN"},"type":"Feature","geometry":{"type":"Point","coordinates":[106.2401021,-6.100387133]}},{"properties":{"sub-district code":3210110,"pnpm office":"<a href=\"http://www.facebook.com/profile.php?id=100000645828821\">Upk Sindangwangi</a>","latitude":-6.781700035,"district":"KAB. MAJALENGKA","province code":128,"longitude":108.3754485,"id":"a65e07hwz3fp","sub-district":"SINDANGWANGI","district code":3210,"province":"JAWA BARAT"},"type":"Feature","geometry":{"type":"Point","coordinates":[108.3754485,-6.781700035]}},{"properties":{"sub-district code":7310030,"pnpm office":"<a href=\"http://www.facebook.com/profile.php?id=100000644343390\">Upk Berru</a>","latitude":-4.423068617,"district":"KAB. BARRU","province code":129,"longitude":119.6905648,"id":"a65e07bvoxf0","sub-district":"BARRU","district code":7310,"province":"SULAWESI SELATAN"},"type":"Feature","geometry":{"type":"Point","coordinates":[119.6905648,-4.423068617]}},{"properties":{"sub-district code":7504011,"pnpm office":"<a href=\"http://www.facebook.com/profile.php?id=100000038538807\">Upk Bulango Timur</a>","latitude":0.760263478,"district":"KAB. BONE BOLANGO","province code":130,"longitude":123.1668625,"id":"a65e07im18vo","sub-district":"BULANGO UTARA","district code":7504,"province":"GORONTALO"},"type":"Feature","geometry":{"type":"Point","coordinates":[123.1668625,0.760263478]}},{"properties":{"sub-district code":3301010,"pnpm office":"<a href=\"http://www.facebook.com/profile.php?id=100000494120614\">Upk Dayeuhluhur</a>","latitude":-7.211166895,"district":"KAB. CILACAP","province code":131,"longitude":108.6252,"id":"a65e07fm9fuu","sub-district":"DAYEUHLUHUR","district code":3301,"province":"JAWA TENGAH"},"type":"Feature","geometry":{"type":"Point","coordinates":[108.6252,-7.211166895]}},{"properties":{"sub-district code":3329100,"pnpm office":"<a href=\"http://www.facebook.com/profile.php?id=100000587025988\">Upk Losari</a>","latitude":-6.917163672,"district":"KAB. BREBES","province code":132,"longitude":108.788875,"id":"a65e07gfnr7q","sub-district":"LOSARI","district code":3329,"province":"JAWA TENGAH"},"type":"Feature","geometry":{"type":"Point","coordinates":[108.788875,-6.917163672]}},{"properties":{"sub-district code":1219030,"pnpm office":"<a href=\"http://www.facebook.com/profile.php?id=100000605026624\">Upk Kecamatan Talawi</a>","latitude":3.16739377,"district":"KAB. BATU BARA","province code":133,"longitude":99.53443469,"id":"a65e07c658f8","sub-district":"TALAWI","district code":1219,"province":"SUMATERA UTARA"},"type":"Feature","geometry":{"type":"Point","coordinates":[99.53443469,3.16739377]}},{"properties":{"sub-district code":6304110,"pnpm office":"<a href=\"http://www.facebook.com/profile.php?id=100000624870423\">Upk Kalsel</a>","latitude":-3.135763862,"district":"KAB. BARITO KUALA","province code":134,"longitude":114.689999,"id":"a65e07i6k124","sub-district":"RANTAU BADAUH","district code":6304,"province":"KALIMANTAN SELATAN"},"type":"Feature","geometry":{"type":"Point","coordinates":[114.689999,-3.135763862]}},{"properties":{"sub-district code":3206200,"pnpm office":"<a href=\"http://www.facebook.com/profile.php?id=100000581318938\">Upk Cigalontang</a>","latitude":-7.298923259,"district":"KAB. TASIKMALAYA","province code":135,"longitude":108.0022118,"id":"a65e07iz62fq","sub-district":"CIGALONTANG","district code":3206,"province":"JAWA BARAT"},"type":"Feature","geometry":{"type":"Point","coordinates":[108.0022118,-7.298923259]}},{"properties":{"sub-district code":6304030,"pnpm office":"<a href=\"http://www.facebook.com/profile.php?id=100000257884870\">Upkmekar Sari</a>","latitude":-3.268895488,"district":"KAB. BARITO KUALA","province code":136,"longitude":114.4437409,"id":"a65e076z0k2a","sub-district":"MEKAR SARI","district code":6304,"province":"KALIMANTAN SELATAN"},"type":"Feature","geometry":{"type":"Point","coordinates":[114.4437409,-3.268895488]}},{"properties":{"sub-district code":7603081,"pnpm office":"<a href=\"http://www.facebook.com/profile.php?id=100000541968804\">Bambang Upk Upk Ckd</a>","latitude":-2.864216205,"district":"KAB. MAMASA","province code":137,"longitude":119.2521606,"id":"a65e07jkl4dw","sub-district":"BAMBANG","district code":7603,"province":"SULAWESI BARAT"},"type":"Feature","geometry":{"type":"Point","coordinates":[119.2521606,-2.864216205]}},{"properties":{"sub-district code":3213180,"pnpm office":"<a href=\"http://www.facebook.com/profile.php?id=100000427206652\">Upk Ciasem</a>","latitude":-6.348811542,"district":"KAB. SUBANG","province code":138,"longitude":107.6618867,"id":"a65e07bz8oj4","sub-district":"CIASEM","district code":3213,"province":"JAWA BARAT"},"type":"Feature","geometry":{"type":"Point","coordinates":[107.6618867,-6.348811542]}},{"properties":{"sub-district code":3321100,"pnpm office":"<a href=\"http://www.facebook.com/profile.php?id=1809267858\">Upkgajah Demak</a>","latitude":-6.887981388,"district":"KAB. DEMAK","province code":139,"longitude":110.74155,"id":"a65e0772f2ku","sub-district":"GAJAH","district code":3321,"province":"JAWA TENGAH"},"type":"Feature","geometry":{"type":"Point","coordinates":[110.74155,-6.887981388]}},{"properties":{"sub-district code":3316120,"pnpm office":"<a href=\"http://www.facebook.com/profile.php?id=100000699530893\">Upk Tunjungan</a>","latitude":-6.934348143,"district":"KAB. BLORA","province code":140,"longitude":111.3662304,"id":"a65e07bg439p","sub-district":"TUNJUNGAN","district code":3316,"province":"JAWA TENGAH"},"type":"Feature","geometry":{"type":"Point","coordinates":[111.3662304,-6.934348143]}},{"properties":{"sub-district code":3328150,"pnpm office":"<a href=\"http://www.facebook.com/upktarub\">Upk Tarub Kab Tegal</a>","latitude":-6.930902319,"district":"KAB. TEGAL","province code":141,"longitude":109.1852627,"id":"a65e07i8jokf","sub-district":"TARUB","district code":3328,"province":"JAWA TENGAH"},"type":"Feature","geometry":{"type":"Point","coordinates":[109.1852627,-6.930902319]}},{"properties":{"sub-district code":3203051,"pnpm office":"<a href=\"http://www.facebook.com/group.php?gid=332533721802\">Upk Cikadu</a>","latitude":-7.307501928,"district":"KAB. CIANJUR","province code":142,"longitude":107.263668,"id":"a65e079crt6v","sub-district":"CIKADU","district code":3203,"province":"JAWA BARAT"},"type":"Feature","geometry":{"type":"Point","coordinates":[107.263668,-7.307501928]}},{"properties":{"sub-district code":3503100,"pnpm office":"<a href=\"http://www.facebook.com/profile.php?id=100000832924098\">Upk Pogalan</a>","latitude":-8.087279459,"district":"KAB. TRENGGALEK","province code":143,"longitude":111.7502877,"id":"a65e07l6d5ha","sub-district":"POGALAN","district code":3503,"province":"JAWA TIMUR"},"type":"Feature","geometry":{"type":"Point","coordinates":[111.7502877,-8.087279459]}},{"properties":{"sub-district code":3206271,"pnpm office":"<a href=\"http://www.facebook.com/profile.php?id=100000864134581\">Upk Sukaresik</a>","latitude":-7.165760726,"district":"KAB. TASIKMALAYA","province code":144,"longitude":108.1818518,"id":"a65e07jmyxo8","sub-district":"SUKARESIK","district code":3206,"province":"JAWA BARAT"},"type":"Feature","geometry":{"type":"Point","coordinates":[108.1818518,-7.165760726]}},{"properties":{"sub-district code":3602191,"pnpm office":"<a href=\"http://www.facebook.com/profile.php?id=100000766105887\">Upk Curugbitung</a>","latitude":-6.467779612,"district":"KAB. LEBAK","province code":145,"longitude":106.3952191,"id":"a65e077o661h","sub-district":"CURUGBITUNG","district code":3602,"province":"BANTEN"},"type":"Feature","geometry":{"type":"Point","coordinates":[106.3952191,-6.467779612]}},{"properties":{"sub-district code":3513100,"pnpm office":"<a href=\"http://www.facebook.com/profile.php?id=100000725780601\">Upk Gading</a>","latitude":-7.877328887,"district":"KAB. PROBOLINGGO","province code":146,"longitude":113.4968242,"id":"a65e07hnfpzd","sub-district":"GADING","district code":3513,"province":"JAWA TIMUR"},"type":"Feature","geometry":{"type":"Point","coordinates":[113.4968242,-7.877328887]}},{"properties":{"sub-district code":3206141,"pnpm office":"<a href=\"http://www.facebook.com/profile.php?id=100000785457473\">Upk Jatiwaras</a>","latitude":-7.503459691,"district":"KAB. TASIKMALAYA","province code":147,"longitude":108.2123315,"id":"a65e07c3s65k","sub-district":"JATIWARAS","district code":3206,"province":"JAWA BARAT"},"type":"Feature","geometry":{"type":"Point","coordinates":[108.2123315,-7.503459691]}},{"properties":{"sub-district code":3316080,"pnpm office":"<a href=\"http://www.facebook.com/profile.php?id=100000764019981\">Upk Bogorejo</a>","latitude":-6.920281419,"district":"KAB. BLORA","province code":148,"longitude":111.5209,"id":"a65e07bcj78o","sub-district":"BOGOREJO","district code":3316,"province":"JAWA TENGAH"},"type":"Feature","geometry":{"type":"Point","coordinates":[111.5209,-6.920281419]}},{"properties":{"sub-district code":3203040,"pnpm office":"<a href=\"http://www.facebook.com/profile.php?id=100000713916871\">Upk Naringgul</a>","latitude":-7.349059674,"district":"KAB. CIANJUR","province code":149,"longitude":107.3511202,"id":"a65e07l1lc7s","sub-district":"NARINGGUL","district code":3203,"province":"JAWA BARAT"},"type":"Feature","geometry":{"type":"Point","coordinates":[107.3511202,-7.349059674]}},{"properties":{"sub-district code":3602121,"pnpm office":"<a href=\"http://www.facebook.com/profile.php?id=100000733348458\">Upk Lebakgedong</a>","latitude":-6.645201149,"district":"KAB. LEBAK","province code":150,"longitude":106.4097532,"id":"a65e076iypej","sub-district":"LEBAKGEDONG","district code":3602,"province":"BANTEN"},"type":"Feature","geometry":{"type":"Point","coordinates":[106.4097532,-6.645201149]}},{"properties":{"sub-district code":3206270,"pnpm office":"<a href=\"http://www.facebook.com/profile.php?id=100000709550018\">Upk Pagerageung</a>","latitude":-7.099886473,"district":"KAB. TASIKMALAYA","province code":151,"longitude":108.1715503,"id":"a65e077p5vf2","sub-district":"PAGERAGEUNG","district code":3206,"province":"JAWA BARAT"},"type":"Feature","geometry":{"type":"Point","coordinates":[108.1715503,-7.099886473]}},{"properties":{"sub-district code":3206140,"pnpm office":"<a href=\"http://www.facebook.com/profile.php?id=100000838847282\">Upk Salopa</a>","latitude":-7.514430173,"district":"KAB. TASIKMALAYA","province code":152,"longitude":108.2864737,"id":"a65e07ebyzcz","sub-district":"SALOPA","district code":3206,"province":"JAWA BARAT"},"type":"Feature","geometry":{"type":"Point","coordinates":[108.2864737,-7.514430173]}},{"properties":{"sub-district code":6106010,"pnpm office":"<a href=\"http://www.facebook.com/profile.php?id=100000759344311\">Upk Kendawangan</a>","latitude":-2.582909302,"district":"KAB. KETAPANG","province code":153,"longitude":110.5385451,"id":"a65e07jpvk8o","sub-district":"KENDAWANGAN","district code":6106,"province":"KALIMANTAN BARAT"},"type":"Feature","geometry":{"type":"Point","coordinates":[110.5385451,-2.582909302]}},{"properties":{"sub-district code":3217140,"pnpm office":"<a href=\"http://www.facebook.com/profile.php?id=100000695646545\">Upk Bina Lestari Cikalongwetan</a>","latitude":-6.749889292,"district":"KAB. BANDUNG BARAT","province code":154,"longitude":107.456895,"id":"a65e07gpn11h","sub-district":"CIKALONG WETAN","district code":3217,"province":"JAWA BARAT"},"type":"Feature","geometry":{"type":"Point","coordinates":[107.456895,-6.749889292]}},{"properties":{"sub-district code":3307060,"pnpm office":"<a href=\"http://www.facebook.com/profile.php?id=100000783670420\">Upk Selomerto</a>","latitude":-7.413947022,"district":"KAB. WONOSOBO","province code":155,"longitude":109.9127526,"id":"a65e07jrxww3","sub-district":"SELOMERTO","district code":3307,"province":"JAWA TENGAH"},"type":"Feature","geometry":{"type":"Point","coordinates":[109.9127526,-7.413947022]}},{"properties":{"sub-district code":3507070,"pnpm office":"<a href=\"http://www.facebook.com/profile.php?id=100000867109527\">Upk Dampit Pnpm-Mp</a>","latitude":-8.244030925,"district":"KAB. MALANG","province code":156,"longitude":112.7704774,"id":"a65e07b74lm9","sub-district":"DAMPIT","district code":3507,"province":"JAWA TIMUR"},"type":"Feature","geometry":{"type":"Point","coordinates":[112.7704774,-8.244030925]}},{"properties":{"sub-district code":3216090,"pnpm office":"<a href=\"http://www.facebook.com/profile.php?id=100000679026414\">Babelan Upk</a>","latitude":-6.117749303,"district":"KAB. BEKASI","province code":157,"longitude":107.0345399,"id":"a65e07918ull","sub-district":"BABELAN","district code":3216,"province":"JAWA BARAT"},"type":"Feature","geometry":{"type":"Point","coordinates":[107.0345399,-6.117749303]}},{"properties":{"sub-district code":3205110,"pnpm office":"<a href=\"http://www.facebook.com/profile.php?id=100000673415455\">Upk Singajaya Garut</a>","latitude":-7.471174356,"district":"KAB. GARUT","province code":158,"longitude":107.9139642,"id":"a65e07iu0lhg","sub-district":"SINGAJAYA","district code":3205,"province":"JAWA BARAT"},"type":"Feature","geometry":{"type":"Point","coordinates":[107.9139642,-7.471174356]}},{"properties":{"sub-district code":1805070,"pnpm office":"<a href=\"http://www.facebook.com/profile.php?id=100000672280585\">Upk Seputih Raman</a>","latitude":-4.912403072,"district":"KAB. LAMPUNG TENGAH","province code":159,"longitude":105.3427722,"id":"a65e079zcb4f","sub-district":"SEPUTIH RAMAN","district code":1805,"province":"LAMPUNG"},"type":"Feature","geometry":{"type":"Point","coordinates":[105.3427722,-4.912403072]}},{"properties":{"sub-district code":3523070,"pnpm office":"<a href=\"http://www.facebook.com/profile.php?id=100000755454170\">Upk-Soko Tuban Jawa Timur</a>","latitude":-7.097273286,"district":"KAB. TUBAN","province code":160,"longitude":111.938,"id":"a65e07itnt54","sub-district":"SOKO","district code":3523,"province":"JAWA TIMUR"},"type":"Feature","geometry":{"type":"Point","coordinates":[111.938,-7.097273286]}},{"properties":{"sub-district code":3603081,"pnpm office":"<a href=\"http://www.facebook.com/profile.php?id=100000698066891\">Upk Cisauk Makmur</a>","latitude":-6.34614311,"district":"KAB. TANGERANG","province code":161,"longitude":106.6288,"id":"a65e07fr0vrc","sub-district":"CISAUK","district code":3603,"province":"BANTEN"},"type":"Feature","geometry":{"type":"Point","coordinates":[106.6288,-6.34614311]}},{"properties":{"sub-district code":1705040,"pnpm office":"<a href=\"http://www.facebook.com/profile.php?id=100000847021337\">Upk Pnpm-Mp Seluma Kota</a>","latitude":-4.034472307,"district":"KAB. SELUMA","province code":162,"longitude":102.5882011,"id":"a65e07f4bwrw","sub-district":"SELUMA","district code":1705,"province":"BENGKULU"},"type":"Feature","geometry":{"type":"Point","coordinates":[102.5882011,-4.034472307]}},{"properties":{"sub-district code":7502080,"pnpm office":"<a href=\"http://www.facebook.com/profile.php?id=100000934287519\">'Upk Telaga'</a>","latitude":0.629346635,"district":"KAB. GORONTALO","province code":163,"longitude":123.066929,"id":"a65e07852ube","sub-district":"TELAGA","district code":7502,"province":"GORONTALO"},"type":"Feature","geometry":{"type":"Point","coordinates":[123.066929,0.629346635]}},{"properties":{"sub-district code":3514020,"pnpm office":"<a href=\"http://www.facebook.com/profile.php?id=100000925065560\">Upk Tutur</a>","latitude":-7.908697396,"district":"KAB. PASURUAN","province code":164,"longitude":112.8310855,"id":"a65e07h39ek2","sub-district":"TUTUR","district code":3514,"province":"JAWA TIMUR"},"type":"Feature","geometry":{"type":"Point","coordinates":[112.8310855,-7.908697396]}},{"properties":{"sub-district code":3301150,"pnpm office":"<a href=\"http://www.facebook.com/profile.php?id=100000889845924\">Upk Adipala</a>","latitude":-7.662246122,"district":"KAB. CILACAP","province code":165,"longitude":109.1524412,"id":"a65e07emk20p","sub-district":"ADIPALA","district code":3301,"province":"JAWA TENGAH"},"type":"Feature","geometry":{"type":"Point","coordinates":[109.1524412,-7.662246122]}},{"properties":{"sub-district code":1111110,"pnpm office":"<a href=\"http://www.facebook.com/upklhoksukon\">Upk Lhoksukon</a>","latitude":5.019910511,"district":"KAB. ACEH UTARA","province code":166,"longitude":97.30174695,"id":"a65e07kz0hym","sub-district":"LHOKSUKON","district code":1111,"province":"NANGGROE ACEH DARUSSALAM"},"type":"Feature","geometry":{"type":"Point","coordinates":[97.30174695,5.019910511]}},{"properties":{"sub-district code":3529010,"pnpm office":"<a href=\"http://www.facebook.com/profile.php?id=100001003734327\">Upk Pragaan Sumenep Madura</a>","latitude":-7.089057217,"district":"KAB. SUMENEP","province code":167,"longitude":113.6611322,"id":"a65e07j1xxm3","sub-district":"PRAGAAN","district code":3529,"province":"JAWA TIMUR"},"type":"Feature","geometry":{"type":"Point","coordinates":[113.6611322,-7.089057217]}},{"properties":{"sub-district code":3514160,"pnpm office":"<a href=\"http://www.facebook.com/profile.php?id=100001001025657\">Upk Rembang</a>","latitude":-7.652484288,"district":"KAB. PASURUAN","province code":168,"longitude":112.7959236,"id":"a65e07e0662l","sub-district":"REMBANG","district code":3514,"province":"JAWA TIMUR"},"type":"Feature","geometry":{"type":"Point","coordinates":[112.7959236,-7.652484288]}},{"properties":{"sub-district code":3214091,"pnpm office":"<a href=\"http://www.facebook.com/profile.php?id=100000987335631\">Upk Pondoksalam</a>","latitude":-6.61852664,"district":"KAB. PURWAKARTA","province code":169,"longitude":107.4870835,"id":"a65e07czh5h9","sub-district":"PONDOK SALAM","district code":3214,"province":"JAWA BARAT"},"type":"Feature","geometry":{"type":"Point","coordinates":[107.4870835,-6.61852664]}},{"properties":{"sub-district code":3204280,"pnpm office":"<a href=\"http://www.facebook.com/profile.php?id=100000891648404\">Upksauyunan Bojongsoang</a>","latitude":-6.9873563,"district":"KAB. BANDUNG","province code":170,"longitude":107.6653021,"id":"a65e07kxjl2u","sub-district":"BOJONGSOANG","district code":3204,"province":"JAWA BARAT"},"type":"Feature","geometry":{"type":"Point","coordinates":[107.6653021,-6.9873563]}},{"properties":{"sub-district code":3301121,"pnpm office":"<a href=\"http://www.facebook.com/bintangbumi\">Upk Bahari</a>","latitude":-7.64562157,"district":"KAB. CILACAP","province code":171,"longitude":108.881925,"id":"a65e07ijlakd","sub-district":"KAMPUNG LAUT","district code":3301,"province":"JAWA TENGAH"},"type":"Feature","geometry":{"type":"Point","coordinates":[108.881925,-7.64562157]}},{"properties":{"sub-district code":6308011,"pnpm office":"<a href=\"http://www.facebook.com/profile.php?id=100000897023551\">Upk Paminggir</a>","latitude":-2.450447327,"district":"KAB. HULU SUNGAI UTARA","province code":172,"longitude":114.9697714,"id":"a65e07k8rn4z","sub-district":"PAMINGGIR","district code":6308,"province":"KALIMANTAN SELATAN"},"type":"Feature","geometry":{"type":"Point","coordinates":[114.9697714,-2.450447327]}},{"properties":{"sub-district code":3514210,"pnpm office":"<a href=\"http://www.facebook.com/profile.php?id=100000931084671\">Upk Winongan</a>","latitude":-7.750187981,"district":"KAB. PASURUAN","province code":173,"longitude":112.9359735,"id":"a65e07806vok","sub-district":"WINONGAN","district code":3514,"province":"JAWA TIMUR"},"type":"Feature","geometry":{"type":"Point","coordinates":[112.9359735,-7.750187981]}},{"properties":{"sub-district code":3515030,"pnpm office":"<a href=\"http://www.facebook.com/profile.php?id=100001002686670\">Upk Krembung</a>","latitude":-7.515867715,"district":"KAB. SIDOARJO","province code":174,"longitude":112.6423639,"id":"a65e07h4kr8x","sub-district":"KREMBUNG","district code":3515,"province":"JAWA TIMUR"},"type":"Feature","geometry":{"type":"Point","coordinates":[112.6423639,-7.515867715]}},{"properties":{"sub-district code":3205300,"pnpm office":"<a href=\"http://www.facebook.com/profile.php?id=100000948301161\">Upk Selaawi</a>","latitude":-7.006716776,"district":"KAB. GARUT","province code":175,"longitude":107.993572,"id":"a65e0773sihd","sub-district":"SELAAWI","district code":3205,"province":"JAWA BARAT"},"type":"Feature","geometry":{"type":"Point","coordinates":[107.993572,-7.006716776]}},{"properties":{"sub-district code":1508030,"pnpm office":"<a href=\"http://www.facebook.com/profile.php?id=100000995182140\">Upk Rimbo Bujang Jambi</a>","latitude":-1.329146672,"district":"KAB. TEBO","province code":176,"longitude":102.1517611,"id":"a65e078wg5qg","sub-district":"RIMBO BUJANG","district code":1508,"province":"JAMBI"},"type":"Feature","geometry":{"type":"Point","coordinates":[102.1517611,-1.329146672]}},{"properties":{"sub-district code":3302720,"pnpm office":"<a href=\"http://www.facebook.com/profile.php?id=100000932597036\">Didi Wahyudi Upk</a>","latitude":-7.418347962,"district":"KAB. BANYUMAS","province code":177,"longitude":109.2151868,"id":"a65e07hxlbhe","sub-district":"PURWOKERTO BARAT","district code":3302,"province":"JAWA TENGAH"},"type":"Feature","geometry":{"type":"Point","coordinates":[109.2151868,-7.418347962]}},{"properties":{"sub-district code":3305050,"pnpm office":"<a href=\"http://www.facebook.com/WawanSetiawanSadja\">Upk Klirong Kebumen</a>","latitude":-7.732665257,"district":"KAB. KEBUMEN","province code":178,"longitude":109.6344886,"id":"a65e07abi7ri","sub-district":"KLIRONG","district code":3305,"province":"JAWA TENGAH"},"type":"Feature","geometry":{"type":"Point","coordinates":[109.6344886,-7.732665257]}},{"properties":{"sub-district code":3302040,"pnpm office":"<a href=\"http://www.facebook.com/profile.php?id=100000877968717\">Upk Pnpm-Mp Rawalo</a>","latitude":-7.515168024,"district":"KAB. BANYUMAS","province code":179,"longitude":109.1666484,"id":"a65e07et9e8t","sub-district":"RAWALO","district code":3302,"province":"JAWA TENGAH"},"type":"Feature","geometry":{"type":"Point","coordinates":[109.1666484,-7.515168024]}},{"properties":{"sub-district code":3318190,"pnpm office":"<a href=\"http://www.facebook.com/upkcluwak\">Upk Cluwak</a>","latitude":-6.5361977,"district":"KAB. PATI","province code":180,"longitude":110.9455105,"id":"a65e07d5oo5p","sub-district":"CLUWAK","district code":3318,"province":"JAWA TENGAH"},"type":"Feature","geometry":{"type":"Point","coordinates":[110.9455105,-6.5361977]}},{"properties":{"sub-district code":3308030,"pnpm office":"<a href=\"http://www.facebook.com/profile.php?id=100000899825329\">Upk Pnpm Ngluwar</a>","latitude":-7.654427217,"district":"KAB. MAGELANG","province code":181,"longitude":110.2787365,"id":"a65e07mda752","sub-district":"NGLUWAR","district code":3308,"province":"JAWA TENGAH"},"type":"Feature","geometry":{"type":"Point","coordinates":[110.2787365,-7.654427217]}},{"properties":{"sub-district code":3509190,"pnpm office":"<a href=\"http://www.facebook.com/profile.php?id=100000926966763\">Upk Bangsalsari Jember</a>","latitude":-8.116535073,"district":"KAB. JEMBER","province code":182,"longitude":113.5525097,"id":"a65e07cm8cr5","sub-district":"BANGSALSARI","district code":3509,"province":"JAWA TIMUR"},"type":"Feature","geometry":{"type":"Point","coordinates":[113.5525097,-8.116535073]}},{"properties":{"sub-district code":3305110,"pnpm office":"<a href=\"http://www.facebook.com/upkpnpm.alian\">Upk Pnpm Kec Alian</a>","latitude":-7.627755712,"district":"KAB. KEBUMEN","province code":183,"longitude":109.7051308,"id":"a65e07jaghb2","sub-district":"ALIAN","district code":3305,"province":"JAWA TENGAH"},"type":"Feature","geometry":{"type":"Point","coordinates":[109.7051308,-7.627755712]}},{"properties":{"sub-district code":3301100,"pnpm office":"<a href=\"http://www.facebook.com/profile.php?id=100001000145724\">Upk Gandrungmangu</a>","latitude":-7.500111669,"district":"KAB. CILACAP","province code":184,"longitude":108.8517395,"id":"a65e07c43y4j","sub-district":"GANDRUNGMANGU","district code":3301,"province":"JAWA TENGAH"},"type":"Feature","geometry":{"type":"Point","coordinates":[108.8517395,-7.500111669]}},{"properties":{"sub-district code":3324070,"pnpm office":"<a href=\"http://www.facebook.com/upkboja.binamandiri\">Upk Boja Bina Mandiri</a>","latitude":-7.102567154,"district":"KAB. KENDAL","province code":185,"longitude":110.27705,"id":"a65e07k7l0k5","sub-district":"BOJA","district code":3324,"province":"JAWA TENGAH"},"type":"Feature","geometry":{"type":"Point","coordinates":[110.27705,-7.102567154]}},{"properties":{"sub-district code":3512090,"pnpm office":"<a href=\"http://www.facebook.com/profile.php?id=100000891019653\">Fka Upk Panarukan Stb</a>","latitude":-7.702269396,"district":"KAB. SITUBONDO","province code":186,"longitude":113.9758105,"id":"a65e07786ps8","sub-district":"PANARUKAN","district code":3512,"province":"JAWA TIMUR"},"type":"Feature","geometry":{"type":"Point","coordinates":[113.9758105,-7.702269396]}},{"properties":{"sub-district code":3401090,"pnpm office":"<a href=\"http://www.facebook.com/profile.php?id=100001148077316\">Upk Girimulyo</a>","latitude":-7.746729058,"district":"KAB. KULON PROGO","province code":187,"longitude":110.180625,"id":"a65e07jlriq6","sub-district":"GIRIMULYO","district code":3401,"province":"DAERAH ISTIMEWA YOGYAKARTA"},"type":"Feature","geometry":{"type":"Point","coordinates":[110.180625,-7.746729058]}},{"properties":{"sub-district code":3310130,"pnpm office":"<a href=\"http://www.facebook.com/profile.php?id=100001084494815\">Upk Ceper</a>","latitude":-7.681838714,"district":"KAB. KLATEN","province code":188,"longitude":110.6656391,"id":"a65e07ma146b","sub-district":"CEPER","district code":3310,"province":"JAWA TENGAH"},"type":"Feature","geometry":{"type":"Point","coordinates":[110.6656391,-7.681838714]}},{"properties":{"sub-district code":3515050,"pnpm office":"<a href=\"http://www.facebook.com/profile.php?id=100001088856780\">Upk Jabon</a>","latitude":-7.547048913,"district":"KAB. SIDOARJO","province code":189,"longitude":112.7828009,"id":"a65e0788vzgq","sub-district":"JABON","district code":3515,"province":"JAWA TIMUR"},"type":"Feature","geometry":{"type":"Point","coordinates":[112.7828009,-7.547048913]}},{"properties":{"sub-district code":1213200,"pnpm office":"<a href=\"http://www.facebook.com/profile.php?id=100001072490975\">Upk Pangkalansusu</a>","latitude":4.215252185,"district":"KAB. LANGKAT","province code":190,"longitude":98.18048215,"id":"a65e078utdbw","sub-district":"PANGKALAN SUSU","district code":1213,"province":"SUMATERA UTARA"},"type":"Feature","geometry":{"type":"Point","coordinates":[98.18048215,4.215252185]}},{"properties":{"sub-district code":3502190,"pnpm office":"<a href=\"http://www.facebook.com/profile.php?id=100001071066374\">Upk Jenangan</a>","latitude":-7.83737171,"district":"KAB. PONOROGO","province code":191,"longitude":111.5328912,"id":"a65e07hdi369","sub-district":"JENANGAN","district code":3502,"province":"JAWA TIMUR"},"type":"Feature","geometry":{"type":"Point","coordinates":[111.5328912,-7.83737171]}},{"properties":{"sub-district code":3213160,"pnpm office":"<a href=\"http://www.facebook.com/upk.compreng\">Upk Compreng</a>","latitude":-6.41176314,"district":"KAB. SUBANG","province code":192,"longitude":107.865505,"id":"a65e07e47d1e","sub-district":"COMPRENG","district code":3213,"province":"JAWA BARAT"},"type":"Feature","geometry":{"type":"Point","coordinates":[107.865505,-6.41176314]}},{"properties":{"sub-district code":3508050,"pnpm office":"<a href=\"http://www.facebook.com/profile.php?id=100001061212527\">Upk Tempeh</a>","latitude":-8.217408557,"district":"KAB. LUMAJANG","province code":193,"longitude":113.2026295,"id":"a65e07m4zmhx","sub-district":"TEMPEH","district code":3508,"province":"JAWA TIMUR"},"type":"Feature","geometry":{"type":"Point","coordinates":[113.2026295,-8.217408557]}},{"properties":{"sub-district code":6172040,"pnpm office":"<a href=\"http://www.facebook.com/profile.php?id=100001134648368\">Suhari Upk</a>","latitude":0.903302764,"district":"KOTA SINGKAWANG","province code":194,"longitude":108.9712695,"id":"a65e078cbvse","sub-district":"SINGKAWANG BARAT","district code":6172,"province":"KALIMANTAN BARAT"},"type":"Feature","geometry":{"type":"Point","coordinates":[108.9712695,0.903302764]}},{"properties":{"sub-district code":3522240,"pnpm office":"<a href=\"http://www.facebook.com/profile.php?id=100001058433418\">Upk Kasiman</a>","latitude":-7.116000834,"district":"KAB. BOJONEGORO","province code":195,"longitude":111.6509207,"id":"a65e07hn59a1","sub-district":"KASIMAN","district code":3522,"province":"JAWA TIMUR"},"type":"Feature","geometry":{"type":"Point","coordinates":[111.6509207,-7.116000834]}},{"properties":{"sub-district code":3209031,"pnpm office":"<a href=\"http://www.facebook.com/profile.php?id=100001048406599\">Upk Pabedilan</a>","latitude":-6.849412432,"district":"KAB. CIREBON","province code":196,"longitude":108.757233,"id":"a65e07l5ezbp","sub-district":"PABEDILAN","district code":3209,"province":"JAWA BARAT"},"type":"Feature","geometry":{"type":"Point","coordinates":[108.757233,-6.849412432]}},{"properties":{"sub-district code":3206120,"pnpm office":"<a href=\"http://www.facebook.com/upk.tanjungjaya\">Upk Tanjungjaya</a>","latitude":-7.411113936,"district":"KAB. TASIKMALAYA","province code":197,"longitude":108.1165934,"id":"a65e07duyhus","sub-district":"TANJUNGJAYA","district code":3206,"province":"JAWA BARAT"},"type":"Feature","geometry":{"type":"Point","coordinates":[108.1165934,-7.411113936]}},{"properties":{"sub-district code":3210100,"pnpm office":"<a href=\"http://www.facebook.com/profile.php?id=100001048365778\">Upk Rajagaluh</a>","latitude":-6.822823765,"district":"KAB. MAJALENGKA","province code":198,"longitude":108.3681903,"id":"a65e07m8qppg","sub-district":"RAJAGALUH","district code":3210,"province":"JAWA BARAT"},"type":"Feature","geometry":{"type":"Point","coordinates":[108.3681903,-6.822823765]}},{"properties":{"sub-district code":7303012,"pnpm office":"<a href=\"http://www.facebook.com/profile.php?id=100001065697057\">Upk Sinoa</a>","latitude":-5.494949625,"district":"KAB. BANTAENG","province code":199,"longitude":119.9264885,"id":"a65e07a0b623","sub-district":"SINOA","district code":7303,"province":"SULAWESI SELATAN"},"type":"Feature","geometry":{"type":"Point","coordinates":[119.9264885,-5.494949625]}},{"properties":{"sub-district code":3207040,"pnpm office":"<a href=\"http://www.facebook.com/profile.php?id=100001040012010\">Upk Langkaplancar</a>","latitude":-7.525783504,"district":"KAB. CIAMIS","province code":200,"longitude":108.4345895,"id":"a65e07fxufzq","sub-district":"LANGKAPLANCAR","district code":3207,"province":"JAWA BARAT"},"type":"Feature","geometry":{"type":"Point","coordinates":[108.4345895,-7.525783504]}},{"properties":{"sub-district code":3523110,"pnpm office":"<a href=\"http://www.facebook.com/profile.php?id=100001146438346\">Upk Palang</a>","latitude":-6.933187743,"district":"KAB. TUBAN","province code":201,"longitude":112.1435238,"id":"a65e07cuhl6r","sub-district":"PALANG","district code":3523,"province":"JAWA TIMUR"},"type":"Feature","geometry":{"type":"Point","coordinates":[112.1435238,-6.933187743]}},{"properties":{"sub-district code":1202050,"pnpm office":"<a href=\"http://www.facebook.com/profile.php?id=100001127259882\">Upk Kecamatan Panyabungan</a>","latitude":0.86453895,"district":"KAB. MANDAILING NATAL","province code":202,"longitude":99.65458725,"id":"a65e07liytyd","sub-district":"PANYABUNGAN","district code":1202,"province":"SUMATERA UTARA"},"type":"Feature","geometry":{"type":"Point","coordinates":[99.65458725,0.86453895]}},{"properties":{"sub-district code":6101010,"pnpm office":"<a href=\"http://www.facebook.com/upk.sambaskalbar\">Upk Selakau Sambas Kalbar</a>","latitude":1.036423228,"district":"KAB. SAMBAS","province code":203,"longitude":109.0228582,"id":"a65e07i0enrx","sub-district":"SELAKAU","district code":6101,"province":"KALIMANTAN BARAT"},"type":"Feature","geometry":{"type":"Point","coordinates":[109.0228582,1.036423228]}},{"properties":{"sub-district code":3210200,"pnpm office":"<a href=\"http://www.facebook.com/profile.php?id=100001107877605\">Upk Pnpm Kec Ligung</a>","latitude":-6.662740575,"district":"KAB. MAJALENGKA","province code":204,"longitude":108.2786633,"id":"a65e07f79u49","sub-district":"LIGUNG","district code":3210,"province":"JAWA BARAT"},"type":"Feature","geometry":{"type":"Point","coordinates":[108.2786633,-6.662740575]}},{"properties":{"sub-district code":3515010,"pnpm office":"<a href=\"http://www.facebook.com/profile.php?id=100001132832163\">Upk Pnpm-Mp Tarik</a>","latitude":-7.4502426,"district":"KAB. SIDOARJO","province code":205,"longitude":112.5215167,"id":"a65e07jb7mrr","sub-district":"TARIK","district code":3515,"province":"JAWA TIMUR"},"type":"Feature","geometry":{"type":"Point","coordinates":[112.5215167,-7.4502426]}},{"properties":{"sub-district code":3502150,"pnpm office":"<a href=\"http://www.facebook.com/profile.php?id=100001035117999\">Upk Sampung Ponorogo</a>","latitude":-7.827161293,"district":"KAB. PONOROGO","province code":206,"longitude":111.3419317,"id":"a65e07j525tl","sub-district":"SAMPUNG","district code":3502,"province":"JAWA TIMUR"},"type":"Feature","geometry":{"type":"Point","coordinates":[111.3419317,-7.827161293]}},{"properties":{"sub-district code":7316020,"pnpm office":"<a href=\"http://www.facebook.com/profile.php?id=100001184662809\">Upk Enrekang</a>","latitude":-3.565197309,"district":"KAB. ENREKANG","province code":207,"longitude":119.793518,"id":"a65e07e5m4wj","sub-district":"ENREKANG","district code":7316,"province":"SULAWESI SELATAN"},"type":"Feature","geometry":{"type":"Point","coordinates":[119.793518,-3.565197309]}},{"properties":{"sub-district code":1109030,"pnpm office":"<a href=\"http://www.facebook.com/profile.php?id=100001223281325\">Upk Bandardua</a>","latitude":5.192633569,"district":"KAB. PIDIE","province code":208,"longitude":96.25757119,"id":"a65e07m668yn","sub-district":"BANDAR DUA","district code":1109,"province":"NANGGROE ACEH DARUSSALAM"},"type":"Feature","geometry":{"type":"Point","coordinates":[96.25757119,5.192633569]}},{"properties":{"sub-district code":6202050,"pnpm office":"<a href=\"http://www.facebook.com/reza.sri\">Upk Pulau Hanaut</a>","latitude":-2.881132148,"district":"KAB. KOTAWARINGIN TIMUR","province code":209,"longitude":113.0601352,"id":"a65e07a10egy","sub-district":"PULAU HANAUT","district code":6202,"province":"KALIMANTAN TENGAH"},"type":"Feature","geometry":{"type":"Point","coordinates":[113.0601352,-2.881132148]}},{"properties":{"sub-district code":8171020,"pnpm office":"<a href=\"http://www.facebook.com/profile.php?id=100001282970987\">Upk Serasi Amantelu</a>","latitude":-3.690820088,"district":"KOTA AMBON","province code":210,"longitude":128.204287,"id":"a65e07mkgvai","sub-district":"SIRIMAU","district code":8171,"province":"M A L U K U"},"type":"Feature","geometry":{"type":"Point","coordinates":[128.204287,-3.690820088]}},{"properties":{"sub-district code":1805080,"pnpm office":"<a href=\"http://www.facebook.com/profile.php?id=100001465141679\">Upk Tb Lamteng</a>","latitude":-4.890689287,"district":"KAB. LAMPUNG TENGAH","province code":211,"longitude":105.2237795,"id":"a65e07ectel9","sub-district":"TERBANGGI BESAR","district code":1805,"province":"LAMPUNG"},"type":"Feature","geometry":{"type":"Point","coordinates":[105.2237795,-4.890689287]}},{"properties":{"sub-district code":3211161,"pnpm office":"<a href=\"http://www.facebook.com/upkcsr\">Ellys Upkcsr</a>","latitude":-6.833881412,"district":"KAB. SUMEDANG","province code":212,"longitude":107.9732099,"id":"a65e07fj2dct","sub-district":"CISARUA","district code":3211,"province":"JAWA BARAT"},"type":"Feature","geometry":{"type":"Point","coordinates":[107.9732099,-6.833881412]}},{"properties":{"sub-district code":3210031,"pnpm office":"<a href=\"http://www.facebook.com/profile.php?id=100001367634027\">Upk Cingambul</a>","latitude":-7.042232007,"district":"KAB. MAJALENGKA","province code":213,"longitude":108.3342347,"id":"a65e07j0tr52","sub-district":"CINGAMBUL","district code":3210,"province":"JAWA BARAT"},"type":"Feature","geometry":{"type":"Point","coordinates":[108.3342347,-7.042232007]}},{"properties":{"sub-district code":7303032,"pnpm office":"<a href=\"http://www.facebook.com/profile.php?id=100001248388436\">Upk Gantarangkeke Bantaeng</a>","latitude":-5.527353721,"district":"KAB. BANTAENG","province code":214,"longitude":120.0556974,"id":"a65e07btyzps","sub-district":"GANTARANGKEKE","district code":7303,"province":"SULAWESI SELATAN"},"type":"Feature","geometry":{"type":"Point","coordinates":[120.0556974,-5.527353721]}},{"properties":{"sub-district code":3401060,"pnpm office":"<a href=\"http://www.facebook.com/profile.php?id=100001211027869\">Upk Sentolo Sejahtera</a>","latitude":-7.854773974,"district":"KAB. KULON PROGO","province code":215,"longitude":110.2267681,"id":"a65e07gjh6xh","sub-district":"SENTOLO","district code":3401,"province":"DAERAH ISTIMEWA YOGYAKARTA"},"type":"Feature","geometry":{"type":"Point","coordinates":[110.2267681,-7.854773974]}},{"properties":{"sub-district code":1208040,"pnpm office":"<a href=\"http://www.facebook.com/profile.php?id=100001269414675\">Upk Sungkep Timur</a>","latitude":2.865441948,"district":"KAB. ASAHAN","province code":216,"longitude":99.87325025,"id":"a65e07kiel6l","sub-district":"SEI KEPAYANG","district code":1208,"province":"SUMATERA UTARA"},"type":"Feature","geometry":{"type":"Point","coordinates":[99.87325025,2.865441948]}},{"properties":{"sub-district code":3325040,"pnpm office":"<a href=\"http://www.facebook.com/profile.php?id=100001480991107\">Upk Mukti Reban</a>","latitude":-7.057019,"district":"KAB. BATANG","province code":217,"longitude":109.9123,"id":"a65e07gykvb3","sub-district":"REBAN","district code":3325,"province":"JAWA TENGAH"},"type":"Feature","geometry":{"type":"Point","coordinates":[109.9123,-7.057019]}},{"properties":{"sub-district code":1805040,"pnpm office":"<a href=\"http://www.facebook.com/profile.php?id=100001269022650\">Upkpnpmgsugih Lamteng</a>","latitude":-4.976274187,"district":"KAB. LAMPUNG TENGAH","province code":218,"longitude":105.2543,"id":"a65e0769p77j","sub-district":"GUNUNG SUGIH","district code":1805,"province":"LAMPUNG"},"type":"Feature","geometry":{"type":"Point","coordinates":[105.2543,-4.976274187]}},{"properties":{"sub-district code":3309030,"pnpm office":"<a href=\"http://www.facebook.com/profile.php?id=100001309507331\">Upk Pnpm Cepogo</a>","latitude":-7.508844216,"district":"KAB. BOYOLALI","province code":219,"longitude":110.5272263,"id":"a65e07hia7u9","sub-district":"CEPOGO","district code":3309,"province":"JAWA TENGAH"},"type":"Feature","geometry":{"type":"Point","coordinates":[110.5272263,-7.508844216]}},{"properties":{"sub-district code":1305040,"pnpm office":"<a href=\"http://www.facebook.com/profile.php?id=100001286049054\">Upk Rangkiang Mandiri</a>","latitude":-0.519477166,"district":"KAB. TANAH DATAR","province code":220,"longitude":100.5698243,"id":"a65e07ajijdo","sub-district":"RAMBATAN","district code":1305,"province":"SUMATERA BARAT"},"type":"Feature","geometry":{"type":"Point","coordinates":[100.5698243,-0.519477166]}},{"properties":{"sub-district code":3514050,"pnpm office":"<a href=\"http://www.facebook.com/profile.php?id=100001307100458\">Upk Lumbang Pasuruan</a>","latitude":-7.824997522,"district":"KAB. PASURUAN","province code":221,"longitude":112.9769182,"id":"a65e07815nwt","sub-district":"LUMBANG","district code":3514,"province":"JAWA TIMUR"},"type":"Feature","geometry":{"type":"Point","coordinates":[112.9769182,-7.824997522]}},{"properties":{"sub-district code":3502080,"pnpm office":"<a href=\"http://www.facebook.com/profile.php?id=100001478629542\">Upk Mlarak</a>","latitude":-7.928463092,"district":"KAB. PONOROGO","province code":222,"longitude":111.5362896,"id":"a65e07gjsyvi","sub-district":"MLARAK","district code":3502,"province":"JAWA TIMUR"},"type":"Feature","geometry":{"type":"Point","coordinates":[111.5362896,-7.928463092]}},{"properties":{"sub-district code":3506210,"pnpm office":"<a href=\"http://www.facebook.com/profile.php?id=100001399025657\">Upk Banyakan Kdr</a>","latitude":-7.784091645,"district":"KAB. KEDIRI","province code":223,"longitude":111.9249816,"id":"a65e078wyxhq","sub-district":"BANYAKAN","district code":3506,"province":"JAWA TIMUR"},"type":"Feature","geometry":{"type":"Point","coordinates":[111.9249816,-7.784091645]}},{"properties":{"sub-district code":3316100,"pnpm office":"<a href=\"http://www.facebook.com/profile.php?id=100001456868184\">Upk Blora</a>","latitude":-6.954405505,"district":"KAB. BLORA","province code":224,"longitude":111.4259559,"id":"a65e07a6llkz","sub-district":"KOTA BLORA","district code":3316,"province":"JAWA TENGAH"},"type":"Feature","geometry":{"type":"Point","coordinates":[111.4259559,-6.954405505]}},{"properties":{"sub-district code":1213160,"pnpm office":"<a href=\"http://www.facebook.com/profile.php?id=100001221852693\">Upk Babalan</a>","latitude":4.008571467,"district":"KAB. LANGKAT","province code":225,"longitude":98.34231533,"id":"a65e07gps8ys","sub-district":"BABALAN","district code":1213,"province":"SUMATERA UTARA"},"type":"Feature","geometry":{"type":"Point","coordinates":[98.34231533,4.008571467]}},{"properties":{"sub-district code":3310050,"pnpm office":"<a href=\"http://www.facebook.com/upkkecamatancawas\">Upk Cawas</a>","latitude":-7.760612762,"district":"KAB. KLATEN","province code":226,"longitude":110.7112154,"id":"a65e076g7v21","sub-district":"CAWAS","district code":3310,"province":"JAWA TENGAH"},"type":"Feature","geometry":{"type":"Point","coordinates":[110.7112154,-7.760612762]}},{"properties":{"sub-district code":3307100,"pnpm office":"<a href=\"http://www.facebook.com/profile.php?id=100001467132058\">Upk Watumalang</a>","latitude":-7.314299756,"district":"KAB. WONOSOBO","province code":227,"longitude":109.84665,"id":"a65e07mc2v36","sub-district":"WATUMALANG","district code":3307,"province":"JAWA TENGAH"},"type":"Feature","geometry":{"type":"Point","coordinates":[109.84665,-7.314299756]}},{"properties":{"sub-district code":3213220,"pnpm office":"<a href=\"http://www.facebook.com/profile.php?id=100001223450535\">Upk Kec Blanakan</a>","latitude":-6.276810667,"district":"KAB. SUBANG","province code":228,"longitude":107.6785465,"id":"a65e07a0xxra","sub-district":"BLANAKAN","district code":3213,"province":"JAWA BARAT"},"type":"Feature","geometry":{"type":"Point","coordinates":[107.6785465,-6.276810667]}},{"properties":{"sub-district code":3509250,"pnpm office":"<a href=\"http://www.facebook.com/profile.php?id=100001406061821\">Upk-Pnpm Ledokombo</a>","latitude":-8.151859078,"district":"KAB. JEMBER","province code":229,"longitude":113.9316738,"id":"a65e07a9wb4y","sub-district":"LEDOKOMBO","district code":3509,"province":"JAWA TIMUR"},"type":"Feature","geometry":{"type":"Point","coordinates":[113.9316738,-8.151859078]}},{"properties":{"sub-district code":1805100,"pnpm office":"<a href=\"http://www.facebook.com/profile.php?id=100001277924676\">Upkseputih Mataram</a>","latitude":-4.779115642,"district":"KAB. LAMPUNG TENGAH","province code":230,"longitude":105.3528529,"id":"a65e0793z856","sub-district":"SEPUTIH MATARAM","district code":1805,"province":"LAMPUNG"},"type":"Feature","geometry":{"type":"Point","coordinates":[105.3528529,-4.779115642]}},{"properties":{"sub-district code":1610040,"pnpm office":"<a href=\"http://www.facebook.com/upk.tra\">Upk Tanjung Raja Oganilir</a>","latitude":-3.341180656,"district":"KAB. OGAN ILIR","province code":231,"longitude":104.7466645,"id":"a65e079405pe","sub-district":"TANJUNG RAJA","district code":1610,"province":"SUMATERA SELATAN"},"type":"Feature","geometry":{"type":"Point","coordinates":[104.7466645,-3.341180656]}},{"properties":{"sub-district code":3207140,"pnpm office":"<a href=\"http://www.facebook.com/profile.php?id=100001203170942\">Upk Cimaragas</a>","latitude":-7.384564992,"district":"KAB. CIAMIS","province code":232,"longitude":108.4394405,"id":"a65e07f2jxwk","sub-district":"CIMARAGAS","district code":3207,"province":"JAWA BARAT"},"type":"Feature","geometry":{"type":"Point","coordinates":[108.4394405,-7.384564992]}},{"properties":{"sub-district code":3317110,"pnpm office":"<a href=\"http://www.facebook.com/profile.php?id=100001181538722\">Upk Pancur Rembang</a>","latitude":-6.726656038,"district":"KAB. REMBANG","province code":233,"longitude":111.4809707,"id":"a65e078c2agd","sub-district":"PANCUR","district code":3317,"province":"JAWA TENGAH"},"type":"Feature","geometry":{"type":"Point","coordinates":[111.4809707,-6.726656038]}},{"properties":{"sub-district code":5206071,"pnpm office":"<a href=\"http://www.facebook.com/profile.php?id=100002418436949\">Upk Kecamatan Ambalawi</a>","latitude":-8.350194687,"district":"KAB. BIMA","province code":234,"longitude":118.8353093,"id":"a65e077n5lri","sub-district":"AMBALAWI","district code":5206,"province":"NUSA TENGGARA BARAT"},"type":"Feature","geometry":{"type":"Point","coordinates":[118.8353093,-8.350194687]}},{"properties":{"sub-district code":3212030,"pnpm office":"<a href=\"http://www.facebook.com/profile.php?id=100001592775810\">Upk Gabuswetan</a>","latitude":-6.443401855,"district":"KAB. INDRAMAYU","province code":235,"longitude":108.0688992,"id":"a65e07bj20og","sub-district":"GABUSWETAN","district code":3212,"province":"JAWA BARAT"},"type":"Feature","geometry":{"type":"Point","coordinates":[108.0688992,-6.443401855]}},{"properties":{"sub-district code":7313090,"pnpm office":"<a href=\"http://www.facebook.com/profile.php?id=100001583422432\">Upk Belawa Wajo</a>","latitude":-4.000375966,"district":"KAB. WAJO","province code":236,"longitude":119.94291,"id":"a65e07ax9k5o","sub-district":"BELAWA","district code":7313,"province":"SULAWESI SELATAN"},"type":"Feature","geometry":{"type":"Point","coordinates":[119.94291,-4.000375966]}},{"properties":{"sub-district code":3202172,"pnpm office":"<a href=\"http://www.facebook.com/profile.php?id=100001534115978\">Upk Cireunghas</a>","latitude":-6.937262699,"district":"KAB. SUKABUMI","province code":237,"longitude":107.0224166,"id":"a65e07f9jckh","sub-district":"CIREUNGHAS","district code":3202,"province":"JAWA BARAT"},"type":"Feature","geometry":{"type":"Point","coordinates":[107.0224166,-6.937262699]}},{"properties":{"sub-district code":3205212,"pnpm office":"<a href=\"http://www.facebook.com/profile.php?id=100001583244888\">Upk Pangatikan</a>","latitude":-7.173084018,"district":"KAB. GARUT","province code":238,"longitude":108.0037157,"id":"a65e077qs873","sub-district":"PANGATIKAN","district code":3205,"province":"JAWA BARAT"},"type":"Feature","geometry":{"type":"Point","coordinates":[108.0037157,-7.173084018]}},{"properties":{"sub-district code":7317070,"pnpm office":"<a href=\"http://www.facebook.com/profile.php?id=100001599436980\">Upk Bua Ponrang</a>","latitude":-3.130701691,"district":"KAB. LUWU","province code":239,"longitude":120.2082044,"id":"a65e07jszqcr","sub-district":"BUA","district code":7317,"province":"SULAWESI SELATAN"},"type":"Feature","geometry":{"type":"Point","coordinates":[120.2082044,-3.130701691]}},{"properties":{"sub-district code":1406021,"pnpm office":"<a href=\"http://www.facebook.com/profile.php?id=100001593743982\">Upk Tigabelas Kotokampar</a>","latitude":0.279181994,"district":"KAB. KAMPAR","province code":240,"longitude":100.5953178,"id":"a65e07jjl5lx","sub-district":"KOTO KAMPAR HULU","district code":1406,"province":"RIAU"},"type":"Feature","geometry":{"type":"Point","coordinates":[100.5953178,0.279181994]}},{"properties":{"sub-district code":3310060,"pnpm office":"<a href=\"http://www.facebook.com/upk.ronggowarsito\">Upk Trucuk</a>","latitude":-7.72924508,"district":"KAB. KLATEN","province code":241,"longitude":110.66645,"id":"a65e07hwvluq","sub-district":"TRUCUK","district code":3310,"province":"JAWA TENGAH"},"type":"Feature","geometry":{"type":"Point","coordinates":[110.66645,-7.72924508]}},{"properties":{"sub-district code":3507160,"pnpm office":"<a href=\"http://www.facebook.com/profile.php?id=100001607354808\">Upkpnpm Kepanjen</a>","latitude":-8.128085816,"district":"KAB. MALANG","province code":242,"longitude":112.5726048,"id":"a65e07gnn6d5","sub-district":"KEPANJEN","district code":3507,"province":"JAWA TIMUR"},"type":"Feature","geometry":{"type":"Point","coordinates":[112.5726048,-8.128085816]}},{"properties":{"sub-district code":3514040,"pnpm office":"<a href=\"http://www.facebook.com/profile.php?id=100001562138168\">Upk Tosari</a>","latitude":-7.899900333,"district":"KAB. PASURUAN","province code":243,"longitude":112.9038864,"id":"a65e07fl87fn","sub-district":"TOSARI","district code":3514,"province":"JAWA TIMUR"},"type":"Feature","geometry":{"type":"Point","coordinates":[112.9038864,-7.899900333]}},{"properties":{"sub-district code":3305010,"pnpm office":"<a href=\"http://www.facebook.com/profile.php?id=100001531244001\">Upk Ayah</a>","latitude":-7.711939129,"district":"KAB. KEBUMEN","province code":244,"longitude":109.4171671,"id":"a65e07ipy3aw","sub-district":"AYAH","district code":3305,"province":"JAWA TENGAH"},"type":"Feature","geometry":{"type":"Point","coordinates":[109.4171671,-7.711939129]}},{"properties":{"sub-district code":3205250,"pnpm office":"<a href=\"http://www.facebook.com/profile.php?id=100001658575620\">Upk Leuwigoong</a>","latitude":-7.118934829,"district":"KAB. GARUT","province code":245,"longitude":107.9297288,"id":"a65e07aj9k8n","sub-district":"LEUWIGOONG","district code":3205,"province":"JAWA BARAT"},"type":"Feature","geometry":{"type":"Point","coordinates":[107.9297288,-7.118934829]}},{"properties":{"sub-district code":1506050,"pnpm office":"<a href=\"http://www.facebook.com/profile.php?id=100001653752007\">Upk Nipah Panjang</a>","latitude":-1.104297129,"district":"KAB. TANJUNG JABUNG TIMUR","province code":246,"longitude":104.2737695,"id":"a65e07j8zk5e","sub-district":"NIPAH PANJANG","district code":1506,"province":"JAMBI"},"type":"Feature","geometry":{"type":"Point","coordinates":[104.2737695,-1.104297129]}},{"properties":{"sub-district code":3517200,"pnpm office":"<a href=\"http://www.facebook.com/profile.php?id=100001621431477\">Upk Plandaan</a>","latitude":-7.423865324,"district":"KAB. JOMBANG","province code":247,"longitude":112.0983505,"id":"a65e07hy888x","sub-district":"PLANDAAN","district code":3517,"province":"JAWA TIMUR"},"type":"Feature","geometry":{"type":"Point","coordinates":[112.0983505,-7.423865324]}},{"properties":{"sub-district code":1208031,"pnpm office":"<a href=\"http://www.facebook.com/profile.php?id=100001654755430\">Upk Aek Songsongan Asahan</a>","latitude":2.613797902,"district":"KAB. ASAHAN","province code":248,"longitude":99.654472,"id":"a65e07lc8327","sub-district":"AEK KUASAN","district code":1208,"province":"SUMATERA UTARA"},"type":"Feature","geometry":{"type":"Point","coordinates":[99.654472,2.613797902]}},{"properties":{"sub-district code":1213020,"pnpm office":"<a href=\"http://www.facebook.com/profile.php?id=100001565357160\">Upk Salapian</a>","latitude":3.385236473,"district":"KAB. LANGKAT","province code":249,"longitude":98.28733134,"id":"a65e07mgsaib","sub-district":"SALAPIAN","district code":1213,"province":"SUMATERA UTARA"},"type":"Feature","geometry":{"type":"Point","coordinates":[98.28733134,3.385236473]}},{"properties":{"sub-district code":1210070,"pnpm office":"<a href=\"http://www.facebook.com/profile.php?id=100001595774788\">Upk Siempatnempu Hilir</a>","latitude":2.842273235,"district":"KAB. DAIRI","province code":250,"longitude":98.19400993,"id":"a65e07bkbv9t","sub-district":"SIEMPAT NEMPU","district code":1210,"province":"SUMATERA UTARA"},"type":"Feature","geometry":{"type":"Point","coordinates":[98.19400993,2.842273235]}},{"properties":{"sub-district code":3202100,"pnpm office":"<a href=\"http://www.facebook.com/profile.php?id=100001664016197\">Upk Lengkong</a>","latitude":-7.138326714,"district":"KAB. SUKABUMI","province code":251,"longitude":106.703243,"id":"a65e07md9ild","sub-district":"LENGKONG","district code":3202,"province":"JAWA BARAT"},"type":"Feature","geometry":{"type":"Point","coordinates":[106.703243,-7.138326714]}},{"properties":{"sub-district code":3327120,"pnpm office":"<a href=\"http://www.facebook.com/upk.comal\">Upk Comal</a>","latitude":-6.890176841,"district":"KAB. PEMALANG","province code":252,"longitude":109.524812,"id":"a65e07m1qgkv","sub-district":"COMAL","district code":3327,"province":"JAWA TENGAH"},"type":"Feature","geometry":{"type":"Point","coordinates":[109.524812,-6.890176841]}},{"properties":{"sub-district code":1117070,"pnpm office":"<a href=\"http://www.facebook.com/profile.php?id=100001493141501\">Upk Permata</a>","latitude":4.820044391,"district":"KAB. BENER MERIAH","province code":253,"longitude":96.955925,"id":"a65e07m41m5z","sub-district":"PERMATA","district code":1117,"province":"NANGGROE ACEH DARUSSALAM"},"type":"Feature","geometry":{"type":"Point","coordinates":[96.955925,4.820044391]}},{"properties":{"sub-district code":1117070,"pnpm office":"<a href=\"http://www.facebook.com/profile.php?id=100001659138589\">Upk Kecamatan Permata Intan</a>","latitude":4.820044391,"district":"KAB. BENER MERIAH","province code":254,"longitude":96.955925,"id":"a65e07isjmdi","sub-district":"PERMATA","district code":1117,"province":"NANGGROE ACEH DARUSSALAM"},"type":"Feature","geometry":{"type":"Point","coordinates":[96.955925,4.820044391]}},{"properties":{"sub-district code":3207240,"pnpm office":"<a href=\"http://www.facebook.com/upksadananya\">Upk Sadananya</a>","latitude":-7.284928955,"district":"KAB. CIAMIS","province code":255,"longitude":108.3221895,"id":"a65e0783lice","sub-district":"SADANANYA","district code":3207,"province":"JAWA BARAT"},"type":"Feature","geometry":{"type":"Point","coordinates":[108.3221895,-7.284928955]}},{"properties":{"sub-district code":1213030,"pnpm office":"<a href=\"http://www.facebook.com/profile.php?id=100001584887258\">Upk Sei Bingai</a>","latitude":3.359121863,"district":"KAB. LANGKAT","province code":256,"longitude":98.435913,"id":"a65e07g81iba","sub-district":"SEI BINGAI","district code":1213,"province":"SUMATERA UTARA"},"type":"Feature","geometry":{"type":"Point","coordinates":[98.435913,3.359121863]}},{"properties":{"sub-district code":1610030,"pnpm office":"<a href=\"http://www.facebook.com/profile.php?id=100001503150351\">Upk Rantau Alai</a>","latitude":-3.451424197,"district":"KAB. OGAN ILIR","province code":257,"longitude":104.7423449,"id":"a65e07i3122v","sub-district":"RANTAU ALAI","district code":1610,"province":"SUMATERA SELATAN"},"type":"Feature","geometry":{"type":"Point","coordinates":[104.7423449,-3.451424197]}},{"properties":{"sub-district code":3514040,"pnpm office":"<a href=\"http://www.facebook.com/profile.php?id=100001659949536\">Upktosari Pasuruan</a>","latitude":-7.899900333,"district":"KAB. PASURUAN","province code":258,"longitude":112.9038864,"id":"a65e079xm0pq","sub-district":"TOSARI","district code":3514,"province":"JAWA TIMUR"},"type":"Feature","geometry":{"type":"Point","coordinates":[112.9038864,-7.899900333]}},{"properties":{"sub-district code":3504060,"pnpm office":"<a href=\"http://www.facebook.com/profile.php?id=100001563007151\">Upk Kec Kalidawir Kalidawir</a>","latitude":-8.199102718,"district":"KAB. TULUNGAGUNG","province code":259,"longitude":111.9490485,"id":"a65e07axbuk6","sub-district":"KALIDAWIR","district code":3504,"province":"JAWA TIMUR"},"type":"Feature","geometry":{"type":"Point","coordinates":[111.9490485,-8.199102718]}},{"properties":{"sub-district code":1302030,"pnpm office":"<a href=\"http://www.facebook.com/profile.php?id=100001645927209\">Upk Pancung Soal</a>","latitude":-2.038782036,"district":"KAB. PESISIR SELATAN","province code":260,"longitude":100.9668741,"id":"a65e07feo2cn","sub-district":"PANCUNG SOAL","district code":1302,"province":"SUMATERA BARAT"},"type":"Feature","geometry":{"type":"Point","coordinates":[100.9668741,-2.038782036]}},{"properties":{"sub-district code":3203180,"pnpm office":"<a href=\"http://www.facebook.com/profile.php?id=100001761700065\">Upk Mande</a>","latitude":-6.763387347,"district":"KAB. CIANJUR","province code":261,"longitude":107.2054597,"id":"a65e07hzepf4","sub-district":"MANDE","district code":3203,"province":"JAWA BARAT"},"type":"Feature","geometry":{"type":"Point","coordinates":[107.2054597,-6.763387347]}},{"properties":{"sub-district code":3404100,"pnpm office":"<a href=\"http://www.facebook.com/profile.php?id=100001879858805\">Upk Kalasan</a>","latitude":-7.745449465,"district":"KAB. SLEMAN","province code":262,"longitude":110.4659265,"id":"a65e07e81fat","sub-district":"KALASAN","district code":3404,"province":"DAERAH ISTIMEWA YOGYAKARTA"},"type":"Feature","geometry":{"type":"Point","coordinates":[110.4659265,-7.745449465]}},{"properties":{"sub-district code":3210120,"pnpm office":"<a href=\"http://www.facebook.com/profile.php?id=100001785365366\">Upk Kec Leuwimunding</a>","latitude":-6.734950767,"district":"KAB. MAJALENGKA","province code":263,"longitude":108.3418772,"id":"a65e07jwf9hb","sub-district":"LEUWIMUNDING","district code":3210,"province":"JAWA BARAT"},"type":"Feature","geometry":{"type":"Point","coordinates":[108.3418772,-6.734950767]}},{"properties":{"sub-district code":1705052,"pnpm office":"<a href=\"http://www.facebook.com/profile.php?id=100001701169047\">Upk Lubuksandi</a>","latitude":-3.854219106,"district":"KAB. SELUMA","province code":264,"longitude":102.61545,"id":"a65e07fzlacq","sub-district":"LUBUK SANDI","district code":1705,"province":"BENGKULU"},"type":"Feature","geometry":{"type":"Point","coordinates":[102.61545,-3.854219106]}},{"properties":{"sub-district code":3216130,"pnpm office":"<a href=\"http://www.facebook.com/profile.php?id=100001842559287\">Upk Pebayuran</a>","latitude":-6.159127287,"district":"KAB. BEKASI","province code":265,"longitude":107.2498588,"id":"a65e079kpkx7","sub-district":"PEBAYURAN","district code":3216,"province":"JAWA BARAT"},"type":"Feature","geometry":{"type":"Point","coordinates":[107.2498588,-6.159127287]}},{"properties":{"sub-district code":1806011,"pnpm office":"<a href=\"http://www.facebook.com/profile.php?id=100001838041769\">Upk Abung Tinggi</a>","latitude":-4.862199502,"district":"KAB. LAMPUNG UTARA","province code":266,"longitude":104.6505,"id":"a65e07lh49sy","sub-district":"ABUNG TINGGI","district code":1806,"province":"LAMPUNG"},"type":"Feature","geometry":{"type":"Point","coordinates":[104.6505,-4.862199502]}},{"properties":{"sub-district code":1804040,"pnpm office":"<a href=\"http://www.facebook.com/profile.php?id=100001742894139\">Upk Margatiga</a>","latitude":-5.241427085,"district":"KAB. LAMPUNG TIMUR","province code":267,"longitude":105.4787,"id":"a65e07dkuzag","sub-district":"MARGATIGA","district code":1804,"province":"LAMPUNG"},"type":"Feature","geometry":{"type":"Point","coordinates":[105.4787,-5.241427085]}},{"properties":{"sub-district code":3202021,"pnpm office":"<a href=\"http://www.facebook.com/profile.php?id=100001718581693\">Upk Waluran</a>","latitude":-7.273270662,"district":"KAB. SUKABUMI","province code":268,"longitude":106.5488588,"id":"a65e07hz3fmb","sub-district":"WALURAN","district code":3202,"province":"JAWA BARAT"},"type":"Feature","geometry":{"type":"Point","coordinates":[106.5488588,-7.273270662]}},{"properties":{"sub-district code":7310050,"pnpm office":"<a href=\"http://www.facebook.com/profile.php?id=100001852007388\">Upk Kec Mallusetasi Pnpm</a>","latitude":-4.153212102,"district":"KAB. BARRU","province code":269,"longitude":119.6782698,"id":"a65e07f1s8ow","sub-district":"MALLUSETASI","district code":7310,"province":"SULAWESI SELATAN"},"type":"Feature","geometry":{"type":"Point","coordinates":[119.6782698,-4.153212102]}},{"properties":{"sub-district code":3202111,"pnpm office":"<a href=\"http://www.facebook.com/profile.php?id=100001722756711\">Upk Simpenan</a>","latitude":-7.073879027,"district":"KAB. SUKABUMI","province code":270,"longitude":106.5891512,"id":"a65e07k6j2th","sub-district":"SIMPENAN","district code":3202,"province":"JAWA BARAT"},"type":"Feature","geometry":{"type":"Point","coordinates":[106.5891512,-7.073879027]}},{"properties":{"sub-district code":3216021,"pnpm office":"<a href=\"http://www.facebook.com/profile.php?id=100001682035731\">Upk Serba Serba</a>","latitude":-6.396634764,"district":"KAB. BEKASI","province code":271,"longitude":107.124793,"id":"a65e076bhj44","sub-district":"SERANG BARU","district code":3216,"province":"JAWA BARAT"},"type":"Feature","geometry":{"type":"Point","coordinates":[107.124793,-6.396634764]}},{"properties":{"sub-district code":3206080,"pnpm office":"<a href=\"http://www.facebook.com/upk.kec.bjg.gambir\">Upk Bojonggambir</a>","latitude":-7.574570224,"district":"KAB. TASIKMALAYA","province code":272,"longitude":107.9563215,"id":"a65e076hkhaa","sub-district":"BOJONGGAMBIR","district code":3206,"province":"JAWA BARAT"},"type":"Feature","geometry":{"type":"Point","coordinates":[107.9563215,-7.574570224]}},{"properties":{"sub-district code":3206160,"pnpm office":"<a href=\"http://www.facebook.com/profile.php?id=100001745232467\">Upk Manonjaya</a>","latitude":-7.369731637,"district":"KAB. TASIKMALAYA","province code":273,"longitude":108.3090631,"id":"a65e07m6s30y","sub-district":"MANONJAYA","district code":3206,"province":"JAWA BARAT"},"type":"Feature","geometry":{"type":"Point","coordinates":[108.3090631,-7.369731637]}},{"properties":{"sub-district code":3203131,"pnpm office":"<a href=\"http://www.facebook.com/profile.php?id=100001824066662\">Upk Gekbrong</a>","latitude":-6.886491295,"district":"KAB. CIANJUR","province code":274,"longitude":107.0522491,"id":"a65e07ma7pxw","sub-district":"GEKBRONG","district code":3203,"province":"JAWA BARAT"},"type":"Feature","geometry":{"type":"Point","coordinates":[107.0522491,-6.886491295]}},{"properties":{"sub-district code":1406040,"pnpm office":"<a href=\"http://www.facebook.com/profile.php?id=100001726731906\">Upk Kec Tapung Hilir</a>","latitude":0.54679851,"district":"KAB. KAMPAR","province code":275,"longitude":101.1739385,"id":"a65e07bve88m","sub-district":"TAPUNG","district code":1406,"province":"RIAU"},"type":"Feature","geometry":{"type":"Point","coordinates":[101.1739385,0.54679851]}},{"properties":{"sub-district code":3501070,"pnpm office":"<a href=\"http://www.facebook.com/profile.php?id=100001747144196\">Upk Pnpm Nawangan</a>","latitude":-7.988346517,"district":"KAB. PACITAN","province code":276,"longitude":111.1749051,"id":"a65e07f5lz32","sub-district":"NAWANGAN","district code":3501,"province":"JAWA TIMUR"},"type":"Feature","geometry":{"type":"Point","coordinates":[111.1749051,-7.988346517]}},{"properties":{"sub-district code":3529070,"pnpm office":"<a href=\"http://www.facebook.com/profile.php?id=100001866796278\">Upk Kota Sumenep</a>","latitude":-7.004226216,"district":"KAB. SUMENEP","province code":277,"longitude":113.8735627,"id":"a65e07f3sh5x","sub-district":"KOTA SUMENEP","district code":3529,"province":"JAWA TIMUR"},"type":"Feature","geometry":{"type":"Point","coordinates":[113.8735627,-7.004226216]}},{"properties":{"sub-district code":3213080,"pnpm office":"<a href=\"http://www.facebook.com/profile.php?id=100001807798025\">Upk Kalijati Subang</a>","latitude":-6.549133843,"district":"KAB. SUBANG","province code":278,"longitude":107.6826504,"id":"a65e07gacjwi","sub-district":"KALIJATI","district code":3213,"province":"JAWA BARAT"},"type":"Feature","geometry":{"type":"Point","coordinates":[107.6826504,-6.549133843]}},{"properties":{"sub-district code":1806040,"pnpm office":"<a href=\"http://www.facebook.com/profile.php?id=100001749723438\">Upk Heru Neval</a>","latitude":-4.850861203,"district":"KAB. LAMPUNG UTARA","province code":279,"longitude":104.81605,"id":"a65e0784v9ny","sub-district":"KOTABUMI","district code":1806,"province":"LAMPUNG"},"type":"Feature","geometry":{"type":"Point","coordinates":[104.81605,-4.850861203]}},{"properties":{"sub-district code":1302030,"pnpm office":"<a href=\"http://www.facebook.com/profile.php?id=100001733401112\">Upk Pancung Soal</a>","latitude":-2.038782036,"district":"KAB. PESISIR SELATAN","province code":280,"longitude":100.9668741,"id":"a65e07djmqm6","sub-district":"PANCUNG SOAL","district code":1302,"province":"SUMATERA BARAT"},"type":"Feature","geometry":{"type":"Point","coordinates":[100.9668741,-2.038782036]}},{"properties":{"sub-district code":1607100,"pnpm office":"<a href=\"http://www.facebook.com/profile.php?id=100001667630676\">Upk Banyuasin Ii (Sungsang)</a>","latitude":-1.862692985,"district":"KAB. BANYU ASIN","province code":281,"longitude":104.379125,"id":"a65e0787b31w","sub-district":"BANYUASIN II","district code":1607,"province":"SUMATERA SELATAN"},"type":"Feature","geometry":{"type":"Point","coordinates":[104.379125,-1.862692985]}},{"properties":{"sub-district code":7503020,"pnpm office":"<a href=\"http://www.facebook.com/profile.php?id=100001709824889\">Upk Pnpm-Mpd Lemito</a>","latitude":0.716102551,"district":"KAB. POHUWATO","province code":282,"longitude":121.5955114,"id":"a65e077e88jf","sub-district":"LEMITO","district code":7503,"province":"GORONTALO"},"type":"Feature","geometry":{"type":"Point","coordinates":[121.5955114,0.716102551]}},{"properties":{"sub-district code":1116010,"pnpm office":"<a href=\"http://www.facebook.com/profile.php?id=100001834172849\">Upk-Pnpm Teunom</a>","latitude":4.462354309,"district":"KAB. ACEH JAYA","province code":283,"longitude":95.82158125,"id":"a65e07cigemm","sub-district":"TEUNOM","district code":1116,"province":"NANGGROE ACEH DARUSSALAM"},"type":"Feature","geometry":{"type":"Point","coordinates":[95.82158125,4.462354309]}},{"properties":{"sub-district code":3505010,"pnpm office":"<a href=\"http://www.facebook.com/profile.php?id=100001799194340\">Upk Bakoeng</a>","latitude":-8.271682697,"district":"KAB. BLITAR","province code":284,"longitude":112.0692575,"id":"a65e07aegkwk","sub-district":"BAKUNG","district code":3505,"province":"JAWA TIMUR"},"type":"Feature","geometry":{"type":"Point","coordinates":[112.0692575,-8.271682697]}},{"properties":{"sub-district code":3509010,"pnpm office":"<a href=\"http://www.facebook.com/profile.php?id=100001802053574\">Upk Kencong</a>","latitude":-8.30196018,"district":"KAB. JEMBER","province code":285,"longitude":113.3632272,"id":"a65e07kfb180","sub-district":"KENCONG","district code":3509,"province":"JAWA TIMUR"},"type":"Feature","geometry":{"type":"Point","coordinates":[113.3632272,-8.30196018]}},{"properties":{"sub-district code":3505090,"pnpm office":"<a href=\"http://www.facebook.com/hanif.upktalun\">Hanif Upk Talun</a>","latitude":-8.098428966,"district":"KAB. BLITAR","province code":286,"longitude":112.2676837,"id":"a65e07h6kvzf","sub-district":"TALUN","district code":3505,"province":"JAWA TIMUR"},"type":"Feature","geometry":{"type":"Point","coordinates":[112.2676837,-8.098428966]}},{"properties":{"sub-district code":3301200,"pnpm office":"<a href=\"http://www.facebook.com/profile.php?id=100001687980762\">Upk Punya Nusawungu</a>","latitude":-7.673781533,"district":"KAB. CILACAP","province code":287,"longitude":109.3399696,"id":"a65e07i7jdgp","sub-district":"NUSAWUNGU","district code":3301,"province":"JAWA TENGAH"},"type":"Feature","geometry":{"type":"Point","coordinates":[109.3399696,-7.673781533]}},{"properties":{"sub-district code":3306010,"pnpm office":"<a href=\"http://www.facebook.com/profile.php?id=100001736946575\">Upk Bahtera Mandiri Grabag</a>","latitude":-7.804456756,"district":"KAB. PURWOREJO","province code":288,"longitude":109.8814043,"id":"a65e0780idmf","sub-district":"GRABAG","district code":3306,"province":"JAWA TENGAH"},"type":"Feature","geometry":{"type":"Point","coordinates":[109.8814043,-7.804456756]}},{"properties":{"sub-district code":7304010,"pnpm office":"<a href=\"http://www.facebook.com/profile.php?id=100001775745474\">Upk Bangkala Barat Pnpm</a>","latitude":-5.581634177,"district":"KAB. JENEPONTO","province code":289,"longitude":119.5946509,"id":"a65e07bvf9xh","sub-district":"BANGKALA","district code":7304,"province":"SULAWESI SELATAN"},"type":"Feature","geometry":{"type":"Point","coordinates":[119.5946509,-5.581634177]}},{"properties":{"sub-district code":3206061,"pnpm office":"<a href=\"http://www.facebook.com/profile.php?id=100001842739384\">Upk Parungponteng</a>","latitude":-7.489922256,"district":"KAB. TASIKMALAYA","province code":290,"longitude":108.1332065,"id":"a65e07m544kl","sub-district":"PARUNGPONTENG","district code":3206,"province":"JAWA BARAT"},"type":"Feature","geometry":{"type":"Point","coordinates":[108.1332065,-7.489922256]}},{"properties":{"sub-district code":3305090,"pnpm office":"<a href=\"http://www.facebook.com/profile.php?id=100001929170736\">Upk Prembun Prembun</a>","latitude":-7.716661511,"district":"KAB. KEBUMEN","province code":291,"longitude":109.8181,"id":"a65e07dkmugh","sub-district":"PREMBUN","district code":3305,"province":"JAWA TENGAH"},"type":"Feature","geometry":{"type":"Point","coordinates":[109.8181,-7.716661511]}},{"properties":{"sub-district code":6211040,"pnpm office":"<a href=\"http://www.facebook.com/profile.php?id=100001892405358\">Upk Kurun</a>","latitude":-0.908248991,"district":"KAB. GUNUNG MAS","province code":292,"longitude":113.840854,"id":"a65e07jrtz10","sub-district":"KURUN","district code":6211,"province":"KALIMANTAN TENGAH"},"type":"Feature","geometry":{"type":"Point","coordinates":[113.840854,-0.908248991]}},{"properties":{"sub-district code":6211040,"pnpm office":"<a href=\"http://www.facebook.com/profile.php?id=100001902455831\">Upk Kurun</a>","latitude":-0.908248991,"district":"KAB. GUNUNG MAS","province code":293,"longitude":113.840854,"id":"a65e07dffhxg","sub-district":"KURUN","district code":6211,"province":"KALIMANTAN TENGAH"},"type":"Feature","geometry":{"type":"Point","coordinates":[113.840854,-0.908248991]}},{"properties":{"sub-district code":3515090,"pnpm office":"<a href=\"http://www.facebook.com/profile.php?id=100001946702927\">Upk Wonoayu (Sidoarjo)</a>","latitude":-7.437719574,"district":"KAB. SIDOARJO","province code":294,"longitude":112.6366966,"id":"a65e079vcrf0","sub-district":"WONOAYU","district code":3515,"province":"JAWA TIMUR"},"type":"Feature","geometry":{"type":"Point","coordinates":[112.6366966,-7.437719574]}},{"properties":{"sub-district code":1213140,"pnpm office":"<a href=\"http://www.facebook.com/profile.php?id=100002176144134\">Upk Tanjungpura</a>","latitude":3.959528113,"district":"KAB. LANGKAT","province code":295,"longitude":98.47273552,"id":"a65e077jab3d","sub-district":"TANJUNG PURA","district code":1213,"province":"SUMATERA UTARA"},"type":"Feature","geometry":{"type":"Point","coordinates":[98.47273552,3.959528113]}},{"properties":{"sub-district code":3211181,"pnpm office":"<a href=\"http://www.facebook.com/profile.php?id=100002135779671\">Upk Surian</a>","latitude":-6.636516623,"district":"KAB. SUMEDANG","province code":296,"longitude":107.8816628,"id":"a65e0782zm0c","sub-district":"SURIAN","district code":3211,"province":"JAWA BARAT"},"type":"Feature","geometry":{"type":"Point","coordinates":[107.8816628,-6.636516623]}},{"properties":{"sub-district code":3507160,"pnpm office":"<a href=\"http://www.facebook.com/profile.php?id=100001951733378\">Upk Kepanjen</a>","latitude":-8.128085816,"district":"KAB. MALANG","province code":297,"longitude":112.5726048,"id":"a65e07jcp8gi","sub-district":"KEPANJEN","district code":3507,"province":"JAWA TIMUR"},"type":"Feature","geometry":{"type":"Point","coordinates":[112.5726048,-8.128085816]}},{"properties":{"sub-district code":7308040,"pnpm office":"<a href=\"http://www.facebook.com/profile.php?id=100002033901362\">Upk Bantimurung</a>","latitude":-4.983870549,"district":"KAB. MAROS","province code":298,"longitude":119.673538,"id":"a65e07fa9t6e","sub-district":"BANTIMURUNG","district code":7308,"province":"SULAWESI SELATAN"},"type":"Feature","geometry":{"type":"Point","coordinates":[119.673538,-4.983870549]}},{"properties":{"sub-district code":3305140,"pnpm office":"<a href=\"http://www.facebook.com/profile.php?id=100002010909566\">Upk Kecamatan Sruweng</a>","latitude":-7.64139453,"district":"KAB. KEBUMEN","province code":299,"longitude":109.6085871,"id":"a65e07ctl7gs","sub-district":"SRUWENG","district code":3305,"province":"JAWA TENGAH"},"type":"Feature","geometry":{"type":"Point","coordinates":[109.6085871,-7.64139453]}},{"properties":{"sub-district code":1802040,"pnpm office":"<a href=\"http://www.facebook.com/upk.talpa\">Upk Talpa</a>","latitude":-5.36379808,"district":"KAB. TANGGAMUS","province code":300,"longitude":104.7712406,"id":"a65e07ilpkcu","sub-district":"TALANG PADANG","district code":1802,"province":"LAMPUNG"},"type":"Feature","geometry":{"type":"Point","coordinates":[104.7712406,-5.36379808]}},{"properties":{"sub-district code":1702030,"pnpm office":"<a href=\"http://www.facebook.com/profile.php?id=100002059096997\">Upk Pu Tanding</a>","latitude":-3.385189851,"district":"KAB. REJANG LEBONG","province code":301,"longitude":102.8336527,"id":"a65e07kiujj4","sub-district":"PADANG ULAK TANDING","district code":1702,"province":"BENGKULU"},"type":"Feature","geometry":{"type":"Point","coordinates":[102.8336527,-3.385189851]}},{"properties":{"sub-district code":3307040,"pnpm office":"<a href=\"http://www.facebook.com/upk.kaliwiro\">Upk Kaliwiro</a>","latitude":-7.474265129,"district":"KAB. WONOSOBO","province code":302,"longitude":109.84095,"id":"a65e07ljv6q4","sub-district":"KALIWIRO","district code":3307,"province":"JAWA TENGAH"},"type":"Feature","geometry":{"type":"Point","coordinates":[109.84095,-7.474265129]}},{"properties":{"sub-district code":3512060,"pnpm office":"<a href=\"http://www.facebook.com/profile.php?id=100002175409539\">Upk Mlandingan</a>","latitude":-7.77922757,"district":"KAB. SITUBONDO","province code":303,"longitude":113.799495,"id":"a65e07ifnzfj","sub-district":"MLANDINGAN","district code":3512,"province":"JAWA TIMUR"},"type":"Feature","geometry":{"type":"Point","coordinates":[113.799495,-7.77922757]}},{"properties":{"sub-district code":3301040,"pnpm office":"<a href=\"http://www.facebook.com/profile.php?id=100002057725058\">Upk Cimanggu</a>","latitude":-7.311555761,"district":"KAB. CILACAP","province code":304,"longitude":108.8462981,"id":"a65e076gjv8q","sub-district":"CIMANGGU","district code":3301,"province":"JAWA TENGAH"},"type":"Feature","geometry":{"type":"Point","coordinates":[108.8462981,-7.311555761]}},{"properties":{"sub-district code":1807020,"pnpm office":"<a href=\"http://www.facebook.com/profile.php?id=100001994284943\">Upk Baradatu</a>","latitude":-4.705681028,"district":"KAB. WAY KANAN","province code":305,"longitude":104.5497767,"id":"a65e076nycg5","sub-district":"BARADATU","district code":1807,"province":"LAMPUNG"},"type":"Feature","geometry":{"type":"Point","coordinates":[104.5497767,-4.705681028]}},{"properties":{"sub-district code":3304080,"pnpm office":"<a href=\"http://www.facebook.com/profile.php?id=100002040477813\">Upk Madukara</a>","latitude":-7.363165174,"district":"KAB. BANJARNEGARA","province code":306,"longitude":109.7342492,"id":"a65e07bmgh8b","sub-district":"MADUKARA","district code":3304,"province":"JAWA TENGAH"},"type":"Feature","geometry":{"type":"Point","coordinates":[109.7342492,-7.363165174]}},{"properties":{"sub-district code":3206192,"pnpm office":"<a href=\"http://www.facebook.com/profile.php?id=100002094413771\">Upk Mangunreja Tasikmalaya</a>","latitude":-7.35907239,"district":"KAB. TASIKMALAYA","province code":307,"longitude":108.1092746,"id":"a65e07h25qca","sub-district":"MANGUNREJA","district code":3206,"province":"JAWA BARAT"},"type":"Feature","geometry":{"type":"Point","coordinates":[108.1092746,-7.35907239]}},{"properties":{"sub-district code":1509023,"pnpm office":"<a href=\"http://www.facebook.com/profile.php?id=100002190314527\">Upk Bungo Dani</a>","latitude":-1.488284565,"district":"KAB. BUNGO","province code":308,"longitude":102.0970696,"id":"a65e0782wvjs","sub-district":"BUNGO DANI","district code":1509,"province":"JAMBI"},"type":"Feature","geometry":{"type":"Point","coordinates":[102.0970696,-1.488284565]}},{"properties":{"sub-district code":3207130,"pnpm office":"<a href=\"http://www.facebook.com/profile.php?id=100002150679091\">Upk Cidolog Ciamis</a>","latitude":-7.439699774,"district":"KAB. CIAMIS","province code":309,"longitude":108.4346156,"id":"a65e07laez2o","sub-district":"CIDOLOG","district code":3207,"province":"JAWA BARAT"},"type":"Feature","geometry":{"type":"Point","coordinates":[108.4346156,-7.439699774]}},{"properties":{"sub-district code":3206211,"pnpm office":"<a href=\"http://www.facebook.com/profile.php?id=100002128160362\">Upk Sariwangi</a>","latitude":-7.304334763,"district":"KAB. TASIKMALAYA","province code":310,"longitude":108.0528295,"id":"a65e07dh5mt9","sub-district":"SARIWANGI","district code":3206,"province":"JAWA BARAT"},"type":"Feature","geometry":{"type":"Point","coordinates":[108.0528295,-7.304334763]}},{"properties":{"sub-district code":5101040,"pnpm office":"<a href=\"http://www.facebook.com/profile.php?id=100001981463113\">Pekutatan Upk</a>","latitude":-8.399744627,"district":"KAB. JEMBRANA","province code":311,"longitude":114.8683106,"id":"a65e07moawo5","sub-district":"PEKUTATAN","district code":5101,"province":"BALI"},"type":"Feature","geometry":{"type":"Point","coordinates":[114.8683106,-8.399744627]}},{"properties":{"sub-district code":1607050,"pnpm office":"<a href=\"http://www.facebook.com/profile.php?id=100001885717778\">Upk Talang Kelapa</a>","latitude":-2.728305259,"district":"KAB. BANYU ASIN","province code":312,"longitude":104.6695075,"id":"a65e07i65wpj","sub-district":"TALANG KELAPA","district code":1607,"province":"SUMATERA SELATAN"},"type":"Feature","geometry":{"type":"Point","coordinates":[104.6695075,-2.728305259]}},{"properties":{"sub-district code":1218110,"pnpm office":"<a href=\"http://www.facebook.com/profile.php?id=100002062573373\">Upk Pantai Cermin</a>","latitude":3.644392588,"district":"KAB. SERDANG BEDAGAI","province code":313,"longitude":98.95254525,"id":"a65e07cm4ffi","sub-district":"PANTAI CERMIN","district code":1218,"province":"SUMATERA UTARA"},"type":"Feature","geometry":{"type":"Point","coordinates":[98.95254525,3.644392588]}},{"properties":{"sub-district code":3315170,"pnpm office":"<a href=\"http://www.facebook.com/profile.php?id=100001951506686\">Upk Gubug</a>","latitude":-7.066852881,"district":"KAB. GROBOGAN","province code":314,"longitude":110.6807957,"id":"a65e079mkwdi","sub-district":"GUBUG","district code":3315,"province":"JAWA TENGAH"},"type":"Feature","geometry":{"type":"Point","coordinates":[110.6807957,-7.066852881]}},{"properties":{"sub-district code":6202210,"pnpm office":"<a href=\"http://www.facebook.com/profile.php?id=100002145076758\">Upk Mentaya Hulu</a>","latitude":-2.033521915,"district":"KAB. KOTAWARINGIN TIMUR","province code":315,"longitude":112.475184,"id":"a65e07cnxss6","sub-district":"MENTAYA HULU","district code":6202,"province":"KALIMANTAN TENGAH"},"type":"Feature","geometry":{"type":"Point","coordinates":[112.475184,-2.033521915]}},{"properties":{"sub-district code":3207190,"pnpm office":"<a href=\"http://www.facebook.com/profile.php?id=100001995429003\">Upk Rajadesa</a>","latitude":-7.170769266,"district":"KAB. CIAMIS","province code":316,"longitude":108.4536827,"id":"a65e07mgwgeh","sub-district":"RAJADESA","district code":3207,"province":"JAWA BARAT"},"type":"Feature","geometry":{"type":"Point","coordinates":[108.4536827,-7.170769266]}},{"properties":{"sub-district code":3213170,"pnpm office":"<a href=\"http://www.facebook.com/profile.php?id=100001907004855\">Upk Binong Sauyunan Satujuan</a>","latitude":-6.385847209,"district":"KAB. SUBANG","province code":317,"longitude":107.8007439,"id":"a65e07adg8xd","sub-district":"BINONG","district code":3213,"province":"JAWA BARAT"},"type":"Feature","geometry":{"type":"Point","coordinates":[107.8007439,-6.385847209]}},{"properties":{"sub-district code":1404030,"pnpm office":"<a href=\"http://www.facebook.com/profile.php?id=100002112523701\">Upk Kec Bunut Hilir</a>","latitude":0.22513543,"district":"KAB. PELALAWAN","province code":318,"longitude":102.1046025,"id":"a65e07i4yo7n","sub-district":"BUNUT","district code":1404,"province":"RIAU"},"type":"Feature","geometry":{"type":"Point","coordinates":[102.1046025,0.22513543]}},{"properties":{"sub-district code":1408050,"pnpm office":"<a href=\"http://www.facebook.com/profile.php?id=100002153232730\">Upk Bantan</a>","latitude":1.516037782,"district":"KAB. BENGKALIS","province code":319,"longitude":102.315529,"id":"a65e0793a0do","sub-district":"BANTAN","district code":1408,"province":"RIAU"},"type":"Feature","geometry":{"type":"Point","coordinates":[102.315529,1.516037782]}},{"properties":{"sub-district code":3321050,"pnpm office":"<a href=\"http://www.facebook.com/upk.karangtengahdemak\">Upk Karangtengah-Demak</a>","latitude":-6.916488828,"district":"KAB. DEMAK","province code":320,"longitude":110.5745168,"id":"a65e07cpdnoj","sub-district":"KARANG TENGAH","district code":3321,"province":"JAWA TENGAH"},"type":"Feature","geometry":{"type":"Point","coordinates":[110.5745168,-6.916488828]}},{"properties":{"sub-district code":3323121,"pnpm office":"<a href=\"http://www.facebook.com/profile.php?id=100002093618421\">Upk Bejen</a>","latitude":-7.125098827,"district":"KAB. TEMANGGUNG","province code":321,"longitude":110.1036186,"id":"a65e07hmencc","sub-district":"BEJEN","district code":3323,"province":"JAWA TENGAH"},"type":"Feature","geometry":{"type":"Point","coordinates":[110.1036186,-7.125098827]}},{"properties":{"sub-district code":3305140,"pnpm office":"<a href=\"http://www.facebook.com/profile.php?id=100001930188409\">Upk Kecamatan Sruweng</a>","latitude":-7.64139453,"district":"KAB. KEBUMEN","province code":322,"longitude":109.6085871,"id":"a65e0798aspp","sub-district":"SRUWENG","district code":3305,"province":"JAWA TENGAH"},"type":"Feature","geometry":{"type":"Point","coordinates":[109.6085871,-7.64139453]}},{"properties":{"sub-district code":3205111,"pnpm office":"<a href=\"http://www.facebook.com/profile.php?id=100002159613080\">Upk Cihurip</a>","latitude":-7.507070161,"district":"KAB. GARUT","province code":323,"longitude":107.8569735,"id":"a65e07d71v7q","sub-district":"CIHURIP","district code":3205,"province":"JAWA BARAT"},"type":"Feature","geometry":{"type":"Point","coordinates":[107.8569735,-7.507070161]}},{"properties":{"sub-district code":3507100,"pnpm office":"<a href=\"http://www.facebook.com/profile.php?id=100002062898651\">Upk Poncokusumo</a>","latitude":-8.042329199,"district":"KAB. MALANG","province code":324,"longitude":112.8300886,"id":"a65e07fvbi0s","sub-district":"PONCOKUSUMO","district code":3507,"province":"JAWA TIMUR"},"type":"Feature","geometry":{"type":"Point","coordinates":[112.8300886,-8.042329199]}},{"properties":{"sub-district code":1609090,"pnpm office":"<a href=\"http://www.facebook.com/profile.php?id=100002145017808\">Upk Semendawaisuku Tiga</a>","latitude":-3.973705935,"district":"KAB. OGAN KOMERING ULU TIMUR","province code":325,"longitude":104.657379,"id":"a65e07b23tlb","sub-district":"SEMENDAWAI SUKU III","district code":1609,"province":"SUMATERA SELATAN"},"type":"Feature","geometry":{"type":"Point","coordinates":[104.657379,-3.973705935]}},{"properties":{"sub-district code":1609030,"pnpm office":"<a href=\"http://www.facebook.com/profile.php?id=100002067657084\">Upk Buay Madang</a>","latitude":-4.242870744,"district":"KAB. OGAN KOMERING ULU TIMUR","province code":326,"longitude":104.505575,"id":"a65e07hgwqwk","sub-district":"BUAY MADANG","district code":1609,"province":"SUMATERA SELATAN"},"type":"Feature","geometry":{"type":"Point","coordinates":[104.505575,-4.242870744]}},{"properties":{"sub-district code":6108090,"pnpm office":"<a href=\"http://www.facebook.com/profile.php?id=100002164275379\">Upk Laksana Mandiri</a>","latitude":0.97863745,"district":"KAB. KAPUAS HULU","province code":327,"longitude":112.5578573,"id":"a65e07956u0u","sub-district":"EMBALOH HILIR","district code":6108,"province":"KALIMANTAN BARAT"},"type":"Feature","geometry":{"type":"Point","coordinates":[112.5578573,0.97863745]}},{"properties":{"sub-district code":1205180,"pnpm office":"<a href=\"http://www.facebook.com/profile.php?id=100002178221601\">Upk Pnpm Muara Bengkal</a>","latitude":2.286946592,"district":"KAB. TAPANULI UTARA","province code":328,"longitude":98.96167375,"id":"a65e077g3375","sub-district":"MUARA","district code":1205,"province":"SUMATERA UTARA"},"type":"Feature","geometry":{"type":"Point","coordinates":[98.96167375,2.286946592]}},{"properties":{"sub-district code":3315170,"pnpm office":"<a href=\"http://www.facebook.com/profile.php?id=100002191054244\">Upk Gubug</a>","latitude":-7.066852881,"district":"KAB. GROBOGAN","province code":329,"longitude":110.6807957,"id":"a65e07lwsawp","sub-district":"GUBUG","district code":3315,"province":"JAWA TENGAH"},"type":"Feature","geometry":{"type":"Point","coordinates":[110.6807957,-7.066852881]}},{"properties":{"sub-district code":1371090,"pnpm office":"<a href=\"http://www.facebook.com/profile.php?id=100001897956143\">Sayuti Upk Kuranji</a>","latitude":-0.914278628,"district":"KOTA PADANG","province code":330,"longitude":100.4201848,"id":"a65e076ugs5r","sub-district":"KURANJI","district code":1371,"province":"SUMATERA BARAT"},"type":"Feature","geometry":{"type":"Point","coordinates":[100.4201848,-0.914278628]}},{"properties":{"sub-district code":3207281,"pnpm office":"<a href=\"http://www.facebook.com/profile.php?id=100002145166606\">Upk Lumbung Ciamis</a>","latitude":-7.145673101,"district":"KAB. CIAMIS","province code":331,"longitude":108.3285892,"id":"a65e07lir0re","sub-district":"LUMBUNG","district code":3207,"province":"JAWA BARAT"},"type":"Feature","geometry":{"type":"Point","coordinates":[108.3285892,-7.145673101]}},{"properties":{"sub-district code":3506080,"pnpm office":"<a href=\"http://www.facebook.com/profile.php?id=100002176702381\">Upk Ngancar Ceria</a>","latitude":-7.946541745,"district":"KAB. KEDIRI","province code":332,"longitude":112.1703749,"id":"a65e07gwa2bl","sub-district":"NGANCAR","district code":3506,"province":"JAWA TIMUR"},"type":"Feature","geometry":{"type":"Point","coordinates":[112.1703749,-7.946541745]}},{"properties":{"sub-district code":3211170,"pnpm office":"<a href=\"http://www.facebook.com/profile.php?id=100002206257890\">Upk Tanjungkerta</a>","latitude":-6.760098863,"district":"KAB. SUMEDANG","province code":333,"longitude":107.9054511,"id":"a65e07d1bnya","sub-district":"TANJUNGKERTA","district code":3211,"province":"JAWA BARAT"},"type":"Feature","geometry":{"type":"Point","coordinates":[107.9054511,-6.760098863]}},{"properties":{"sub-district code":3508100,"pnpm office":"<a href=\"http://www.facebook.com/profile.php?id=100002253585082\">Upk Rowokangkung</a>","latitude":-8.163098113,"district":"KAB. LUMAJANG","province code":334,"longitude":113.3271641,"id":"a65e07ijlhno","sub-district":"ROWOKANGKUNG","district code":3508,"province":"JAWA TIMUR"},"type":"Feature","geometry":{"type":"Point","coordinates":[113.3271641,-8.163098113]}},{"properties":{"sub-district code":1207190,"pnpm office":"<a href=\"http://www.facebook.com/upkpnpmmp\">Upk Pnpm-Mp Kualuh Hulu</a>","latitude":2.54364155,"district":"KAB. LABUHAN BATU","province code":335,"longitude":99.62390684,"id":"a65e07dfsuxj","sub-district":"KUALUH HULU","district code":1207,"province":"SUMATERA UTARA"},"type":"Feature","geometry":{"type":"Point","coordinates":[99.62390684,2.54364155]}},{"properties":{"sub-district code":3201210,"pnpm office":"<a href=\"http://www.facebook.com/profile.php?id=100002262107851\">Upk Madena</a>","latitude":-6.480576728,"district":"KAB. BOGOR","province code":336,"longitude":106.8370076,"id":"a65e07m7hp44","sub-district":"CIBINONG","district code":3201,"province":"JAWA BARAT"},"type":"Feature","geometry":{"type":"Point","coordinates":[106.8370076,-6.480576728]}},{"properties":{"sub-district code":1109071,"pnpm office":"<a href=\"http://www.facebook.com/upk.glumpangbaro\">Upk Glumpang Baro</a>","latitude":5.275371315,"district":"KAB. PIDIE","province code":337,"longitude":96.03809433,"id":"a65e07i9zb1b","sub-district":"GLUMPANG BARO","district code":1109,"province":"NANGGROE ACEH DARUSSALAM"},"type":"Feature","geometry":{"type":"Point","coordinates":[96.03809433,5.275371315]}},{"properties":{"sub-district code":1219040,"pnpm office":"<a href=\"http://www.facebook.com/profile.php?id=100002240198436\">Upk Kecamatan Limapuluh</a>","latitude":3.218534669,"district":"KAB. BATU BARA","province code":338,"longitude":99.4597785,"id":"a65e07djufi9","sub-district":"LIMAPULUH","district code":1219,"province":"SUMATERA UTARA"},"type":"Feature","geometry":{"type":"Point","coordinates":[99.4597785,3.218534669]}},{"properties":{"sub-district code":3211111,"pnpm office":"<a href=\"http://www.facebook.com/profile.php?id=100002196529881\">Upk Jatigede</a>","latitude":-6.882015767,"district":"KAB. SUMEDANG","province code":339,"longitude":108.1415257,"id":"a65e077wj2b8","sub-district":"JATIGEDE","district code":3211,"province":"JAWA BARAT"},"type":"Feature","geometry":{"type":"Point","coordinates":[108.1415257,-6.882015767]}},{"properties":{"sub-district code":1609020,"pnpm office":"<a href=\"http://www.facebook.com/profile.php?id=100002140481611\">Bppeliung Upk</a>","latitude":-4.234373463,"district":"KAB. OGAN KOMERING ULU TIMUR","province code":340,"longitude":104.3762,"id":"a65e07cqn910","sub-district":"BUAY PEMUKA PELIUNG","district code":1609,"province":"SUMATERA SELATAN"},"type":"Feature","geometry":{"type":"Point","coordinates":[104.3762,-4.234373463]}},{"properties":{"sub-district code":3511080,"pnpm office":"<a href=\"http://www.facebook.com/profile.php?id=100002374146878\">Upk Wonosari</a>","latitude":-7.915172879,"district":"KAB. BONDOWOSO","province code":341,"longitude":113.8969463,"id":"a65e07f3jpjd","sub-district":"WONOSARI","district code":3511,"province":"JAWA TIMUR"},"type":"Feature","geometry":{"type":"Point","coordinates":[113.8969463,-7.915172879]}},{"properties":{"sub-district code":7318040,"pnpm office":"<a href=\"http://www.facebook.com/profile.php?id=100002284846254\">Upk Makale</a>","latitude":-3.114662816,"district":"KAB. TANA TORAJA","province code":342,"longitude":119.8540498,"id":"a65e07ecoo81","sub-district":"MAKALE","district code":7318,"province":"SULAWESI SELATAN"},"type":"Feature","geometry":{"type":"Point","coordinates":[119.8540498,-3.114662816]}},{"properties":{"sub-district code":1505050,"pnpm office":"<a href=\"http://www.facebook.com/upkjaluko.biartasejahtera\">Upk Jaluko Biarta Sejahtera</a>","latitude":-1.637670563,"district":"KAB. MUARO JAMBI","province code":343,"longitude":103.546575,"id":"a65e07m0n27s","sub-district":"JAMBI LUAR KOTA","district code":1505,"province":"JAMBI"},"type":"Feature","geometry":{"type":"Point","coordinates":[103.546575,-1.637670563]}},{"properties":{"sub-district code":3604090,"pnpm office":"<a href=\"http://www.facebook.com/profile.php?id=100002372131238\">Upk Pamarayan</a>","latitude":-6.29014756,"district":"KAB. SERANG","province code":344,"longitude":106.3022059,"id":"a65e07bz9ud5","sub-district":"PAMARAYAN","district code":3604,"province":"BANTEN"},"type":"Feature","geometry":{"type":"Point","coordinates":[106.3022059,-6.29014756]}},{"properties":{"sub-district code":3525160,"pnpm office":"<a href=\"http://www.facebook.com/profile.php?id=100002326757069\">Upk Pnpm Ujungpangkah</a>","latitude":-6.938232626,"district":"KAB. GRESIK","province code":345,"longitude":112.541958,"id":"a65e07e3apby","sub-district":"UJUNGPANGKAH","district code":3525,"province":"JAWA TIMUR"},"type":"Feature","geometry":{"type":"Point","coordinates":[112.541958,-6.938232626]}},{"properties":{"sub-district code":3201120,"pnpm office":"<a href=\"http://www.facebook.com/profile.php?id=100002301934920\">Upk Megamendung</a>","latitude":-6.702729719,"district":"KAB. BOGOR","province code":346,"longitude":106.9122505,"id":"a65e07f14l5l","sub-district":"MEGAMENDUNG","district code":3201,"province":"JAWA BARAT"},"type":"Feature","geometry":{"type":"Point","coordinates":[106.9122505,-6.702729719]}},{"properties":{"sub-district code":3201150,"pnpm office":"<a href=\"http://www.facebook.com/profile.php?id=100002272101891\">Upk Soekamakmoer (Upk Amanah)</a>","latitude":-6.611470009,"district":"KAB. BOGOR","province code":347,"longitude":107.0001525,"id":"a65e07mbqd37","sub-district":"SUKAMAKMUR","district code":3201,"province":"JAWA BARAT"},"type":"Feature","geometry":{"type":"Point","coordinates":[107.0001525,-6.611470009]}},{"properties":{"sub-district code":3207160,"pnpm office":"<a href=\"http://www.facebook.com/profile.php?id=100002318453573\">Upk Cisaga</a>","latitude":-7.307169564,"district":"KAB. CIAMIS","province code":348,"longitude":108.5089227,"id":"a65e07ai0drd","sub-district":"CISAGA","district code":3207,"province":"JAWA BARAT"},"type":"Feature","geometry":{"type":"Point","coordinates":[108.5089227,-7.307169564]}},{"properties":{"sub-district code":3213140,"pnpm office":"<a href=\"http://www.facebook.com/profile.php?id=100002376142304\">Upk Kecamatan Pagaden</a>","latitude":-6.483132097,"district":"KAB. SUBANG","province code":349,"longitude":107.7815828,"id":"a65e07abv8sw","sub-district":"PAGADEN","district code":3213,"province":"JAWA BARAT"},"type":"Feature","geometry":{"type":"Point","coordinates":[107.7815828,-6.483132097]}},{"properties":{"sub-district code":3210080,"pnpm office":"<a href=\"http://www.facebook.com/profile.php?id=100002265618938\">Upk Cigasong</a>","latitude":-6.799022215,"district":"KAB. MAJALENGKA","province code":350,"longitude":108.238134,"id":"a65e079cjh2s","sub-district":"CIGASONG","district code":3210,"province":"JAWA BARAT"},"type":"Feature","geometry":{"type":"Point","coordinates":[108.238134,-6.799022215]}},{"properties":{"sub-district code":3404040,"pnpm office":"<a href=\"http://www.facebook.com/upk.godean\">Upk Godean</a>","latitude":-7.764989393,"district":"KAB. SLEMAN","province code":351,"longitude":110.3058144,"id":"a65e076f6rsa","sub-district":"GODEAN","district code":3404,"province":"DAERAH ISTIMEWA YOGYAKARTA"},"type":"Feature","geometry":{"type":"Point","coordinates":[110.3058144,-7.764989393]}},{"properties":{"sub-district code":1509024,"pnpm office":"<a href=\"http://www.facebook.com/profile.php?id=100002299297321\">Upkpasarmuarabungo Pnpm</a>","latitude":-1.477427706,"district":"KAB. BUNGO","province code":352,"longitude":102.144392,"id":"a65e07fwybiq","sub-district":"PASAR MUARA BUNGO","district code":1509,"province":"JAMBI"},"type":"Feature","geometry":{"type":"Point","coordinates":[102.144392,-1.477427706]}},{"properties":{"sub-district code":3205270,"pnpm office":"<a href=\"http://www.facebook.com/profile.php?id=100002313257174\">Cibiuk Upk</a>","latitude":-7.076420085,"district":"KAB. GARUT","province code":353,"longitude":107.9360624,"id":"a65e07hi0im7","sub-district":"CIBIUK","district code":3205,"province":"JAWA BARAT"},"type":"Feature","geometry":{"type":"Point","coordinates":[107.9360624,-7.076420085]}},{"properties":{"sub-district code":3514080,"pnpm office":"<a href=\"http://www.facebook.com/profile.php?id=100002313282507\">Upk Wonorejo</a>","latitude":-7.717181041,"district":"KAB. PASURUAN","province code":354,"longitude":112.7911396,"id":"a65e07m5pfhs","sub-district":"WONOREJO","district code":3514,"province":"JAWA TIMUR"},"type":"Feature","geometry":{"type":"Point","coordinates":[112.7911396,-7.717181041]}},{"properties":{"sub-district code":3326161,"pnpm office":"<a href=\"http://www.facebook.com/profile.php?id=100002293719259\">Upk Wonokerto</a>","latitude":-6.870972933,"district":"KAB. PEKALONGAN","province code":355,"longitude":109.6199468,"id":"a65e07ffsex5","sub-district":"WONOKERTO","district code":3326,"province":"JAWA TENGAH"},"type":"Feature","geometry":{"type":"Point","coordinates":[109.6199468,-6.870972933]}},{"properties":{"sub-district code":1702042,"pnpm office":"<a href=\"http://www.facebook.com/profile.php?id=100002360055489\">Upkselupu Rejang</a>","latitude":-3.394090113,"district":"KAB. REJANG LEBONG","province code":356,"longitude":102.6129009,"id":"a65e07lxqbfe","sub-district":"SELUPU REJANG","district code":1702,"province":"BENGKULU"},"type":"Feature","geometry":{"type":"Point","coordinates":[102.6129009,-3.394090113]}},{"properties":{"sub-district code":3315120,"pnpm office":"<a href=\"http://www.facebook.com/profile.php?id=100002263352087\">Upk Grobogan</a>","latitude":-7.020307182,"district":"KAB. GROBOGAN","province code":357,"longitude":110.9531966,"id":"a65e07jbv2e5","sub-district":"GROBOGAN","district code":3315,"province":"JAWA TENGAH"},"type":"Feature","geometry":{"type":"Point","coordinates":[110.9531966,-7.020307182]}},{"properties":{"sub-district code":6404050,"pnpm office":"<a href=\"http://www.facebook.com/profile.php?id=100002303196759\">Upk Sangkulirang</a>","latitude":1.115856168,"district":"KAB. KUTAI TIMUR","province code":358,"longitude":118.0253761,"id":"a65e07atlqb7","sub-district":"SANGKULIRANG","district code":6404,"province":"KALIMANTAN TIMUR"},"type":"Feature","geometry":{"type":"Point","coordinates":[118.0253761,1.115856168]}},{"properties":{"sub-district code":3317070,"pnpm office":"<a href=\"http://www.facebook.com/profile.php?id=100002356814462\">Asrori Upk</a>","latitude":-6.771692462,"district":"KAB. REMBANG","province code":359,"longitude":111.4617485,"id":"a65e079on14p","sub-district":"PAMOTAN","district code":3317,"province":"JAWA TENGAH"},"type":"Feature","geometry":{"type":"Point","coordinates":[111.4617485,-6.771692462]}},{"properties":{"sub-district code":1504010,"pnpm office":"<a href=\"http://www.facebook.com/upkmersam\">Upk Mersam</a>","latitude":-1.568877384,"district":"KAB. BATANG HARI","province code":360,"longitude":102.9590949,"id":"a65e07kluihk","sub-district":"MERSAM","district code":1504,"province":"JAMBI"},"type":"Feature","geometry":{"type":"Point","coordinates":[102.9590949,-1.568877384]}},{"properties":{"sub-district code":1202022,"pnpm office":"<a href=\"http://www.facebook.com/profile.php?id=100002340001226\">Upk Ranto</a>","latitude":0.580191126,"district":"KAB. MANDAILING NATAL","province code":361,"longitude":99.38135212,"id":"a65e07iifd35","sub-district":"RANTO BAEK","district code":1202,"province":"SUMATERA UTARA"},"type":"Feature","geometry":{"type":"Point","coordinates":[99.38135212,0.580191126]}},{"properties":{"sub-district code":6401060,"pnpm office":"<a href=\"http://www.facebook.com/profile.php?id=100002285578741\">Upk Long Ikis Paser</a>","latitude":-1.572725212,"district":"KAB. PASIR","province code":362,"longitude":116.1326836,"id":"a65e07897edo","sub-district":"LONG IKIS","district code":6401,"province":"KALIMANTAN TIMUR"},"type":"Feature","geometry":{"type":"Point","coordinates":[116.1326836,-1.572725212]}},{"properties":{"sub-district code":1802030,"pnpm office":"<a href=\"http://www.facebook.com/profile.php?id=100002359387163\">Upk Pulaupanggung</a>","latitude":-5.147131418,"district":"KAB. TANGGAMUS","province code":363,"longitude":104.49645,"id":"a65e07brulps","sub-district":"PULAU PANGGUNG","district code":1802,"province":"LAMPUNG"},"type":"Feature","geometry":{"type":"Point","coordinates":[104.49645,-5.147131418]}},{"properties":{"sub-district code":3505090,"pnpm office":"<a href=\"http://www.facebook.com/profile.php?id=100002316639118\">Upk Cakrabuana Talun</a>","latitude":-8.098428966,"district":"KAB. BLITAR","province code":364,"longitude":112.2676837,"id":"a65e07afpla6","sub-district":"TALUN","district code":3505,"province":"JAWA TIMUR"},"type":"Feature","geometry":{"type":"Point","coordinates":[112.2676837,-8.098428966]}},{"properties":{"sub-district code":1504030,"pnpm office":"<a href=\"http://www.facebook.com/profile.php?id=100002294366890\">Upk Muara Tembesi</a>","latitude":-1.706290286,"district":"KAB. BATANG HARI","province code":365,"longitude":103.1102531,"id":"a65e0791hmim","sub-district":"MUARA TEMBESI","district code":1504,"province":"JAMBI"},"type":"Feature","geometry":{"type":"Point","coordinates":[103.1102531,-1.706290286]}},{"properties":{"sub-district code":3212101,"pnpm office":"<a href=\"http://www.facebook.com/profile.php?id=100002324956979\">Upk Pnpm Kedokanbunder</a>","latitude":-6.494568426,"district":"KAB. INDRAMAYU","province code":366,"longitude":108.399957,"id":"a65e078uee71","sub-district":"KEDOKAN BUNDER","district code":3212,"province":"JAWA BARAT"},"type":"Feature","geometry":{"type":"Point","coordinates":[108.399957,-6.494568426]}},{"properties":{"sub-district code":7317051,"pnpm office":"<a href=\"http://www.facebook.com/profile.php?id=100002446479856\">Upk Latimojong</a>","latitude":-3.410122583,"district":"KAB. LUWU","province code":367,"longitude":120.1141259,"id":"a65e07kwnkzn","sub-district":"LATIMOJONG","district code":7317,"province":"SULAWESI SELATAN"},"type":"Feature","geometry":{"type":"Point","coordinates":[120.1141259,-3.410122583]}},{"properties":{"sub-district code":7208060,"pnpm office":"<a href=\"http://www.facebook.com/profile.php?id=100002536264135\">Upk Moutong (Nova Y. Kamaru)</a>","latitude":0.553973907,"district":"KAB. PARIGI MOUTONG","province code":368,"longitude":121.1670923,"id":"a65e07gg50ns","sub-district":"MOUTONG","district code":7208,"province":"SULAWESI TENGAH"},"type":"Feature","geometry":{"type":"Point","coordinates":[121.1670923,0.553973907]}},{"properties":{"sub-district code":3211120,"pnpm office":"<a href=\"http://www.facebook.com/profile.php?id=100002404705348\">Upk Tomo</a>","latitude":-6.790607147,"district":"KAB. SUMEDANG","province code":369,"longitude":108.1219975,"id":"a65e07k75fzw","sub-district":"TOMO","district code":3211,"province":"JAWA BARAT"},"type":"Feature","geometry":{"type":"Point","coordinates":[108.1219975,-6.790607147]}},{"properties":{"sub-district code":3505090,"pnpm office":"<a href=\"http://www.facebook.com/profile.php?id=100002397800999\">Atik Upk Talun</a>","latitude":-8.098428966,"district":"KAB. BLITAR","province code":370,"longitude":112.2676837,"id":"a65e07jpvkov","sub-district":"TALUN","district code":3505,"province":"JAWA TIMUR"},"type":"Feature","geometry":{"type":"Point","coordinates":[112.2676837,-8.098428966]}},{"properties":{"sub-district code":1117060,"pnpm office":"<a href=\"http://www.facebook.com/profile.php?id=100002389773548\">Upk Syiah Utama</a>","latitude":4.724264211,"district":"KAB. BENER MERIAH","province code":371,"longitude":97.14486563,"id":"a65e07ab3jmc","sub-district":"SYIAH UTAMA","district code":1117,"province":"NANGGROE ACEH DARUSSALAM"},"type":"Feature","geometry":{"type":"Point","coordinates":[97.14486563,4.724264211]}},{"properties":{"sub-district code":3206151,"pnpm office":"<a href=\"http://www.facebook.com/profile.php?id=100002488172749\">Upk Karangjaya</a>","latitude":-7.444769402,"district":"KAB. TASIKMALAYA","province code":372,"longitude":108.3895459,"id":"a65e07bi93og","sub-district":"KARANG JAYA","district code":3206,"province":"JAWA BARAT"},"type":"Feature","geometry":{"type":"Point","coordinates":[108.3895459,-7.444769402]}},{"properties":{"sub-district code":1302060,"pnpm office":"<a href=\"http://www.facebook.com/profile.php?id=100002394404481\">Upk Lengayang</a>","latitude":-1.599153797,"district":"KAB. PESISIR SELATAN","province code":373,"longitude":100.8410715,"id":"a65e076m32md","sub-district":"LENGAYANG","district code":1302,"province":"SUMATERA BARAT"},"type":"Feature","geometry":{"type":"Point","coordinates":[100.8410715,-1.599153797]}},{"properties":{"sub-district code":1217090,"pnpm office":"<a href=\"http://www.facebook.com/profile.php?id=100002440555844\">Upk Simanindo Samosir</a>","latitude":2.647380624,"district":"KAB. SAMOSIR","province code":374,"longitude":98.80804446,"id":"a65e07i6z57o","sub-district":"SIMANINDO","district code":1217,"province":"SUMATERA UTARA"},"type":"Feature","geometry":{"type":"Point","coordinates":[98.80804446,2.647380624]}},{"properties":{"sub-district code":5201020,"pnpm office":"<a href=\"http://www.facebook.com/profile.php?id=100002494627285\">Upk Gerung</a>","latitude":-8.67749484,"district":"KAB. LOMBOK BARAT","province code":375,"longitude":116.1171685,"id":"a65e0790h0lm","sub-district":"GERUNG","district code":5201,"province":"NUSA TENGGARA BARAT"},"type":"Feature","geometry":{"type":"Point","coordinates":[116.1171685,-8.67749484]}},{"properties":{"sub-district code":1801010,"pnpm office":"<a href=\"http://www.facebook.com/profile.php?id=100002528010880\">Upkpnpm Pesisir Selatan</a>","latitude":-5.315117189,"district":"KAB. LAMPUNG BARAT","province code":376,"longitude":104.147775,"id":"a65e07klconw","sub-district":"PESISIR SELATAN","district code":1801,"province":"LAMPUNG"},"type":"Feature","geometry":{"type":"Point","coordinates":[104.147775,-5.315117189]}},{"properties":{"sub-district code":3509270,"pnpm office":"<a href=\"http://www.facebook.com/profile.php?id=1822617585\">Upk Pnpm Sukowono</a>","latitude":-8.069527255,"district":"KAB. JEMBER","province code":377,"longitude":113.8412406,"id":"a65e0786uozq","sub-district":"SUKOWONO","district code":3509,"province":"JAWA TIMUR"},"type":"Feature","geometry":{"type":"Point","coordinates":[113.8412406,-8.069527255]}},{"properties":{"sub-district code":3211060,"pnpm office":"<a href=\"http://www.facebook.com/profile.php?id=100002413564837\">Upk Sumut</a>","latitude":-6.831955242,"district":"KAB. SUMEDANG","province code":378,"longitude":107.9288153,"id":"a65e07dw7iih","sub-district":"SUMEDANG UTARA","district code":3211,"province":"JAWA BARAT"},"type":"Feature","geometry":{"type":"Point","coordinates":[107.9288153,-6.831955242]}},{"properties":{"sub-district code":3403150,"pnpm office":"<a href=\"http://www.facebook.com/profile.php?id=100002408465877\">Upk Semin</a>","latitude":-7.861787021,"district":"KAB. GUNUNG KIDUL","province code":379,"longitude":110.7420936,"id":"a65e07a7fmh4","sub-district":"SEMIN","district code":3403,"province":"DAERAH ISTIMEWA YOGYAKARTA"},"type":"Feature","geometry":{"type":"Point","coordinates":[110.7420936,-7.861787021]}},{"properties":{"sub-district code":3316010,"pnpm office":"<a href=\"http://www.facebook.com/profile.php?id=100002474941464\">Upk Jati</a>","latitude":-7.225031243,"district":"KAB. BLORA","province code":380,"longitude":111.2954702,"id":"a65e07kdd024","sub-district":"JATI","district code":3316,"province":"JAWA TENGAH"},"type":"Feature","geometry":{"type":"Point","coordinates":[111.2954702,-7.225031243]}},{"properties":{"sub-district code":3207211,"pnpm office":"<a href=\"http://www.facebook.com/profile.php?id=100002427603604\">Upk Baregbeg</a>","latitude":-7.289317774,"district":"KAB. CIAMIS","province code":381,"longitude":108.3809368,"id":"a65e07l8v0vx","sub-district":"BAREGBEG","district code":3207,"province":"JAWA BARAT"},"type":"Feature","geometry":{"type":"Point","coordinates":[108.3809368,-7.289317774]}},{"properties":{"sub-district code":1501090,"pnpm office":"<a href=\"http://www.facebook.com/profile.php?id=100002386266468\">Upk Kayu Aro</a>","latitude":-1.770332515,"district":"KAB. KERINCI","province code":382,"longitude":101.2299939,"id":"a65e07mjexjg","sub-district":"KAYU ARO","district code":1501,"province":"JAMBI"},"type":"Feature","geometry":{"type":"Point","coordinates":[101.2299939,-1.770332515]}},{"properties":{"sub-district code":1306071,"pnpm office":"<a href=\"http://www.facebook.com/profile.php?id=100002409231998\">Upk V Koto Timur</a>","latitude":-0.537571073,"district":"KAB. PADANG PARIAMAN","province code":383,"longitude":100.1663725,"id":"a65e07f56bxo","sub-district":"V KOTO TIMUR","district code":1306,"province":"SUMATERA BARAT"},"type":"Feature","geometry":{"type":"Point","coordinates":[100.1663725,-0.537571073]}},{"properties":{"sub-district code":3321091,"pnpm office":"<a href=\"http://www.facebook.com/profile.php?id=100002381424841\">Upk Kebonagung Demak</a>","latitude":-7.000695267,"district":"KAB. DEMAK","province code":384,"longitude":110.7029001,"id":"a65e07lm4sj9","sub-district":"KEBONAGUNG","district code":3321,"province":"JAWA TENGAH"},"type":"Feature","geometry":{"type":"Point","coordinates":[110.7029001,-7.000695267]}},{"properties":{"sub-district code":1217040,"pnpm office":"<a href=\"http://www.facebook.com/profile.php?id=100002499905626\">Upk Kec Onan Runggu</a>","latitude":2.478691108,"district":"KAB. SAMOSIR","province code":385,"longitude":98.96381725,"id":"a65e076fjto4","sub-district":"ONAN RUNGGU","district code":1217,"province":"SUMATERA UTARA"},"type":"Feature","geometry":{"type":"Point","coordinates":[98.96381725,2.478691108]}},{"properties":{"sub-district code":3504180,"pnpm office":"<a href=\"http://www.facebook.com/profile.php?id=100002519304972\">Upk Pagerwojo</a>","latitude":-7.981079356,"district":"KAB. TULUNGAGUNG","province code":386,"longitude":111.7826493,"id":"a65e0772ykeu","sub-district":"PAGER WOJO","district code":3504,"province":"JAWA TIMUR"},"type":"Feature","geometry":{"type":"Point","coordinates":[111.7826493,-7.981079356]}},{"properties":{"sub-district code":3403110,"pnpm office":"<a href=\"http://www.facebook.com/profile.php?id=100002518666598\">Upk Patuk</a>","latitude":-7.858907478,"district":"KAB. GUNUNG KIDUL","province code":387,"longitude":110.5245894,"id":"a65e07l38xw2","sub-district":"PATUK","district code":3403,"province":"DAERAH ISTIMEWA YOGYAKARTA"},"type":"Feature","geometry":{"type":"Point","coordinates":[110.5245894,-7.858907478]}},{"properties":{"sub-district code":7317030,"pnpm office":"<a href=\"http://www.facebook.com/profile.php?id=100001894024471\">Upk Belopa Pnpm Mp</a>","latitude":-3.416688904,"district":"KAB. LUWU","province code":388,"longitude":120.365116,"id":"a65e07jokgfu","sub-district":"BELOPA","district code":7317,"province":"SULAWESI SELATAN"},"type":"Feature","geometry":{"type":"Point","coordinates":[120.365116,-3.416688904]}},{"properties":{"sub-district code":3301040,"pnpm office":"<a href=\"http://www.facebook.com/pages/UPK-CIMANGGU/247218118901\">Upk Cimanggu</a>","latitude":-7.311555761,"district":"KAB. CILACAP","province code":389,"longitude":108.8462981,"id":"a65e07hbqsvu","sub-district":"CIMANGGU","district code":3301,"province":"JAWA TENGAH"},"type":"Feature","geometry":{"type":"Point","coordinates":[108.8462981,-7.311555761]}},{"properties":{"sub-district code":1803100,"pnpm office":"<a href=\"http://www.facebook.com/pages/Upk-sidomulyo/144702898925274\">Upk Sidomulyo</a>","latitude":-5.604065321,"district":"KAB. LAMPUNG SELATAN","province code":390,"longitude":105.4934981,"id":"a65e07c0xkut","sub-district":"SIDOMULYO","district code":1803,"province":"LAMPUNG"},"type":"Feature","geometry":{"type":"Point","coordinates":[105.4934981,-5.604065321]}},{"properties":{"sub-district code":3206020,"pnpm office":"<a href=\"http://www.facebook.com/pages/upk-karangnunggal/143813632351037\">Upk Karangnunggal</a>","latitude":-7.635540914,"district":"KAB. TASIKMALAYA","province code":391,"longitude":108.162914,"id":"a65e077ree8s","sub-district":"KARANGNUNGGAL","district code":3206,"province":"JAWA BARAT"},"type":"Feature","geometry":{"type":"Point","coordinates":[108.162914,-7.635540914]}},{"properties":{"sub-district code":3318190,"pnpm office":"<a href=\"http://www.facebook.com/pages/UPK-Cluwak/115736015124081\">Upk Cluwak</a>","latitude":-6.5361977,"district":"KAB. PATI","province code":392,"longitude":110.9455105,"id":"a65e07cq8m2g","sub-district":"CLUWAK","district code":3318,"province":"JAWA TENGAH"},"type":"Feature","geometry":{"type":"Point","coordinates":[110.9455105,-6.5361977]}},{"properties":{"sub-district code":3215071,"pnpm office":"<a href=\"http://www.facebook.com/profile.php?id=100002487975718\">Upk Banyusari</a>","latitude":-6.277947425,"district":"KAB. KARAWANG","province code":393,"longitude":107.5407074,"id":"a65e07fpkywb","sub-district":"BANYUSARI","district code":3215,"province":"JAWA BARAT"},"type":"Feature","geometry":{"type":"Point","coordinates":[107.5407074,-6.277947425]}},{"properties":{"sub-district code":1508030,"pnpm office":"<a href=\"http://www.facebook.com/profile.php?id=100002504049754\">Upk Rbt</a>","latitude":-1.329146672,"district":"KAB. TEBO","province code":394,"longitude":102.1517611,"id":"a65e0770qzon","sub-district":"RIMBO BUJANG","district code":1508,"province":"JAMBI"},"type":"Feature","geometry":{"type":"Point","coordinates":[102.1517611,-1.329146672]}},{"properties":{"sub-district code":3204100,"pnpm office":"<a href=\"http://www.facebook.com/profile.php?id=100002420099038\">Upk Cicalengka</a>","latitude":-6.986683552,"district":"KAB. BANDUNG","province code":395,"longitude":107.8558166,"id":"a65e07jwpked","sub-district":"CICALENGKA","district code":3204,"province":"JAWA BARAT"},"type":"Feature","geometry":{"type":"Point","coordinates":[107.8558166,-6.986683552]}},{"properties":{"sub-district code":3502090,"pnpm office":"<a href=\"http://www.facebook.com/profile.php?id=100002522297025\">Upk Siman</a>","latitude":-7.898341568,"district":"KAB. PONOROGO","province code":396,"longitude":111.4986931,"id":"a65e07cbw5x1","sub-district":"SIMAN","district code":3502,"province":"JAWA TIMUR"},"type":"Feature","geometry":{"type":"Point","coordinates":[111.4986931,-7.898341568]}},{"properties":{"sub-district code":6306010,"pnpm office":"<a href=\"http://www.facebook.com/profile.php?id=100002451058152\">Upk Padang Batung</a>","latitude":-2.851793783,"district":"KAB. HULU SUNGAI SELATAN","province code":397,"longitude":115.3307713,"id":"a65e07b5usns","sub-district":"PADANG BATUNG","district code":6306,"province":"KALIMANTAN SELATAN"},"type":"Feature","geometry":{"type":"Point","coordinates":[115.3307713,-2.851793783]}},{"properties":{"sub-district code":3302110,"pnpm office":"<a href=\"http://www.facebook.com/profile.php?id=100002384247655\">Upk Pnpm-Mp Kecamatan Banyumas</a>","latitude":-7.53016963,"district":"KAB. BANYUMAS","province code":398,"longitude":109.2848,"id":"a65e07itpr1c","sub-district":"BANYUMAS","district code":3302,"province":"JAWA TENGAH"},"type":"Feature","geometry":{"type":"Point","coordinates":[109.2848,-7.53016963]}},{"properties":{"sub-district code":7313090,"pnpm office":"<a href=\"http://www.facebook.com/profile.php?id=100001588313019\">Upk Belawa Wajo</a>","latitude":-4.000375966,"district":"KAB. WAJO","province code":399,"longitude":119.94291,"id":"a65e0786n3w5","sub-district":"BELAWA","district code":7313,"province":"SULAWESI SELATAN"},"type":"Feature","geometry":{"type":"Point","coordinates":[119.94291,-4.000375966]}},{"properties":{"sub-district code":3215111,"pnpm office":"<a href=\"http://www.facebook.com/profile.php?id=100000786505488\">Upk Majalaya Karawang</a>","latitude":-6.2821443,"district":"KAB. KARAWANG","province code":400,"longitude":107.3686566,"id":"a65e07exnpe6","sub-district":"MAJALAYA","district code":3215,"province":"JAWA BARAT"},"type":"Feature","geometry":{"type":"Point","coordinates":[107.3686566,-6.2821443]}},{"properties":{"sub-district code":7404031,"pnpm office":"<a href=\"http://www.facebook.com/upk.baula\">Upk Kecamatan Baula</a>","latitude":-4.142172778,"district":"KAB. KOLAKA","province code":401,"longitude":121.7071835,"id":"a65e0769cpne","sub-district":"BAULA","district code":7404,"province":"SULAWESI TENGGARA"},"type":"Feature","geometry":{"type":"Point","coordinates":[121.7071835,-4.142172778]}},{"properties":{"sub-district code":5201011,"pnpm office":"<a href=\"http://www.facebook.com/profile.php?id=100001839304843\">Upk Lembar</a>","latitude":-8.759638179,"district":"KAB. LOMBOK BARAT","province code":402,"longitude":116.0939257,"id":"a65e07e4sels","sub-district":"LEMBAR","district code":5201,"province":"NUSA TENGGARA BARAT"},"type":"Feature","geometry":{"type":"Point","coordinates":[116.0939257,-8.759638179]}},{"properties":{"sub-district code":3509180,"pnpm office":"<a href=\"http://www.facebook.com/profile.php?id=100001023155742\">Upk Tanggul</a>","latitude":-8.109832966,"district":"KAB. JEMBER","province code":403,"longitude":113.4913537,"id":"a65e07hwm0h5","sub-district":"TANGGUL","district code":3509,"province":"JAWA TIMUR"},"type":"Feature","geometry":{"type":"Point","coordinates":[113.4913537,-8.109832966]}},{"properties":{"sub-district code":5108050,"pnpm office":"<a href=\"http://www.facebook.com/profile.php?id=100002312365819\">Upk Sksd</a>","latitude":-8.200648596,"district":"KAB. BULELENG","province code":404,"longitude":115.1228515,"id":"a65e077g2xbn","sub-district":"SUKASADA","district code":5108,"province":"BALI"},"type":"Feature","geometry":{"type":"Point","coordinates":[115.1228515,-8.200648596]}},{"properties":{"sub-district code":3511030,"pnpm office":"<a href=\"http://www.facebook.com/profile.php?id=100002331401996\">Upk Tamanan</a>","latitude":-8.017717491,"district":"KAB. BONDOWOSO","province code":405,"longitude":113.829928,"id":"a65e07efkx7o","sub-district":"TAMANAN","district code":3511,"province":"JAWA TIMUR"},"type":"Feature","geometry":{"type":"Point","coordinates":[113.829928,-8.017717491]}},{"properties":{"sub-district code":6303120,"pnpm office":"<a href=\"http://www.facebook.com/profile.php?id=100001457379236\">Upk Simpangempat Kab Banjar</a>","latitude":-3.174001577,"district":"KAB. BANJAR","province code":406,"longitude":114.9215061,"id":"a65e07foxfw0","sub-district":"SIMPANG EMPAT","district code":6303,"province":"KALIMANTAN SELATAN"},"type":"Feature","geometry":{"type":"Point","coordinates":[114.9215061,-3.174001577]}},{"properties":{"sub-district code":3512010,"pnpm office":"<a href=\"http://www.facebook.com/profile.php?id=100000729567733\">Upk Rengganis</a>","latitude":-7.881213853,"district":"KAB. SITUBONDO","province code":407,"longitude":113.6718665,"id":"a65e07gbde3q","sub-district":"SUMBERMALANG","district code":3512,"province":"JAWA TIMUR"},"type":"Feature","geometry":{"type":"Point","coordinates":[113.6718665,-7.881213853]}},{"properties":{"sub-district code":7405020,"pnpm office":"<a href=\"http://www.facebook.com/profile.php?id=100002140120678\">Upk Andoolo</a>","latitude":-4.333351214,"district":"KAB. KONAWE SELATAN","province code":408,"longitude":122.13385,"id":"a65e07blrg4j","sub-district":"ANDOOLO","district code":7405,"province":"SULAWESI TENGGARA"},"type":"Feature","geometry":{"type":"Point","coordinates":[122.13385,-4.333351214]}},{"properties":{"sub-district code":3512070,"pnpm office":"<a href=\"http://www.facebook.com/profile.php?id=100002084891308\">Upk Bungatan</a>","latitude":-7.733629357,"district":"KAB. SITUBONDO","province code":409,"longitude":113.8282454,"id":"a65e07knkx81","sub-district":"BUNGATAN","district code":3512,"province":"JAWA TIMUR"},"type":"Feature","geometry":{"type":"Point","coordinates":[113.8282454,-7.733629357]}},{"properties":{"sub-district code":7313080,"pnpm office":"<a href=\"http://www.facebook.com/profile.php?id=100001700684378\">Upk Tanasitolo</a>","latitude":-4.038833504,"district":"KAB. WAJO","province code":410,"longitude":120.0525382,"id":"a65e07e090b8","sub-district":"TANA SITOLO","district code":7313,"province":"SULAWESI SELATAN"},"type":"Feature","geometry":{"type":"Point","coordinates":[120.0525382,-4.038833504]}},{"properties":{"sub-district code":3509260,"pnpm office":"<a href=\"http://www.facebook.com/profile.php?id=100002072713119\">Upk Sumberjambe</a>","latitude":-8.078586778,"district":"KAB. JEMBER","province code":411,"longitude":113.9429914,"id":"a65e07ebe8dd","sub-district":"SUMBERJAMBE","district code":3509,"province":"JAWA TIMUR"},"type":"Feature","geometry":{"type":"Point","coordinates":[113.9429914,-8.078586778]}},{"properties":{"sub-district code":5107060,"pnpm office":"<a href=\"http://www.facebook.com/profile.php?id=100002315810833\">Upk Bebandem</a>","latitude":-8.423545653,"district":"KAB. KARANG ASEM","province code":412,"longitude":115.5428011,"id":"a65e07mqb57k","sub-district":"BEBANDEM","district code":5107,"province":"BALI"},"type":"Feature","geometry":{"type":"Point","coordinates":[115.5428011,-8.423545653]}},{"properties":{"sub-district code":3511170,"pnpm office":"<a href=\"http://www.facebook.com/profile.php?id=100002196687480\">Upk Kec Cermee</a>","latitude":-7.855862445,"district":"KAB. BONDOWOSO","province code":413,"longitude":114.0632045,"id":"a65e07b0q4c8","sub-district":"CERMEE","district code":3511,"province":"JAWA TIMUR"},"type":"Feature","geometry":{"type":"Point","coordinates":[114.0632045,-7.855862445]}},{"properties":{"sub-district code":7405101,"pnpm office":"<a href=\"http://www.facebook.com/profile.php?id=100002332772817\">Upkmowila Mowila</a>","latitude":-4.122766667,"district":"KAB. KONAWE SELATAN","province code":414,"longitude":122.2475617,"id":"a65e07814iax","sub-district":"MOWILA","district code":7405,"province":"SULAWESI TENGGARA"},"type":"Feature","geometry":{"type":"Point","coordinates":[122.2475617,-4.122766667]}},{"properties":{"sub-district code":6306010,"pnpm office":"<a href=\"http://www.facebook.com/profile.php?id=100001673085761\">Upk Padang Batung</a>","latitude":-2.851793783,"district":"KAB. HULU SUNGAI SELATAN","province code":415,"longitude":115.3307713,"id":"a65e07bd24oa","sub-district":"PADANG BATUNG","district code":6306,"province":"KALIMANTAN SELATAN"},"type":"Feature","geometry":{"type":"Point","coordinates":[115.3307713,-2.851793783]}},{"properties":{"sub-district code":3529070,"pnpm office":"<a href=\"http://www.facebook.com/profile.php?id=100001887251784\">Upk Kota Sumenep</a>","latitude":-7.004226216,"district":"KAB. SUMENEP","province code":416,"longitude":113.8735627,"id":"a65e07ev6z7t","sub-district":"KOTA SUMENEP","district code":3529,"province":"JAWA TIMUR"},"type":"Feature","geometry":{"type":"Point","coordinates":[113.8735627,-7.004226216]}},{"properties":{"sub-district code":3510171,"pnpm office":"<a href=\"http://www.facebook.com/profile.php?id=100000439019260\">Pnpm Licin Upk</a>","latitude":-8.226194416,"district":"KAB. BANYUWANGI","province code":417,"longitude":114.2648944,"id":"a65e07m20970","sub-district":"LICIN","district code":3510,"province":"JAWA TIMUR"},"type":"Feature","geometry":{"type":"Point","coordinates":[114.2648944,-8.226194416]}},{"properties":{"sub-district code":7205010,"pnpm office":"<a href=\"http://www.facebook.com/profile.php?id=100001101899222\">Upk Pnpm-Mp Kulawi</a>","latitude":-1.489782605,"district":"KAB. DONGGALA","province code":418,"longitude":119.9168933,"id":"a65e07k9xak9","sub-district":"KULAWI","district code":7205,"province":"SULAWESI TENGAH"},"type":"Feature","geometry":{"type":"Point","coordinates":[119.9168933,-1.489782605]}},{"properties":{"sub-district code":6307010,"pnpm office":"<a href=\"http://www.facebook.com/profile.php?id=100001712388133\">Upk Subdistrict Haruyan</a>","latitude":-2.707519585,"district":"KAB. HULU SUNGAI TENGAH","province code":419,"longitude":115.409825,"id":"a65e07eb84ma","sub-district":"HARUYAN","district code":6307,"province":"KALIMANTAN SELATAN"},"type":"Feature","geometry":{"type":"Point","coordinates":[115.409825,-2.707519585]}},{"properties":{"sub-district code":8201090,"pnpm office":"<a href=\"http://www.facebook.com/profile.php?id=100002275784950\">Upk Kecamatan Jailolo Timur</a>","latitude":1.075132755,"district":"KAB. HALMAHERA BARAT","province code":420,"longitude":127.525554,"id":"a65e07jsthdf","sub-district":"JAILOLO","district code":8201,"province":"MALUKU UTARA"},"type":"Feature","geometry":{"type":"Point","coordinates":[127.525554,1.075132755]}},{"properties":{"sub-district code":7101060,"pnpm office":"<a href=\"http://www.facebook.com/profile.php?id=100002500086224\">Upk Lolayan</a>","latitude":0.584882154,"district":"KAB. BOLAANG MONGONDOW","province code":421,"longitude":124.1499499,"id":"a65e078fxz53","sub-district":"LOLAYAN","district code":7101,"province":"SULAWESI UTARA"},"type":"Feature","geometry":{"type":"Point","coordinates":[124.1499499,0.584882154]}},{"properties":{"sub-district code":6403100,"pnpm office":"<a href=\"http://www.facebook.com/profile.php?id=100002471501101\">Upk Sebulu</a>","latitude":-0.224187634,"district":"KAB. KUTAI KARTANEGARA","province code":422,"longitude":116.9846537,"id":"a65e07cxel6w","sub-district":"SEBULU","district code":6403,"province":"KALIMANTAN TIMUR"},"type":"Feature","geometry":{"type":"Point","coordinates":[116.9846537,-0.224187634]}},{"properties":{"sub-district code":7405070,"pnpm office":"<a href=\"http://www.facebook.com/profile.php?id=100002388923927\">Upk Moramo</a>","latitude":-4.190415371,"district":"KAB. KONAWE SELATAN","province code":423,"longitude":122.663728,"id":"a65e07icng6t","sub-district":"MORAMO","district code":7405,"province":"SULAWESI TENGGARA"},"type":"Feature","geometry":{"type":"Point","coordinates":[122.663728,-4.190415371]}},{"properties":{"sub-district code":3529120,"pnpm office":"<a href=\"http://www.facebook.com/profile.php?id=100002422528909\">Upk Pnpm Ambunten</a>","latitude":-6.900599016,"district":"KAB. SUMENEP","province code":424,"longitude":113.7286977,"id":"a65e07hfd3tf","sub-district":"AMBUNTEN","district code":3529,"province":"JAWA TIMUR"},"type":"Feature","geometry":{"type":"Point","coordinates":[113.7286977,-6.900599016]}},{"properties":{"sub-district code":6213011,"pnpm office":"<a href=\"http://www.facebook.com/profile.php?id=100002487183342\">Upk Sbabuat Tumbang Bantian</a>","latitude":-0.458109744,"district":"KAB. MURUNG RAYA","province code":425,"longitude":114.4561195,"id":"a65e07fy5ian","sub-district":"SUNGAI BABUAT","district code":6213,"province":"KALIMANTAN TENGAH"},"type":"Feature","geometry":{"type":"Point","coordinates":[114.4561195,-0.458109744]}},{"properties":{"sub-district code":6213010,"pnpm office":"<a href=\"http://www.facebook.com/profile.php?id=100002488803115\">Lintas Upk Kab Mura</a>","latitude":-0.720040856,"district":"KAB. MURUNG RAYA","province code":426,"longitude":114.3746523,"id":"a65e078oy0vi","sub-district":"PERMATA INTAN","district code":6213,"province":"KALIMANTAN TENGAH"},"type":"Feature","geometry":{"type":"Point","coordinates":[114.3746523,-0.720040856]}},{"properties":{"sub-district code":3511020,"pnpm office":"<a href=\"http://www.facebook.com/profile.php?id=100002464215519\">Upk Grujugan Bondowoso</a>","latitude":-7.975629892,"district":"KAB. BONDOWOSO","province code":427,"longitude":113.759304,"id":"a65e07ao23xa","sub-district":"GRUJUGAN","district code":3511,"province":"JAWA TIMUR"},"type":"Feature","geometry":{"type":"Point","coordinates":[113.759304,-7.975629892]}},{"properties":{"sub-district code":3203160,"pnpm office":"<a href=\"http://www.facebook.com/pages/UPK-Bojongpicung/170264673014440\">Upk Bojongpicung</a>","latitude":-6.882437326,"district":"KAB. CIANJUR","province code":428,"longitude":107.2744833,"id":"a65e07h966ww","sub-district":"BOJONGPICUNG","district code":3203,"province":"JAWA BARAT"},"type":"Feature","geometry":{"type":"Point","coordinates":[107.2744833,-6.882437326]}},{"properties":{"sub-district code":3206120,"pnpm office":"<a href=\"http://www.facebook.com/pages/UPK-TANJUNGJAYA/115100145197383\">Upk Tanjungjaya</a>","latitude":-7.411113936,"district":"KAB. TASIKMALAYA","province code":429,"longitude":108.1165934,"id":"a65e07ffn7uv","sub-district":"TANJUNGJAYA","district code":3206,"province":"JAWA BARAT"},"type":"Feature","geometry":{"type":"Point","coordinates":[108.1165934,-7.411113936]}},{"properties":{"sub-district code":3506010,"pnpm office":"<a href=\"http://www.facebook.com/pages/UPK-Mojo/170241126330822\">Upk Mojo</a>","latitude":-7.893323445,"district":"KAB. KEDIRI","province code":430,"longitude":111.8973887,"id":"a65e07czmkx2","sub-district":"MOJO","district code":3506,"province":"JAWA TIMUR"},"type":"Feature","geometry":{"type":"Point","coordinates":[111.8973887,-7.893323445]}},{"properties":{"sub-district code":3509070,"pnpm office":"<a href=\"http://www.facebook.com/profile.php?id=100001180126886\">Upk Pnpm-Mpd Silo Jember</a>","latitude":-8.281141921,"district":"KAB. JEMBER","province code":431,"longitude":113.8835094,"id":"a65e07iqcepg","sub-district":"SILO","district code":3509,"province":"JAWA TIMUR"},"type":"Feature","geometry":{"type":"Point","coordinates":[113.8835094,-8.281141921]}},{"properties":{"sub-district code":7311730,"pnpm office":"<a href=\"http://www.facebook.com/profile.php?id=100000685703310\">Upk Tanete Riattang Timur</a>","latitude":-4.531046362,"district":"KAB. BONE","province code":432,"longitude":120.3571548,"id":"a65e07bb6b0f","sub-district":"TANETE RIATTANG TIMUR","district code":7311,"province":"SULAWESI SELATAN"},"type":"Feature","geometry":{"type":"Point","coordinates":[120.3571548,-4.531046362]}},{"properties":{"sub-district code":3603081,"pnpm office":"<a href=\"http://www.facebook.com/profile.php?id=100000883053551\">Upk Kec Cisauk</a>","latitude":-6.34614311,"district":"KAB. TANGERANG","province code":433,"longitude":106.6288,"id":"a65e07gwnxg0","sub-district":"CISAUK","district code":3603,"province":"BANTEN"},"type":"Feature","geometry":{"type":"Point","coordinates":[106.6288,-6.34614311]}},{"properties":{"sub-district code":5206071,"pnpm office":"<a href=\"http://www.facebook.com/profile.php?id=100002393836835\">Upk Kec Ambalawi</a>","latitude":-8.350194687,"district":"KAB. BIMA","province code":434,"longitude":118.8353093,"id":"a65e07m2i71s","sub-district":"AMBALAWI","district code":5206,"province":"NUSA TENGGARA BARAT"},"type":"Feature","geometry":{"type":"Point","coordinates":[118.8353093,-8.350194687]}},{"properties":{"sub-district code":3204280,"pnpm office":"<a href=\"http://www.facebook.com/pages/ASSOSIASI-UPK-BANDUNG/233661853591\">Assosiasi Upk Bandung</a>","latitude":-6.9873563,"district":"KAB. BANDUNG","province code":435,"longitude":107.6653021,"id":"a65e07c61695","sub-district":"BOJONGSOANG","district code":3204,"province":"JAWA BARAT"},"type":"Feature","geometry":{"type":"Point","coordinates":[107.6653021,-6.9873563]}},{"properties":{"sub-district code":3314160,"pnpm office":"<a href=\"http://www.facebook.com/pages/FORUM-UPK-SRAGEN/128539777158445\">Forum Upk Sragen</a>","latitude":-7.320725318,"district":"KAB. SRAGEN","province code":436,"longitude":110.9314205,"id":"a65e07ijr0e0","sub-district":"MONDOKAN","district code":3314,"province":"JAWA TENGAH"},"type":"Feature","geometry":{"type":"Point","coordinates":[110.9314205,-7.320725318]}},{"properties":{"sub-district code":3207090,"pnpm office":"<a href=\"http://www.facebook.com/pages/UPK-Kecamatan-Padaherang/160763963967976\">Upk Kecamatan Padaherang</a>","latitude":-7.541856223,"district":"KAB. CIAMIS","province code":437,"longitude":108.6939882,"id":"a65e079meyut","sub-district":"PADAHERANG","district code":3207,"province":"JAWA BARAT"},"type":"Feature","geometry":{"type":"Point","coordinates":[108.6939882,-7.541856223]}},{"properties":{"sub-district code":3305111,"pnpm office":"<a href=\"http://www.facebook.com/pages/UPK-Kecamatan-Poncowarno/114648171952605\">Upk Kecamatan Poncowarno</a>","latitude":-7.655425198,"district":"KAB. KEBUMEN","province code":438,"longitude":109.7466193,"id":"a65e07grxfdz","sub-district":"PONCOWARNO","district code":3305,"province":"JAWA TENGAH"},"type":"Feature","geometry":{"type":"Point","coordinates":[109.7466193,-7.655425198]}},{"properties":{"sub-district code":6306090,"pnpm office":"<a href=\"http://www.facebook.com/pages/UPK-Daha-Selatan/107126195995596\">Upk Daha Selatan</a>","latitude":-2.719571437,"district":"KAB. HULU SUNGAI SELATAN","province code":439,"longitude":115.0425,"id":"a65e07m0vbny","sub-district":"DAHA SELATAN","district code":6306,"province":"KALIMANTAN SELATAN"},"type":"Feature","geometry":{"type":"Point","coordinates":[115.0425,-2.719571437]}},{"properties":{"sub-district code":1604061,"pnpm office":"<a href=\"http://www.facebook.com/pages/UPK-Pajar-Bulan/113065862050390\">Upk Pajar Bulan</a>","latitude":-3.945818204,"district":"KAB. LAHAT","province code":440,"longitude":103.3400303,"id":"a65e07gtz50q","sub-district":"PAJAR BULAN","district code":1604,"province":"SUMATERA SELATAN"},"type":"Feature","geometry":{"type":"Point","coordinates":[103.3400303,-3.945818204]}},{"properties":{"sub-district code":3511060,"pnpm office":"<a href=\"http://www.facebook.com/pages/UPK-Kecamatan-Sukosari/196469090379149\">Upk Kecamatan Sukosari</a>","latitude":-7.943934897,"district":"KAB. BONDOWOSO","province code":441,"longitude":113.9932935,"id":"a65e07aykjmm","sub-district":"SUKOSARI","district code":3511,"province":"JAWA TIMUR"},"type":"Feature","geometry":{"type":"Point","coordinates":[113.9932935,-7.943934897]}},{"properties":{"sub-district code":3204010,"pnpm office":"<a href=\"http://www.facebook.com/pages/Upk-ciwidey/233356593345918\">Upk Ciwidey</a>","latitude":-7.088862219,"district":"KAB. BANDUNG","province code":442,"longitude":107.4450708,"id":"a65e07jc0oy9","sub-district":"CIWIDEY","district code":3204,"province":"JAWA BARAT"},"type":"Feature","geometry":{"type":"Point","coordinates":[107.4450708,-7.088862219]}},{"properties":{"sub-district code":7502071,"pnpm office":"<a href=\"http://www.facebook.com/pages/UPK-LIMBOTO-BARAT/205578756149446\">Upk Limboto Barat</a>","latitude":0.688731574,"district":"KAB. GORONTALO","province code":443,"longitude":122.8775894,"id":"a65e07htdcbc","sub-district":"LIMBOTO BARAT","district code":7502,"province":"GORONTALO"},"type":"Feature","geometry":{"type":"Point","coordinates":[122.8775894,0.688731574]}},{"properties":{"sub-district code":3203130,"pnpm office":"<a href=\"http://www.facebook.com/pages/UPK-warung-kondang/171767926215991\">Upk Warung Kondang</a>","latitude":-6.854079619,"district":"KAB. CIANJUR","province code":444,"longitude":107.059395,"id":"a65e07fzfuxy","sub-district":"WARUNGKONDANG","district code":3203,"province":"JAWA BARAT"},"type":"Feature","geometry":{"type":"Point","coordinates":[107.059395,-6.854079619]}}],"is_temporal":false,"author":{"url":"","metadata":"","contact_name":"","contact_address":"","source":"","contact_phone":""},"source":"","pagination":{"sort":null,"start":0,"total":372,"limit":1000000},"state":"complete","tags":"pnpm","published":"2014-08-12T22:55:42-04:00","id":171007}