{"type":"FeatureCollection","data_type":"Dataset","url_type":null,"permissions":[{"permissions":{"download":true,"view":true},"group_id":"everyone"}],"classification":null,"title":"geocommons_housetotals","count":435,"stream_id":171322,"contributor":{"url":"http://geocommons.com/users/35159","name":"alexhkaplan"},"data_attributes":null,"calculation_params":null,"icon_link":null,"link":"http://geocommons.com/overlays/171322.json","extent":[-88.4657,30.218,-84.8895,34.999],"geometry_types":["area"],"unique_name":null,"name":"geocommons_housetotals","feature_count":435,"description":"","next_feature":null,"is_raster":false,"short_classification":"Y","stats":{"amount":{"max":514945,"mean":30049.6735632184,"variance":3114457552.43697,"stdev":55807.3252578635,"min":-1000,"median":9000}},"features":[{"properties":{"district":"AK00","amount":237775,"id":"a6u4wg7w6awl"},"type":"Feature","geometry":null},{"properties":{"district":"AL04","amount":32000,"id":"a6u4wg5eg2wt"},"type":"Feature","geometry":{"type":"Polygon","coordinates":[[[-87.8358869828936,33.153413182985],[-88.0604278317931,33.0767406979949],[-88.0932874682174,33.2738985165408],[-87.983755346803,33.3615242136724],[-88.0494746196516,33.3943838500967],[-88.0166149832273,33.465579729016],[-88.1425769228539,33.3505710015309],[-88.2904452867633,33.3943838500967],[-88.1425769228539,34.5773307613721],[-87.5291970429333,34.5663775492306],[-87.5291970429333,34.3035004578361],[-87.1074983754879,34.2980238517654],[-87.1074983754879,34.5828073674428],[-86.9322469812248,34.3966027610383],[-86.9432001933663,34.5937605795842],[-86.5817441926988,34.5773307613721],[-86.4667354652137,34.4732752460284],[-86.3298203134457,34.5116114885234],[-86.3298203134457,34.599237185655],[-86.149092313112,34.599237185655],[-86.0833730402633,34.462322033887],[-85.7876363124445,34.6211436099378],[-85.5850018878278,34.8566376709788],[-85.5302358271206,34.5882839735135],[-85.5138060089085,34.5225647006649],[-85.8424023731517,34.2432577910582],[-85.7438234638787,33.9310912450272],[-85.8807386156467,33.9475210632393],[-86.0669432220512,33.837988941825],[-86.2805308588092,33.777746275047],[-86.2202881920313,33.8325123357542],[-86.3298203134457,33.8708485782493],[-86.5872207987695,33.7613164568349],[-86.8829575265884,33.8434655478957],[-87.2498901333266,33.5093925775818],[-87.3703754668824,33.5970182747133],[-87.6332525582769,33.6079714868547],[-87.6661121947013,33.5203457897232],[-87.8413635889643,33.5203457897232],[-87.8358869828936,33.153413182985]]]}},{"properties":{"district":"AL06","amount":56000,"id":"a6u4wgf5yjfz"},"type":"Feature","geometry":{"type":"Polygon","coordinates":[[[-87.3156094061752,33.2136558497629],[-87.6277759522062,33.2684219104701],[-87.671588800772,33.1698430011972],[-87.8358869828936,33.153413182985],[-87.8413635889643,33.5203457897232],[-87.6661121947013,33.5203457897232],[-87.6332525582769,33.6079714868547],[-87.3703754668824,33.5970182747133],[-87.2498901333266,33.5093925775818],[-86.8829575265884,33.8434655478957],[-86.5872207987695,33.7613164568349],[-86.3298203134457,33.8708485782493],[-86.2202881920313,33.8325123357542],[-86.2805308588092,33.777746275047],[-86.0669432220512,33.837988941825],[-86.0450367977683,33.7613164568349],[-86.2038583738191,33.6901205779155],[-86.1929051616777,33.5422522140061],[-86.5050717077087,33.1753196072679],[-86.4886418894966,33.0986471222778],[-86.149092313112,33.0548342737121],[-86.2860074648799,32.978161788722],[-86.3352969195164,32.7645741519639],[-86.9158171630127,32.6605186366203],[-87.0198726783564,32.6605186366203],[-87.0198726783564,32.8357700308833],[-87.4196649215189,32.8741062733783],[-87.4196649215189,33.0000682130049],[-87.3210860122459,33.0055448190756],[-87.2827497697509,33.1315067587021],[-87.0198726783564,33.2465154861872],[-86.6310336473353,33.6244013050669],[-86.6912763141132,33.6846439718448],[-86.7679487991033,33.5696352443597],[-86.9541534055077,33.6517843354205],[-86.8939107387298,33.5477288200768],[-86.987013041932,33.5367756079354],[-86.9651066176492,33.4217668804503],[-87.3156094061752,33.2136558497629]]]}},{"properties":{"district":"AL01","amount":42000,"id":"a6u4wg8hycsd"},"type":"Feature","geometry":{"type":"GeometryCollection","geometries":[{"type":"Polygon","coordinates":[[[-87.7646911039742,31.2968437250111],[-87.7646911039742,31.3625629978597],[-87.573009891499,31.4392354828498],[-87.6222993461355,31.5159079678399],[-87.5018140125797,31.8280745138709],[-86.9048639508712,31.8280745138709],[-86.9048639508712,31.7514020288808],[-87.1348814058415,31.6418699074664],[-87.2060772847608,31.455665301062],[-87.4251415275896,31.2585074825161],[-86.7624721930325,31.2585074825161],[-86.6857997080425,30.9901537850508],[-87.6003929218526,30.9956303911215],[-87.6332525582769,30.8641918454243],[-87.4087117093774,30.6725106329491],[-87.4470479518725,30.5082124508275],[-87.3648988608117,30.4370165719081],[-87.5182438307918,30.2781949958573],[-88.0275681953687,30.2179523290794],[-87.7537378918328,30.2727183897865],[-87.9070828618129,30.4096335415545],[-87.9180360739544,30.634174390454],[-88.0111383771566,30.6834638450905],[-88.1371003167831,30.3165312383523],[-88.394500802107,30.3658206929888],[-88.4492668628142,31.3899460282133],[-88.4656966810263,31.6966359681736],[-88.0439980135809,31.7021125742443],[-87.9728021346615,31.59258045283],[-87.8523168011057,31.6911593621029],[-88.0166149832273,31.8335511199416],[-87.9782787407323,31.9211768170731],[-87.8742232253886,31.9321300292146],[-87.9508957103787,31.9868960899218],[-87.6661121947013,31.9868960899218],[-87.7701677100449,31.9376066352853],[-87.7427846796913,31.806168089588],[-87.7044484371963,31.8554575442245],[-87.6661121947013,31.7952148774466],[-87.7701677100449,31.6856827560322],[-87.671588800772,31.6254400892543],[-87.8687466193179,31.5432909981935],[-87.945419104308,31.3735162100012],[-87.8906530436008,31.357086391789],[-87.9892319528737,31.2530308764453],[-87.9180360739544,31.181834997526],[-87.7646911039742,31.2968437250111]]]},{"type":"Polygon","coordinates":[[[-88.1261471046417,30.283671601928],[-88.0768576500052,30.2453353594329],[-88.3123517110462,30.2289055412208],[-88.1261471046417,30.283671601928]]]}]}},{"properties":{"district":"AL05","amount":5000,"id":"a6u4wg659t6u"},"type":"Feature","geometry":{"type":"Polygon","coordinates":[[[-88.1425769228539,34.5773307613721],[-88.0987640742881,34.8894973074031],[-88.2028195896318,34.9935528227468],[-87.6058695279233,34.9990294288175],[-85.6069083121107,34.9825996106053],[-85.5850018878278,34.8566376709788],[-85.7876363124445,34.6211436099378],[-86.0833730402633,34.462322033887],[-86.149092313112,34.599237185655],[-86.3298203134457,34.599237185655],[-86.3298203134457,34.5116114885234],[-86.4667354652137,34.4732752460284],[-86.5817441926988,34.5773307613721],[-86.9432001933663,34.5937605795842],[-86.9322469812248,34.3966027610383],[-87.1074983754879,34.5828073674428],[-87.1074983754879,34.2980238517654],[-87.5291970429333,34.3035004578361],[-87.5291970429333,34.5663775492306],[-88.1425769228539,34.5773307613721]]]}},{"properties":{"district":"AL02","amount":7400,"id":"a6u4wgkau12j"},"type":"Feature","geometry":{"type":"Polygon","coordinates":[[[-85.0044816443316,31.0011069971922],[-85.4973761906963,30.9956303911215],[-86.6857997080425,30.9901537850508],[-86.7624721930325,31.2585074825161],[-87.4251415275896,31.2585074825161],[-87.2060772847608,31.455665301062],[-87.1348814058415,31.6418699074664],[-86.9048639508712,31.7514020288808],[-86.9048639508712,31.8280745138709],[-86.8555744962348,32.0471387566997],[-86.9048639508712,32.0471387566997],[-86.910340556942,32.2223901509627],[-86.811761647669,32.2223901509627],[-86.8665277083762,32.2716796055992],[-86.8062850415983,32.3483520905892],[-86.9158171630127,32.6605186366203],[-86.3352969195164,32.7645741519639],[-85.8807386156467,32.7536209398225],[-85.8533555852931,32.4743140302158],[-86.1929051616777,32.4359777877208],[-86.2367180102435,32.2935860298821],[-86.3079138891628,32.3264456663064],[-86.2750542527385,32.3812117270136],[-86.3407735255871,32.35382869666],[-86.4064927984358,32.0471387566997],[-86.3024372830921,32.0471387566997],[-86.3024372830921,31.9649896656389],[-85.9957473431318,31.9649896656389],[-86.0012239492025,32.2497731813163],[-85.8971684338589,32.3045392420235],[-85.8588321913638,32.2278667570334],[-85.4316569178477,32.2333433631041],[-85.426180311777,32.1457176659726],[-85.0537710989681,32.0635685749118],[-85.1413967960996,31.7787850592344],[-85.0428178868266,31.5378143921228],[-85.1085371596753,31.181834997526],[-85.0044816443316,31.0011069971922]]]}},{"properties":{"district":"AL03","amount":46000,"id":"a6u4wgkcsq09"},"type":"Feature","geometry":{"type":"Polygon","coordinates":[[[-86.3352969195164,32.7645741519639],[-86.2860074648799,32.978161788722],[-86.149092313112,33.0548342737121],[-86.4886418894966,33.0986471222778],[-86.5050717077087,33.1753196072679],[-86.1929051616777,33.5422522140061],[-86.2038583738191,33.6901205779155],[-86.0450367977683,33.7613164568349],[-86.0669432220512,33.837988941825],[-85.8807386156467,33.9475210632393],[-85.7438234638787,33.9310912450272],[-85.8424023731517,34.2432577910582],[-85.5138060089085,34.5225647006649],[-85.3221247964333,33.5696352443597],[-85.1852096446653,32.8576764551662],[-84.9990050382609,32.5071736666401],[-85.0099582504023,32.3264456663064],[-84.8894729168465,32.255249787387],[-85.0592477050388,32.1347644538312],[-85.0537710989681,32.0635685749118],[-85.426180311777,32.1457176659726],[-85.4316569178477,32.2333433631041],[-85.8588321913638,32.2278667570334],[-85.8971684338589,32.3045392420235],[-86.0012239492025,32.2497731813163],[-85.9957473431318,31.9649896656389],[-86.3024372830921,31.9649896656389],[-86.3024372830921,32.0471387566997],[-86.4064927984358,32.0471387566997],[-86.3407735255871,32.35382869666],[-86.2750542527385,32.3812117270136],[-86.3079138891628,32.3264456663064],[-86.2367180102435,32.2935860298821],[-86.1929051616777,32.4359777877208],[-85.8533555852931,32.4743140302158],[-85.8807386156467,32.7536209398225],[-86.3352969195164,32.7645741519639]]]}},{"properties":{"district":"AL07","amount":0,"id":"a6u4wgfs0w13"},"type":"Feature","geometry":{"type":"Polygon","coordinates":[[[-87.3156094061752,33.2136558497629],[-86.9651066176492,33.4217668804503],[-86.987013041932,33.5367756079354],[-86.8939107387298,33.5477288200768],[-86.9541534055077,33.6517843354205],[-86.7679487991033,33.5696352443597],[-86.6912763141132,33.6846439718448],[-86.6310336473353,33.6244013050669],[-87.0198726783564,33.2465154861872],[-87.2827497697509,33.1315067587021],[-87.3210860122459,33.0055448190756],[-87.4196649215189,33.0000682130049],[-87.4196649215189,32.8741062733783],[-87.0198726783564,32.8357700308833],[-87.0198726783564,32.6605186366203],[-86.9158171630127,32.6605186366203],[-86.8062850415983,32.3483520905892],[-86.8665277083762,32.2716796055992],[-86.811761647669,32.2223901509627],[-86.910340556942,32.2223901509627],[-86.9048639508712,32.0471387566997],[-86.8555744962348,32.0471387566997],[-86.9048639508712,31.8280745138709],[-87.5018140125797,31.8280745138709],[-87.6222993461355,31.5159079678399],[-87.573009891499,31.4392354828498],[-87.7646911039742,31.3625629978597],[-87.7646911039742,31.2968437250111],[-87.9180360739544,31.181834997526],[-87.9892319528737,31.2530308764453],[-87.8906530436008,31.357086391789],[-87.945419104308,31.3735162100012],[-87.8687466193179,31.5432909981935],[-87.671588800772,31.6254400892543],[-87.7701677100449,31.6856827560322],[-87.6661121947013,31.7952148774466],[-87.7044484371963,31.8554575442245],[-87.7427846796913,31.806168089588],[-87.7701677100449,31.9376066352853],[-87.6661121947013,31.9868960899218],[-87.9508957103787,31.9868960899218],[-87.8742232253886,31.9321300292146],[-87.9782787407323,31.9211768170731],[-88.0166149832273,31.8335511199416],[-87.8523168011057,31.6911593621029],[-87.9728021346615,31.59258045283],[-88.0439980135809,31.7021125742443],[-88.4656966810263,31.6966359681736],[-88.432837044602,32.2278667570334],[-88.3068751049754,33.2848517286823],[-88.2904452867633,33.3943838500967],[-88.1425769228539,33.3505710015309],[-88.0166149832273,33.465579729016],[-88.0494746196516,33.3943838500967],[-87.983755346803,33.3615242136724],[-88.0932874682174,33.2738985165408],[-88.0604278317931,33.0767406979949],[-87.8358869828936,33.153413182985],[-87.671588800772,33.1698430011972],[-87.6277759522062,33.2684219104701],[-87.3156094061752,33.2136558497629]]]}},{"properties":{"district":"AR01","amount":28950,"id":"a6u4wgd3al68"},"type":"Feature","geometry":null},{"properties":{"district":"AR02","amount":64350,"id":"a6u4wgck6mgn"},"type":"Feature","geometry":null},{"properties":{"district":"AR04","amount":142350,"id":"a6u4wgavsa30"},"type":"Feature","geometry":null},{"properties":{"district":"AR03","amount":8000,"id":"a6u4wgai3nxh"},"type":"Feature","geometry":null},{"properties":{"district":"AZ06","amount":12900,"id":"a6u4wgizujmu"},"type":"Feature","geometry":null},{"properties":{"district":"AZ02","amount":24500,"id":"a6u4wgkt4pwx"},"type":"Feature","geometry":null},{"properties":{"district":"AZ08","amount":3650,"id":"a6u4wggg32y4"},"type":"Feature","geometry":null},{"properties":{"district":"AZ01","amount":3000,"id":"a6u4wgad3n8t"},"type":"Feature","geometry":null},{"properties":{"district":"AZ07","amount":0,"id":"a6u4wgcyqge9"},"type":"Feature","geometry":null},{"properties":{"district":"AZ04","amount":4800,"id":"a6u4wgk0ivjs"},"type":"Feature","geometry":null},{"properties":{"district":"AZ03","amount":15250,"id":"a6u4wgkkb6y1"},"type":"Feature","geometry":null},{"properties":{"district":"AZ05","amount":1000,"id":"a6u4wg5xmb07"},"type":"Feature","geometry":null},{"properties":{"district":"CA43","amount":1000,"id":"a6u4wgg7vbln"},"type":"Feature","geometry":null},{"properties":{"district":"CA33","amount":0,"id":"a6u4wgarcdsn"},"type":"Feature","geometry":null},{"properties":{"district":"CA31","amount":0,"id":"a6u4wge7j0sk"},"type":"Feature","geometry":null},{"properties":{"district":"CA28","amount":0,"id":"a6u4wg9284bn"},"type":"Feature","geometry":null},{"properties":{"district":"CA50","amount":27500,"id":"a6u4wg6sej3u"},"type":"Feature","geometry":null},{"properties":{"district":"CA45","amount":36900,"id":"a6u4wg69qyhr"},"type":"Feature","geometry":null},{"properties":{"district":"CA44","amount":46500,"id":"a6u4wg7e5hxs"},"type":"Feature","geometry":null},{"properties":{"district":"CA48","amount":11500,"id":"a6u4wgfmq9xr"},"type":"Feature","geometry":null},{"properties":{"district":"CA23","amount":0,"id":"a6u4wg6lz1er"},"type":"Feature","geometry":null},{"properties":{"district":"CA18","amount":10000,"id":"a6u4wghyq7lt"},"type":"Feature","geometry":null},{"properties":{"district":"CA32","amount":2400,"id":"a6u4wg65ztsq"},"type":"Feature","geometry":null},{"properties":{"district":"CA20","amount":86000,"id":"a6u4wgj42127"},"type":"Feature","geometry":null},{"properties":{"district":"CA53","amount":0,"id":"a6u4wg657ss2"},"type":"Feature","geometry":null},{"properties":{"district":"CA19","amount":17000,"id":"a6u4wgj6zfe2"},"type":"Feature","geometry":null},{"properties":{"district":"CA26","amount":16500,"id":"a6u4wglqkju9"},"type":"Feature","geometry":null},{"properties":{"district":"CA14","amount":0,"id":"a6u4wgd8bb3m"},"type":"Feature","geometry":null},{"properties":{"district":"CA17","amount":0,"id":"a6u4wg59d81i"},"type":"Feature","geometry":null},{"properties":{"district":"CA51","amount":2500,"id":"a6u4wgjkjmal"},"type":"Feature","geometry":null},{"properties":{"district":"CA24","amount":17000,"id":"a6u4wgcqwh69"},"type":"Feature","geometry":null},{"properties":{"district":"CA10","amount":0,"id":"a6u4wggephav"},"type":"Feature","geometry":null},{"properties":{"district":"CA36","amount":-1000,"id":"a6u4wga172zo"},"type":"Feature","geometry":null},{"properties":{"district":"CA02","amount":43000,"id":"a6u4wggkbecr"},"type":"Feature","geometry":null},{"properties":{"district":"CA15","amount":2300,"id":"a6u4wg6kimqj"},"type":"Feature","geometry":null},{"properties":{"district":"CA52","amount":2000,"id":"a6u4wg61t4on"},"type":"Feature","geometry":null},{"properties":{"district":"CA49","amount":80700,"id":"a6u4wgl4uabj"},"type":"Feature","geometry":null},{"properties":{"district":"CA09","amount":9400,"id":"a6u4wg9zjxyh"},"type":"Feature","geometry":null},{"properties":{"district":"CA41","amount":30500,"id":"a6u4wg8l4srl"},"type":"Feature","geometry":null},{"properties":{"district":"CA16","amount":0,"id":"a6u4wgh3jhig"},"type":"Feature","geometry":null},{"properties":{"district":"CA03","amount":55950,"id":"a6u4wgaaaoy2"},"type":"Feature","geometry":null},{"properties":{"district":"CA05","amount":5000,"id":"a6u4wgiq76tc"},"type":"Feature","geometry":null},{"properties":{"district":"CA22","amount":117700,"id":"a6u4wgjmt4mc"},"type":"Feature","geometry":null},{"properties":{"district":"CA04","amount":37800,"id":"a6u4wgcem08a"},"type":"Feature","geometry":null},{"properties":{"district":"CA25","amount":22000,"id":"a6u4wgaoqhdi"},"type":"Feature","geometry":null},{"properties":{"district":"CA11","amount":2800,"id":"a6u4wg6nlckv"},"type":"Feature","geometry":null},{"properties":{"district":"CA42","amount":19900,"id":"a6u4wg87qnh5"},"type":"Feature","geometry":null},{"properties":{"district":"CA07","amount":11250,"id":"a6u4wgk7cwzq"},"type":"Feature","geometry":null},{"properties":{"district":"CA38","amount":1650,"id":"a6u4wg5ihqne"},"type":"Feature","geometry":null},{"properties":{"district":"CA21","amount":73000,"id":"a6u4wgeaz1it"},"type":"Feature","geometry":null},{"properties":{"district":"CA08","amount":26950,"id":"a6u4wg8y9i2z"},"type":"Feature","geometry":null},{"properties":{"district":"CA37","amount":8000,"id":"a6u4wgghjjei"},"type":"Feature","geometry":null},{"properties":{"district":"CA46","amount":9500,"id":"a6u4wgc6a6kw"},"type":"Feature","geometry":null},{"properties":{"district":"CA34","amount":0,"id":"a6u4wgj2sh76"},"type":"Feature","geometry":null},{"properties":{"district":"CA40","amount":200,"id":"a6u4wgdo11qm"},"type":"Feature","geometry":null},{"properties":{"district":"CA39","amount":0,"id":"a6u4wg7xbvda"},"type":"Feature","geometry":null},{"properties":{"district":"CA47","amount":2300,"id":"a6u4wgcjsxng"},"type":"Feature","geometry":null},{"properties":{"district":"CA29","amount":2000,"id":"a6u4wghst7l1"},"type":"Feature","geometry":null},{"properties":{"district":"CA27","amount":0,"id":"a6u4wghpee9a"},"type":"Feature","geometry":null},{"properties":{"district":"CA12","amount":0,"id":"a6u4wgk217uw"},"type":"Feature","geometry":null},{"properties":{"district":"CA13","amount":0,"id":"a6u4wgho7dk0"},"type":"Feature","geometry":null},{"properties":{"district":"CA01","amount":6500,"id":"a6u4wgfaort0"},"type":"Feature","geometry":null},{"properties":{"district":"CA35","amount":0,"id":"a6u4wgipo4gq"},"type":"Feature","geometry":null},{"properties":{"district":"CA30","amount":2400,"id":"a6u4wgfigi21"},"type":"Feature","geometry":null},{"properties":{"district":"CA06","amount":0,"id":"a6u4wg6lz4ns"},"type":"Feature","geometry":null},{"properties":{"district":"CO06","amount":40000,"id":"a6u4wg5z8znt"},"type":"Feature","geometry":null},{"properties":{"district":"CO01","amount":4250,"id":"a6u4wg6c7u54"},"type":"Feature","geometry":null},{"properties":{"district":"CO04","amount":77500,"id":"a6u4wgl41haq"},"type":"Feature","geometry":null},{"properties":{"district":"CO05","amount":96600,"id":"a6u4wgbwplea"},"type":"Feature","geometry":null},{"properties":{"district":"CO07","amount":18000,"id":"a6u4wg5bw0rf"},"type":"Feature","geometry":null},{"properties":{"district":"CO02","amount":250,"id":"a6u4wgi27sd3"},"type":"Feature","geometry":null},{"properties":{"district":"CO03","amount":50450,"id":"a6u4wgdohhzr"},"type":"Feature","geometry":null},{"properties":{"district":"CT02","amount":350,"id":"a6u4wggega0l"},"type":"Feature","geometry":null},{"properties":{"district":"CT03","amount":400,"id":"a6u4wga88yhw"},"type":"Feature","geometry":null},{"properties":{"district":"CT04","amount":2200,"id":"a6u4wgfzcmcs"},"type":"Feature","geometry":null},{"properties":{"district":"CT01","amount":10000,"id":"a6u4wgcbhhmx"},"type":"Feature","geometry":null},{"properties":{"district":"CT05","amount":2350,"id":"a6u4wgcicj7r"},"type":"Feature","geometry":null},{"properties":{"district":"DE00","amount":11400,"id":"a6u4wggngrqm"},"type":"Feature","geometry":null},{"properties":{"district":"FL24","amount":9000,"id":"a6u4wgenh6ku"},"type":"Feature","geometry":null},{"properties":{"district":"FL09","amount":3000,"id":"a6u4wgf40vxm"},"type":"Feature","geometry":null},{"properties":{"district":"FL03","amount":0,"id":"a6u4wg58m69r"},"type":"Feature","geometry":null},{"properties":{"district":"FL13","amount":24500,"id":"a6u4wggq3w9v"},"type":"Feature","geometry":null},{"properties":{"district":"FL11","amount":2400,"id":"a6u4wgdgf8hn"},"type":"Feature","geometry":null},{"properties":{"district":"FL04","amount":2000,"id":"a6u4wgio4bsa"},"type":"Feature","geometry":null},{"properties":{"district":"FL19","amount":0,"id":"a6u4wgiuycbo"},"type":"Feature","geometry":null},{"properties":{"district":"FL21","amount":14000,"id":"a6u4wg66pbxp"},"type":"Feature","geometry":null},{"properties":{"district":"FL23","amount":0,"id":"a6u4wgkqv0o2"},"type":"Feature","geometry":null},{"properties":{"district":"FL14","amount":11500,"id":"a6u4wghrihcm"},"type":"Feature","geometry":null},{"properties":{"district":"FL07","amount":67600,"id":"a6u4wg9mwf89"},"type":"Feature","geometry":null},{"properties":{"district":"FL01","amount":1000,"id":"a6u4wg95ckex"},"type":"Feature","geometry":null},{"properties":{"district":"FL05","amount":0,"id":"a6u4wghyc6xw"},"type":"Feature","geometry":null},{"properties":{"district":"FL15","amount":8500,"id":"a6u4wgg4nb2p"},"type":"Feature","geometry":null},{"properties":{"district":"FL25","amount":6000,"id":"a6u4wgcpco6m"},"type":"Feature","geometry":null},{"properties":{"district":"FL16","amount":18050,"id":"a6u4wgbjny9p"},"type":"Feature","geometry":null},{"properties":{"district":"FL18","amount":13000,"id":"a6u4wgcal4ct"},"type":"Feature","geometry":null},{"properties":{"district":"FL12","amount":6500,"id":"a6u4wgh8m16z"},"type":"Feature","geometry":null},{"properties":{"district":"FL02","amount":2400,"id":"a6u4wg99lm8e"},"type":"Feature","geometry":null},{"properties":{"district":"FL06","amount":28500,"id":"a6u4wgl131ix"},"type":"Feature","geometry":null},{"properties":{"district":"FL20","amount":5000,"id":"a6u4wgcaw0f7"},"type":"Feature","geometry":null},{"properties":{"district":"FL08","amount":8000,"id":"a6u4wgf2ps7x"},"type":"Feature","geometry":null},{"properties":{"district":"FL22","amount":19900,"id":"a6u4wgep0dzj"},"type":"Feature","geometry":null},{"properties":{"district":"FL17","amount":0,"id":"a6u4wg6jl7fe"},"type":"Feature","geometry":null},{"properties":{"district":"FL10","amount":1000,"id":"a6u4wg5z5cfz"},"type":"Feature","geometry":null},{"properties":{"district":"GA12","amount":80000,"id":"a6u4wgisewxj"},"type":"Feature","geometry":null},{"properties":{"district":"GA02","amount":2000,"id":"a6u4wgblauj9"},"type":"Feature","geometry":null},{"properties":{"district":"GA10","amount":10500,"id":"a6u4wg841qxl"},"type":"Feature","geometry":null},{"properties":{"district":"GA11","amount":27250,"id":"a6u4wgeyiwv3"},"type":"Feature","geometry":null},{"properties":{"district":"GA09","amount":0,"id":"a6u4wg652nhw"},"type":"Feature","geometry":null},{"properties":{"district":"GA04","amount":4500,"id":"a6u4wgl41izs"},"type":"Feature","geometry":null},{"properties":{"district":"GA01","amount":13000,"id":"a6u4wgjm03ee"},"type":"Feature","geometry":null},{"properties":{"district":"GA05","amount":250,"id":"a6u4wgjo06x0"},"type":"Feature","geometry":null},{"properties":{"district":"GA06","amount":23500,"id":"a6u4wg7kmrul"},"type":"Feature","geometry":null},{"properties":{"district":"GA08","amount":3400,"id":"a6u4wg7bk4p1"},"type":"Feature","geometry":null},{"properties":{"district":"GA13","amount":3500,"id":"a6u4wgdvawxw"},"type":"Feature","geometry":null},{"properties":{"district":"GA03","amount":18300,"id":"a6u4wgl7q274"},"type":"Feature","geometry":null},{"properties":{"district":"GA07","amount":7000,"id":"a6u4wgdn4ew8"},"type":"Feature","geometry":null},{"properties":{"district":"HI01","amount":0,"id":"a6u4wgajvodn"},"type":"Feature","geometry":null},{"properties":{"district":"HI02","amount":0,"id":"a6u4wgf0qupk"},"type":"Feature","geometry":null},{"properties":{"district":"IA03","amount":0,"id":"a6u4wgj3ny1d"},"type":"Feature","geometry":null},{"properties":{"district":"IA01","amount":400,"id":"a6u4wgl1s79v"},"type":"Feature","geometry":null},{"properties":{"district":"IA05","amount":14500,"id":"a6u4wggl5oqg"},"type":"Feature","geometry":null},{"properties":{"district":"IA04","amount":27000,"id":"a6u4wg6cpuhf"},"type":"Feature","geometry":null},{"properties":{"district":"IA02","amount":0,"id":"a6u4wgcwu443"},"type":"Feature","geometry":null},{"properties":{"district":"ID01","amount":6150,"id":"a6u4wggtlhw5"},"type":"Feature","geometry":null},{"properties":{"district":"ID02","amount":70550,"id":"a6u4wghhuh1y"},"type":"Feature","geometry":null},{"properties":{"district":"IL13","amount":18500,"id":"a6u4wgizvdrj"},"type":"Feature","geometry":null},{"properties":{"district":"IL12","amount":24500,"id":"a6u4wgbjp4uj"},"type":"Feature","geometry":null},{"properties":{"district":"IL07","amount":0,"id":"a6u4wgjzrh0i"},"type":"Feature","geometry":null},{"properties":{"district":"IL10","amount":7500,"id":"a6u4wghikpsk"},"type":"Feature","geometry":null},{"properties":{"district":"IL04","amount":1900,"id":"a6u4wgit4var"},"type":"Feature","geometry":null},{"properties":{"district":"IL14","amount":8100,"id":"a6u4wgc3mzej"},"type":"Feature","geometry":null},{"properties":{"district":"IL02","amount":0,"id":"a6u4wglm3fgp"},"type":"Feature","geometry":null},{"properties":{"district":"IL15","amount":23250,"id":"a6u4wgibign0"},"type":"Feature","geometry":null},{"properties":{"district":"IL11","amount":17000,"id":"a6u4wghbsa1s"},"type":"Feature","geometry":null},{"properties":{"district":"IL03","amount":1000,"id":"a6u4wgjx22ij"},"type":"Feature","geometry":null},{"properties":{"district":"IL16","amount":4500,"id":"a6u4wg767shr"},"type":"Feature","geometry":null},{"properties":{"district":"IL05","amount":0,"id":"a6u4wgg1ivyj"},"type":"Feature","geometry":null},{"properties":{"district":"IL06","amount":40000,"id":"a6u4wggfxpps"},"type":"Feature","geometry":null},{"properties":{"district":"IL01","amount":0,"id":"a6u4wgcveg6b"},"type":"Feature","geometry":null},{"properties":{"district":"IL09","amount":500,"id":"a6u4wg9y0467"},"type":"Feature","geometry":null},{"properties":{"district":"IL17","amount":5000,"id":"a6u4wgf59vb5"},"type":"Feature","geometry":null},{"properties":{"district":"IL18","amount":19500,"id":"a6u4wg9grwrr"},"type":"Feature","geometry":null},{"properties":{"district":"IL19","amount":124500,"id":"a6u4wge3uc47"},"type":"Feature","geometry":null},{"properties":{"district":"IL08","amount":0,"id":"a6u4wg9x3k5l"},"type":"Feature","geometry":null},{"properties":{"district":"IN08","amount":8201,"id":"a6u4wgeyzll2"},"type":"Feature","geometry":null},{"properties":{"district":"IN05","amount":10000,"id":"a6u4wg7gd0lv"},"type":"Feature","geometry":null},{"properties":{"district":"IN07","amount":0,"id":"a6u4wglhk10d"},"type":"Feature","geometry":null},{"properties":{"district":"IN02","amount":1500,"id":"a6u4wgeq4s81"},"type":"Feature","geometry":null},{"properties":{"district":"IN06","amount":46400,"id":"a6u4wgg7wgmx"},"type":"Feature","geometry":null},{"properties":{"district":"IN04","amount":2500,"id":"a6u4wg5ddcqv"},"type":"Feature","geometry":null},{"properties":{"district":"IN03","amount":0,"id":"a6u4wggared9"},"type":"Feature","geometry":null},{"properties":{"district":"IN01","amount":30750,"id":"a6u4wga00tde"},"type":"Feature","geometry":null},{"properties":{"district":"IN09","amount":6451,"id":"a6u4wg77wjoc"},"type":"Feature","geometry":null},{"properties":{"district":"KS01","amount":5400,"id":"a6u4wgfeizgz"},"type":"Feature","geometry":null},{"properties":{"district":"KS02","amount":20950,"id":"a6u4wghkq57s"},"type":"Feature","geometry":null},{"properties":{"district":"KS04","amount":33950,"id":"a6u4wgjfb4xw"},"type":"Feature","geometry":null},{"properties":{"district":"KS03","amount":15950,"id":"a6u4wgiqcokz"},"type":"Feature","geometry":null},{"properties":{"district":"KY06","amount":3000,"id":"a6u4wgkmdkgm"},"type":"Feature","geometry":null},{"properties":{"district":"KY04","amount":102400,"id":"a6u4wg90teod"},"type":"Feature","geometry":null},{"properties":{"district":"KY02","amount":18000,"id":"a6u4wg9hr2za"},"type":"Feature","geometry":null},{"properties":{"district":"KY05","amount":38100,"id":"a6u4wga7xmyu"},"type":"Feature","geometry":null},{"properties":{"district":"KY01","amount":93125,"id":"a6u4wgh1wcaf"},"type":"Feature","geometry":null},{"properties":{"district":"KY03","amount":0,"id":"a6u4wgfz4iqd"},"type":"Feature","geometry":null},{"properties":{"district":"LA05","amount":59250,"id":"a6u4wg9arf6t"},"type":"Feature","geometry":null},{"properties":{"district":"LA07","amount":115900,"id":"a6u4wg5wgw4y"},"type":"Feature","geometry":null},{"properties":{"district":"LA06","amount":47250,"id":"a6u4wgk28e1n"},"type":"Feature","geometry":null},{"properties":{"district":"LA04","amount":28800,"id":"a6u4wgjedxei"},"type":"Feature","geometry":null},{"properties":{"district":"LA03","amount":41050,"id":"a6u4wghnev84"},"type":"Feature","geometry":null},{"properties":{"district":"LA02","amount":11300,"id":"a6u4wg5jikjx"},"type":"Feature","geometry":null},{"properties":{"district":"LA01","amount":73750,"id":"a6u4wg8dnzs7"},"type":"Feature","geometry":null},{"properties":{"district":"MA08","amount":0,"id":"a6u4wgln0lmu"},"type":"Feature","geometry":null},{"properties":{"district":"MA04","amount":0,"id":"a6u4wgg6dc2w"},"type":"Feature","geometry":null},{"properties":{"district":"MA10","amount":0,"id":"a6u4wgee0u69"},"type":"Feature","geometry":null},{"properties":{"district":"MA09","amount":0,"id":"a6u4wggcqazk"},"type":"Feature","geometry":null},{"properties":{"district":"MA07","amount":17000,"id":"a6u4wgbaq5u3"},"type":"Feature","geometry":null},{"properties":{"district":"MA03","amount":1000,"id":"a6u4wghcv1b3"},"type":"Feature","geometry":null},{"properties":{"district":"MA02","amount":13500,"id":"a6u4wg74sjqx"},"type":"Feature","geometry":null},{"properties":{"district":"MA01","amount":0,"id":"a6u4wgaex0og"},"type":"Feature","geometry":null},{"properties":{"district":"MA06","amount":0,"id":"a6u4wggrqcqg"},"type":"Feature","geometry":null},{"properties":{"district":"MA05","amount":550,"id":"a6u4wgiqybu0"},"type":"Feature","geometry":null},{"properties":{"district":"MD06","amount":4000,"id":"a6u4wgabc96t"},"type":"Feature","geometry":null},{"properties":{"district":"MD07","amount":5500,"id":"a6u4wg5bsui2"},"type":"Feature","geometry":null},{"properties":{"district":"MD04","amount":0,"id":"a6u4wg7echc5"},"type":"Feature","geometry":null},{"properties":{"district":"MD01","amount":29250,"id":"a6u4wgfe1mj0"},"type":"Feature","geometry":null},{"properties":{"district":"MD05","amount":108900,"id":"a6u4wgj0c2ja"},"type":"Feature","geometry":null},{"properties":{"district":"MD02","amount":0,"id":"a6u4wg6ze5u4"},"type":"Feature","geometry":null},{"properties":{"district":"MD03","amount":500,"id":"a6u4wg9y4401"},"type":"Feature","geometry":null},{"properties":{"district":"MD08","amount":15700,"id":"a6u4wgkvo28r"},"type":"Feature","geometry":null},{"properties":{"district":"ME02","amount":0,"id":"a6u4wgcs47j2"},"type":"Feature","geometry":null},{"properties":{"district":"ME01","amount":0,"id":"a6u4wg6k5ss7"},"type":"Feature","geometry":null},{"properties":{"district":"MI03","amount":6800,"id":"a6u4wgbsu4g9"},"type":"Feature","geometry":null},{"properties":{"district":"MI01","amount":32900,"id":"a6u4wg5twpzm"},"type":"Feature","geometry":null},{"properties":{"district":"MI04","amount":154627,"id":"a6u4wgc0pu9g"},"type":"Feature","geometry":null},{"properties":{"district":"MI13","amount":0,"id":"a6u4wgj9ik7a"},"type":"Feature","geometry":null},{"properties":{"district":"MI14","amount":2300,"id":"a6u4wgd4bah0"},"type":"Feature","geometry":null},{"properties":{"district":"MI15","amount":203453,"id":"a6u4wgbk6ms0"},"type":"Feature","geometry":null},{"properties":{"district":"MI02","amount":0,"id":"a6u4wgke5myu"},"type":"Feature","geometry":null},{"properties":{"district":"MI05","amount":0,"id":"a6u4wgbqttad"},"type":"Feature","geometry":null},{"properties":{"district":"MI12","amount":57250,"id":"a6u4wgimligm"},"type":"Feature","geometry":null},{"properties":{"district":"MI11","amount":47680,"id":"a6u4wgk5v0yo"},"type":"Feature","geometry":null},{"properties":{"district":"MI10","amount":61200,"id":"a6u4wg6q6e4z"},"type":"Feature","geometry":null},{"properties":{"district":"MI09","amount":11500,"id":"a6u4wg8xk0pu"},"type":"Feature","geometry":null},{"properties":{"district":"MI08","amount":109146,"id":"a6u4wg6jen9h"},"type":"Feature","geometry":null},{"properties":{"district":"MI06","amount":153917,"id":"a6u4wg5pozv6"},"type":"Feature","geometry":null},{"properties":{"district":"MI07","amount":48500,"id":"a6u4wgi1x87q"},"type":"Feature","geometry":null},{"properties":{"district":"MN06","amount":48550,"id":"a6u4wg60hxau"},"type":"Feature","geometry":null},{"properties":{"district":"MN08","amount":4000,"id":"a6u4wg6j69tb"},"type":"Feature","geometry":null},{"properties":{"district":"MN05","amount":1500,"id":"a6u4wgdve1di"},"type":"Feature","geometry":null},{"properties":{"district":"MN02","amount":28000,"id":"a6u4wgct2500"},"type":"Feature","geometry":null},{"properties":{"district":"MN04","amount":0,"id":"a6u4wgd8qcow"},"type":"Feature","geometry":null},{"properties":{"district":"MN03","amount":18200,"id":"a6u4wgeid105"},"type":"Feature","geometry":null},{"properties":{"district":"MN07","amount":9000,"id":"a6u4wgj0lk6h"},"type":"Feature","geometry":null},{"properties":{"district":"MN01","amount":0,"id":"a6u4wgce62ec"},"type":"Feature","geometry":null},{"properties":{"district":"MO02","amount":6000,"id":"a6u4wggeup39"},"type":"Feature","geometry":null},{"properties":{"district":"MO03","amount":0,"id":"a6u4wgftb4qr"},"type":"Feature","geometry":null},{"properties":{"district":"MO01","amount":0,"id":"a6u4wgfakc6s"},"type":"Feature","geometry":null},{"properties":{"district":"MO05","amount":2500,"id":"a6u4wgkrxf1p"},"type":"Feature","geometry":null},{"properties":{"district":"MO08","amount":0,"id":"a6u4wg7iitxl"},"type":"Feature","geometry":null},{"properties":{"district":"MO06","amount":35000,"id":"a6u4wg73uj56"},"type":"Feature","geometry":null},{"properties":{"district":"MO04","amount":5000,"id":"a6u4wga26s0e"},"type":"Feature","geometry":null},{"properties":{"district":"MO07","amount":0,"id":"a6u4wg8mdx7l"},"type":"Feature","geometry":null},{"properties":{"district":"MO09","amount":4000,"id":"a6u4wg6mhc9z"},"type":"Feature","geometry":null},{"properties":{"district":"MS03","amount":51850,"id":"a6u4wgd5z4xj"},"type":"Feature","geometry":null},{"properties":{"district":"MS01","amount":14500,"id":"a6u4wg6tq0rk"},"type":"Feature","geometry":null},{"properties":{"district":"MS04","amount":5300,"id":"a6u4wgk9hh64"},"type":"Feature","geometry":null},{"properties":{"district":"MS02","amount":55350,"id":"a6u4wgirpoew"},"type":"Feature","geometry":null},{"properties":{"district":"MT00","amount":127050,"id":"a6u4wg8es1k2"},"type":"Feature","geometry":null},{"properties":{"district":"NC01","amount":0,"id":"a6u4wglk9cug"},"type":"Feature","geometry":null},{"properties":{"district":"NC06","amount":17000,"id":"a6u4wg5kjtf7"},"type":"Feature","geometry":null},{"properties":{"district":"NC02","amount":1500,"id":"a6u4wggv8iqg"},"type":"Feature","geometry":null},{"properties":{"district":"NC05","amount":18900,"id":"a6u4wgejqc5y"},"type":"Feature","geometry":null},{"properties":{"district":"NC03","amount":10400,"id":"a6u4wgef7c9y"},"type":"Feature","geometry":null},{"properties":{"district":"NC08","amount":700,"id":"a6u4wgbrei25"},"type":"Feature","geometry":null},{"properties":{"district":"NC10","amount":26000,"id":"a6u4wgfuw1x8"},"type":"Feature","geometry":null},{"properties":{"district":"NC07","amount":8500,"id":"a6u4wglj1zar"},"type":"Feature","geometry":null},{"properties":{"district":"NC13","amount":0,"id":"a6u4wgiwuq0j"},"type":"Feature","geometry":null},{"properties":{"district":"NC09","amount":55700,"id":"a6u4wga8j1zb"},"type":"Feature","geometry":null},{"properties":{"district":"NC04","amount":0,"id":"a6u4wg8i6ny6"},"type":"Feature","geometry":null},{"properties":{"district":"NC11","amount":1000,"id":"a6u4wgc06dap"},"type":"Feature","geometry":null},{"properties":{"district":"NC12","amount":0,"id":"a6u4wg87k149"},"type":"Feature","geometry":null},{"properties":{"district":"ND00","amount":49750,"id":"a6u4wge8p5br"},"type":"Feature","geometry":null},{"properties":{"district":"NE01","amount":2300,"id":"a6u4wgj0nahg"},"type":"Feature","geometry":null},{"properties":{"district":"NE03","amount":13000,"id":"a6u4wghwp877"},"type":"Feature","geometry":null},{"properties":{"district":"NE02","amount":70500,"id":"a6u4wgf9f039"},"type":"Feature","geometry":null},{"properties":{"district":"NH02","amount":44500,"id":"a6u4wgdq18fx"},"type":"Feature","geometry":null},{"properties":{"district":"NH01","amount":500,"id":"a6u4wgfh1lif"},"type":"Feature","geometry":null},{"properties":{"district":"NJ01","amount":2000,"id":"a6u4wg9bkwsw"},"type":"Feature","geometry":null},{"properties":{"district":"NJ11","amount":7000,"id":"a6u4wgal56kl"},"type":"Feature","geometry":null},{"properties":{"district":"NJ05","amount":24000,"id":"a6u4wgflwwq7"},"type":"Feature","geometry":null},{"properties":{"district":"NJ12","amount":0,"id":"a6u4wg9mhpgv"},"type":"Feature","geometry":null},{"properties":{"district":"NJ07","amount":8500,"id":"a6u4wgid9m62"},"type":"Feature","geometry":null},{"properties":{"district":"NJ02","amount":1000,"id":"a6u4wgekr7ba"},"type":"Feature","geometry":null},{"properties":{"district":"NJ06","amount":0,"id":"a6u4wg7ertjx"},"type":"Feature","geometry":null},{"properties":{"district":"NJ08","amount":0,"id":"a6u4wg7ca6qp"},"type":"Feature","geometry":null},{"properties":{"district":"NJ10","amount":3000,"id":"a6u4wgevwk98"},"type":"Feature","geometry":null},{"properties":{"district":"NJ09","amount":0,"id":"a6u4wg85mutx"},"type":"Feature","geometry":null},{"properties":{"district":"NJ03","amount":9500,"id":"a6u4wgl33fx4"},"type":"Feature","geometry":null},{"properties":{"district":"NJ12","amount":4000,"id":"a6u4wgbpdh0k"},"type":"Feature","geometry":null},{"properties":{"district":"NJ04","amount":0,"id":"a6u4wg8ctcdr"},"type":"Feature","geometry":null},{"properties":{"district":"NM01","amount":3400,"id":"a6u4wgbe1ukf"},"type":"Feature","geometry":null},{"properties":{"district":"NM03","amount":9500,"id":"a6u4wg7icztn"},"type":"Feature","geometry":null},{"properties":{"district":"NM02","amount":351650,"id":"a6u4wgbjb818"},"type":"Feature","geometry":null},{"properties":{"district":"NV01","amount":4200,"id":"a6u4wgein5xm"},"type":"Feature","geometry":null},{"properties":{"district":"NV03","amount":17150,"id":"a6u4wgloq1l2"},"type":"Feature","geometry":null},{"properties":{"district":"NV03","amount":0,"id":"a6u4wgl52m9f"},"type":"Feature","geometry":null},{"properties":{"district":"NY05","amount":0,"id":"a6u4wg6u4p0k"},"type":"Feature","geometry":null},{"properties":{"district":"NY01","amount":0,"id":"a6u4wg8lq75r"},"type":"Feature","geometry":null},{"properties":{"district":"NY25","amount":8500,"id":"a6u4wgbrwrsv"},"type":"Feature","geometry":null},{"properties":{"district":"NY11","amount":0,"id":"a6u4wga7s3gp"},"type":"Feature","geometry":null},{"properties":{"district":"NY07","amount":10500,"id":"a6u4wg7cdu2w"},"type":"Feature","geometry":null},{"properties":{"district":"NY17","amount":1250,"id":"a6u4wggr4kr7"},"type":"Feature","geometry":null},{"properties":{"district":"NY20","amount":6000,"id":"a6u4wghgzshk"},"type":"Feature","geometry":null},{"properties":{"district":"NY13","amount":5000,"id":"a6u4wgcusjtx"},"type":"Feature","geometry":null},{"properties":{"district":"NY24","amount":11400,"id":"a6u4wg8snwsd"},"type":"Feature","geometry":null},{"properties":{"district":"NY19","amount":14000,"id":"a6u4wgatuhhq"},"type":"Feature","geometry":null},{"properties":{"district":"NY27","amount":19450,"id":"a6u4wg5fh3uf"},"type":"Feature","geometry":null},{"properties":{"district":"NY22","amount":0,"id":"a6u4wg63rc2t"},"type":"Feature","geometry":null},{"properties":{"district":"NY26","amount":0,"id":"a6u4wgjxvzz7"},"type":"Feature","geometry":null},{"properties":{"district":"NY02","amount":10500,"id":"a6u4wgkthfwl"},"type":"Feature","geometry":null},{"properties":{"district":"NY03","amount":15800,"id":"a6u4wg5qe6fm"},"type":"Feature","geometry":null},{"properties":{"district":"NY18","amount":12400,"id":"a6u4wg7nfig7"},"type":"Feature","geometry":null},{"properties":{"district":"NY14","amount":1000,"id":"a6u4wgiuxroi"},"type":"Feature","geometry":null},{"properties":{"district":"NY04","amount":0,"id":"a6u4wgksmu2g"},"type":"Feature","geometry":null},{"properties":{"district":"NY06","amount":18400,"id":"a6u4wgd3pkgs"},"type":"Feature","geometry":null},{"properties":{"district":"NY08","amount":7000,"id":"a6u4wgbtc2gc"},"type":"Feature","geometry":null},{"properties":{"district":"NY23","amount":2300,"id":"a6u4wg94sydi"},"type":"Feature","geometry":null},{"properties":{"district":"NY15","amount":47250,"id":"a6u4wgdwv246"},"type":"Feature","geometry":null},{"properties":{"district":"NY29","amount":28750,"id":"a6u4wge9428m"},"type":"Feature","geometry":null},{"properties":{"district":"NY16","amount":0,"id":"a6u4wgat8e2l"},"type":"Feature","geometry":null},{"properties":{"district":"NY28","amount":1000,"id":"a6u4wg6nobtx"},"type":"Feature","geometry":null},{"properties":{"district":"NY21","amount":2000,"id":"a6u4wghw7rxg"},"type":"Feature","geometry":null},{"properties":{"district":"NY10","amount":24500,"id":"a6u4wgj3hha2"},"type":"Feature","geometry":null},{"properties":{"district":"NY12","amount":500,"id":"a6u4wg6u0llz"},"type":"Feature","geometry":null},{"properties":{"district":"NY09","amount":0,"id":"a6u4wggvfcw4"},"type":"Feature","geometry":null},{"properties":{"district":"OH7","amount":22000,"id":"a6u4wgaxykd8"},"type":"Feature","geometry":null},{"properties":{"district":"OH8","amount":186900,"id":"a6u4wgfyo6w5"},"type":"Feature","geometry":null},{"properties":{"district":"OH1","amount":59050,"id":"a6u4wgal6xfn"},"type":"Feature","geometry":null},{"properties":{"district":"OH11","amount":4500,"id":"a6u4wg6ckg7x"},"type":"Feature","geometry":null},{"properties":{"district":"OH18","amount":1000,"id":"a6u4wgduru9e"},"type":"Feature","geometry":null},{"properties":{"district":"OH6","amount":13000,"id":"a6u4wg7v18jh"},"type":"Feature","geometry":null},{"properties":{"district":"OH4","amount":19700,"id":"a6u4wgdkc0bd"},"type":"Feature","geometry":null},{"properties":{"district":"OH09","amount":1000,"id":"a6u4wgj22kp6"},"type":"Feature","geometry":null},{"properties":{"district":"OH10","amount":1500,"id":"a6u4wgc61pmk"},"type":"Feature","geometry":null},{"properties":{"district":"OH14","amount":24000,"id":"a6u4wghba5uu"},"type":"Feature","geometry":null},{"properties":{"district":"OH05","amount":24000,"id":"a6u4wga1zzjw"},"type":"Feature","geometry":null},{"properties":{"district":"OH16","amount":17000,"id":"a6u4wgdiwdis"},"type":"Feature","geometry":null},{"properties":{"district":"OH17","amount":500,"id":"a6u4wg9b6qdf"},"type":"Feature","geometry":null},{"properties":{"district":"OH02","amount":19000,"id":"a6u4wgevenkh"},"type":"Feature","geometry":null},{"properties":{"district":"OH15","amount":51250,"id":"a6u4wg6xw5pl"},"type":"Feature","geometry":null},{"properties":{"district":"OH13","amount":2000,"id":"a6u4wgc3go0m"},"type":"Feature","geometry":null},{"properties":{"district":"OH12","amount":29000,"id":"a6u4wgc9d8oc"},"type":"Feature","geometry":null},{"properties":{"district":"OH03","amount":21100,"id":"a6u4wgejhbbj"},"type":"Feature","geometry":null},{"properties":{"district":"OK02","amount":328300,"id":"a6u4wgfstxaw"},"type":"Feature","geometry":null},{"properties":{"district":"OK04","amount":211720,"id":"a6u4wg60knx3"},"type":"Feature","geometry":null},{"properties":{"district":"OK05","amount":115050,"id":"a6u4wg8mpryg"},"type":"Feature","geometry":null},{"properties":{"district":"OK03","amount":136150,"id":"a6u4wg5co0g2"},"type":"Feature","geometry":null},{"properties":{"district":"OK01","amount":329000,"id":"a6u4wggiu2rz"},"type":"Feature","geometry":null},{"properties":{"district":"OR03","amount":11000,"id":"a6u4wg5al42h"},"type":"Feature","geometry":null},{"properties":{"district":"OR04","amount":0,"id":"a6u4wg9slnfh"},"type":"Feature","geometry":null},{"properties":{"district":"OR05","amount":3000,"id":"a6u4wgb6gu9n"},"type":"Feature","geometry":null},{"properties":{"district":"OR02","amount":102500,"id":"a6u4wglpmtam"},"type":"Feature","geometry":null},{"properties":{"district":"OR01","amount":0,"id":"a6u4wgcb9tt6"},"type":"Feature","geometry":null},{"properties":{"district":"PA04","amount":65635,"id":"a6u4wgl6wt97"},"type":"Feature","geometry":null},{"properties":{"district":"PA11","amount":19750,"id":"a6u4wgc7xatq"},"type":"Feature","geometry":null},{"properties":{"district":"PA01","amount":0,"id":"a6u4wgjk1c98"},"type":"Feature","geometry":null},{"properties":{"district":"PA12","amount":27541,"id":"a6u4wgam3na2"},"type":"Feature","geometry":null},{"properties":{"district":"PA15","amount":56500,"id":"a6u4wg8i2bck"},"type":"Feature","geometry":null},{"properties":{"district":"PA14","amount":45700,"id":"a6u4wgi3r03c"},"type":"Feature","geometry":null},{"properties":{"district":"PA02","amount":0,"id":"a6u4wgee0s64"},"type":"Feature","geometry":null},{"properties":{"district":"PA08","amount":33750,"id":"a6u4wghrcfjc"},"type":"Feature","geometry":null},{"properties":{"district":"PA06","amount":60800,"id":"a6u4wgit7435"},"type":"Feature","geometry":null},{"properties":{"district":"PA17","amount":4500,"id":"a6u4wgaz1mb9"},"type":"Feature","geometry":null},{"properties":{"district":"PA03","amount":11750,"id":"a6u4wg87478n"},"type":"Feature","geometry":null},{"properties":{"district":"PA10","amount":3000,"id":"a6u4wg6ubxiu"},"type":"Feature","geometry":null},{"properties":{"district":"PA07","amount":27650,"id":"a6u4wg671z29"},"type":"Feature","geometry":null},{"properties":{"district":"PA18","amount":275499,"id":"a6u4wg7ow93k"},"type":"Feature","geometry":null},{"properties":{"district":"PA16","amount":32000,"id":"a6u4wgeryvv3"},"type":"Feature","geometry":null},{"properties":{"district":"PA19","amount":0,"id":"a6u4wg5nqj0e"},"type":"Feature","geometry":null},{"properties":{"district":"PA13","amount":5500,"id":"a6u4wgkjbv5t"},"type":"Feature","geometry":null},{"properties":{"district":"PA09","amount":59000,"id":"a6u4wgabxb5i"},"type":"Feature","geometry":null},{"properties":{"district":"PA05","amount":52000,"id":"a6u4wg9cj54v"},"type":"Feature","geometry":null},{"properties":{"district":"RI01","amount":0,"id":"a6u4wgaif1ik"},"type":"Feature","geometry":null},{"properties":{"district":"RI02","amount":0,"id":"a6u4wgb8j55s"},"type":"Feature","geometry":null},{"properties":{"district":"SC06","amount":49000,"id":"a6u4wgek57vk"},"type":"Feature","geometry":null},{"properties":{"district":"SC03","amount":7500,"id":"a6u4wga51gk3"},"type":"Feature","geometry":null},{"properties":{"district":"SC04","amount":2000,"id":"a6u4wg6gp1m7"},"type":"Feature","geometry":null},{"properties":{"district":"SC05","amount":4950,"id":"a6u4wgjkfppp"},"type":"Feature","geometry":null},{"properties":{"district":"SC01","amount":8400,"id":"a6u4wg82bywd"},"type":"Feature","geometry":null},{"properties":{"district":"SC02","amount":21250,"id":"a6u4wgj1h9ft"},"type":"Feature","geometry":null},{"properties":{"district":"SD00","amount":13900,"id":"a6u4wg6c43yl"},"type":"Feature","geometry":null},{"properties":{"district":"TN06","amount":15250,"id":"a6u4wg8gdq41"},"type":"Feature","geometry":null},{"properties":{"district":"TN07","amount":62850,"id":"a6u4wg91yx75"},"type":"Feature","geometry":null},{"properties":{"district":"TN09","amount":0,"id":"a6u4wgbnouar"},"type":"Feature","geometry":null},{"properties":{"district":"TN05","amount":6000,"id":"a6u4wgbbn1bd"},"type":"Feature","geometry":null},{"properties":{"district":"TN04","amount":0,"id":"a6u4wg70vzc9"},"type":"Feature","geometry":null},{"properties":{"district":"TN02","amount":26250,"id":"a6u4wgc00ifk"},"type":"Feature","geometry":null},{"properties":{"district":"TN08","amount":14000,"id":"a6u4wgho790j"},"type":"Feature","geometry":null},{"properties":{"district":"TN03","amount":0,"id":"a6u4wg9lj02k"},"type":"Feature","geometry":null},{"properties":{"district":"TN01","amount":4450,"id":"a6u4wgdyi3kt"},"type":"Feature","geometry":null},{"properties":{"district":"TX06","amount":514945,"id":"a6u4wglpzdln"},"type":"Feature","geometry":null},{"properties":{"district":"TX08","amount":197150,"id":"a6u4wg5rfpzw"},"type":"Feature","geometry":null},{"properties":{"district":"TX26","amount":103450,"id":"a6u4wgcfaju7"},"type":"Feature","geometry":null},{"properties":{"district":"TX23","amount":2100,"id":"a6u4wgi9wlnj"},"type":"Feature","geometry":null},{"properties":{"district":"TX31","amount":76750,"id":"a6u4wgddi5cy"},"type":"Feature","geometry":null},{"properties":{"district":"TX11","amount":123800,"id":"a6u4wgk0wtb3"},"type":"Feature","geometry":null},{"properties":{"district":"TX28","amount":66100,"id":"a6u4wgj4d1qc"},"type":"Feature","geometry":null},{"properties":{"district":"TX07","amount":187795,"id":"a6u4wg6i5hk2"},"type":"Feature","geometry":null},{"properties":{"district":"TX25","amount":2500,"id":"a6u4wgipa14a"},"type":"Feature","geometry":null},{"properties":{"district":"TX27","amount":20250,"id":"a6u4wgeodqpr"},"type":"Feature","geometry":null},{"properties":{"district":"TX17","amount":66200,"id":"a6u4wgg310mr"},"type":"Feature","geometry":null},{"properties":{"district":"TX01","amount":42750,"id":"a6u4wglmp9x5"},"type":"Feature","geometry":null},{"properties":{"district":"TX20","amount":51400,"id":"a6u4wgi3zzpc"},"type":"Feature","geometry":null},{"properties":{"district":"TX12","amount":87829,"id":"a6u4wggq7k9s"},"type":"Feature","geometry":null},{"properties":{"district":"TX09","amount":8000,"id":"a6u4wgg2acub"},"type":"Feature","geometry":null},{"properties":{"district":"TX29","amount":186300,"id":"a6u4wgiqbuj2"},"type":"Feature","geometry":null},{"properties":{"district":"TX04","amount":182149,"id":"a6u4wg75k06p"},"type":"Feature","geometry":null},{"properties":{"district":"TX05","amount":106350,"id":"a6u4wge6y3q3"},"type":"Feature","geometry":null},{"properties":{"district":"TX15","amount":14500,"id":"a6u4wgdmpcn2"},"type":"Feature","geometry":null},{"properties":{"district":"TX18","amount":1875,"id":"a6u4wgbw2cht"},"type":"Feature","geometry":null},{"properties":{"district":"TX30","amount":103550,"id":"a6u4wgiwz5mg"},"type":"Feature","geometry":null},{"properties":{"district":"TX03","amount":0,"id":"a6u4wgc5bh3x"},"type":"Feature","geometry":null},{"properties":{"district":"TX24","amount":64200,"id":"a6u4wg5uvlu2"},"type":"Feature","geometry":null},{"properties":{"district":"TX10","amount":66725,"id":"a6u4wgd98cl9"},"type":"Feature","geometry":null},{"properties":{"district":"TX19","amount":52850,"id":"a6u4wgfdp2yo"},"type":"Feature","geometry":null},{"properties":{"district":"TX22","amount":75300,"id":"a6u4wgeql0kf"},"type":"Feature","geometry":null},{"properties":{"district":"TX14","amount":11850,"id":"a6u4wg9t7o9u"},"type":"Feature","geometry":null},{"properties":{"district":"TX02","amount":82600,"id":"a6u4wgisu9fv"},"type":"Feature","geometry":null},{"properties":{"district":"TX16","amount":13250,"id":"a6u4wgljg3oh"},"type":"Feature","geometry":null},{"properties":{"district":"TX32","amount":191700,"id":"a6u4wgkjvkmx"},"type":"Feature","geometry":null},{"properties":{"district":"TX21","amount":21750,"id":"a6u4wgb3kclp"},"type":"Feature","geometry":null},{"properties":{"district":"TX13","amount":51300,"id":"a6u4wggydeca"},"type":"Feature","geometry":null},{"properties":{"district":"UT01","amount":71650,"id":"a6u4wgavnzoa"},"type":"Feature","geometry":null},{"properties":{"district":"UT03","amount":26000,"id":"a6u4wgihouaf"},"type":"Feature","geometry":null},{"properties":{"district":"UT02","amount":223797,"id":"a6u4wg9o5inh"},"type":"Feature","geometry":null},{"properties":{"district":"VA07","amount":173100,"id":"a6u4wg78bkni"},"type":"Feature","geometry":null},{"properties":{"district":"VA11","amount":1750,"id":"a6u4wg82w6pz"},"type":"Feature","geometry":null},{"properties":{"district":"VA04","amount":16200,"id":"a6u4wgjy9qyn"},"type":"Feature","geometry":null},{"properties":{"district":"VA06","amount":7500,"id":"a6u4wga6hqfg"},"type":"Feature","geometry":null},{"properties":{"district":"VA09","amount":48900,"id":"a6u4wgd3tau4"},"type":"Feature","geometry":null},{"properties":{"district":"VA05","amount":11500,"id":"a6u4wgiajvoh"},"type":"Feature","geometry":null},{"properties":{"district":"VA08","amount":2400,"id":"a6u4wgaobujs"},"type":"Feature","geometry":null},{"properties":{"district":"VA02","amount":5000,"id":"a6u4wg83q6l2"},"type":"Feature","geometry":null},{"properties":{"district":"VA03","amount":0,"id":"a6u4wg9r6tyo"},"type":"Feature","geometry":null},{"properties":{"district":"VA01","amount":16000,"id":"a6u4wgexvv8n"},"type":"Feature","geometry":null},{"properties":{"district":"VA10","amount":12650,"id":"a6u4wga4w6mq"},"type":"Feature","geometry":null},{"properties":{"district":"VT00","amount":0,"id":"a6u4wghohxy2"},"type":"Feature","geometry":null},{"properties":{"district":"WA06","amount":3500,"id":"a6u4wgd0qbir"},"type":"Feature","geometry":null},{"properties":{"district":"WA04","amount":123271,"id":"a6u4wgalfekk"},"type":"Feature","geometry":null},{"properties":{"district":"WA03","amount":500,"id":"a6u4wg89msk8"},"type":"Feature","geometry":null},{"properties":{"district":"WA01","amount":3000,"id":"a6u4wgd6etxs"},"type":"Feature","geometry":null},{"properties":{"district":"WA02","amount":50750,"id":"a6u4wgdzpaa1"},"type":"Feature","geometry":null},{"properties":{"district":"WA07","amount":-500,"id":"a6u4wgl6ol6i"},"type":"Feature","geometry":null},{"properties":{"district":"WA05","amount":500,"id":"a6u4wg5thani"},"type":"Feature","geometry":null},{"properties":{"district":"WA08","amount":45000,"id":"a6u4wge33fu7"},"type":"Feature","geometry":null},{"properties":{"district":"WA09","amount":17400,"id":"a6u4wgg3chm2"},"type":"Feature","geometry":null},{"properties":{"district":"WI02","amount":0,"id":"a6u4wgbkpw74"},"type":"Feature","geometry":null},{"properties":{"district":"WI07","amount":12100,"id":"a6u4wg7kz3ia"},"type":"Feature","geometry":null},{"properties":{"district":"WI03","amount":7500,"id":"a6u4wg8y30ik"},"type":"Feature","geometry":null},{"properties":{"district":"WI04","amount":0,"id":"a6u4wg64g17f"},"type":"Feature","geometry":null},{"properties":{"district":"WI06","amount":21500,"id":"a6u4wga4cfwp"},"type":"Feature","geometry":null},{"properties":{"district":"WI08","amount":5000,"id":"a6u4wgkl1gur"},"type":"Feature","geometry":null},{"properties":{"district":"WI01","amount":59400,"id":"a6u4wgf75i7m"},"type":"Feature","geometry":null},{"properties":{"district":"WI05","amount":13750,"id":"a6u4wg6ff17z"},"type":"Feature","geometry":null},{"properties":{"district":"WV02","amount":144603,"id":"a6u4wgbfo04b"},"type":"Feature","geometry":null},{"properties":{"district":"WV01","amount":66550,"id":"a6u4wga3ge6n"},"type":"Feature","geometry":null},{"properties":{"district":"WV03","amount":56850,"id":"a6u4wgew5g6m"},"type":"Feature","geometry":null},{"properties":{"district":"WY00","amount":215349,"id":"a6u4wgfi9y3j"},"type":"Feature","geometry":null}],"is_temporal":false,"author":{"url":"","metadata":"","contact_name":"","contact_address":"","source":"","contact_phone":""},"source":"","pagination":{"sort":null,"start":0,"total":435,"limit":1000000},"state":"complete","tags":"","published":"2014-08-12T23:26:33-04:00","id":171322}