{"type":"FeatureCollection","data_type":"Dataset","url_type":null,"permissions":[{"permissions":{"download":true,"view":true},"group_id":"everyone"}],"classification":null,"title":"Oklahoma State Alumni","count":74,"stream_id":17153,"contributor":{"url":"http://geocommons.com/users/9204","name":"dfogel"},"data_attributes":null,"calculation_params":null,"icon_link":null,"link":"http://geocommons.com/overlays/17153.json","extent":[-100.495,33.9982,-94.6267,36.8754],"geometry_types":["point"],"unique_name":null,"name":"Oklahoma State Alumni","feature_count":74,"description":"","next_feature":null,"is_raster":false,"short_classification":"Y","stats":{"alumni":{"max":28083.0,"mean":1545.13513513514,"variance":21340009.0499815,"stdev":4619.52476451653,"min":73.0,"median":455.0},"geo_score":{"max":0.857,"mean":0.535891891891892,"variance":0.109106947056646,"stdev":0.330313407321964,"min":0.0,"median":0.571}},"features":[{"properties":{"alumni":138.0,"county":"Adair County","geo_score":0.481,"id":"a65acp1dl00a","geo_precision":"street","state":"OK"},"type":"Feature","geometry":{"type":"Point","coordinates":[-95.16892,36.63972]}},{"properties":{"alumni":144.0,"county":"Alfalfa County","geo_score":0.418,"id":"a65acp2y12w7","geo_precision":"street","state":"OK"},"type":"Feature","geometry":{"type":"Point","coordinates":[-97.15906,35.48822]}},{"properties":{"alumni":130.0,"county":"Atoka County","geo_score":0.519,"id":"a65acp11x1dd","geo_precision":"street","state":"OK"},"type":"Feature","geometry":{"type":"Point","coordinates":[-98.990926,35.514323]}},{"properties":{"alumni":176.0,"county":"Beaver County","geo_score":0.571,"id":"a65acp3maf3t","geo_precision":"street","state":"OK"},"type":"Feature","geometry":{"type":"Point","coordinates":[-100.4947,36.86332]}},{"properties":{"alumni":421.0,"county":"Beckham County","geo_score":0.484,"id":"a65acotaojxy","geo_precision":"street","state":"OK"},"type":"Feature","geometry":{"type":"Point","coordinates":[-99.423166,35.41068]}},{"properties":{"alumni":384.0,"county":"Blaine County","geo_score":0.536,"id":"a65acop1g4xq","geo_precision":"street","state":"OK"},"type":"Feature","geometry":{"type":"Point","coordinates":[-99.075959,35.023094]}},{"properties":{"alumni":377.0,"county":"Bryan County","geo_score":0.481,"id":"a65acotmgh0q","geo_precision":"street","state":"OK"},"type":"Feature","geometry":{"type":"Point","coordinates":[-96.40069,33.998156]}},{"properties":{"alumni":546.0,"county":"Caddo County","geo_score":0.584,"id":"a65acoufpvvg","geo_precision":"street","state":"OK"},"type":"Feature","geometry":{"type":"Point","coordinates":[-96.345919,34.052244]}},{"properties":{"alumni":3145.0,"county":"Canadian County","geo_score":0.561,"id":"a65acp3nrgt7","geo_precision":"street","state":"OK"},"type":"Feature","geometry":{"type":"Point","coordinates":[-96.250644,34.965966]}},{"properties":{"alumni":816.0,"county":"Carter County","geo_score":0.571,"id":"a65acovwvxx9","geo_precision":"street","state":"OK"},"type":"Feature","geometry":{"type":"Point","coordinates":[-95.845055,34.82572]}},{"properties":{"alumni":478.0,"county":"Cherokee County","geo_score":0.612,"id":"a65acoqy7l6h","geo_precision":"street","state":"OK"},"type":"Feature","geometry":{"type":"Point","coordinates":[-98.360149,36.748072]}},{"properties":{"alumni":186.0,"county":"Choctaw County","geo_score":0.593,"id":"a65acoz5q4yn","geo_precision":"street","state":"OK"},"type":"Feature","geometry":{"type":"Point","coordinates":[-97.266264,35.441593]}},{"properties":{"alumni":73.0,"county":"Cimarron County","geo_score":0.531,"id":"a65acoyi0ri1","geo_precision":"street","state":"OK"},"type":"Feature","geometry":{"type":"Point","coordinates":[-99.170954,35.359848]}},{"properties":{"alumni":2582.0,"county":"Cleveland County","geo_score":0.571,"id":"a65acp42l1yy","geo_precision":"street","state":"OK"},"type":"Feature","geometry":{"type":"Point","coordinates":[-96.799856,36.331506]}},{"properties":{"alumni":77.0,"county":"Coal County","geo_score":0.457,"id":"a65acov9k2hu","geo_precision":"street","state":"OK"},"type":"Feature","geometry":{"type":"Point","coordinates":[-97.228974,36.054169]}},{"properties":{"alumni":1301.0,"county":"Comanche County","geo_score":0.612,"id":"a65acouh9hoy","geo_precision":"street","state":"OK"},"type":"Feature","geometry":{"type":"Point","coordinates":[-97.979599,34.361871]}},{"properties":{"alumni":108.0,"county":"Cotton County","geo_score":0.5,"id":"a65acp2pvwc6","geo_precision":"street","state":"OK"},"type":"Feature","geometry":{"type":"Point","coordinates":[-98.968938,35.520579]}},{"properties":{"alumni":401.0,"county":"Craig County","geo_score":0.468,"id":"a65acozt4qpl","geo_precision":"street","state":"OK"},"type":"Feature","geometry":{"type":"Point","coordinates":[-95.718783,34.934836]}},{"properties":{"alumni":2036.0,"county":"Creek County","geo_score":0.545,"id":"a65acow98g1a","geo_precision":"street","state":"OK"},"type":"Feature","geometry":{"type":"Point","coordinates":[-95.718783,34.934836]}},{"properties":{"alumni":721.0,"county":"Custer County","geo_score":0.536,"id":"a65acopdw6vj","geo_precision":"street","state":"OK"},"type":"Feature","geometry":{"type":"Point","coordinates":[-98.980116,35.515858]}},{"properties":{"alumni":466.0,"county":"Delaware County","geo_score":0.643,"id":"a65acotisfsk","geo_precision":"street","state":"OK"},"type":"Feature","geometry":{"type":"Point","coordinates":[-95.63931,36.77592]}},{"properties":{"alumni":236.0,"county":"Dewey County","geo_score":0.519,"id":"a65acoxvp8q3","geo_precision":"street","state":"OK"},"type":"Feature","geometry":{"type":"Point","coordinates":[-95.514108,34.009861]}},{"properties":{"alumni":184.0,"county":"Ellis","geo_score":0.0,"id":"a65acp0owepe","geo_precision":"unmatched","state":"OK"},"type":"Feature","geometry":null},{"properties":{"alumni":561.0,"county":"Garvin","geo_score":0.857,"id":"a65acooko5zm","geo_precision":"city","state":"OK"},"type":"Feature","geometry":{"type":"Point","coordinates":[-94.808868,34.061674]}},{"properties":{"alumni":1042.0,"county":"Grady","geo_score":0.857,"id":"a65acp0wvjfu","geo_precision":"city","state":"OK"},"type":"Feature","geometry":{"type":"Point","coordinates":[-97.665582,34.020375]}},{"properties":{"alumni":413.0,"county":"Grant","geo_score":0.857,"id":"a65acov4uhrv","geo_precision":"city","state":"OK"},"type":"Feature","geometry":{"type":"Point","coordinates":[-95.573733,34.01168]}},{"properties":{"alumni":113.0,"county":"Greer","geo_score":0.429,"id":"a65acoytt9rd","geo_precision":"street","state":"OK"},"type":"Feature","geometry":{"type":"Point","coordinates":[-97.872284,36.463367]}},{"properties":{"alumni":84.0,"county":"Harmon","geo_score":0.857,"id":"a65acoyc9wt6","geo_precision":"city","state":"OK"},"type":"Feature","geometry":{"type":"Point","coordinates":[-99.56039,36.144765]}},{"properties":{"alumni":202.0,"county":"Harper","geo_score":0.0,"id":"a65acouz09j8","geo_precision":"unmatched","state":"OK"},"type":"Feature","geometry":null},{"properties":{"alumni":169.0,"county":"Haskell","geo_score":0.857,"id":"a65acov1t1mo","geo_precision":"city","state":"OK"},"type":"Feature","geometry":{"type":"Point","coordinates":[-95.681972,35.813548]}},{"properties":{"alumni":215.0,"county":"Hughes","geo_score":0.857,"id":"a65acp2gyx2t","geo_precision":"city","state":"OK"},"type":"Feature","geometry":{"type":"Point","coordinates":[-94.971902,34.949265]}},{"properties":{"alumni":516.0,"county":"Jackson","geo_score":0.0,"id":"a65acotf77yi","geo_precision":"unmatched","state":"OK"},"type":"Feature","geometry":null},{"properties":{"alumni":158.0,"county":"Jefferson","geo_score":0.857,"id":"a65acow06cys","geo_precision":"city","state":"OK"},"type":"Feature","geometry":{"type":"Point","coordinates":[-97.79061,36.720585]}},{"properties":{"alumni":141.0,"county":"Johnston","geo_score":0.0,"id":"a65acop7tb58","geo_precision":"unmatched","state":"OK"},"type":"Feature","geometry":null},{"properties":{"alumni":3580.0,"county":"Kay","geo_score":0.5,"id":"a65acp3ugbsf","geo_precision":"street","state":"OK"},"type":"Feature","geometry":{"type":"Point","coordinates":[-96.713538,36.130556]}},{"properties":{"alumni":1022.0,"county":"Kingfisher","geo_score":0.857,"id":"a65acou1tg83","geo_precision":"city","state":"OK"},"type":"Feature","geometry":{"type":"Point","coordinates":[-97.92563,35.897508]}},{"properties":{"alumni":316.0,"county":"Kiowa","geo_score":0.857,"id":"a65acov8jhph","geo_precision":"city","state":"OK"},"type":"Feature","geometry":{"type":"Point","coordinates":[-95.906795,34.723584]}},{"properties":{"alumni":185.0,"county":"Latimer","geo_score":0.0,"id":"a65acoxr0j57","geo_precision":"unmatched","state":"OK"},"type":"Feature","geometry":null},{"properties":{"alumni":534.0,"county":"Le Flore","geo_score":0.857,"id":"a65acotpol51","geo_precision":"city","state":"OK"},"type":"Feature","geometry":{"type":"Point","coordinates":[-94.975763,34.897872]}},{"properties":{"alumni":1064.0,"county":"Lincoln","geo_score":0.586,"id":"a65acowlooy5","geo_precision":"street","state":"OK"},"type":"Feature","geometry":{"type":"Point","coordinates":[-95.09987,36.87537]}},{"properties":{"alumni":1258.0,"county":"Logan","geo_score":0.857,"id":"a65acoq38uba","geo_precision":"city","state":"OK"},"type":"Feature","geometry":{"type":"Point","coordinates":[-100.217359,36.57281]}},{"properties":{"alumni":119.0,"county":"Love","geo_score":0.0,"id":"a65acp2jllun","geo_precision":"unmatched","state":"OK"},"type":"Feature","geometry":null},{"properties":{"alumni":432.0,"county":"Major","geo_score":0.0,"id":"a65acou89ew7","geo_precision":"unmatched","state":"OK"},"type":"Feature","geometry":null},{"properties":{"alumni":168.0,"county":"Marshall","geo_score":0.857,"id":"a65acp1boekr","geo_precision":"city","state":"OK"},"type":"Feature","geometry":{"type":"Point","coordinates":[-97.626084,36.154158]}},{"properties":{"alumni":718.0,"county":"Mayes","geo_score":0.0,"id":"a65acoqdxh9n","geo_precision":"unmatched","state":"OK"},"type":"Feature","geometry":null},{"properties":{"alumni":682.0,"county":"McClain","geo_score":0.554,"id":"a65acozdw8rp","geo_precision":"street","state":"OK"},"type":"Feature","geometry":{"type":"Point","coordinates":[-95.308453,35.566307]}},{"properties":{"alumni":455.0,"county":"McCurtain","geo_score":0.857,"id":"a65acov8t6yi","geo_precision":"city","state":"OK"},"type":"Feature","geometry":{"type":"Point","coordinates":[-94.966276,35.15159]}},{"properties":{"alumni":249.0,"county":"McIntosh","geo_score":0.0,"id":"a65acosqfy1i","geo_precision":"unmatched","state":"OK"},"type":"Feature","geometry":null},{"properties":{"alumni":234.0,"county":"Murray","geo_score":0.476,"id":"a65acouq34ih","geo_precision":"street","state":"OK"},"type":"Feature","geometry":{"type":"Point","coordinates":[-97.49592,35.346666]}},{"properties":{"alumni":1312.0,"county":"Muskogee","geo_score":0.857,"id":"a65acouch0k0","geo_precision":"city","state":"OK"},"type":"Feature","geometry":{"type":"Point","coordinates":[-95.50025,35.70582]}},{"properties":{"alumni":1188.0,"county":"Noble","geo_score":0.857,"id":"a65acot3iyqw","geo_precision":"city","state":"OK"},"type":"Feature","geometry":{"type":"Point","coordinates":[-97.276226,35.152314]}},{"properties":{"alumni":296.0,"county":"Nowata","geo_score":0.857,"id":"a65acovcex1t","geo_precision":"city","state":"OK"},"type":"Feature","geometry":{"type":"Point","coordinates":[-95.631607,36.69908]}},{"properties":{"alumni":188.0,"county":"Okfuskee","geo_score":0.857,"id":"a65acp2tf5i2","geo_precision":"city","state":"OK"},"type":"Feature","geometry":{"type":"Point","coordinates":[-96.228336,35.595368]}},{"properties":{"alumni":26005.0,"county":"Osage","geo_score":0.857,"id":"a65acox532dr","geo_precision":"city","state":"OK"},"type":"Feature","geometry":{"type":"Point","coordinates":[-96.341334,36.265311]}},{"properties":{"alumni":1086.0,"county":"Ottawa","geo_score":0.857,"id":"a65acor89xpv","geo_precision":"city","state":"OK"},"type":"Feature","geometry":{"type":"Point","coordinates":[-94.78773,36.856736]}},{"properties":{"alumni":732.0,"county":"Pawnee","geo_score":0.857,"id":"a65acospnii7","geo_precision":"city","state":"OK"},"type":"Feature","geometry":{"type":"Point","coordinates":[-96.706208,36.306976]}},{"properties":{"alumni":705.0,"county":"Payne","geo_score":0.465,"id":"a65acopbqa96","geo_precision":"street","state":"OK"},"type":"Feature","geometry":{"type":"Point","coordinates":[-94.626679,35.817304]}},{"properties":{"alumni":938.0,"county":"Pittsburg","geo_score":0.857,"id":"a65acoyqf698","geo_precision":"city","state":"OK"},"type":"Feature","geometry":{"type":"Point","coordinates":[-95.897915,34.718754]}},{"properties":{"alumni":14335.0,"county":"Ponotoc","geo_score":0.0,"id":"a65acoqyd54e","geo_precision":"unmatched","state":"OK"},"type":"Feature","geometry":null},{"properties":{"alumni":818.0,"county":"Pottawatomie","geo_score":0.0,"id":"a65acoxetkn5","geo_precision":"unmatched","state":"OK"},"type":"Feature","geometry":null},{"properties":{"alumni":609.0,"county":"Pushmataha","geo_score":0.0,"id":"a65acp02ujoh","geo_precision":"unmatched","state":"OK"},"type":"Feature","geometry":null},{"properties":{"alumni":1385.0,"county":"Roger Mills","geo_score":0.0,"id":"a65acp1s0evq","geo_precision":"unmatched","state":"OK"},"type":"Feature","geometry":null},{"properties":{"alumni":169.0,"county":"Rogers","geo_score":0.0,"id":"a65acopit12t","geo_precision":"unmatched","state":"OK"},"type":"Feature","geometry":null},{"properties":{"alumni":110.0,"county":"Seminole","geo_score":0.857,"id":"a65acoymi7vm","geo_precision":"city","state":"OK"},"type":"Feature","geometry":{"type":"Point","coordinates":[-96.609139,35.162228]}},{"properties":{"alumni":358.0,"county":"Sequoyah","geo_score":0.857,"id":"a65acp0zku05","geo_precision":"city","state":"OK"},"type":"Feature","geometry":{"type":"Point","coordinates":[-95.560811,36.373429]}},{"properties":{"alumni":1212.0,"county":"Stephens","geo_score":0.0,"id":"a65acoo6c7v0","geo_precision":"unmatched","state":"OK"},"type":"Feature","geometry":null},{"properties":{"alumni":456.0,"county":"Texas","geo_score":0.0,"id":"a65acp0jilxz","geo_precision":"unmatched","state":"OK"},"type":"Feature","geometry":null},{"properties":{"alumni":255.0,"county":"Tillman","geo_score":0.0,"id":"a65acosvgstp","geo_precision":"unmatched","state":"OK"},"type":"Feature","geometry":null},{"properties":{"alumni":28083.0,"county":"Tulsa","geo_score":0.857,"id":"a65acoqzgfez","geo_precision":"city","state":"OK"},"type":"Feature","geometry":{"type":"Point","coordinates":[-95.868667,36.039147]}},{"properties":{"alumni":622.0,"county":"Wagoner","geo_score":0.857,"id":"a65acoq7msr6","geo_precision":"city","state":"OK"},"type":"Feature","geometry":{"type":"Point","coordinates":[-95.415011,35.943419]}},{"properties":{"alumni":2477.0,"county":"Washington","geo_score":0.857,"id":"a65acozlakqq","geo_precision":"city","state":"OK"},"type":"Feature","geometry":{"type":"Point","coordinates":[-97.468258,35.105058]}},{"properties":{"alumni":257.0,"county":"Washita","geo_score":0.857,"id":"a65acortbajo","geo_precision":"city","state":"OK"},"type":"Feature","geometry":{"type":"Point","coordinates":[-98.357423,35.203206]}},{"properties":{"alumni":324.0,"county":"Woods","geo_score":0.857,"id":"a65acp12ld0e","geo_precision":"city","state":"OK"},"type":"Feature","geometry":{"type":"Point","coordinates":[-97.264754,35.435342]}},{"properties":{"alumni":664.0,"county":"Woodward","geo_score":0.857,"id":"a65acoqq49jg","geo_precision":"city","state":"OK"},"type":"Feature","geometry":{"type":"Point","coordinates":[-99.442977,36.438017]}}],"is_temporal":false,"author":{"url":"","metadata":"","contact_name":"","contact_address":"","source":"","contact_phone":""},"source":"","pagination":{"sort":null,"start":0,"total":74,"limit":1000000},"state":"complete","tags":"","published":"2009-10-19T12:00:00Z","id":17153}