{"type":"FeatureCollection","data_type":"Dataset","url_type":null,"permissions":[{"permissions":{"download":true,"view":true},"group_id":"everyone"}],"classification":null,"title":"Top30","count":30,"stream_id":173012,"contributor":{"url":"http://geocommons.com/users/34988","name":"etaw@hotmail.com"},"data_attributes":null,"calculation_params":null,"icon_link":null,"link":"http://geocommons.com/overlays/173012.json","extent":[-121.895,25.7743,-73.9204,42.4331],"geometry_types":["point"],"unique_name":null,"name":"Top30","feature_count":30,"description":"","next_feature":null,"is_raster":false,"short_classification":"Y","stats":{"members":{"max":2561,"mean":747.566666666667,"variance":273301.081609195,"stdev":522.782059379619,"min":313,"median":559}},"features":[{"properties":{"city":"LOS ANGELES","geo_score":0.857,"members":2561,"id":"a64mds1eo1wk","geo_precision":"city","state":"California"},"type":"Feature","geometry":{"type":"Point","coordinates":[-118.243685,34.052234]}},{"properties":{"city":"HOUSTON","geo_score":0.816,"members":1651,"id":"a64mds2nhelj","geo_precision":"city","state":"Texas"},"type":"Feature","geometry":{"type":"Point","coordinates":[-96.919704,29.845783]}},{"properties":{"city":"MIAMI","geo_score":0.857,"members":1641,"id":"a64mds1bsvg9","geo_precision":"city","state":"Florida"},"type":"Feature","geometry":{"type":"Point","coordinates":[-80.193659,25.774266]}},{"properties":{"city":"SAN ANTONIO","geo_score":0.857,"members":1358,"id":"a64mds9mrkop","geo_precision":"city","state":"Texas"},"type":"Feature","geometry":{"type":"Point","coordinates":[-98.493628,29.424122]}},{"properties":{"city":"BRONX","geo_score":0.857,"members":1326,"id":"a64mds7pezfr","geo_precision":"city","state":"New York"},"type":"Feature","geometry":{"type":"Point","coordinates":[-73.920355,40.819329]}},{"properties":{"city":"CHICAGO","geo_score":0.857,"members":1312,"id":"a64mds72uvmb","geo_precision":"city","state":"Illinois"},"type":"Feature","geometry":{"type":"Point","coordinates":[-87.650052,41.850033]}},{"properties":{"city":"EL PASO","geo_score":0.857,"members":1053,"id":"a64mds9xm3vn","geo_precision":"city","state":"Texas"},"type":"Feature","geometry":{"type":"Point","coordinates":[-106.486931,31.75872]}},{"properties":{"city":"DALLAS","geo_score":0.857,"members":786,"id":"a64mdsdgalgd","geo_precision":"city","state":"Texas"},"type":"Feature","geometry":{"type":"Point","coordinates":[-96.806667,32.783056]}},{"properties":{"city":"BROOKLYN","geo_score":0.857,"members":767,"id":"a64mdsge64go","geo_precision":"city","state":"New York"},"type":"Feature","geometry":{"type":"Point","coordinates":[-78.748363,42.433118]}},{"properties":{"city":"SAN DIEGO","geo_score":0.857,"members":732,"id":"a64mdsgi5oif","geo_precision":"city","state":"California"},"type":"Feature","geometry":{"type":"Point","coordinates":[-117.157255,32.715329]}},{"properties":{"city":"SAN JOSE","geo_score":0.857,"members":716,"id":"a64mdsfmpgij","geo_precision":"city","state":"California"},"type":"Feature","geometry":{"type":"Point","coordinates":[-121.894956,37.339386]}},{"properties":{"city":"NEW YORK","geo_score":0.857,"members":697,"id":"a64mds6smqro","geo_precision":"city","state":"New York"},"type":"Feature","geometry":{"type":"Point","coordinates":[-74.005973,40.714269]}},{"properties":{"city":"AUSTIN","geo_score":0.857,"members":611,"id":"a64mds0yew9y","geo_precision":"city","state":"Texas"},"type":"Feature","geometry":{"type":"Point","coordinates":[-97.743061,30.267153]}},{"properties":{"city":"ORLANDO","geo_score":0.857,"members":566,"id":"a64mds9kmp5j","geo_precision":"city","state":"Florida"},"type":"Feature","geometry":{"type":"Point","coordinates":[-81.379237,28.538336]}},{"properties":{"city":"LAS VEGAS","geo_score":0.857,"members":559,"id":"a64mdsbuogou","geo_precision":"city","state":"Nevada"},"type":"Feature","geometry":{"type":"Point","coordinates":[-115.137223,36.174971]}},{"properties":{"city":"PHOENIX","geo_score":0.857,"members":521,"id":"a64mds3u8rzk","geo_precision":"city","state":"Arizona"},"type":"Feature","geometry":{"type":"Point","coordinates":[-112.074037,33.448377]}},{"properties":{"city":"FRESNO","geo_score":0.857,"members":489,"id":"a64mdsbekaus","geo_precision":"city","state":"California"},"type":"Feature","geometry":{"type":"Point","coordinates":[-119.772366,36.747727]}},{"properties":{"city":"SANTA ANA","geo_score":0.857,"members":480,"id":"a64mds1c96ea","geo_precision":"city","state":"California"},"type":"Feature","geometry":{"type":"Point","coordinates":[-117.867834,33.745573]}},{"properties":{"city":"RIVERSIDE","geo_score":0.857,"members":471,"id":"a64mds7j1hnc","geo_precision":"city","state":"California"},"type":"Feature","geometry":{"type":"Point","coordinates":[-117.396156,33.953349]}},{"properties":{"city":"HIALEAH","geo_score":0.857,"members":456,"id":"a64mdsek4z02","geo_precision":"city","state":"Florida"},"type":"Feature","geometry":{"type":"Point","coordinates":[-80.278106,25.857596]}},{"properties":{"city":"BAKERSFIELD","geo_score":0.857,"members":454,"id":"a64mds663lh8","geo_precision":"city","state":"California"},"type":"Feature","geometry":{"type":"Point","coordinates":[-119.018713,35.373292]}},{"properties":{"city":"FORT WORTH","geo_score":0.746,"members":392,"id":"a64mds5lkcqb","geo_precision":"city","state":"Texas"},"type":"Feature","geometry":{"type":"Point","coordinates":[-95.262161,31.108239]}},{"properties":{"city":"ALBUQUERQUE","geo_score":0.857,"members":379,"id":"a64mds3vsycv","geo_precision":"city","state":"New Mexico"},"type":"Feature","geometry":{"type":"Point","coordinates":[-106.651137,35.084491]}},{"properties":{"city":"CHULA VISTA","geo_score":0.857,"members":377,"id":"a64mds33flgg","geo_precision":"city","state":"California"},"type":"Feature","geometry":{"type":"Point","coordinates":[-116.846046,33.016928]}},{"properties":{"city":"ANAHEIM","geo_score":0.857,"members":366,"id":"a64mds489pz6","geo_precision":"city","state":"California"},"type":"Feature","geometry":{"type":"Point","coordinates":[-117.914504,33.835293]}},{"properties":{"city":"LONG BEACH","geo_score":0.857,"members":363,"id":"a64mds3ancxa","geo_precision":"city","state":"California"},"type":"Feature","geometry":{"type":"Point","coordinates":[-118.189235,33.766962]}},{"properties":{"city":"LAREDO","geo_score":0.786,"members":363,"id":"a64mdsazcso0","geo_precision":"city","state":"Texas"},"type":"Feature","geometry":{"type":"Point","coordinates":[-102.907999,34.330354]}},{"properties":{"city":"SACRAMENTO","geo_score":0.857,"members":352,"id":"a64mdsg3ujlq","geo_precision":"city","state":"California"},"type":"Feature","geometry":{"type":"Point","coordinates":[-121.4944,38.581572]}},{"properties":{"city":"DENVER","geo_score":0.857,"members":315,"id":"a64mdsamecqv","geo_precision":"city","state":"Colorado"},"type":"Feature","geometry":{"type":"Point","coordinates":[-104.984703,39.739154]}},{"properties":{"city":"TUCSON","geo_score":0.857,"members":313,"id":"a64mdsbqwela","geo_precision":"city","state":"Arizona"},"type":"Feature","geometry":{"type":"Point","coordinates":[-110.926479,32.221743]}}],"is_temporal":false,"author":{"url":"","metadata":"","contact_name":"","contact_address":"","source":"","contact_phone":""},"source":"","pagination":{"sort":null,"start":0,"total":30,"limit":1000000},"state":"complete","tags":"","published":"2014-08-13T01:58:59-04:00","id":173012}