{"type":"FeatureCollection","data_type":"Dataset","url_type":null,"permissions":[{"permissions":{"download":true,"view":true},"group_id":"everyone"}],"classification":null,"title":"Washingtons","count":94,"stream_id":173407,"contributor":{"url":"http://geocommons.com/users/21388","name":"amandazamora"},"data_attributes":null,"calculation_params":null,"icon_link":null,"link":"http://geocommons.com/overlays/173407.json","extent":[-122.235,38.8951,-77.0364,47.3809],"geometry_types":["point"],"unique_name":null,"name":"Washingtons","feature_count":94,"description":"","next_feature":null,"is_raster":false,"short_classification":"Y","stats":{"place":{"count":37,"counts_by_value":{"Township of Washington":1,"Washington Mills":1,"Washington Crossing":1,"Washington Green":1,"East Washington":2,"West Washington":1,"Mount Washington":6,"Washington BMC":1,"East Central Washington":1,"Washington Street":1,"Washingtonville":3,"Washington Terrace":1,"Washington Grove":1,"Washington Bridge":1,"Point Washington":1,"North Washington":3,"Port Washington":3,"Little Washington":1,"Washington Boro":1,"New Washington":3,"Fort Washington":4,"Lake Washington":1,"Washington Court House":1,"Washington Heights":1,"South Washington":2,"Woodland Washington County":1,"Washington Depot":1,"Washington Park":3,"Washington Township":3,"Camp Washington":1,"Washington":36,"Washington Lake":1,"Port Washington North":1,"Old Washington":1,"Washington Island":1,"Washington Ht":1,"George Washington":1},"list":["Washington","Washington Depot","Washington Green","Point Washington","North Washington","Washington Park","New Washington","South Washington","East Washington","West Washington","Mount Washington","Washington Grove","Fort Washington","Washington BMC","East Central Washington","Woodland Washington County","Washington Township","Washington Lake","Lake Washington","Township of Washington","Washington Street","Port Washington","Port Washington North","Washington Bridge","Washington Mills","Washingtonville","Washington Court House","Old Washington","Camp Washington","Little Washington","Washington Crossing","Washington Ht","Washington Boro","Washington Terrace","George Washington","Washington Heights","Washington Island"]},"state":{"count":36,"counts_by_value":{"ND":2,"NY":7,"VA":2,"CO":1,"MD":4,"MN":2,"NE":1,"IA":2,"ME":4,"MO":1,"IL":2,"KY":2,"OH":10,"GA":1,"NH":2,"TX":1,"IN":3,"AR":1,"CT":3,"FL":1,"MI":2,"MS":1,"NJ":5,"OK":1,"PA":11,"SD":3,"WI":3,"CA":1,"KS":3,"VT":3,"DC":1,"MA":2,"UT":2,"WV":1,"LA":1,"NC":2},"list":["AR","CA","CO","CT","DC","FL","GA","IA","IL","IN","KS","KY","LA","MA","MD","ME","MI","MN","MO","MS","NC","ND","NE","NH","NJ","NY","OH","OK","PA","SD","TX","UT","VA","VT","WI","WV"]}},"features":[{"properties":{"place":"Washington","county":"Hempstead County","geo_score":0.714,"id":"0","geo_precision":"city","state":"AR"},"type":"Feature","geometry":{"type":"Point","coordinates":[-77.036366,38.895112]}},{"properties":{"place":"Washington","county":"Nevada County","geo_score":0.714,"id":"1","geo_precision":"city","state":"CA"},"type":"Feature","geometry":{"type":"Point","coordinates":[-77.036366,38.895112]}},{"properties":{"place":"Washington","county":"Alamosa County","geo_score":0.714,"id":"2","geo_precision":"city","state":"CO"},"type":"Feature","geometry":{"type":"Point","coordinates":[-77.036366,38.895112]}},{"properties":{"place":"Washington","county":"Litchfield County","geo_score":0.714,"id":"3","geo_precision":"city","state":"CT"},"type":"Feature","geometry":{"type":"Point","coordinates":[-77.036366,38.895112]}},{"properties":{"place":"Washington Depot","county":"Litchfield County","geo_score":0.667,"id":"4","geo_precision":"city","state":"CT"},"type":"Feature","geometry":{"type":"Point","coordinates":[-77.036366,38.895112]}},{"properties":{"place":"Washington Green","county":"Litchfield County","geo_score":0.667,"id":"5","geo_precision":"city","state":"CT"},"type":"Feature","geometry":{"type":"Point","coordinates":[-77.036366,38.895112]}},{"properties":{"place":"Washington","county":"District Of Columbia","geo_score":0.714,"id":"6","geo_precision":"city","state":"DC"},"type":"Feature","geometry":{"type":"Point","coordinates":[-77.036366,38.895112]}},{"properties":{"place":"Point Washington","county":"Walton County","geo_score":0.667,"id":"7","geo_precision":"city","state":"FL"},"type":"Feature","geometry":{"type":"Point","coordinates":[-77.036366,38.895112]}},{"properties":{"place":"Washington","county":"Wilkes County","geo_score":0.714,"id":"8","geo_precision":"city","state":"GA"},"type":"Feature","geometry":{"type":"Point","coordinates":[-77.036366,38.895112]}},{"properties":{"place":"North Washington","county":"Chickasaw County","geo_score":0.667,"id":"9","geo_precision":"city","state":"IA"},"type":"Feature","geometry":{"type":"Point","coordinates":[-77.036366,38.895112]}},{"properties":{"place":"Washington","county":"Washington County","geo_score":0.714,"id":"10","geo_precision":"city","state":"IA"},"type":"Feature","geometry":{"type":"Point","coordinates":[-77.036366,38.895112]}},{"properties":{"place":"Washington Park","county":"St. Clair County","geo_score":0.673,"id":"11","geo_precision":"city","state":"IL"},"type":"Feature","geometry":{"type":"Point","coordinates":[-77.036366,38.895112]}},{"properties":{"place":"Washington","county":"Tazewell County","geo_score":0.714,"id":"12","geo_precision":"city","state":"IL"},"type":"Feature","geometry":{"type":"Point","coordinates":[-77.036366,38.895112]}},{"properties":{"place":"New Washington","county":"Clark County","geo_score":0.681,"id":"13","geo_precision":"city","state":"IN"},"type":"Feature","geometry":{"type":"Point","coordinates":[-77.036366,38.895112]}},{"properties":{"place":"South Washington","county":"Daviess County","geo_score":0.667,"id":"14","geo_precision":"city","state":"IN"},"type":"Feature","geometry":{"type":"Point","coordinates":[-77.036366,38.895112]}},{"properties":{"place":"Washington","county":"Daviess County","geo_score":0.714,"id":"15","geo_precision":"city","state":"IN"},"type":"Feature","geometry":{"type":"Point","coordinates":[-77.036366,38.895112]}},{"properties":{"place":"East Washington","county":"Rice County","geo_score":0.673,"id":"16","geo_precision":"city","state":"KS"},"type":"Feature","geometry":{"type":"Point","coordinates":[-77.036366,38.895112]}},{"properties":{"place":"West Washington","county":"Rice County","geo_score":0.673,"id":"17","geo_precision":"city","state":"KS"},"type":"Feature","geometry":{"type":"Point","coordinates":[-77.036366,38.895112]}},{"properties":{"place":"Washington","county":"Washington County","geo_score":0.714,"id":"18","geo_precision":"city","state":"KS"},"type":"Feature","geometry":{"type":"Point","coordinates":[-77.036366,38.895112]}},{"properties":{"place":"Mount Washington","county":"Bullitt County","geo_score":0.667,"id":"19","geo_precision":"city","state":"KY"},"type":"Feature","geometry":{"type":"Point","coordinates":[-77.036366,38.895112]}},{"properties":{"place":"Washington","county":"Mason County","geo_score":0.714,"id":"20","geo_precision":"city","state":"KY"},"type":"Feature","geometry":{"type":"Point","coordinates":[-77.036366,38.895112]}},{"properties":{"place":"Washington","county":"St. Landry Parish","geo_score":0.714,"id":"21","geo_precision":"city","state":"LA"},"type":"Feature","geometry":{"type":"Point","coordinates":[-77.036366,38.895112]}},{"properties":{"place":"Mount Washington","county":"Berkshire County","geo_score":0.667,"id":"22","geo_precision":"city","state":"MA"},"type":"Feature","geometry":{"type":"Point","coordinates":[-77.036366,38.895112]}},{"properties":{"place":"Washington","county":"Berkshire County","geo_score":0.714,"id":"23","geo_precision":"city","state":"MA"},"type":"Feature","geometry":{"type":"Point","coordinates":[-77.036366,38.895112]}},{"properties":{"place":"Mount Washington","county":"Baltimore County","geo_score":0.667,"id":"24","geo_precision":"city","state":"MD"},"type":"Feature","geometry":{"type":"Point","coordinates":[-77.036366,38.895112]}},{"properties":{"place":"Washington Grove","county":"Montgomery County","geo_score":0.667,"id":"25","geo_precision":"city","state":"MD"},"type":"Feature","geometry":{"type":"Point","coordinates":[-77.036366,38.895112]}},{"properties":{"place":"Fort Washington","county":"Prince George's County","geo_score":0.673,"id":"26","geo_precision":"city","state":"MD"},"type":"Feature","geometry":{"type":"Point","coordinates":[-77.036366,38.895112]}},{"properties":{"place":"Washington BMC","county":"Prince George's County","geo_score":0.681,"id":"27","geo_precision":"city","state":"MD"},"type":"Feature","geometry":{"type":"Point","coordinates":[-77.036366,38.895112]}},{"properties":{"place":"Washington","county":"Knox County","geo_score":0.714,"id":"28","geo_precision":"city","state":"ME"},"type":"Feature","geometry":{"type":"Point","coordinates":[-77.036366,38.895112]}},{"properties":{"place":"East Central Washington","county":"Washington County","geo_score":0.639,"id":"29","geo_precision":"city","state":"ME"},"type":"Feature","geometry":{"type":"Point","coordinates":[-77.036366,38.895112]}},{"properties":{"place":"North Washington","county":"Washington County","geo_score":0.667,"id":"30","geo_precision":"city","state":"ME"},"type":"Feature","geometry":{"type":"Point","coordinates":[-77.036366,38.895112]}},{"properties":{"place":"Woodland Washington County","county":"Washington County","geo_score":0.583,"id":"31","geo_precision":"city","state":"ME"},"type":"Feature","geometry":{"type":"Point","coordinates":[-122.234843,47.380934]}},{"properties":{"place":"Washington","county":"Macomb County","geo_score":0.714,"id":"32","geo_precision":"city","state":"MI"},"type":"Feature","geometry":{"type":"Point","coordinates":[-77.036366,38.895112]}},{"properties":{"place":"Washington Township","county":"Macomb County","geo_score":0.651,"id":"33","geo_precision":"city","state":"MI"},"type":"Feature","geometry":{"type":"Point","coordinates":[-77.036366,38.895112]}},{"properties":{"place":"Washington","county":"Le Sueur County","geo_score":0.714,"id":"34","geo_precision":"city","state":"MN"},"type":"Feature","geometry":{"type":"Point","coordinates":[-77.036366,38.895112]}},{"properties":{"place":"Washington Lake","county":"Sibley County","geo_score":0.673,"id":"35","geo_precision":"city","state":"MN"},"type":"Feature","geometry":{"type":"Point","coordinates":[-77.036366,38.895112]}},{"properties":{"place":"Washington","county":"Franklin County","geo_score":0.714,"id":"36","geo_precision":"city","state":"MO"},"type":"Feature","geometry":{"type":"Point","coordinates":[-77.036366,38.895112]}},{"properties":{"place":"Washington","county":"Adams County","geo_score":0.714,"id":"37","geo_precision":"city","state":"MS"},"type":"Feature","geometry":{"type":"Point","coordinates":[-77.036366,38.895112]}},{"properties":{"place":"Washington","county":"Beaufort County","geo_score":0.714,"id":"38","geo_precision":"city","state":"NC"},"type":"Feature","geometry":{"type":"Point","coordinates":[-77.036366,38.895112]}},{"properties":{"place":"Washington Park","county":"Beaufort County","geo_score":0.673,"id":"39","geo_precision":"city","state":"NC"},"type":"Feature","geometry":{"type":"Point","coordinates":[-77.036366,38.895112]}},{"properties":{"place":"Lake Washington","county":"Eddy County","geo_score":0.673,"id":"40","geo_precision":"city","state":"ND"},"type":"Feature","geometry":{"type":"Point","coordinates":[-77.036366,38.895112]}},{"properties":{"place":"Washington","county":"Grand Forks County","geo_score":0.714,"id":"41","geo_precision":"city","state":"ND"},"type":"Feature","geometry":{"type":"Point","coordinates":[-77.036366,38.895112]}},{"properties":{"place":"Washington","county":"Washington County","geo_score":0.714,"id":"42","geo_precision":"city","state":"NE"},"type":"Feature","geometry":{"type":"Point","coordinates":[-77.036366,38.895112]}},{"properties":{"place":"Mount Washington","county":"Coos County","geo_score":0.667,"id":"43","geo_precision":"city","state":"NH"},"type":"Feature","geometry":{"type":"Point","coordinates":[-77.036366,38.895112]}},{"properties":{"place":"Washington","county":"Sullivan County","geo_score":0.714,"id":"44","geo_precision":"city","state":"NH"},"type":"Feature","geometry":{"type":"Point","coordinates":[-77.036366,38.895112]}},{"properties":{"place":"Township of Washington","county":"Bergen County","geo_score":0.643,"id":"45","geo_precision":"city","state":"NJ"},"type":"Feature","geometry":{"type":"Point","coordinates":[-77.036366,38.895112]}},{"properties":{"place":"Washington Township","county":"Bergen County","geo_score":0.651,"id":"46","geo_precision":"city","state":"NJ"},"type":"Feature","geometry":{"type":"Point","coordinates":[-77.036366,38.895112]}},{"properties":{"place":"Washington Park","county":"Essex County","geo_score":0.673,"id":"47","geo_precision":"city","state":"NJ"},"type":"Feature","geometry":{"type":"Point","coordinates":[-77.036366,38.895112]}},{"properties":{"place":"Washington Street","county":"Hudson County","geo_score":0.661,"id":"48","geo_precision":"city","state":"NJ"},"type":"Feature","geometry":{"type":"Point","coordinates":[-77.036366,38.895112]}},{"properties":{"place":"Washington","county":"Warren County","geo_score":0.714,"id":"49","geo_precision":"city","state":"NJ"},"type":"Feature","geometry":{"type":"Point","coordinates":[-77.036366,38.895112]}},{"properties":{"place":"Washington","county":"Dutchess County","geo_score":0.714,"id":"50","geo_precision":"city","state":"NY"},"type":"Feature","geometry":{"type":"Point","coordinates":[-77.036366,38.895112]}},{"properties":{"place":"Port Washington","county":"Nassau County","geo_score":0.673,"id":"51","geo_precision":"city","state":"NY"},"type":"Feature","geometry":{"type":"Point","coordinates":[-77.036366,38.895112]}},{"properties":{"place":"Port Washington North","county":"Nassau County","geo_score":0.647,"id":"52","geo_precision":"city","state":"NY"},"type":"Feature","geometry":{"type":"Point","coordinates":[-77.036366,38.895112]}},{"properties":{"place":"Fort Washington","county":"New York City","geo_score":0.673,"id":"53","geo_precision":"city","state":"NY"},"type":"Feature","geometry":{"type":"Point","coordinates":[-77.036366,38.895112]}},{"properties":{"place":"Washington Bridge","county":"New York City","geo_score":0.661,"id":"54","geo_precision":"city","state":"NY"},"type":"Feature","geometry":{"type":"Point","coordinates":[-77.036366,38.895112]}},{"properties":{"place":"Washington Mills","county":"Oneida County","geo_score":0.667,"id":"55","geo_precision":"city","state":"NY"},"type":"Feature","geometry":{"type":"Point","coordinates":[-77.036366,38.895112]}},{"properties":{"place":"Washingtonville","county":"Orange County","geo_score":0.667,"id":"56","geo_precision":"city","state":"NY"},"type":"Feature","geometry":{"type":"Point","coordinates":[-77.036366,38.895112]}},{"properties":{"place":"Washingtonville","county":"Columbiana County","geo_score":0.667,"id":"57","geo_precision":"city","state":"OH"},"type":"Feature","geometry":{"type":"Point","coordinates":[-77.036366,38.895112]}},{"properties":{"place":"New Washington","county":"Crawford County","geo_score":0.681,"id":"58","geo_precision":"city","state":"OH"},"type":"Feature","geometry":{"type":"Point","coordinates":[-77.036366,38.895112]}},{"properties":{"place":"Washington Court House","county":"Fayette County","geo_score":0.643,"id":"59","geo_precision":"city","state":"OH"},"type":"Feature","geometry":{"type":"Point","coordinates":[-77.036366,38.895112]}},{"properties":{"place":"Old Washington","county":"Guernsey County","geo_score":0.681,"id":"60","geo_precision":"city","state":"OH"},"type":"Feature","geometry":{"type":"Point","coordinates":[-77.036366,38.895112]}},{"properties":{"place":"Camp Washington","county":"Hamilton County","geo_score":0.673,"id":"61","geo_precision":"city","state":"OH"},"type":"Feature","geometry":{"type":"Point","coordinates":[-77.036366,38.895112]}},{"properties":{"place":"Mount Washington","county":"Hamilton County","geo_score":0.667,"id":"62","geo_precision":"city","state":"OH"},"type":"Feature","geometry":{"type":"Point","coordinates":[-77.036366,38.895112]}},{"properties":{"place":"Washington Township","county":"Montgomery County","geo_score":0.651,"id":"63","geo_precision":"city","state":"OH"},"type":"Feature","geometry":{"type":"Point","coordinates":[-77.036366,38.895112]}},{"properties":{"place":"Little Washington","county":"Richland County","geo_score":0.661,"id":"64","geo_precision":"city","state":"OH"},"type":"Feature","geometry":{"type":"Point","coordinates":[-77.036366,38.895112]}},{"properties":{"place":"Port Washington","county":"Tuscarawas County","geo_score":0.673,"id":"65","geo_precision":"city","state":"OH"},"type":"Feature","geometry":{"type":"Point","coordinates":[-77.036366,38.895112]}},{"properties":{"place":"Washington","county":"Wood County","geo_score":0.714,"id":"66","geo_precision":"city","state":"OH"},"type":"Feature","geometry":{"type":"Point","coordinates":[-77.036366,38.895112]}},{"properties":{"place":"Washington","county":"McClain County","geo_score":0.714,"id":"67","geo_precision":"city","state":"OK"},"type":"Feature","geometry":{"type":"Point","coordinates":[-77.036366,38.895112]}},{"properties":{"place":"Mount Washington","county":"Allegheny County","geo_score":0.667,"id":"68","geo_precision":"city","state":"PA"},"type":"Feature","geometry":{"type":"Point","coordinates":[-77.036366,38.895112]}},{"properties":{"place":"Fort Washington","county":"Bucks County","geo_score":0.673,"id":"69","geo_precision":"city","state":"PA"},"type":"Feature","geometry":{"type":"Point","coordinates":[-77.036366,38.895112]}},{"properties":{"place":"Washington Crossing","county":"Bucks County","geo_score":0.651,"id":"70","geo_precision":"city","state":"PA"},"type":"Feature","geometry":{"type":"Point","coordinates":[-77.036366,38.895112]}},{"properties":{"place":"North Washington","county":"Butler County","geo_score":0.667,"id":"71","geo_precision":"city","state":"PA"},"type":"Feature","geometry":{"type":"Point","coordinates":[-77.036366,38.895112]}},{"properties":{"place":"New Washington","county":"Clearfield County","geo_score":0.681,"id":"72","geo_precision":"city","state":"PA"},"type":"Feature","geometry":{"type":"Point","coordinates":[-77.036366,38.895112]}},{"properties":{"place":"Washington Ht","county":"Cumberland County","geo_score":0.69,"id":"73","geo_precision":"city","state":"PA"},"type":"Feature","geometry":{"type":"Point","coordinates":[-77.036366,38.895112]}},{"properties":{"place":"Washington Boro","county":"Lancaster County","geo_score":0.673,"id":"74","geo_precision":"city","state":"PA"},"type":"Feature","geometry":{"type":"Point","coordinates":[-77.036366,38.895112]}},{"properties":{"place":"Fort Washington","county":"Montgomery County","geo_score":0.673,"id":"75","geo_precision":"city","state":"PA"},"type":"Feature","geometry":{"type":"Point","coordinates":[-77.036366,38.895112]}},{"properties":{"place":"Washingtonville","county":"Montour County","geo_score":0.667,"id":"76","geo_precision":"city","state":"PA"},"type":"Feature","geometry":{"type":"Point","coordinates":[-77.036366,38.895112]}},{"properties":{"place":"East Washington","county":"Washington County","geo_score":0.673,"id":"77","geo_precision":"city","state":"PA"},"type":"Feature","geometry":{"type":"Point","coordinates":[-77.036366,38.895112]}},{"properties":{"place":"Washington","county":"Washington County","geo_score":0.714,"id":"78","geo_precision":"city","state":"PA"},"type":"Feature","geometry":{"type":"Point","coordinates":[-77.036366,38.895112]}},{"properties":{"place":"Washington","county":"Aurora County","geo_score":0.714,"id":"79","geo_precision":"city","state":"SD"},"type":"Feature","geometry":{"type":"Point","coordinates":[-77.036366,38.895112]}},{"properties":{"place":"Washington","county":"Clark County","geo_score":0.714,"id":"80","geo_precision":"city","state":"SD"},"type":"Feature","geometry":{"type":"Point","coordinates":[-77.036366,38.895112]}},{"properties":{"place":"Washington","county":"Douglas County","geo_score":0.714,"id":"81","geo_precision":"city","state":"SD"},"type":"Feature","geometry":{"type":"Point","coordinates":[-77.036366,38.895112]}},{"properties":{"place":"Washington","county":"Washington County","geo_score":0.714,"id":"82","geo_precision":"city","state":"TX"},"type":"Feature","geometry":{"type":"Point","coordinates":[-77.036366,38.895112]}},{"properties":{"place":"Washington","county":"Washington County","geo_score":0.714,"id":"83","geo_precision":"city","state":"UT"},"type":"Feature","geometry":{"type":"Point","coordinates":[-77.036366,38.895112]}},{"properties":{"place":"Washington Terrace","county":"Weber County","geo_score":0.655,"id":"84","geo_precision":"city","state":"UT"},"type":"Feature","geometry":{"type":"Point","coordinates":[-77.036366,38.895112]}},{"properties":{"place":"George Washington","county":"City Of Alexandria","geo_score":0.661,"id":"85","geo_precision":"city","state":"VA"},"type":"Feature","geometry":{"type":"Point","coordinates":[-77.036366,38.895112]}},{"properties":{"place":"Washington","county":"Rappahannock County","geo_score":0.714,"id":"86","geo_precision":"city","state":"VA"},"type":"Feature","geometry":{"type":"Point","coordinates":[-77.036366,38.895112]}},{"properties":{"place":"Washington Heights","county":"Lamoille County","geo_score":0.655,"id":"87","geo_precision":"city","state":"VT"},"type":"Feature","geometry":{"type":"Point","coordinates":[-77.036366,38.895112]}},{"properties":{"place":"South Washington","county":"Orange County","geo_score":0.667,"id":"88","geo_precision":"city","state":"VT"},"type":"Feature","geometry":{"type":"Point","coordinates":[-77.036366,38.895112]}},{"properties":{"place":"Washington","county":"Orange County","geo_score":0.714,"id":"89","geo_precision":"city","state":"VT"},"type":"Feature","geometry":{"type":"Point","coordinates":[-77.036366,38.895112]}},{"properties":{"place":"Washington Island","county":"Door County","geo_score":0.661,"id":"90","geo_precision":"city","state":"WI"},"type":"Feature","geometry":{"type":"Point","coordinates":[-77.036366,38.895112]}},{"properties":{"place":"Port Washington","county":"Ozaukee County","geo_score":0.673,"id":"91","geo_precision":"city","state":"WI"},"type":"Feature","geometry":{"type":"Point","coordinates":[-77.036366,38.895112]}},{"properties":{"place":"Washington","county":"Vilas County","geo_score":0.714,"id":"92","geo_precision":"city","state":"WI"},"type":"Feature","geometry":{"type":"Point","coordinates":[-77.036366,38.895112]}},{"properties":{"place":"Washington","county":"Wood County","geo_score":0.714,"id":"93","geo_precision":"city","state":"WV"},"type":"Feature","geometry":{"type":"Point","coordinates":[-77.036366,38.895112]}}],"is_temporal":false,"author":{"url":"","metadata":"","contact_name":"","contact_address":"","source":"","contact_phone":""},"source":"","pagination":{"sort":null,"start":0,"total":94,"limit":1000000},"state":"complete","tags":"","published":"2014-08-13T02:35:40-04:00","id":173407}