{"type":"FeatureCollection","data_type":"Dataset","url_type":null,"permissions":[{"permissions":{"download":true,"view":true},"group_id":"everyone"}],"classification":null,"title":"ACT - ALL ACT SCHOOLS","count":133,"stream_id":174235,"contributor":{"url":"http://geocommons.com/users/35578","name":"clement_911"},"data_attributes":null,"calculation_params":null,"icon_link":null,"link":"http://geocommons.com/overlays/174235.json","extent":[149.012,-35.4649,150.704,-35.135],"geometry_types":["point"],"unique_name":null,"name":"ACT - ALL ACT SCHOOLS","feature_count":133,"description":"ACT - ALL ACT SCHOOLS","next_feature":null,"is_raster":false,"short_classification":"Y","stats":{"latitude":{"max":-35.135012,"mean":-35.3060235533835,"variance":0.00661161553676539,"stdev":0.0813118413071884,"min":-35.464883,"median":-35.315084},"postcode":{"max":2914,"mean":2692.87969924812,"variance":18361.318751424,"stdev":135.503943674802,"min":2540,"median":2614},"longitude":{"max":150.703614,"mean":149.107231130075,"variance":0.020831149559844,"stdev":0.144330002285886,"min":149.012022,"median":149.095654}},"features":[{"properties":{"name":"St Vincent's Primary School","latitude":-35.254993,"uniqueid":"2044","is systemic":"Systemic","postcode":2614,"level":"Primary","suburb":"ARANDA","street":"Bindel Street","longitude":149.076661,"id":"a656tex580gm","affiliation":"Catholic, Roman"},"type":"Feature","geometry":{"type":"Point","coordinates":[149.076661,-35.254993]}},{"properties":{"name":"St Thomas More's Primary School","latitude":-35.286717,"uniqueid":"2046","is systemic":"Systemic","postcode":2612,"level":"Primary","suburb":"CAMPBELL","street":"24 White Crescent","longitude":149.156836,"id":"a656tewm65n9","affiliation":"Catholic, Roman"},"type":"Feature","geometry":{"type":"Point","coordinates":[149.156836,-35.286717]}},{"properties":{"name":"Holy Trinity Primary School","latitude":-35.327679,"uniqueid":"2047","is systemic":"Systemic","postcode":2605,"level":"Primary","suburb":"CURTIN","street":"Theodore Street","longitude":149.081951,"id":"a656tf3dk5hc","affiliation":"Catholic, Roman"},"type":"Feature","geometry":{"type":"Point","coordinates":[149.081951,-35.327679]}},{"properties":{"name":"Sts Peter and Paul's Primary School","latitude":-35.339376,"uniqueid":"2050","is systemic":"Systemic","postcode":2605,"level":"Primary","suburb":"GARRAN","street":"Wisdom Street","longitude":149.092732,"id":"a656tepy7qp4","affiliation":"Catholic, Roman"},"type":"Feature","geometry":{"type":"Point","coordinates":[149.092732,-35.339376]}},{"properties":{"name":"St Benedict's Primary School","latitude":-35.33483,"uniqueid":"2052","is systemic":"Systemic","postcode":2604,"level":"Primary","suburb":"NARRABUNDAH","street":"Tallara Parkway","longitude":149.148034,"id":"a656tepaz91d","affiliation":"Catholic, Roman"},"type":"Feature","geometry":{"type":"Point","coordinates":[149.148034,-35.33483]}},{"properties":{"name":"St Joseph's Primary School","latitude":-35.259648,"uniqueid":"2053","is systemic":"Systemic","postcode":2602,"level":"Primary","suburb":"O'CONNOR","street":"Macarthur Avenue","longitude":149.126375,"id":"a656teq6izqn","affiliation":"Catholic, Roman"},"type":"Feature","geometry":{"type":"Point","coordinates":[149.126375,-35.259648]}},{"properties":{"name":"St Matthew's Primary School","latitude":-35.240755,"uniqueid":"2054","is systemic":"Systemic","postcode":2614,"level":"Primary","suburb":"PAGE","street":"Stutchbury Street","longitude":149.041555,"id":"a656teooxgje","affiliation":"Catholic, Roman"},"type":"Feature","geometry":{"type":"Point","coordinates":[149.041555,-35.240755]}},{"properties":{"name":"Sacred Heart Primary School","latitude":-35.366936,"uniqueid":"2055","is systemic":"Systemic","postcode":2607,"level":"Primary","suburb":"PEARCE","street":"29 Murphy Street","longitude":149.084391,"id":"a656tev5yshh","affiliation":"Catholic, Roman"},"type":"Feature","geometry":{"type":"Point","coordinates":[149.084391,-35.366936]}},{"properties":{"name":"St Bede's Primary School","latitude":-35.338847,"uniqueid":"2056","is systemic":"Systemic","postcode":2603,"level":"Primary","suburb":"RED HILL","street":"Hicks Street","longitude":149.128788,"id":"a656teu1isk6","affiliation":"Catholic, Roman"},"type":"Feature","geometry":{"type":"Point","coordinates":[149.128788,-35.338847]}},{"properties":{"name":"St John Vianney's Primary School","latitude":-35.351057,"uniqueid":"2057","is systemic":"Systemic","postcode":2611,"level":"Primary","suburb":"WARAMANGA","street":"Namatjira Drv","longitude":149.055559,"id":"a656terzyo0g","affiliation":"Catholic, Roman"},"type":"Feature","geometry":{"type":"Point","coordinates":[149.055559,-35.351057]}},{"properties":{"name":"Rosary Primary School","latitude":-35.24641,"uniqueid":"2058","is systemic":"Systemic","postcode":2602,"level":"Primary","suburb":"WATSON","street":"Fleming Street","longitude":149.154682,"id":"a656tets3m15","affiliation":"Catholic, Roman"},"type":"Feature","geometry":{"type":"Point","coordinates":[149.154682,-35.24641]}},{"properties":{"name":"Canberra Grammar School","latitude":-35.330919,"uniqueid":"2060","is systemic":"Non-Systemic","postcode":2603,"level":"Combined","suburb":"RED HILL","street":"Monaro Crescent","longitude":149.124674,"id":"a656tf0fp270","affiliation":"Anglican"},"type":"Feature","geometry":{"type":"Point","coordinates":[149.124674,-35.330919]}},{"properties":{"name":"Canberra Girls' Grammar School","latitude":-35.31699,"uniqueid":"2061","is systemic":"Non-Systemic","postcode":2600,"level":"Combined","suburb":"DEAKIN","street":"Melbourne Avenue","longitude":149.115115,"id":"a656tf0fzkxo","affiliation":"Anglican"},"type":"Feature","geometry":{"type":"Point","coordinates":[149.115115,-35.31699]}},{"properties":{"name":"Canberra Christian School","latitude":-35.356475,"uniqueid":"2062","is systemic":"Non-Systemic","postcode":2607,"level":"Primary","suburb":"MAWSON","street":"Ainsworth Street","longitude":149.097963,"id":"a656tf05sjr0","affiliation":"Seventh Day Adventist"},"type":"Feature","geometry":{"type":"Point","coordinates":[149.097963,-35.356475]}},{"properties":{"name":"Daramalan College","latitude":-35.253518,"uniqueid":"2064","is systemic":"Non-Systemic","postcode":2602,"level":"Secondary","suburb":"DICKSON","street":"Cowper Street","longitude":149.138695,"id":"a656tewl1q99","affiliation":"Catholic, Roman"},"type":"Feature","geometry":{"type":"Point","coordinates":[149.138695,-35.253518]}},{"properties":{"name":"Merici College","latitude":-35.266525,"uniqueid":"2065","is systemic":"Systemic","postcode":2612,"level":"Secondary","suburb":"BRADDON","street":"Wise Street","longitude":149.137037,"id":"a656teruhenl","affiliation":"Catholic, Roman"},"type":"Feature","geometry":{"type":"Point","coordinates":[149.137037,-35.266525]}},{"properties":{"name":"St Clare's College","latitude":-35.323929,"uniqueid":"2066","is systemic":"Systemic","postcode":2603,"level":"Secondary","suburb":"GRIFFITH","street":"McMillan Crescent","longitude":149.14765,"id":"a656teyozikz","affiliation":"Catholic, Roman"},"type":"Feature","geometry":{"type":"Point","coordinates":[149.14765,-35.323929]}},{"properties":{"name":"Marist College Canberra","latitude":-35.357959,"uniqueid":"2067","is systemic":"Non-Systemic","postcode":2607,"level":"Combined","suburb":"PEARCE","street":"Marr Street","longitude":149.088697,"id":"a656teydcpai","affiliation":"Catholic, Roman"},"type":"Feature","geometry":{"type":"Point","coordinates":[149.088697,-35.357959]}},{"properties":{"name":"St Edmund's College","latitude":-35.32282,"uniqueid":"2068","is systemic":"Non-Systemic","postcode":2603,"level":"Combined","suburb":"GRIFFITH","street":"Canberra Avenue","longitude":149.144242,"id":"a656ter91oaa","affiliation":"Catholic, Roman"},"type":"Feature","geometry":{"type":"Point","coordinates":[149.144242,-35.32282]}},{"properties":{"name":"St Thomas Aquinas Primary School","latitude":-35.205121,"uniqueid":"2900","is systemic":"Systemic","postcode":2615,"level":"Primary","suburb":"CHARNWOOD","street":"Lhotsky Street","longitude":149.029638,"id":"a656teo4covv","affiliation":"Catholic, Roman"},"type":"Feature","geometry":{"type":"Point","coordinates":[149.029638,-35.205121]}},{"properties":{"name":"St Jude's Primary School","latitude":-35.333941,"uniqueid":"2901","is systemic":"Systemic","postcode":2611,"level":"Primary","suburb":"HOLDER","street":"Mulley Street","longitude":149.049819,"id":"a656tf1ajx7j","affiliation":"Catholic, Roman"},"type":"Feature","geometry":{"type":"Point","coordinates":[149.049819,-35.333941]}},{"properties":{"name":"St Monica's Primary School","latitude":-35.213525,"uniqueid":"2902","is systemic":"Systemic","postcode":2617,"level":"Primary","suburb":"EVATT","street":"Moynihan Street","longitude":149.061289,"id":"a656teq0n25r","affiliation":"Catholic, Roman"},"type":"Feature","geometry":{"type":"Point","coordinates":[149.061289,-35.213525]}},{"properties":{"name":"St Francis Xavier College","latitude":-35.223979,"uniqueid":"2903","is systemic":"Systemic","postcode":2615,"level":"Secondary","suburb":"FLOREY","street":"Barnard Circuit","longitude":149.040615,"id":"a656tf49i3db","affiliation":"Catholic, Roman"},"type":"Feature","geometry":{"type":"Point","coordinates":[149.040615,-35.223979]}},{"properties":{"name":"St Thomas the Apostle Primary School","latitude":-35.382449,"uniqueid":"2904","is systemic":"Systemic","postcode":2902,"level":"Primary","suburb":"KAMBAH","street":"Boddington Crescent","longitude":149.051977,"id":"a656tf3b9bbn","affiliation":"Catholic, Roman"},"type":"Feature","geometry":{"type":"Point","coordinates":[149.051977,-35.382449]}},{"properties":{"name":"St Anthony's Parish School","latitude":-35.394049,"uniqueid":"2905","is systemic":"Systemic","postcode":2903,"level":"Primary","suburb":"WANNIASSA","street":"Wheeler Crescent","longitude":149.080086,"id":"a656tepbf5wb","affiliation":"Catholic, Roman"},"type":"Feature","geometry":{"type":"Point","coordinates":[149.080086,-35.394049]}},{"properties":{"name":"St John the Apostle Primary School","latitude":-35.225664,"uniqueid":"2907","is systemic":"Systemic","postcode":2615,"level":"Primary","suburb":"FLOREY","street":"Pawsey Circuit","longitude":149.041696,"id":"a656tez6r4a1","affiliation":"Catholic, Roman"},"type":"Feature","geometry":{"type":"Point","coordinates":[149.041696,-35.225664]}},{"properties":{"name":"Brindabella Christian College","latitude":-35.248056,"uniqueid":"2910","is systemic":"Non-Systemic","postcode":2602,"level":"Combined","suburb":"LYNEHAM","street":"136 Brigalow Street","longitude":149.12805,"id":"a656teuhxc40","affiliation":"Christian Schools"},"type":"Feature","geometry":{"type":"Point","coordinates":[149.12805,-35.248056]}},{"properties":{"name":"Trinity Christian School","latitude":-35.408265,"uniqueid":"2911","is systemic":"Non-Systemic","postcode":2903,"level":"Combined","suburb":"WANNIASSA","street":"34 McBryde Crs","longitude":149.086051,"id":"a656tesr3dw7","affiliation":"Christian Schools"},"type":"Feature","geometry":{"type":"Point","coordinates":[149.086051,-35.408265]}},{"properties":{"name":"Orana School","latitude":-35.327858,"uniqueid":"2912","is systemic":"Non-Systemic","postcode":2611,"level":"Combined","suburb":"WESTON","street":"Unwin Place","longitude":149.058949,"id":"a656teok8zzn","affiliation":"Steiner School"},"type":"Feature","geometry":{"type":"Point","coordinates":[149.058949,-35.327858]}},{"properties":{"name":"St Michael's Primary School","latitude":-35.223474,"uniqueid":"2913","is systemic":"Systemic","postcode":2617,"level":"Primary","suburb":"KALEEN","street":"Tyrell Circuit","longitude":149.109707,"id":"a656tewmz5qe","affiliation":"Catholic, Roman"},"type":"Feature","geometry":{"type":"Point","coordinates":[149.109707,-35.223474]}},{"properties":{"name":"Radford College","latitude":-35.243503,"uniqueid":"2914","is systemic":"Non-Systemic","postcode":2617,"level":"Combined","suburb":"BRUCE","street":"College Street","longitude":149.089323,"id":"a656teyfe5d4","affiliation":"Anglican"},"type":"Feature","geometry":{"type":"Point","coordinates":[149.089323,-35.243503]}},{"properties":{"name":"Holy Family Parish Primary School","latitude":-35.410301,"uniqueid":"4422","is systemic":"Systemic","postcode":2904,"level":"Primary","suburb":"GOWRIE","street":"Castleton Crescent","longitude":149.116552,"id":"a656tezd0zpu","affiliation":"Catholic, Roman"},"type":"Feature","geometry":{"type":"Point","coordinates":[149.116552,-35.410301]}},{"properties":{"name":"Ainslie School","latitude":-35.273729,"uniqueid":"4753","is systemic":null,"postcode":2602,"level":"Primary","suburb":"Braddon","street":"Donaldson Street","longitude":149.139632,"id":"a656teut9w31","affiliation":null},"type":"Feature","geometry":{"type":"Point","coordinates":[149.139632,-35.273729]}},{"properties":{"name":"Narrabundah College","latitude":-35.335969,"uniqueid":"4967","is systemic":null,"postcode":2604,"level":"Secondary","suburb":"Narrabundah","street":"Jerrabomberra Ave","longitude":149.147097,"id":"a656tf18h68m","affiliation":null},"type":"Feature","geometry":{"type":"Point","coordinates":[149.147097,-35.335969]}},{"properties":{"name":"St Francis of Assisi Primary School","latitude":-35.440799,"uniqueid":"5623","is systemic":"Systemic","postcode":2905,"level":"Primary","suburb":"CALWELL","street":"Casey Crescent","longitude":149.119593,"id":"a656tey9uaar","affiliation":"Catholic, Roman"},"type":"Feature","geometry":{"type":"Point","coordinates":[149.119593,-35.440799]}},{"properties":{"name":"Telopea Park School","latitude":-35.313804,"uniqueid":"5768","is systemic":null,"postcode":2600,"level":"Combined","suburb":"Barton","street":"New South Wales Crescent","longitude":149.134385,"id":"a656teweejdj","affiliation":null},"type":"Feature","geometry":{"type":"Point","coordinates":[149.134385,-35.313804]}},{"properties":{"name":"Duffy Primary School","latitude":-35.334219,"uniqueid":"5992","is systemic":null,"postcode":2611,"level":"Primary","suburb":"Duffy","street":"Burrinjuck Crescent","longitude":149.033656,"id":"a656tezh7m06","affiliation":null},"type":"Feature","geometry":{"type":"Point","coordinates":[149.033656,-35.334219]}},{"properties":{"name":"Caroline Chisholm School","latitude":-35.418155,"uniqueid":"6647","is systemic":null,"postcode":2905,"level":"Secondary","suburb":"Chisholm","street":"Hambridge Crescent","longitude":149.122047,"id":"a656tf0zg53r","affiliation":null},"type":"Feature","geometry":{"type":"Point","coordinates":[149.122047,-35.418155]}},{"properties":{"name":"Erindale College","latitude":-35.403473,"uniqueid":"6648","is systemic":null,"postcode":2903,"level":"Secondary","suburb":"Wanniassa","street":"McBryde Crescent","longitude":149.095654,"id":"a656teyf5991","affiliation":null},"type":"Feature","geometry":{"type":"Point","coordinates":[149.095654,-35.403473]}},{"properties":{"name":"Melba Copland Secondary School","latitude":-35.21254,"uniqueid":"6652","is systemic":null,"postcode":2615,"level":"Secondary","suburb":"Melba","street":"Copland Drive","longitude":149.059794,"id":"a656tf1rmnpb","affiliation":null},"type":"Feature","geometry":{"type":"Point","coordinates":[149.059794,-35.21254]}},{"properties":{"name":"Dickson College","latitude":-35.248452,"uniqueid":"6653","is systemic":null,"postcode":2602,"level":"Secondary","suburb":"Dickson","street":"Phillip Avenue","longitude":149.154143,"id":"a656teq1heud","affiliation":null},"type":"Feature","geometry":{"type":"Point","coordinates":[149.154143,-35.248452]}},{"properties":{"name":"Lyneham High School","latitude":-35.252379,"uniqueid":"6657","is systemic":null,"postcode":2602,"level":"Secondary","suburb":"Lyneham","street":"Goodwin Street","longitude":149.130653,"id":"a656teock2qk","affiliation":null},"type":"Feature","geometry":{"type":"Point","coordinates":[149.130653,-35.252379]}},{"properties":{"name":"Jervis Bay Primary School","latitude":-35.135012,"uniqueid":"10079","is systemic":null,"postcode":2540,"level":"Primary","suburb":"Jervis Bay","street":"Dykes Avenue","longitude":150.703614,"id":"a656tep6ogel","affiliation":null},"type":"Feature","geometry":{"type":"Point","coordinates":[150.703614,-35.135012]}},{"properties":{"name":"Alfred Deakin High School","latitude":-35.323849,"uniqueid":"10303","is systemic":null,"postcode":2600,"level":"Secondary","suburb":"Deakin","street":"Denison Street","longitude":149.094282,"id":"a656tf2q9mnf","affiliation":null},"type":"Feature","geometry":{"type":"Point","coordinates":[149.094282,-35.323849]}},{"properties":{"name":"Yarralumla Primary School","latitude":-35.306948,"uniqueid":"10310","is systemic":null,"postcode":2600,"level":"Primary","suburb":"Yarralumla","street":"Loftus Street","longitude":149.103234,"id":"a656tf396klv","affiliation":null},"type":"Feature","geometry":{"type":"Point","coordinates":[149.103234,-35.306948]}},{"properties":{"name":"Campbell High School","latitude":-35.278101,"uniqueid":"10311","is systemic":null,"postcode":2601,"level":"Secondary","suburb":"Campbell","street":"Treloar Crescent","longitude":149.147123,"id":"a656teoyir4m","affiliation":null},"type":"Feature","geometry":{"type":"Point","coordinates":[149.147123,-35.278101]}},{"properties":{"name":"Campbell Primary School","latitude":-35.290271,"uniqueid":"10313","is systemic":null,"postcode":2601,"level":"Primary","suburb":"Campbell","street":"Chauvel Street","longitude":149.156099,"id":"a656teuahxkg","affiliation":null},"type":"Feature","geometry":{"type":"Point","coordinates":[149.156099,-35.290271]}},{"properties":{"name":"The Co-Operative School","latitude":-35.264552,"uniqueid":"10315","is systemic":null,"postcode":2602,"level":"Primary","suburb":"O'Connor","street":"Macpherson Street","longitude":149.122499,"id":"a656tezirpa8","affiliation":null},"type":"Feature","geometry":{"type":"Point","coordinates":[149.122499,-35.264552]}},{"properties":{"name":"Turner School","latitude":-35.264995,"uniqueid":"10320","is systemic":null,"postcode":2601,"level":"Primary","suburb":"Turner","street":"Condamine Street","longitude":149.126081,"id":"a656tetsikrr","affiliation":null},"type":"Feature","geometry":{"type":"Point","coordinates":[149.126081,-35.264995]}},{"properties":{"name":"North Ainslie Primary School","latitude":-35.255113,"uniqueid":"10321","is systemic":null,"postcode":2602,"level":"Primary","suburb":"Ainslie","street":"Majura Avenue","longitude":149.146358,"id":"a656tf1gs2mn","affiliation":null},"type":"Feature","geometry":{"type":"Point","coordinates":[149.146358,-35.255113]}},{"properties":{"name":"Lyneham Primary School","latitude":-35.25148,"uniqueid":"10331","is systemic":null,"postcode":2602,"level":"Primary","suburb":"Lyneham","street":"Hall Street","longitude":149.124974,"id":"a656tew9syhb","affiliation":null},"type":"Feature","geometry":{"type":"Point","coordinates":[149.124974,-35.25148]}},{"properties":{"name":"Forrest Primary  School","latitude":-35.315084,"uniqueid":"10334","is systemic":null,"postcode":2603,"level":"Primary","suburb":"Forrest","street":"National Circuit","longitude":149.126171,"id":"a656tewqma10","affiliation":null},"type":"Feature","geometry":{"type":"Point","coordinates":[149.126171,-35.315084]}},{"properties":{"name":"Red Hill Primary School","latitude":-35.339741,"uniqueid":"10338","is systemic":null,"postcode":2603,"level":"Primary","suburb":"Red Hill","street":"Astrolabe Street","longitude":149.132893,"id":"a656tev4sjqm","affiliation":null},"type":"Feature","geometry":{"type":"Point","coordinates":[149.132893,-35.339741]}},{"properties":{"name":"Narrabundah Primary School","latitude":-35.329016,"uniqueid":"10342","is systemic":null,"postcode":2604,"level":"Primary","suburb":"Narrabundah","street":"Kootara Crescent","longitude":149.150698,"id":"a656tesdvki4","affiliation":null},"type":"Feature","geometry":{"type":"Point","coordinates":[149.150698,-35.329016]}},{"properties":{"name":"Garran Primary School","latitude":-35.344681,"uniqueid":"10347","is systemic":null,"postcode":2605,"level":"Primary","suburb":"Garran","street":"Gilmore Crescent","longitude":149.103287,"id":"a656tf3dduao","affiliation":null},"type":"Feature","geometry":{"type":"Point","coordinates":[149.103287,-35.344681]}},{"properties":{"name":"Hughes Primary School","latitude":-35.332248,"uniqueid":"10349","is systemic":null,"postcode":2605,"level":"Primary","suburb":"Hughes","street":"Kent Street","longitude":149.093456,"id":"a656tet63y01","affiliation":null},"type":"Feature","geometry":{"type":"Point","coordinates":[149.093456,-35.332248]}},{"properties":{"name":"Lyons Primary School","latitude":-35.341633,"uniqueid":"10353","is systemic":null,"postcode":2606,"level":"Primary","suburb":"Lyons","street":"Tarraleah Crescent","longitude":149.076243,"id":"a656teqdf3v1","affiliation":null},"type":"Feature","geometry":{"type":"Point","coordinates":[149.076243,-35.341633]}},{"properties":{"name":"The Canberra College","latitude":-35.34036,"uniqueid":"10354","is systemic":null,"postcode":2606,"level":"Secondary","suburb":"Phillip","street":"Launceston Street","longitude":149.088321,"id":"a656tf44cth9","affiliation":null},"type":"Feature","geometry":{"type":"Point","coordinates":[149.088321,-35.34036]}},{"properties":{"name":"Mawson Primary School","latitude":-35.358505,"uniqueid":"10359","is systemic":null,"postcode":2607,"level":"Primary","suburb":"Mawson","street":"Ainsworth Street","longitude":149.097655,"id":"a656teugn1vf","affiliation":null},"type":"Feature","geometry":{"type":"Point","coordinates":[149.097655,-35.358505]}},{"properties":{"name":"Melrose High School","latitude":-35.363475,"uniqueid":"10360","is systemic":null,"postcode":2607,"level":"Secondary","suburb":"Pearce","street":"Marr Street","longitude":149.089434,"id":"a656tetydewg","affiliation":null},"type":"Feature","geometry":{"type":"Point","coordinates":[149.089434,-35.363475]}},{"properties":{"name":"Torrens Primary School","latitude":-35.370046,"uniqueid":"10364","is systemic":null,"postcode":2607,"level":"Primary","suburb":"Torrens","street":"Ritchie Street","longitude":149.090949,"id":"a656tepzsnp7","affiliation":null},"type":"Feature","geometry":{"type":"Point","coordinates":[149.090949,-35.370046]}},{"properties":{"name":"Chapman Primary School","latitude":-35.356878,"uniqueid":"10365","is systemic":null,"postcode":2611,"level":"Primary","suburb":"Chapman","street":"Perry Drive","longitude":149.043079,"id":"a656tevye67i","affiliation":null},"type":"Feature","geometry":{"type":"Point","coordinates":[149.043079,-35.356878]}},{"properties":{"name":"Aranda Primary School","latitude":-35.255999,"uniqueid":"10376","is systemic":null,"postcode":2614,"level":"Primary","suburb":"Aranda","street":"Banambila Crescent","longitude":149.079914,"id":"a656tewr7hbg","affiliation":null},"type":"Feature","geometry":{"type":"Point","coordinates":[149.079914,-35.255999]}},{"properties":{"name":"Belconnen High School","latitude":-35.246957,"uniqueid":"10377","is systemic":null,"postcode":2614,"level":"Secondary","suburb":"Hawker","street":"Murranji Street","longitude":149.039298,"id":"a656tetwnnk8","affiliation":null},"type":"Feature","geometry":{"type":"Point","coordinates":[149.039298,-35.246957]}},{"properties":{"name":"Canberra High School","latitude":-35.251302,"uniqueid":"10378","is systemic":null,"postcode":2614,"level":"Secondary","suburb":"Macquarie","street":"Bindubi Street","longitude":149.074517,"id":"a656texx1789","affiliation":null},"type":"Feature","geometry":{"type":"Point","coordinates":[149.074517,-35.251302]}},{"properties":{"name":"Hawker College","latitude":-35.244317,"uniqueid":"10380","is systemic":null,"postcode":2614,"level":"Secondary","suburb":"Hawker","street":"Murranji Street","longitude":149.031897,"id":"a656tezvwpwi","affiliation":null},"type":"Feature","geometry":{"type":"Point","coordinates":[149.031897,-35.244317]}},{"properties":{"name":"Hawker Primary School","latitude":-35.250284,"uniqueid":"10381","is systemic":null,"postcode":2614,"level":"Primary","suburb":"Hawker","street":"Erldunda Circuit","longitude":149.034593,"id":"a656teydszze","affiliation":null},"type":"Feature","geometry":{"type":"Point","coordinates":[149.034593,-35.250284]}},{"properties":{"name":"Macquarie Primary School","latitude":-35.250069,"uniqueid":"10382","is systemic":null,"postcode":2614,"level":"Primary","suburb":"Macquarie","street":"Bennelong Crescent","longitude":149.059393,"id":"a656tevpxb1e","affiliation":null},"type":"Feature","geometry":{"type":"Point","coordinates":[149.059393,-35.250069]}},{"properties":{"name":"Weetangera Primary School","latitude":-35.251826,"uniqueid":"10385","is systemic":null,"postcode":2614,"level":"Primary","suburb":"Weetangera","street":"Southwell Street","longitude":149.047137,"id":"a656tew6dsvt","affiliation":null},"type":"Feature","geometry":{"type":"Point","coordinates":[149.047137,-35.251826]}},{"properties":{"name":"Charnwood-Dunlop School","latitude":-35.198682,"uniqueid":"10387","is systemic":null,"postcode":2615,"level":"Primary","suburb":"Charnwood","street":"Bettington Circuit","longitude":149.036203,"id":"a656teuxaa9s","affiliation":null},"type":"Feature","geometry":{"type":"Point","coordinates":[149.036203,-35.198682]}},{"properties":{"name":"Fraser Primary School","latitude":-35.191795,"uniqueid":"10389","is systemic":null,"postcode":2615,"level":"Primary","suburb":"Fraser","street":"Tillyard Drive","longitude":149.043375,"id":"a656teu4vj8u","affiliation":null},"type":"Feature","geometry":{"type":"Point","coordinates":[149.043375,-35.191795]}},{"properties":{"name":"Higgins Primary School","latitude":-35.232764,"uniqueid":"10390","is systemic":null,"postcode":2615,"level":"Primary","suburb":"Higgins","street":"Fullagar Crescent","longitude":149.024452,"id":"a656teym1t8p","affiliation":null},"type":"Feature","geometry":{"type":"Point","coordinates":[149.024452,-35.232764]}},{"properties":{"name":"Holt Primary School","latitude":-35.222654,"uniqueid":"10391","is systemic":null,"postcode":2615,"level":"Primary","suburb":"Holt","street":"Beaurepaire Crescent","longitude":149.012022,"id":"a656teqw72al","affiliation":null},"type":"Feature","geometry":{"type":"Point","coordinates":[149.012022,-35.222654]}},{"properties":{"name":"Latham Primary School","latitude":-35.220157,"uniqueid":"10392","is systemic":null,"postcode":2615,"level":"Primary","suburb":"Latham","street":"O'Loghlen Street","longitude":149.034298,"id":"a656tes5rwyb","affiliation":null},"type":"Feature","geometry":{"type":"Point","coordinates":[149.034298,-35.220157]}},{"properties":{"name":"Macgregor Primary School","latitude":-35.213112,"uniqueid":"10393","is systemic":null,"postcode":2615,"level":"Primary","suburb":"Macgregor","street":"Hirschfeld Crescent","longitude":149.012349,"id":"a656teqqm4ux","affiliation":null},"type":"Feature","geometry":{"type":"Point","coordinates":[149.012349,-35.213112]}},{"properties":{"name":"Mount Rogers Primary School","latitude":-35.208737,"uniqueid":"10394","is systemic":null,"postcode":2615,"level":"Primary","suburb":"Melba","street":"Alfred Hill Drive","longitude":149.055621,"id":"a656teqyj4kp","affiliation":null},"type":"Feature","geometry":{"type":"Point","coordinates":[149.055621,-35.208737]}},{"properties":{"name":"Evatt Primary School","latitude":-35.20707,"uniqueid":"10397","is systemic":null,"postcode":2617,"level":"Primary","suburb":"Evatt","street":"Heydon Crescent","longitude":149.075906,"id":"a656teq2tr0k","affiliation":null},"type":"Feature","geometry":{"type":"Point","coordinates":[149.075906,-35.20707]}},{"properties":{"name":"Giralang Primary School","latitude":-35.213717,"uniqueid":"10398","is systemic":null,"postcode":2617,"level":"Primary","suburb":"Giralang","street":"Canopus Crescent","longitude":149.094449,"id":"a656tf3qqhjg","affiliation":null},"type":"Feature","geometry":{"type":"Point","coordinates":[149.094449,-35.213717]}},{"properties":{"name":"Kaleen High School","latitude":-35.225083,"uniqueid":"10399","is systemic":null,"postcode":2617,"level":"Secondary","suburb":"Kaleen","street":"Baldwin Drive","longitude":149.1012,"id":"a656teo7iv1k","affiliation":null},"type":"Feature","geometry":{"type":"Point","coordinates":[149.1012,-35.225083]}},{"properties":{"name":"Kaleen Primary School","latitude":-35.224835,"uniqueid":"10400","is systemic":null,"postcode":2617,"level":"Primary","suburb":"Kaleen","street":"Ashburton Circuit","longitude":149.11404,"id":"a656tep1pxnf","affiliation":null},"type":"Feature","geometry":{"type":"Point","coordinates":[149.11404,-35.224835]}},{"properties":{"name":"Maribyrnong Primary School","latitude":-35.235115,"uniqueid":"10401","is systemic":null,"postcode":2617,"level":"Primary","suburb":"Kaleen","street":"Alberga Street","longitude":149.102261,"id":"a656teurtd6t","affiliation":null},"type":"Feature","geometry":{"type":"Point","coordinates":[149.102261,-35.235115]}},{"properties":{"name":"Miles Franklin Primary School","latitude":-35.213295,"uniqueid":"10402","is systemic":null,"postcode":2617,"level":"Primary","suburb":"Evatt","street":"Alderman Street","longitude":149.066961,"id":"a656tet4b06k","affiliation":null},"type":"Feature","geometry":{"type":"Point","coordinates":[149.066961,-35.213295]}},{"properties":{"name":"Taylor Primary School","latitude":-35.378318,"uniqueid":"11119","is systemic":null,"postcode":2902,"level":"Primary","suburb":"Kambah","street":"Marconi Crescent","longitude":149.064261,"id":"a656terps8vg","affiliation":null},"type":"Feature","geometry":{"type":"Point","coordinates":[149.064261,-35.378318]}},{"properties":{"name":"Urambi Primary School","latitude":-35.394483,"uniqueid":"11120","is systemic":null,"postcode":2902,"level":"Primary","suburb":"Kambah","street":"Snodgrass Crescent","longitude":149.063336,"id":"a656tevt64sg","affiliation":null},"type":"Feature","geometry":{"type":"Point","coordinates":[149.063336,-35.394483]}},{"properties":{"name":"Wanniassa School","latitude":-35.394992,"uniqueid":"11122","is systemic":null,"postcode":2903,"level":"Combined","suburb":"Wanniassa","street":"Sternberg Crescent","longitude":149.086363,"id":"a656tf313ri9","affiliation":null},"type":"Feature","geometry":{"type":"Point","coordinates":[149.086363,-35.394992]}},{"properties":{"name":"Wanniassa Hills Primary School","latitude":-35.393069,"uniqueid":"11123","is systemic":null,"postcode":2903,"level":"Primary","suburb":"Wanniassa","street":"Langdon Avenue","longitude":149.095898,"id":"a656tevlq5bu","affiliation":null},"type":"Feature","geometry":{"type":"Point","coordinates":[149.095898,-35.393069]}},{"properties":{"name":"Fadden Primary School","latitude":-35.404286,"uniqueid":"11124","is systemic":null,"postcode":2904,"level":"Primary","suburb":"Fadden","street":"Hanlon Crescent","longitude":149.118175,"id":"a656teoqdw2a","affiliation":null},"type":"Feature","geometry":{"type":"Point","coordinates":[149.118175,-35.404286]}},{"properties":{"name":"Gowrie Primary School","latitude":-35.413608,"uniqueid":"11125","is systemic":null,"postcode":2904,"level":"Primary","suburb":"Gowrie","street":"Jeffries Street","longitude":149.110565,"id":"a656teoj1iou","affiliation":null},"type":"Feature","geometry":{"type":"Point","coordinates":[149.110565,-35.413608]}},{"properties":{"name":"Monash Primary School","latitude":-35.414879,"uniqueid":"11126","is systemic":null,"postcode":2904,"level":"Primary","suburb":"Monash","street":"Corlette Street","longitude":149.089411,"id":"a656tf2hnnwj","affiliation":null},"type":"Feature","geometry":{"type":"Point","coordinates":[149.089411,-35.414879]}},{"properties":{"name":"Richardson Primary  School","latitude":-35.428859,"uniqueid":"11127","is systemic":null,"postcode":2905,"level":"Primary","suburb":"Richardson","street":"May Gibbs Close","longitude":149.113943,"id":"a656tepsm8xl","affiliation":null},"type":"Feature","geometry":{"type":"Point","coordinates":[149.113943,-35.428859]}},{"properties":{"name":"Canberra Montessori School","latitude":-35.332247,"uniqueid":"13363","is systemic":"Non-Systemic","postcode":2611,"level":"Primary","suburb":"HOLDER","street":"35 Mulley Street","longitude":149.051068,"id":"a656teo4qzl1","affiliation":"Montessori School"},"type":"Feature","geometry":{"type":"Point","coordinates":[149.051068,-35.332247]}},{"properties":{"name":"Covenant College","latitude":-35.439222,"uniqueid":"13364","is systemic":"Non-Systemic","postcode":2906,"level":"Combined","suburb":"GORDON","street":"Woodcock Drv","longitude":149.090709,"id":"a656tewjld7k","affiliation":"Christian Schools"},"type":"Feature","geometry":{"type":"Point","coordinates":[149.090709,-35.439222]}},{"properties":{"name":"St Clare of Assisi Primary School","latitude":-35.45791,"uniqueid":"13976","is systemic":"Systemic","postcode":2906,"level":"Primary","suburb":"CONDER","street":"Cnr Boxhill Avenue and Heidelberg Street","longitude":149.096766,"id":"a656ter3hkfl","affiliation":"Catholic, Roman"},"type":"Feature","geometry":{"type":"Point","coordinates":[149.096766,-35.45791]}},{"properties":{"name":"Lake Ginninderra College","latitude":-35.239149,"uniqueid":"14231","is systemic":null,"postcode":2616,"level":"Secondary","suburb":"Belconnen","street":"Emu Bank","longitude":149.074161,"id":"a656tf1gflro","affiliation":null},"type":"Feature","geometry":{"type":"Point","coordinates":[149.074161,-35.239149]}},{"properties":{"name":"Lake Tuggeranong College","latitude":-35.413803,"uniqueid":"14381","is systemic":null,"postcode":2900,"level":"Secondary","suburb":"Tuggeranong","street":"Cowlishaw Street","longitude":149.068195,"id":"a656tequanx5","affiliation":null},"type":"Feature","geometry":{"type":"Point","coordinates":[149.068195,-35.413803]}},{"properties":{"name":"Calwell Primary School","latitude":-35.438412,"uniqueid":"14382","is systemic":null,"postcode":2905,"level":"Primary","suburb":"Calwell","street":"Downard Street","longitude":149.109254,"id":"a656terhy7ie","affiliation":null},"type":"Feature","geometry":{"type":"Point","coordinates":[149.109254,-35.438412]}},{"properties":{"name":"Calwell High School","latitude":-35.441052,"uniqueid":"14383","is systemic":null,"postcode":2905,"level":"Secondary","suburb":"Calwell","street":"Casey Crescent","longitude":149.117635,"id":"a656tf3jmwbp","affiliation":null},"type":"Feature","geometry":{"type":"Point","coordinates":[149.117635,-35.441052]}},{"properties":{"name":"Majura Primary School","latitude":-35.238509,"uniqueid":"14384","is systemic":null,"postcode":2602,"level":"Primary","suburb":"Watson","street":"Knox Street","longitude":149.15501,"id":"a656tewhr429","affiliation":null},"type":"Feature","geometry":{"type":"Point","coordinates":[149.15501,-35.238509]}},{"properties":{"name":"Arawang Primary School","latitude":-35.355017,"uniqueid":"14386","is systemic":null,"postcode":2611,"level":"Primary","suburb":"Waramanga","street":"Nemarang Crescent","longitude":149.059719,"id":"a656tf3r1h3j","affiliation":null},"type":"Feature","geometry":{"type":"Point","coordinates":[149.059719,-35.355017]}},{"properties":{"name":"Florey Primary  School","latitude":-35.226519,"uniqueid":"14387","is systemic":null,"postcode":2615,"level":"Primary","suburb":"Florey","street":"Ratcliffe Crescent","longitude":149.052092,"id":"a656tf1ihlax","affiliation":null},"type":"Feature","geometry":{"type":"Point","coordinates":[149.052092,-35.226519]}},{"properties":{"name":"Gilmore Primary School","latitude":-35.419488,"uniqueid":"14389","is systemic":null,"postcode":2905,"level":"Primary","suburb":"Gilmore","street":"Heagney Crescent","longitude":149.135582,"id":"a656tew9qfqe","affiliation":null},"type":"Feature","geometry":{"type":"Point","coordinates":[149.135582,-35.419488]}},{"properties":{"name":"Isabella Plains Primary School","latitude":-35.428716,"uniqueid":"14390","is systemic":null,"postcode":2905,"level":"Primary","suburb":"Isabella Plains","street":"Ellerston Avenue","longitude":149.089497,"id":"a656tew4a432","affiliation":null},"type":"Feature","geometry":{"type":"Point","coordinates":[149.089497,-35.428716]}},{"properties":{"name":"Holy Spirit Primary School","latitude":-35.180246,"uniqueid":"14629","is systemic":"Systemic","postcode":2913,"level":"Primary","suburb":"NICHOLLS","street":"Kelleway Avenue","longitude":149.101809,"id":"a656tew1nygz","affiliation":"Catholic, Roman"},"type":"Feature","geometry":{"type":"Point","coordinates":[149.101809,-35.180246]}},{"properties":{"name":"Palmerston Primary School","latitude":-35.1975,"uniqueid":"14727","is systemic":null,"postcode":2913,"level":"Primary","suburb":"Palmerston","street":"Kosciusko Avenue","longitude":149.120303,"id":"a656tep262rj","affiliation":null},"type":"Feature","geometry":{"type":"Point","coordinates":[149.120303,-35.1975]}},{"properties":{"name":"Black Mountain School","latitude":-35.265224,"uniqueid":"14728","is systemic":null,"postcode":2601,"level":"Special","suburb":"O'Connor","street":"Dryandra Street","longitude":149.112366,"id":"a656teqdhdge","affiliation":null},"type":"Feature","geometry":{"type":"Point","coordinates":[149.112366,-35.265224]}},{"properties":{"name":"Stromlo High School","latitude":-35.355429,"uniqueid":"14839","is systemic":null,"postcode":2611,"level":"Combined","suburb":"Waramanga","street":"Badimara Street","longitude":149.05436,"id":"a656tf1c61ng","affiliation":null},"type":"Feature","geometry":{"type":"Point","coordinates":[149.05436,-35.355429]}},{"properties":{"name":"Conder Primary School","latitude":-35.464883,"uniqueid":"14840","is systemic":null,"postcode":2905,"level":"Primary","suburb":"Conder","street":"Tom Roberts Avenue","longitude":149.098449,"id":"a656teyqsi0o","affiliation":null},"type":"Feature","geometry":{"type":"Point","coordinates":[149.098449,-35.464883]}},{"properties":{"name":"Curtin Primary School","latitude":-35.331662,"uniqueid":"14841","is systemic":null,"postcode":2605,"level":"Primary","suburb":"Curtin","street":"Theodore Street","longitude":149.079926,"id":"a656tf2eiytw","affiliation":null},"type":"Feature","geometry":{"type":"Point","coordinates":[149.079926,-35.331662]}},{"properties":{"name":"Theodore Primary School","latitude":-35.447667,"uniqueid":"15030","is systemic":null,"postcode":2905,"level":"Primary","suburb":"Theodore","street":"Lawrence-Wackett Crescent","longitude":149.12396,"id":"a656teohy81j","affiliation":null},"type":"Feature","geometry":{"type":"Point","coordinates":[149.12396,-35.447667]}},{"properties":{"name":"The Woden School","latitude":-35.326599,"uniqueid":"15031","is systemic":null,"postcode":2600,"level":"Special","suburb":"Deakin","street":"Denison Street","longitude":149.092398,"id":"a656tes5r08h","affiliation":null},"type":"Feature","geometry":{"type":"Point","coordinates":[149.092398,-35.326599]}},{"properties":{"name":"Gordon Primary School","latitude":-35.455517,"uniqueid":"15066","is systemic":null,"postcode":2906,"level":"Primary","suburb":"Gordon","street":"Knoke Avenue","longitude":149.086978,"id":"a656teylliwq","affiliation":null},"type":"Feature","geometry":{"type":"Point","coordinates":[149.086978,-35.455517]}},{"properties":{"name":"Malkara School","latitude":-35.337447,"uniqueid":"15082","is systemic":null,"postcode":2605,"level":"Special","suburb":"Garran","street":"Wisdom Street","longitude":149.09402,"id":"a656teyzx1kw","affiliation":null},"type":"Feature","geometry":{"type":"Point","coordinates":[149.09402,-35.337447]}},{"properties":{"name":"Southern Cross Primary School","latitude":-35.232767,"uniqueid":"15083","is systemic":null,"postcode":2614,"level":"Primary","suburb":"Scullin","street":"Wirraway Crescent","longitude":149.038363,"id":"a656tersgrjd","affiliation":null},"type":"Feature","geometry":{"type":"Point","coordinates":[149.038363,-35.232767]}},{"properties":{"name":"Bonython Primary School","latitude":-35.431846,"uniqueid":"15096","is systemic":null,"postcode":2905,"level":"Primary","suburb":"Bonython","street":"Hurtle Avenue","longitude":149.082604,"id":"a656tf0661d2","affiliation":null},"type":"Feature","geometry":{"type":"Point","coordinates":[149.082604,-35.431846]}},{"properties":{"name":"Lanyon High School","latitude":-35.460389,"uniqueid":"15373","is systemic":null,"postcode":2905,"level":"Secondary","suburb":"Conder","street":"Heidelberg Street","longitude":149.09507,"id":"a656tf4a28qu","affiliation":null},"type":"Feature","geometry":{"type":"Point","coordinates":[149.09507,-35.460389]}},{"properties":{"name":"Ngunnawal Primary  School","latitude":-35.169196,"uniqueid":"15844","is systemic":null,"postcode":2913,"level":"Primary","suburb":"Ngunnawal","street":"Unaipon Avenue","longitude":149.111784,"id":"a656teop72w0","affiliation":null},"type":"Feature","geometry":{"type":"Point","coordinates":[149.111784,-35.169196]}},{"properties":{"name":"Mackillop Catholic College","latitude":-35.424911,"uniqueid":"15941","is systemic":"Systemic","postcode":2905,"level":"Secondary","suburb":"ISABELLA PLAINS","street":"Ellerston Avenue","longitude":149.092808,"id":"a656tev6d00s","affiliation":"Catholic, Roman"},"type":"Feature","geometry":{"type":"Point","coordinates":[149.092808,-35.424911]}},{"properties":{"name":"Emmaus Christian School","latitude":-35.253355,"uniqueid":"15951","is systemic":"Non-Systemic","postcode":2602,"level":"Combined","suburb":"DICKSON","street":"Davenport Street","longitude":149.142818,"id":"a656tf1c6q83","affiliation":"Christian Schools"},"type":"Feature","geometry":{"type":"Point","coordinates":[149.142818,-35.253355]}},{"properties":{"name":"Gold Creek School","latitude":-35.181275,"uniqueid":"15980","is systemic":null,"postcode":2913,"level":"Combined","suburb":"Nicholls","street":"Kelleway Avenue","longitude":149.100262,"id":"a656ter9sy7w","affiliation":null},"type":"Feature","geometry":{"type":"Point","coordinates":[149.100262,-35.181275]}},{"properties":{"name":"Burgmann Anglican School","latitude":-35.188529,"uniqueid":"16044","is systemic":"Non-Systemic","postcode":2912,"level":"Combined","suburb":"GUNGAHLIN","street":"Cnr The Valley Avenue and Gungahlin Drive","longitude":149.123672,"id":"a656terzgfef","affiliation":"Anglican"},"type":"Feature","geometry":{"type":"Point","coordinates":[149.123672,-35.188529]}},{"properties":{"name":"The Galilee School","latitude":-35.380778,"uniqueid":"16302","is systemic":"Non-Systemic","postcode":2902,"level":"Combined","suburb":"KAMBAH","street":"Kambah Pool Road","longitude":149.035968,"id":"a656tf2yd819","affiliation":"Other"},"type":"Feature","geometry":{"type":"Point","coordinates":[149.035968,-35.380778]}},{"properties":{"name":"Farrer Primary  School","latitude":-35.378739,"uniqueid":"16583","is systemic":null,"postcode":2607,"level":"Primary","suburb":"Farrer","street":"Lambrigg Street","longitude":149.107114,"id":"a656tezn32jl","affiliation":null},"type":"Feature","geometry":{"type":"Point","coordinates":[149.107114,-35.378739]}},{"properties":{"name":"Cranleigh School","latitude":-35.224913,"uniqueid":"16585","is systemic":null,"postcode":2615,"level":"Special","suburb":"Holt","street":"Starke Street","longitude":149.02911,"id":"a656tf3z57ns","affiliation":null},"type":"Feature","geometry":{"type":"Point","coordinates":[149.02911,-35.224913]}},{"properties":{"name":"Good Shepherd Primary School","latitude":-35.166843,"uniqueid":"17130","is systemic":"Systemic","postcode":2914,"level":"Primary","suburb":"AMAROO","street":"Burdekin Avenue","longitude":149.123922,"id":"a656tex16cii","affiliation":"Catholic, Roman"},"type":"Feature","geometry":{"type":"Point","coordinates":[149.123922,-35.166843]}},{"properties":{"name":"Blue Gum Community School","latitude":-35.246571,"uniqueid":"17215","is systemic":"Non-Systemic","postcode":2602,"level":"Combined","suburb":"HACKETT","street":"114 Maitland Street","longitude":149.15938,"id":"a656tf23h7x9","affiliation":"Non-Denominational"},"type":"Feature","geometry":{"type":"Point","coordinates":[149.15938,-35.246571]}},{"properties":{"name":"Amaroo School","latitude":-35.16392,"uniqueid":"17809","is systemic":null,"postcode":2914,"level":"Combined","suburb":"Amaroo","street":"Katherine Avenue","longitude":149.125588,"id":"a656tf3fsw8q","affiliation":null},"type":"Feature","geometry":{"type":"Point","coordinates":[149.125588,-35.16392]}},{"properties":{"name":"Islamic School of Canberra","latitude":-35.240588,"uniqueid":"22837","is systemic":"Non-Systemic","postcode":2602,"level":"Primary","suburb":"WATSON","street":"49 Phillip Avenue","longitude":149.15037,"id":"a656teukkc2j","affiliation":"Muslim"},"type":"Feature","geometry":{"type":"Point","coordinates":[149.15037,-35.240588]}},{"properties":{"name":"Harrison School","latitude":-35.1975306,"uniqueid":"28128","is systemic":null,"postcode":2914,"level":"Primary","suburb":"Harrison","street":"Nullabor Avenue","longitude":149.1516423,"id":"a656tepioi81","affiliation":null},"type":"Feature","geometry":{"type":"Point","coordinates":[149.1516423,-35.1975306]}},{"properties":{"name":"Canberra Grammar School","latitude":-35.285316,"uniqueid":"2060b","is systemic":"Non-Systemic","postcode":2612,"level":"Combined","suburb":"CAMPBELL","street":"Blamey Crescent","longitude":149.147091,"id":"a656teqyb4tw","affiliation":"Anglican"},"type":"Feature","geometry":{"type":"Point","coordinates":[149.147091,-35.285316]}},{"properties":{"name":"Canberra Girls' Grammar School","latitude":-35.312126,"uniqueid":"2061b","is systemic":"Non-Systemic","postcode":2600,"level":"Combined","suburb":"DEAKIN","street":"Grey Street","longitude":149.110759,"id":"a656tf233x0h","affiliation":"Anglican"},"type":"Feature","geometry":{"type":"Point","coordinates":[149.110759,-35.312126]}},{"properties":{"name":"Canberra Montessori School","latitude":-35.339388,"uniqueid":"13363b","is systemic":"Non-Systemic","postcode":2603,"level":"Primary","suburb":"RED HILL","street":"28 Astrolabe Street","longitude":149.133153,"id":"a656tey6qyr1","affiliation":"Montessori School"},"type":"Feature","geometry":{"type":"Point","coordinates":[149.133153,-35.339388]}},{"properties":{"name":"Mackillop Catholic College","latitude":-35.405251,"uniqueid":"15941b","is systemic":"Systemic","postcode":2903,"level":"Secondary","suburb":"WANNIASSA","street":"Mackinnon Street","longitude":149.090983,"id":"a656tez1ysmu","affiliation":"Catholic, Roman"},"type":"Feature","geometry":{"type":"Point","coordinates":[149.090983,-35.405251]}},{"properties":{"name":"Canberra Grammar School","latitude":-35.332344,"uniqueid":"2060c","is systemic":"Non-Systemic","postcode":2603,"level":"Combined","suburb":"RED HILL","street":"Alexander Street","longitude":149.124691,"id":"a656tf4ej99l","affiliation":"Anglican"},"type":"Feature","geometry":{"type":"Point","coordinates":[149.124691,-35.332344]}}],"is_temporal":false,"author":{"url":"","metadata":"","contact_name":"","contact_address":"","source":"","contact_phone":""},"source":"","pagination":{"sort":null,"start":0,"total":133,"limit":1000000},"state":"complete","tags":"","published":"2014-08-13T03:56:53-04:00","id":174235}