{"type":"FeatureCollection","data_type":"Dataset","url_type":null,"permissions":[{"permissions":{"download":true,"view":true},"group_id":"everyone"}],"classification":null,"title":"PastDueTicketsByCity","count":834,"stream_id":174485,"contributor":{"url":"http://geocommons.com/users/34729","name":"eortiz1985"},"data_attributes":null,"calculation_params":null,"icon_link":null,"link":"http://geocommons.com/overlays/174485.json","extent":[-169.428,-14.2194,-70.886,48.0776],"geometry_types":["point"],"unique_name":null,"name":"PastDueTicketsByCity","feature_count":834,"description":"","next_feature":null,"is_raster":false,"short_classification":"Y","stats":{"total":{"max":16,"variance":1.15801284542596,"mean":1.41606714628297,"stdev":1.07611005265538,"min":1,"median":1}},"features":[{"properties":{"geo_score":0.864,"total":1,"id":"a63rpv4ttg1n","geo_precision":"zip","address":"US-52, Gilbert, WV, 25621-1775"},"type":"Feature","geometry":{"type":"Point","coordinates":[-81.876507,37.638442]}},{"properties":{"geo_score":0.871,"total":1,"id":"a63rpussudyl","geo_precision":"zip","address":"SR-10, Oceana, WV, 24870-0635"},"type":"Feature","geometry":{"type":"Point","coordinates":[-81.597609,37.712889]}},{"properties":{"geo_score":1.0,"total":1,"id":"a63rpuw7vjr9","geo_precision":"street","address":"Pinecrest Lake Rd, Pinecrest, CA, 95364"},"type":"Feature","geometry":{"type":"Point","coordinates":[-120.000554,38.189414]}},{"properties":{"geo_score":0.895,"total":1,"id":"a63rpuv53txz","geo_precision":"zip","address":"Mt Wilson Rd Red Box, Arcadia, CA, 91006"},"type":"Feature","geometry":{"type":"Point","coordinates":[-118.017567,34.105564]}},{"properties":{"geo_score":0.607,"total":1,"id":"a63rpuw8y6lh","geo_precision":"street","address":"Larned, Larned, KS, 67550"},"type":"Feature","geometry":{"type":"Point","coordinates":[-99.095558,37.947759]}},{"properties":{"geo_score":0.286,"total":1,"id":"a63rpuv8h0eb","geo_precision":"street","address":"I-80, Hermitage, PA, 16148"},"type":"Feature","geometry":{"type":"Point","coordinates":[-80.36034,40.998995]}},{"properties":{"geo_score":0.714,"total":1,"id":"a63rpv2fyx7w","geo_precision":"street","address":"I-40, Fenner, CA, 92332"},"type":"Feature","geometry":{"type":"Point","coordinates":[-116.9938,34.88657]}},{"properties":{"geo_score":0.393,"total":1,"id":"a63rputexcf6","geo_precision":"street","address":"Hwy 8, Jacumba, CA, 91934"},"type":"Feature","geometry":{"type":"Point","coordinates":[-117.048816,32.775661]}},{"properties":{"geo_score":0.883,"total":3,"id":"a63rpv6fyzrn","geo_precision":"zip","address":"Highway 190, Death Valley, CA, 92328"},"type":"Feature","geometry":{"type":"Point","coordinates":[-116.855608,36.511059]}},{"properties":{"geo_score":0.75,"total":1,"id":"a63rputsxlpw","geo_precision":"street","address":"Highway 100, Laguna Heights, TX, 78578"},"type":"Feature","geometry":{"type":"Point","coordinates":[-97.210368,26.075608]}},{"properties":{"geo_score":0.551,"total":1,"id":"a63rpv583e36","geo_precision":"street","address":"Grace Way, Canaan, CT, 6018"},"type":"Feature","geometry":{"type":"Point","coordinates":[-95.975164,28.992162]}},{"properties":{"geo_score":0.5,"total":1,"id":"a63rpuv0dyzu","geo_precision":"street","address":"Gene Camp, Parker Dam, CA, 92267"},"type":"Feature","geometry":{"type":"Point","coordinates":[-116.171284,33.674738]}},{"properties":{"geo_score":0.88,"total":1,"id":"a63rpuyxi3wd","geo_precision":"zip","address":"Delbarton, Delbarton, WV, 25670"},"type":"Feature","geometry":{"type":"Point","coordinates":[-82.156522,37.664271]}},{"properties":{"geo_score":0.893,"total":1,"id":"a63rpuxqj29f","geo_precision":"street","address":"Campground Road, Lake Ozark, MO, 65049"},"type":"Feature","geometry":{"type":"Point","coordinates":[-92.604235,38.149276]}},{"properties":{"geo_score":0.415,"total":1,"id":"a63rpv4ch4bt","geo_precision":"street","address":"9966 Marsh Lane, Dallas, TX, 752201710"},"type":"Feature","geometry":{"type":"Point","coordinates":[-87.063294,31.116106]}},{"properties":{"geo_score":1.0,"total":1,"id":"a63rpv53h5yu","geo_precision":"range","address":"996 W Parker Rd, Plano, TX, 75075-2339"},"type":"Feature","geometry":{"type":"Point","coordinates":[-96.714133,33.040894]}},{"properties":{"geo_score":0.927,"total":1,"id":"a63rpv8gfy71","geo_precision":"range","address":"995 Poquonnock Rd, Groton, CT, 06340-4257"},"type":"Feature","geometry":{"type":"Point","coordinates":[-72.051808,41.346881]}},{"properties":{"geo_score":0.916,"total":1,"id":"a63rpuxh57e3","geo_precision":"range","address":"9930 E 21st St, Tulsa, OK, 74129-1620"},"type":"Feature","geometry":{"type":"Point","coordinates":[-95.865731,36.133475]}},{"properties":{"geo_score":0.941,"total":1,"id":"a63rpux3liry","geo_precision":"range","address":"991 Fairmont Rd, Morgantown, WV, 26501-2234"},"type":"Feature","geometry":{"type":"Point","coordinates":[-79.985551,39.630297]}},{"properties":{"geo_score":0.789,"total":1,"id":"a63rpuvrtie7","geo_precision":"range","address":"985 W Cliff Drive, Santa Cruz, CA, 95060"},"type":"Feature","geometry":{"type":"Point","coordinates":[-122.036646,36.952915]}},{"properties":{"geo_score":0.902,"total":1,"id":"a63rpv2v0uyl","geo_precision":"range","address":"9842 13th St, Garden Grove, CA, 92844-3171"},"type":"Feature","geometry":{"type":"Point","coordinates":[-117.957404,33.755865]}},{"properties":{"geo_score":0.916,"total":1,"id":"a63rpuuaabcd","geo_precision":"range","address":"979 Us Highway 1, North Brunswick, NJ, 08902-2712"},"type":"Feature","geometry":{"type":"Point","coordinates":[-74.469151,40.458845]}},{"properties":{"geo_score":0.902,"total":2,"id":"a63rputz9us3","geo_precision":"range","address":"9772 Diagonal Rd, Mantua, OH, 44255-9160"},"type":"Feature","geometry":{"type":"Point","coordinates":[-81.282787,41.256475]}},{"properties":{"geo_score":0.912,"total":2,"id":"a63rpv5n5vbq","geo_precision":"range","address":"9701 Belleville Rd, Belleville, MI, 48111"},"type":"Feature","geometry":{"type":"Point","coordinates":[-83.486068,42.235885]}},{"properties":{"geo_score":0.579,"total":1,"id":"a63rpv0tw50w","geo_precision":"street","address":"97 Williams Dr, Spencer, WV, 25276-1825"},"type":"Feature","geometry":{"type":"Point","coordinates":[-81.720838,38.818577]}},{"properties":{"geo_score":0.722,"total":1,"id":"a63rpv36fb0x","geo_precision":"street","address":"9660 Via De La Amistad Ste 103, San Diego, CA, 92154-5211"},"type":"Feature","geometry":{"type":"Point","coordinates":[-116.935897,32.552884]}},{"properties":{"geo_score":1.0,"total":2,"id":"a63rpv7x63n1","geo_precision":"range","address":"9641 Sunset Blvd, Beverly Hills, CA, 90210-2938"},"type":"Feature","geometry":{"type":"Point","coordinates":[-118.412425,34.081347]}},{"properties":{"geo_score":0.932,"total":1,"id":"a63rpusv86qy","geo_precision":"range","address":"956 E Main St, Wytheville, VA, 24382-3306"},"type":"Feature","geometry":{"type":"Point","coordinates":[-81.070189,36.951529]}},{"properties":{"geo_score":0.809,"total":1,"id":"a63rpv7mivrh","geo_precision":"street","address":"951 Avenida Pico, San Clemente, CA, 92673-3908"},"type":"Feature","geometry":{"type":"Point","coordinates":[-117.61352,33.44449]}},{"properties":{"geo_score":0.854,"total":2,"id":"a63rpuue1oqt","geo_precision":"range","address":"94 Orchard Unit Rec, Irvine, CA, 92618-4555"},"type":"Feature","geometry":{"type":"Point","coordinates":[-117.772154,33.67034]}},{"properties":{"geo_score":0.61,"total":1,"id":"a63rpuvcujra","geo_precision":"street","address":"937 Park Circle Dr, Brookfield, MO, 64628-7920"},"type":"Feature","geometry":{"type":"Point","coordinates":[-93.070888,39.790852]}},{"properties":{"geo_score":0.466,"total":1,"id":"a63rpus4795n","geo_precision":"street","address":"9300 South Ih-35 Bldg \"b\", Austin, TX, 78748"},"type":"Feature","geometry":{"type":"Point","coordinates":[-97.848688,30.162566]}},{"properties":{"geo_score":1.0,"total":1,"id":"a63rpuz6m5xm","geo_precision":"range","address":"930 Springtown Blvd, Livermore, CA, 94551-1434"},"type":"Feature","geometry":{"type":"Point","coordinates":[-121.741439,37.705419]}},{"properties":{"geo_score":0.913,"total":1,"id":"a63rpuxbzvpc","geo_precision":"range","address":"930 S Washington St, Kokomo, IN, 46901-5318"},"type":"Feature","geometry":{"type":"Point","coordinates":[-86.133591,40.477274]}},{"properties":{"geo_score":0.634,"total":1,"id":"a63rpuxbjjkm","geo_precision":"street","address":"93 Berth, San Pedro, CA, 90731"},"type":"Feature","geometry":{"type":"Point","coordinates":[-118.263004,33.762817]}},{"properties":{"geo_score":1.0,"total":1,"id":"a63rpuwt87rw","geo_precision":"range","address":"928 N 160th St, Shoreline, WA, 98133-5615"},"type":"Feature","geometry":{"type":"Point","coordinates":[-122.347765,47.745046]}},{"properties":{"geo_score":0.919,"total":1,"id":"a63rpv6cqcvb","geo_precision":"range","address":"9254 New Hampshire Ave, Silver Spring, MD, 20903-3630"},"type":"Feature","geometry":{"type":"Point","coordinates":[-76.980546,39.006262]}},{"properties":{"geo_score":0.911,"total":2,"id":"a63rpuszn400","geo_precision":"range","address":"9246 Avenida Miravilla , Beaumont, CA, 92223-3835"},"type":"Feature","geometry":{"type":"Point","coordinates":[-116.961852,33.986569]}},{"properties":{"geo_score":0.845,"total":1,"id":"a63rpuxcs43t","geo_precision":"range","address":"923 N 14th Street, Murphysboro, IL, 62966"},"type":"Feature","geometry":{"type":"Point","coordinates":[-89.338167,37.774273]}},{"properties":{"geo_score":0.927,"total":1,"id":"a63rpv5yoltq","geo_precision":"range","address":"9210 Kiefer Blvd, Sacramento, CA, 95826-5157"},"type":"Feature","geometry":{"type":"Point","coordinates":[-121.357567,38.547296]}},{"properties":{"geo_score":1.0,"total":3,"id":"a63rpuwz66h7","geo_precision":"range","address":"921 S Beacon St, San Pedro, CA, 90731-3740"},"type":"Feature","geometry":{"type":"Point","coordinates":[-118.280447,33.735832]}},{"properties":{"geo_score":0.908,"total":1,"id":"a63rpuszq18i","geo_precision":"range","address":"9151 Riggs Rd, Adelphi, MD, 20783"},"type":"Feature","geometry":{"type":"Point","coordinates":[-76.969611,39.004841]}},{"properties":{"geo_score":1.0,"total":2,"id":"a63rpuuwez4e","geo_precision":"range","address":"9124 Van Nuys Blvd, Panorama City, CA, 91402-1418"},"type":"Feature","geometry":{"type":"Point","coordinates":[-118.450249,34.23585]}},{"properties":{"geo_score":1.0,"total":1,"id":"a63rput82y00","geo_precision":"range","address":"911 S China Lake Blvd, Ridgecrest, CA, 93555"},"type":"Feature","geometry":{"type":"Point","coordinates":[-117.670303,35.609457]}},{"properties":{"geo_score":1.0,"total":1,"id":"a63rpux1dtuh","geo_precision":"range","address":"910 French St, Santa Ana, CA, 92701-3720"},"type":"Feature","geometry":{"type":"Point","coordinates":[-117.864521,33.75321]}},{"properties":{"geo_score":0.619,"total":2,"id":"a63rpv28ary8","geo_precision":"zip","address":"91 Berths, San Pedro, CA, 90731"},"type":"Feature","geometry":{"type":"Point","coordinates":[-118.253053,33.753088]}},{"properties":{"geo_score":0.941,"total":1,"id":"a63rpv5b2aug","geo_precision":"range","address":"9028 Gallatin Rd, Pico Rivera, CA, 90660-1528"},"type":"Feature","geometry":{"type":"Point","coordinates":[-118.078521,34.016909]}},{"properties":{"geo_score":0.902,"total":1,"id":"a63rpuweop1l","geo_precision":"range","address":"901 Walmart Way, Midlothian, VA, 23113-2600"},"type":"Feature","geometry":{"type":"Point","coordinates":[-77.628416,37.504829]}},{"properties":{"geo_score":0.829,"total":2,"id":"a63rpv4evf2f","geo_precision":"range","address":"9001 Southside Dr, Yosemite, CA, 95389"},"type":"Feature","geometry":{"type":"Point","coordinates":[-119.651921,37.717743]}},{"properties":{"geo_score":1.0,"total":3,"id":"a63rpv84bsfg","geo_precision":"range","address":"899 Market St, San Francisco, CA, 94103"},"type":"Feature","geometry":{"type":"Point","coordinates":[-122.408067,37.783991]}},{"properties":{"geo_score":0.973,"total":1,"id":"a63rpuxrgh3p","geo_precision":"range","address":"8982 Chapman Ave, Garden Grove, CA, 92841-2345"},"type":"Feature","geometry":{"type":"Point","coordinates":[-117.975616,33.788471]}},{"properties":{"geo_score":1.0,"total":2,"id":"a63rpuug67dn","geo_precision":"range","address":"8923 Puritan St, Detroit, MI, 48238-1165"},"type":"Feature","geometry":{"type":"Point","coordinates":[-83.158947,42.409718]}},{"properties":{"geo_score":0.805,"total":1,"id":"a63rpv1s4dag","geo_precision":"street","address":"8912 Veterans Memorial Blvd, Metairie, LA, 70003"},"type":"Feature","geometry":{"type":"Point","coordinates":[-90.207015,30.005487]}},{"properties":{"geo_score":0.923,"total":1,"id":"a63rpv52jhkn","geo_precision":"range","address":"89 Kendall St, Clifton Springs, NY, 14432-9701"},"type":"Feature","geometry":{"type":"Point","coordinates":[-77.140015,42.967682]}},{"properties":{"geo_score":1.0,"total":1,"id":"a63rpurzhvvp","geo_precision":"range","address":"8835 Vans St, Paramount, CA, 90723-4656"},"type":"Feature","geometry":{"type":"Point","coordinates":[-118.144079,33.891948]}},{"properties":{"geo_score":0.82,"total":3,"id":"a63rpuum4rvj","geo_precision":"range","address":"8827 Old River Rd, Marcy, NY, 13403-3030"},"type":"Feature","geometry":{"type":"Point","coordinates":[-75.735674,43.382076]}},{"properties":{"geo_score":0.61,"total":2,"id":"a63rpv58ukan","geo_precision":"street","address":"881 Tangerine, Irvine, CA, 92606"},"type":"Feature","geometry":{"type":"Point","coordinates":[-117.772625,33.67408]}},{"properties":{"geo_score":0.928,"total":1,"id":"a63rpuwtapzh","geo_precision":"range","address":"873 Sutton Way, Grass Valley, CA, 95945-5178"},"type":"Feature","geometry":{"type":"Point","coordinates":[-121.034374,39.226165]}},{"properties":{"geo_score":0.945,"total":1,"id":"a63rpuyshg90","geo_precision":"range","address":"8714 Little River Turnpke, Fairfax, VA, 22031-3311"},"type":"Feature","geometry":{"type":"Point","coordinates":[-77.246529,38.837913]}},{"properties":{"geo_score":1.0,"total":1,"id":"a63rpv23n6k7","geo_precision":"range","address":"8693 Irvine Center Dr, Irvine, CA, 92618-4219"},"type":"Feature","geometry":{"type":"Point","coordinates":[-117.751619,33.660733]}},{"properties":{"geo_score":0.915,"total":1,"id":"a63rpv41cqdz","geo_precision":"range","address":"8650 Madison Blvd, Madison, AL, 35758-1803"},"type":"Feature","geometry":{"type":"Point","coordinates":[-86.741048,34.680973]}},{"properties":{"geo_score":0.941,"total":1,"id":"a63rpux9s2sh","geo_precision":"range","address":"8639 Whittier Blvd , Pico Rivera , CA, 90660-2654"},"type":"Feature","geometry":{"type":"Point","coordinates":[-118.088073,34.003032]}},{"properties":{"geo_score":0.911,"total":2,"id":"a63rpuu56wx6","geo_precision":"range","address":"8629 Richmond Hwy, Alexandria, VA, 22309-4201"},"type":"Feature","geometry":{"type":"Point","coordinates":[-77.119542,38.723341]}},{"properties":{"geo_score":0.929,"total":1,"id":"a63rpuujuh2k","geo_precision":"range","address":"8600 Baltimore Ave, College Park, MD, 20740-2103"},"type":"Feature","geometry":{"type":"Point","coordinates":[-76.93194,38.99566]}},{"properties":{"geo_score":1.0,"total":1,"id":"a63rpv6buz8c","geo_precision":"range","address":"86 Waverly Dr, Pasadena, CA, 91105-2512"},"type":"Feature","geometry":{"type":"Point","coordinates":[-118.152001,34.139637]}},{"properties":{"geo_score":0.92,"total":1,"id":"a63rpuudu3s7","geo_precision":"range","address":"8531 Orcutt Ave, Hampton, VA, 23605-1417"},"type":"Feature","geometry":{"type":"Point","coordinates":[-76.439285,37.031318]}},{"properties":{"geo_score":0.957,"total":2,"id":"a63rpuv65tpw","geo_precision":"range","address":"8500 C W Post Rd, Jonesboro, AR, 72401-9645"},"type":"Feature","geometry":{"type":"Point","coordinates":[-90.572462,35.80736]}},{"properties":{"geo_score":0.805,"total":2,"id":"a63rpv6r8nxe","geo_precision":"range","address":"850 E Foothill Blvd, Rialto, CA, 92375"},"type":"Feature","geometry":{"type":"Point","coordinates":[-117.355317,34.106798]}},{"properties":{"geo_score":1.0,"total":1,"id":"a63rpuzz8c7b","geo_precision":"range","address":"8492 Warner Ave, Huntington Beach, CA, 92647-6043"},"type":"Feature","geometry":{"type":"Point","coordinates":[-117.980734,33.715669]}},{"properties":{"geo_score":0.973,"total":3,"id":"a63rpuw7bk8u","geo_precision":"range","address":"8471 Chapman Ave, Garden Grove, CA, 92841-2201"},"type":"Feature","geometry":{"type":"Point","coordinates":[-117.984797,33.788419]}},{"properties":{"geo_score":1.0,"total":1,"id":"a63rpuvtlqvi","geo_precision":"range","address":"8400 Fair Oaks Blvd, Carmichael, CA, 95608-2502"},"type":"Feature","geometry":{"type":"Point","coordinates":[-121.307884,38.636499]}},{"properties":{"geo_score":1.0,"total":1,"id":"a63rpv82jx13","geo_precision":"range","address":"8375 Sudley Rd, Manassas, VA, 20109-3508"},"type":"Feature","geometry":{"type":"Point","coordinates":[-77.5024,38.774711]}},{"properties":{"geo_score":1.0,"total":1,"id":"a63rpuwb2fqs","geo_precision":"range","address":"837 S Gaffey St, San Pedro, CA, 90731-3612"},"type":"Feature","geometry":{"type":"Point","coordinates":[-118.292334,33.736867]}},{"properties":{"geo_score":0.924,"total":1,"id":"a63rpv2lyu6w","geo_precision":"range","address":"836 Eastern Blvd, Essex, MD, 21221-3503"},"type":"Feature","geometry":{"type":"Point","coordinates":[-76.466677,39.312049]}},{"properties":{"geo_score":0.916,"total":2,"id":"a63rpuzea43u","geo_precision":"range","address":"8319 Old Keene Mill Rd, Springfield, VA, 22152"},"type":"Feature","geometry":{"type":"Point","coordinates":[-77.22992,38.77992]}},{"properties":{"geo_score":0.805,"total":2,"id":"a63rpv41fkzk","geo_precision":"range","address":"830 Loring Ave, Crockett, CA, 94525-1104"},"type":"Feature","geometry":{"type":"Point","coordinates":[-122.218658,38.055907]}},{"properties":{"geo_score":1.0,"total":1,"id":"a63rpv8dt5a8","geo_precision":"range","address":"8230 Talbert Ave, Huntington Beach, CA, 92646-1545"},"type":"Feature","geometry":{"type":"Point","coordinates":[-117.982736,33.701181]}},{"properties":{"geo_score":0.941,"total":1,"id":"a63rput873nu","geo_precision":"range","address":"8215 Mentor Ave, Mentor, OH, 44060"},"type":"Feature","geometry":{"type":"Point","coordinates":[-81.346576,41.664798]}},{"properties":{"geo_score":0.415,"total":2,"id":"a63rpuxavv37","geo_precision":"street","address":"8211 Old Centreville Road, Manassas, VA, 201112116"},"type":"Feature","geometry":{"type":"Point","coordinates":[-74.68009,42.589929]}},{"properties":{"geo_score":0.92,"total":1,"id":"a63rpuwhdszq","geo_precision":"range","address":"821 N Belmont Ave, Springfield, OH, 45503-3515"},"type":"Feature","geometry":{"type":"Point","coordinates":[-83.778701,39.931877]}},{"properties":{"geo_score":0.837,"total":1,"id":"a63rpuu0jn3s","geo_precision":"range","address":"81673 Highway 111, Indio, CA, 92201-5488"},"type":"Feature","geometry":{"type":"Point","coordinates":[-116.240021,33.709295]}},{"properties":{"geo_score":0.919,"total":1,"id":"a63rpv1da99o","geo_precision":"range","address":"8155 Elliott Rd, Easton, MD, 21601-7131"},"type":"Feature","geometry":{"type":"Point","coordinates":[-76.056466,38.77659]}},{"properties":{"geo_score":0.545,"total":1,"id":"a63rpuz2v1rm","geo_precision":"street","address":"81-500 Highway 111, Indio, CA, 92201-5411"},"type":"Feature","geometry":{"type":"Point","coordinates":[-116.242607,33.707615]}},{"properties":{"geo_score":1.0,"total":2,"id":"a63rpv28ur2y","geo_precision":"range","address":"8141 Orion Ave, Van Nuys, CA, 91406-1435"},"type":"Feature","geometry":{"type":"Point","coordinates":[-118.472102,34.217747]}},{"properties":{"geo_score":1.0,"total":1,"id":"a63rpv0g8il6","geo_precision":"range","address":"814 Camden St, San Antonio, TX, 78215-1445"},"type":"Feature","geometry":{"type":"Point","coordinates":[-98.487208,29.437457]}},{"properties":{"geo_score":0.626,"total":1,"id":"a63rpv26q8cd","geo_precision":"street","address":"8117-1 Ocean Gateway, Easton, MD, 21601-8677"},"type":"Feature","geometry":{"type":"Point","coordinates":[-76.063825,38.75425]}},{"properties":{"geo_score":0.822,"total":2,"id":"a63rpuvxj9mw","geo_precision":"range","address":"808 E Broadway, Sedalia, MO, 65301"},"type":"Feature","geometry":{"type":"Point","coordinates":[-93.217869,38.703785]}},{"properties":{"geo_score":0.902,"total":1,"id":"a63rpv4cy3vc","geo_precision":"range","address":"807 E 8th St, National City, CA, 91950-2442"},"type":"Feature","geometry":{"type":"Point","coordinates":[-117.098672,32.678144]}},{"properties":{"geo_score":1.0,"total":1,"id":"a63rpusmj54c","geo_precision":"range","address":"8060 Dale St, Buena Park, CA, 90620-2251"},"type":"Feature","geometry":{"type":"Point","coordinates":[-117.984862,33.845555]}},{"properties":{"geo_score":1.0,"total":5,"id":"a63rpuwnl54j","geo_precision":"range","address":"8039 Beach Blvd, Buena Park, CA, 90620-3200"},"type":"Feature","geometry":{"type":"Point","coordinates":[-117.997795,33.846163]}},{"properties":{"geo_score":1.0,"total":1,"id":"a63rpuvigjxc","geo_precision":"range","address":"8030 Bandera Rd, San Antonio, TX, 78250-5130"},"type":"Feature","geometry":{"type":"Point","coordinates":[-98.634599,29.515679]}},{"properties":{"geo_score":0.488,"total":1,"id":"a63rput7l304","geo_precision":"range","address":"802 W 56th Highway, OLATHE, KS, 0"},"type":"Feature","geometry":{"type":"Point","coordinates":[-87.683105,32.058428]}},{"properties":{"geo_score":1.0,"total":2,"id":"a63rpv3k3p74","geo_precision":"range","address":"8008 Cedar Springs Rd, Dallas, TX, 75235-2852"},"type":"Feature","geometry":{"type":"Point","coordinates":[-96.847278,32.842183]}},{"properties":{"geo_score":0.925,"total":2,"id":"a63rpv813i21","geo_precision":"range","address":"800 World Way, Los Angeles, CA, 90045-5868"},"type":"Feature","geometry":{"type":"Point","coordinates":[-118.40041,33.943015]}},{"properties":{"geo_score":0.542,"total":1,"id":"a63rpv6hhq9r","geo_precision":"street","address":"800 Southwell, Yoakum, TX, 77995"},"type":"Feature","geometry":{"type":"Point","coordinates":[-97.136001,29.297546]}},{"properties":{"geo_score":1.0,"total":1,"id":"a63rpv2u74vb","geo_precision":"range","address":"797 S Zaragoza Rd, El Paso, TX, 79907-6656"},"type":"Feature","geometry":{"type":"Point","coordinates":[-106.335568,31.675015]}},{"properties":{"geo_score":0.707,"total":2,"id":"a63rpuu57lim","geo_precision":"range","address":"79295 Us Hwy 111, La Quinta, CA, 92253-2060"},"type":"Feature","geometry":{"type":"Point","coordinates":[-116.279395,33.707414]}},{"properties":{"geo_score":0.608,"total":1,"id":"a63rpv5ringk","geo_precision":"zip","address":"7926 Painters Ave, Whittier , CA, 90602-2413"},"type":"Feature","geometry":{"type":"Point","coordinates":[-118.036578,33.971839]}},{"properties":{"geo_score":0.911,"total":1,"id":"a63rpv4pjbb2","geo_precision":"range","address":"7910 Richmond Hwy, Alexandria, VA, 22306-7826"},"type":"Feature","geometry":{"type":"Point","coordinates":[-77.084953,38.742969]}},{"properties":{"geo_score":0.878,"total":1,"id":"a63rpuxy5lns","geo_precision":"range","address":"788 S US Highway 17, San Mateo, FL, 32187"},"type":"Feature","geometry":{"type":"Point","coordinates":[-81.607107,29.588813]}},{"properties":{"geo_score":0.489,"total":4,"id":"a63rpv2tn0pg","geo_precision":"street","address":"7800 Col. H Weir Cook Memorial Drive, Indianapolis, IN, 46241"},"type":"Feature","geometry":{"type":"Point","coordinates":[-86.294761,39.683963]}},{"properties":{"geo_score":0.61,"total":1,"id":"a63rpuz8kelc","geo_precision":"street","address":"780 Lynnway, Lynn, MA, 01905-3026"},"type":"Feature","geometry":{"type":"Point","coordinates":[-70.947467,42.459334]}},{"properties":{"geo_score":0.818,"total":2,"id":"a63rpuxh9yr2","geo_precision":"street","address":"7701 Quarterfield Rd, Glen Burnie, MD, 21061-4427"},"type":"Feature","geometry":{"type":"Point","coordinates":[-76.639119,39.147971]}},{"properties":{"geo_score":0.542,"total":1,"id":"a63rpv4aopl2","geo_precision":"street","address":"77 Norman Morgan Blvd, Logan, WV, 25601-3477"},"type":"Feature","geometry":{"type":"Point","coordinates":[-81.992674,37.850142]}},{"properties":{"geo_score":0.902,"total":1,"id":"a63rpuu1jk69","geo_precision":"range","address":"7555 W Irving Park Rd, Chicago, IL, 60634"},"type":"Feature","geometry":{"type":"Point","coordinates":[-87.816213,41.952553]}},{"properties":{"geo_score":0.72,"total":1,"id":"a63rpuz3wlun","geo_precision":"street","address":"7550 NW 186th St, Hialeah, FL, 33015-2928"},"type":"Feature","geometry":{"type":"Point","coordinates":[-80.302109,25.942418]}},{"properties":{"geo_score":0.505,"total":1,"id":"a63rpv2wor00","geo_precision":"street","address":"7550 Mission Hills Dr, Naples, FL, 34119-9603"},"type":"Feature","geometry":{"type":"Point","coordinates":[-81.781994,26.241725]}},{"properties":{"geo_score":1.0,"total":2,"id":"a63rpux3n6ru","geo_precision":"range","address":"7511 Clay Ave, Huntington Beach, CA, 92648-6226"},"type":"Feature","geometry":{"type":"Point","coordinates":[-117.997035,33.683001]}},{"properties":{"geo_score":0.594,"total":1,"id":"a63rpv6zqo47","geo_precision":"zip","address":"7501 Dunmanway, Baltimore, MD, 21222-5456"},"type":"Feature","geometry":{"type":"Point","coordinates":[-76.514685,39.24483]}},{"properties":{"geo_score":1.0,"total":1,"id":"a63rpuw3osle","geo_precision":"range","address":"750 S Indian Hill Blvd, Claremont, CA, 91711-5450"},"type":"Feature","geometry":{"type":"Point","coordinates":[-117.719176,34.08232]}},{"properties":{"geo_score":1.0,"total":1,"id":"a63rpuuzhgo5","geo_precision":"range","address":"749 Colonel Ledyard Hwy, Ledyard, CT, 06339-1511"},"type":"Feature","geometry":{"type":"Point","coordinates":[-72.017262,41.443294]}},{"properties":{"geo_score":1.0,"total":1,"id":"a63rpv1hq3i1","geo_precision":"range","address":"7330 W Waters Ave, TAMPA, FL, 33634-2222"},"type":"Feature","geometry":{"type":"Point","coordinates":[-82.561534,28.025844]}},{"properties":{"geo_score":1.0,"total":1,"id":"a63rpv03nr3o","geo_precision":"range","address":"733 Hindry Ave, Inglewood, CA, 90301-3030"},"type":"Feature","geometry":{"type":"Point","coordinates":[-118.373525,33.954339]}},{"properties":{"geo_score":0.976,"total":1,"id":"a63rpv2uc7v0","geo_precision":"range","address":"730 E Randall Wobbe Ln, Springdale, AR, 72764-8168"},"type":"Feature","geometry":{"type":"Point","coordinates":[-94.122199,36.202939]}},{"properties":{"geo_score":1.0,"total":2,"id":"a63rpv3akso4","geo_precision":"range","address":"7295 Johnson Dr, Pleasanton, CA, 94588"},"type":"Feature","geometry":{"type":"Point","coordinates":[-121.917894,37.692117]}},{"properties":{"geo_score":0.819,"total":1,"id":"a63rputfzvu6","geo_precision":"range","address":"729 18th St, Plano, TX, 75074-5603"},"type":"Feature","geometry":{"type":"Point","coordinates":[-96.706026,33.02401]}},{"properties":{"geo_score":0.922,"total":1,"id":"a63rpv63xd7s","geo_precision":"range","address":"7272 E GAGE AVE, Los Angeles, CA, 90040-3813"},"type":"Feature","geometry":{"type":"Point","coordinates":[-118.127403,33.974481]}},{"properties":{"geo_score":0.919,"total":1,"id":"a63rpv7eqt7d","geo_precision":"range","address":"7246 S Rosemead Blvd, Pico Rivera, CA, 90660-4010"},"type":"Feature","geometry":{"type":"Point","coordinates":[-118.099437,33.979798]}},{"properties":{"geo_score":1.0,"total":1,"id":"a63rputh22rp","geo_precision":"range","address":"724 N Wabash Ave, Lakeland, FL, 33815-1188"},"type":"Feature","geometry":{"type":"Point","coordinates":[-81.990129,28.049951]}},{"properties":{"geo_score":0.932,"total":1,"id":"a63rpv3iueom","geo_precision":"range","address":"7225 Old Keene Mill Rd, Springfield, VA, 22150-3509"},"type":"Feature","geometry":{"type":"Point","coordinates":[-77.193938,38.777781]}},{"properties":{"geo_score":0.955,"total":1,"id":"a63rpuu2vf9j","geo_precision":"range","address":"7208 Brook Valley Dr, San Antonio, TX, 78242-2112"},"type":"Feature","geometry":{"type":"Point","coordinates":[-98.617743,29.356151]}},{"properties":{"geo_score":0.902,"total":1,"id":"a63rpv7q2dzd","geo_precision":"range","address":"7200 San Leandro St, Oakland, CA, 94621-3305"},"type":"Feature","geometry":{"type":"Point","coordinates":[-122.197148,37.753471]}},{"properties":{"geo_score":0.902,"total":1,"id":"a63rpv02ub9t","geo_precision":"range","address":"720 FAIRMOUNT AVE, JAMESTOWN, NY, 14701-2628"},"type":"Feature","geometry":{"type":"Point","coordinates":[-79.280448,42.09723]}},{"properties":{"geo_score":1.0,"total":1,"id":"a63rpv35ipbh","geo_precision":"range","address":"710 Dennery Rd, San Diego, CA, 92154-8400"},"type":"Feature","geometry":{"type":"Point","coordinates":[-117.032341,32.583079]}},{"properties":{"geo_score":0.902,"total":1,"id":"a63rpuu1rcxp","geo_precision":"range","address":"709 W Holme St, Norton, KS, 67654-1251"},"type":"Feature","geometry":{"type":"Point","coordinates":[-99.896873,39.83812]}},{"properties":{"geo_score":0.805,"total":1,"id":"a63rpv46f19x","geo_precision":"street","address":"7040 Hull Street, Richmond, VA, 23224-2550"},"type":"Feature","geometry":{"type":"Point","coordinates":[-77.486648,37.493694]}},{"properties":{"geo_score":1.0,"total":1,"id":"a63rpv62kuy0","geo_precision":"range","address":"7020 Magnolia Ave, Riverside, CA, 92506-2803"},"type":"Feature","geometry":{"type":"Point","coordinates":[-117.400335,33.947301]}},{"properties":{"geo_score":0.927,"total":1,"id":"a63rpv7611lr","geo_precision":"range","address":"7014 Archibald St, Corona, CA, 92880-8718"},"type":"Feature","geometry":{"type":"Point","coordinates":[-117.593049,33.960425]}},{"properties":{"geo_score":1.0,"total":1,"id":"a63rpuyt6ki3","geo_precision":"range","address":"7011 W Waters Ave, TAMPA, FL, 33634-2203"},"type":"Feature","geometry":{"type":"Point","coordinates":[-82.558353,28.025731]}},{"properties":{"geo_score":0.912,"total":1,"id":"a63rpuuqvfkt","geo_precision":"range","address":"701 W. Torrance Blvd, Torrance, CA, 90502-1730"},"type":"Feature","geometry":{"type":"Point","coordinates":[-118.286816,33.842056]}},{"properties":{"geo_score":0.962,"total":1,"id":"a63rpv7lsk1l","geo_precision":"range","address":"701 E Water St, Sandusky, OH, 44870"},"type":"Feature","geometry":{"type":"Point","coordinates":[-82.702939,41.460428]}},{"properties":{"geo_score":0.919,"total":3,"id":"a63rpuy1cznm","geo_precision":"range","address":"7004 GAGE AVE, Bell, CA, 90201-2014"},"type":"Feature","geometry":{"type":"Point","coordinates":[-118.131778,33.972742]}},{"properties":{"geo_score":0.924,"total":1,"id":"a63rpv0sppmd","geo_precision":"range","address":"7000 Del Valle Rd, Livermore, CA, 94550-9533"},"type":"Feature","geometry":{"type":"Point","coordinates":[-121.684144,37.561402]}},{"properties":{"geo_score":0.925,"total":7,"id":"a63rpuyj3oz9","geo_precision":"range","address":"700 World Way, Los Angeles, CA, 90045-5836"},"type":"Feature","geometry":{"type":"Point","coordinates":[-118.401709,33.942813]}},{"properties":{"geo_score":0.97,"total":1,"id":"a63rpuun6ean","geo_precision":"range","address":"700 W New Haven Ave, Melbourne, FL, 32901"},"type":"Feature","geometry":{"type":"Point","coordinates":[-80.632116,28.078758]}},{"properties":{"geo_score":0.751,"total":2,"id":"a63rpuxitrnj","geo_precision":"range","address":"700 S Tyler, Amarillo, TX, 79101-2336"},"type":"Feature","geometry":{"type":"Point","coordinates":[-101.8384,35.206728]}},{"properties":{"geo_score":0.807,"total":1,"id":"a63rpv2z2mqw","geo_precision":"street","address":"700 N State St, Bunnell, FL, 32110-8051"},"type":"Feature","geometry":{"type":"Point","coordinates":[-81.26203,29.468719]}},{"properties":{"geo_score":0.61,"total":1,"id":"a63rpv85pelh","geo_precision":"range","address":"700 Mt Vermont Ave, Portsmouth, VA, 237071310"},"type":"Feature","geometry":{"type":"Point","coordinates":[-91.816389,31.623048]}},{"properties":{"geo_score":0.929,"total":1,"id":"a63rputex768","geo_precision":"range","address":"700 Elm Ridge Center Dr, Rochester, NY, 14626"},"type":"Feature","geometry":{"type":"Point","coordinates":[-77.730838,43.215224]}},{"properties":{"geo_score":0.902,"total":2,"id":"a63rpv0g3zeu","geo_precision":"range","address":"700 E Main Street, Purcellville, VA, 20132-3128"},"type":"Feature","geometry":{"type":"Point","coordinates":[-77.704985,39.136497]}},{"properties":{"geo_score":0.875,"total":1,"id":"a63rpuzt1vvz","geo_precision":"range","address":"70 N Main, Shortsville, NY, 14548"},"type":"Feature","geometry":{"type":"Point","coordinates":[-77.21344,42.955895]}},{"properties":{"geo_score":0.847,"total":1,"id":"a63rpuwsa06t","geo_precision":"range","address":"7 Grace Way, Canaan, CT, 06018-2415"},"type":"Feature","geometry":{"type":"Point","coordinates":[-73.33206,42.012658]}},{"properties":{"geo_score":1.0,"total":2,"id":"a63rpv5s1h2z","geo_precision":"range","address":"6980 Main St, Stratford, CT, 06614-1361"},"type":"Feature","geometry":{"type":"Point","coordinates":[-73.101343,41.248775]}},{"properties":{"geo_score":0.916,"total":1,"id":"a63rpuz0g26v","geo_precision":"range","address":"6980 40th St North, Pinellas Park, FL, 33781"},"type":"Feature","geometry":{"type":"Point","coordinates":[-82.687742,27.835445]}},{"properties":{"geo_score":1.0,"total":1,"id":"a63rpusp5jvg","geo_precision":"range","address":"6960 W Oakton St, Niles, IL, 60714-3025"},"type":"Feature","geometry":{"type":"Point","coordinates":[-87.799646,42.026392]}},{"properties":{"geo_score":0.913,"total":1,"id":"a63rpusxosyz","geo_precision":"range","address":"6800 Livingston Rd, Oxon Hill, MD, 20745-2944"},"type":"Feature","geometry":{"type":"Point","coordinates":[-76.984257,38.796437]}},{"properties":{"geo_score":0.792,"total":1,"id":"a63rpuwzi0b7","geo_precision":"range","address":"680 Hwy 51 N, Hammond, LA, 70401"},"type":"Feature","geometry":{"type":"Point","coordinates":[-90.482526,30.50724]}},{"properties":{"geo_score":0.902,"total":1,"id":"a63rpusc2dmi","geo_precision":"range","address":"6788 State Route 31 E, Newark, NY, 14513-9232"},"type":"Feature","geometry":{"type":"Point","coordinates":[-77.054856,43.055741]}},{"properties":{"geo_score":1.0,"total":1,"id":"a63rpv4zu70t","geo_precision":"range","address":"6770 N Atlantic Ave, Cape Canaveral, FL, 32920-3853"},"type":"Feature","geometry":{"type":"Point","coordinates":[-80.605598,28.378698]}},{"properties":{"geo_score":1.0,"total":1,"id":"a63rpv3ig54o","geo_precision":"range","address":"675 Paularino Ave, Costa Mesa, CA, 92626-3039"},"type":"Feature","geometry":{"type":"Point","coordinates":[-117.884284,33.682383]}},{"properties":{"geo_score":0.959,"total":2,"id":"a63rpv3492v3","geo_precision":"range","address":"6710 ESPLANADE ST, MARINA DEL REY, CA, 90293"},"type":"Feature","geometry":{"type":"Point","coordinates":[-118.449937,33.960274]}},{"properties":{"geo_score":0.737,"total":1,"id":"a63rpv4d9o9e","geo_precision":"range","address":"6701 Auburn Blvd, Citrus Heights, CA, 95621-4211"},"type":"Feature","geometry":{"type":"Point","coordinates":[-121.3087,38.686951]}},{"properties":{"geo_score":0.833,"total":2,"id":"a63rpuvj5cqk","geo_precision":"range","address":"666 W 19th Cm, Costa Mesa, CA, 92627-2717"},"type":"Feature","geometry":{"type":"Point","coordinates":[-117.926127,33.643416]}},{"properties":{"geo_score":1.0,"total":2,"id":"a63rpuxb0kp0","geo_precision":"range","address":"6619 Midnight Pass Rd, Sarasota, FL, 34242-2508"},"type":"Feature","geometry":{"type":"Point","coordinates":[-82.53383,27.249852]}},{"properties":{"geo_score":0.916,"total":1,"id":"a63rpv6as9rq","geo_precision":"range","address":"65959 Harrison St, Thermal, CA, 92274"},"type":"Feature","geometry":{"type":"Point","coordinates":[-116.181464,33.571142]}},{"properties":{"geo_score":1.0,"total":1,"id":"a63rpuu0sha2","geo_precision":"range","address":"657 Palm Ave, Imperial Beach, CA, 91932-1227"},"type":"Feature","geometry":{"type":"Point","coordinates":[-117.119109,32.583903]}},{"properties":{"geo_score":0.941,"total":1,"id":"a63rputnyvox","geo_precision":"range","address":"6500 Heisley Rd, Mentor, OH, 44060"},"type":"Feature","geometry":{"type":"Point","coordinates":[-81.306559,41.694297]}},{"properties":{"geo_score":0.692,"total":1,"id":"a63rpv1qcjoo","geo_precision":"street","address":"647 N San Vicente Bl, West Hollywood, CA, 90069-5018"},"type":"Feature","geometry":{"type":"Point","coordinates":[-118.365476,34.101707]}},{"properties":{"geo_score":0.902,"total":2,"id":"a63rpv890rzq","geo_precision":"range","address":"6465 Calle Real, Goleta, CA, 93117-1597"},"type":"Feature","geometry":{"type":"Point","coordinates":[-119.85123,34.439633]}},{"properties":{"geo_score":0.932,"total":1,"id":"a63rpuz7ixo3","geo_precision":"range","address":"6401 Mission Gorge Rd, San Diego, CA, 92120-2504"},"type":"Feature","geometry":{"type":"Point","coordinates":[-117.097702,32.789816]}},{"properties":{"geo_score":1.0,"total":1,"id":"a63rpuytzoi9","geo_precision":"range","address":"6392 Beach Blvd, Buena Park, CA, 90621-2876"},"type":"Feature","geometry":{"type":"Point","coordinates":[-117.998089,33.867673]}},{"properties":{"geo_score":1.0,"total":1,"id":"a63rpuxc2vhs","geo_precision":"range","address":"636 N Vine Ave, Ontario, CA, 91762-3136"},"type":"Feature","geometry":{"type":"Point","coordinates":[-117.655948,34.069656]}},{"properties":{"geo_score":0.916,"total":1,"id":"a63rpuz2jlsq","geo_precision":"range","address":"634 W 12th St, Tulsa, OK, 74127-9101"},"type":"Feature","geometry":{"type":"Point","coordinates":[-95.997257,36.144974]}},{"properties":{"geo_score":1.0,"total":1,"id":"a63rputiz7t3","geo_precision":"range","address":"6333 E Skelly Dr, Tulsa, OK, 74135-6106"},"type":"Feature","geometry":{"type":"Point","coordinates":[-95.907662,36.106401]}},{"properties":{"geo_score":0.913,"total":1,"id":"a63rpv869tji","geo_precision":"range","address":"633 E Davis St, Luling, TX, 78648-2318"},"type":"Feature","geometry":{"type":"Point","coordinates":[-97.639608,29.679979]}},{"properties":{"geo_score":0.911,"total":2,"id":"a63rpv24n1y8","geo_precision":"range","address":"6327 S Kings Hwy, Alexandria, VA, 22306-1052"},"type":"Feature","geometry":{"type":"Point","coordinates":[-77.081357,38.779897]}},{"properties":{"geo_score":0.924,"total":1,"id":"a63rpv13i5d9","geo_precision":"range","address":"6309 Lima Rd, Fort Wayne, IN, 46818-1425"},"type":"Feature","geometry":{"type":"Point","coordinates":[-85.161693,41.136597]}},{"properties":{"geo_score":0.808,"total":1,"id":"a63rpus0p01c","geo_precision":"street","address":"6235 W Port Ave, Shreveport, LA, 71129-2503"},"type":"Feature","geometry":{"type":"Point","coordinates":[-93.869897,32.449737]}},{"properties":{"geo_score":0.758,"total":1,"id":"a63rpv5i9t3y","geo_precision":"range","address":"6209 W 96th, Los Angeles, CA, 90045"},"type":"Feature","geometry":{"type":"Point","coordinates":[-118.394069,33.948843]}},{"properties":{"geo_score":1.0,"total":1,"id":"a63rpv7pdrz6","geo_precision":"range","address":"6200 S Pennsylvania Ave, Lansing, MI, 48911-5719"},"type":"Feature","geometry":{"type":"Point","coordinates":[-84.538179,42.667967]}},{"properties":{"geo_score":0.922,"total":1,"id":"a63rpusr3gio","geo_precision":"range","address":"620 S Fort Hood St Ste A, Killeen, TX, 76541-6808"},"type":"Feature","geometry":{"type":"Point","coordinates":[-97.744488,31.116567]}},{"properties":{"geo_score":0.737,"total":1,"id":"a63rpusuuzjb","geo_precision":"range","address":"6170 Auburn Blvd, Citrus Heights, CA, 95621-4739"},"type":"Feature","geometry":{"type":"Point","coordinates":[-121.321336,38.67871]}},{"properties":{"geo_score":0.671,"total":1,"id":"a63rpv3po3nn","geo_precision":"street","address":"615 Cr 219, East Bernard, TX, 77435"},"type":"Feature","geometry":{"type":"Point","coordinates":[-96.054335,29.420237]}},{"properties":{"geo_score":0.707,"total":1,"id":"a63rpv5bifih","geo_precision":"range","address":"6140 Greenback Ln, Citrus Heights, CA, 95621-4716"},"type":"Feature","geometry":{"type":"Point","coordinates":[-121.321597,38.679768]}},{"properties":{"geo_score":0.882,"total":1,"id":"a63rpv0ekjq3","geo_precision":"range","address":"612 Irving St, Hereford, TX, 79045-4621"},"type":"Feature","geometry":{"type":"Point","coordinates":[-102.385624,34.827588]}},{"properties":{"geo_score":0.59,"total":1,"id":"a63rpusw5ce9","geo_precision":"street","address":"6110 E Hwy 20, Lucerne, CA, 95458"},"type":"Feature","geometry":{"type":"Point","coordinates":[-122.724267,39.023728]}},{"properties":{"geo_score":1.0,"total":1,"id":"a63rpv0kwfln","geo_precision":"range","address":"610 W Hamilton St, Allentown, PA, 18101-2104"},"type":"Feature","geometry":{"type":"Point","coordinates":[-75.470056,40.602654]}},{"properties":{"geo_score":0.902,"total":1,"id":"a63rputspubw","geo_precision":"range","address":"610 W 1st St, Tustin, CA, 92780-2902"},"type":"Feature","geometry":{"type":"Point","coordinates":[-117.830008,33.745849]}},{"properties":{"geo_score":0.604,"total":2,"id":"a63rpv35408g","geo_precision":"zip","address":"61 Plaza Drive, KIMBALL, WV, 24853"},"type":"Feature","geometry":{"type":"Point","coordinates":[-81.508716,37.439559]}},{"properties":{"geo_score":1.0,"total":1,"id":"a63rpuy18men","geo_precision":"range","address":"609 Rancho Conejo Blvd, NEWBURY PARK, CA, 91320-1797"},"type":"Feature","geometry":{"type":"Point","coordinates":[-118.925063,34.187038]}},{"properties":{"geo_score":0.913,"total":2,"id":"a63rpv329ehg","geo_precision":"range","address":"608 W Markland Ave, Kokomo, IN, 46901-6110"},"type":"Feature","geometry":{"type":"Point","coordinates":[-86.137841,40.476414]}},{"properties":{"geo_score":0.965,"total":4,"id":"a63rpuv3tllj","geo_precision":"range","address":"6060 N Paramount Blvd, Long Beach, CA, 90805-3711"},"type":"Feature","geometry":{"type":"Point","coordinates":[-118.159912,33.864506]}},{"properties":{"geo_score":0.902,"total":1,"id":"a63rpuypxfgk","geo_precision":"range","address":"606 E Atkinson Ave, Pittsburg, KS, 66762-2303"},"type":"Feature","geometry":{"type":"Point","coordinates":[-94.69718,37.440407]}},{"properties":{"geo_score":0.659,"total":1,"id":"a63rpv1ehuiv","geo_precision":"street","address":"605 San Marino Irv, Mission Viejo, CA, 92691"},"type":"Feature","geometry":{"type":"Point","coordinates":[-117.6866,33.609069]}},{"properties":{"geo_score":0.917,"total":2,"id":"a63rpusrdugz","geo_precision":"range","address":"605 S Courtenay Pkwy, Merritt Island, FL, 32952"},"type":"Feature","geometry":{"type":"Point","coordinates":[-80.698884,28.34675]}},{"properties":{"geo_score":1.0,"total":1,"id":"a63rput9f4tp","geo_precision":"range","address":"605 E Broadway St, North Little Rock, AR, 72114-5711"},"type":"Feature","geometry":{"type":"Point","coordinates":[-92.261722,34.755964]}},{"properties":{"geo_score":0.473,"total":1,"id":"a63rpuwxj0vw","geo_precision":"street","address":"604 Main Ave, West Logan, WV, 25601-3329"},"type":"Feature","geometry":{"type":"Point","coordinates":[-81.98992,37.860263]}},{"properties":{"geo_score":1.0,"total":1,"id":"a63rpv5irpic","geo_precision":"range","address":"6020 Clark Rd, Paradise, CA, 95969-4152"},"type":"Feature","geometry":{"type":"Point","coordinates":[-121.606388,39.76014]}},{"properties":{"geo_score":1.0,"total":1,"id":"a63rpuytgz52","geo_precision":"range","address":"6010 Warner Ave, Huntington Beach, CA, 92647-5568"},"type":"Feature","geometry":{"type":"Point","coordinates":[-118.023761,33.715361]}},{"properties":{"geo_score":1.0,"total":2,"id":"a63rpuvgd2rh","geo_precision":"range","address":"601 SW Pine Island Rd, Cape Coral, FL, 33991"},"type":"Feature","geometry":{"type":"Point","coordinates":[-81.986615,26.646732]}},{"properties":{"geo_score":1.0,"total":1,"id":"a63rput7hp44","geo_precision":"range","address":"601 N Main St, Tulsa, OK, 74106-5163"},"type":"Feature","geometry":{"type":"Point","coordinates":[-95.996004,36.162603]}},{"properties":{"geo_score":0.72,"total":1,"id":"a63rpv2nj5rt","geo_precision":"street","address":"601 Frank Sottile Blvd, Kingston, NY, 12401-1550"},"type":"Feature","geometry":{"type":"Point","coordinates":[-73.981482,41.958318]}},{"properties":{"geo_score":1.0,"total":1,"id":"a63rpv0phgg3","geo_precision":"range","address":"6000 Riverside Dr, Dublin, OH, 43017-1492"},"type":"Feature","geometry":{"type":"Point","coordinates":[-83.10989,40.086654]}},{"properties":{"geo_score":0.925,"total":7,"id":"a63rpuy9elnc","geo_precision":"range","address":"600 World Way, Los Angeles, CA, 90045-5897"},"type":"Feature","geometry":{"type":"Point","coordinates":[-118.405909,33.942412]}},{"properties":{"geo_score":0.919,"total":2,"id":"a63rpv0rtw75","geo_precision":"range","address":"600 N Hollywood Way, Burbank, CA, 91505-3124"},"type":"Feature","geometry":{"type":"Point","coordinates":[-118.343651,34.161003]}},{"properties":{"geo_score":0.957,"total":2,"id":"a63rpuuqqsr8","geo_precision":"range","address":"60 Goodyear Blvd, Akron, OH, 44305-4060"},"type":"Feature","geometry":{"type":"Point","coordinates":[-81.482134,41.066867]}},{"properties":{"geo_score":0.338,"total":1,"id":"a63rpuul816e","geo_precision":"street","address":"60 79-Bypass North, Magnolia, AR, 71753"},"type":"Feature","geometry":{"type":"Point","coordinates":[-93.240287,33.269211]}},{"properties":{"geo_score":0.707,"total":1,"id":"a63rpv3h1nmv","geo_precision":"street","address":"5950 E Woodbridge Rd, Acampo, CA, 95220-9429"},"type":"Feature","geometry":{"type":"Point","coordinates":[-121.1969,38.16121]}},{"properties":{"geo_score":1.0,"total":2,"id":"a63rpuscd967","geo_precision":"range","address":"5851 Mercury Dr, Dearborn, MI, 48126-4161"},"type":"Feature","geometry":{"type":"Point","coordinates":[-83.204436,42.328349]}},{"properties":{"geo_score":0.922,"total":1,"id":"a63rpv40720c","geo_precision":"range","address":"5821 W Central Ave, Toledo, OH, 43615-1403"},"type":"Feature","geometry":{"type":"Point","coordinates":[-83.681496,41.676336]}},{"properties":{"geo_score":0.708,"total":1,"id":"a63rpuvb1rud","geo_precision":"street","address":"5730 W Amarillo Blvd, Amarillo, TX, 79106-4004"},"type":"Feature","geometry":{"type":"Point","coordinates":[-101.900218,35.216711]}},{"properties":{"geo_score":1.0,"total":1,"id":"a63rpuuht3db","geo_precision":"range","address":"5670 Concord Rd, Beaumont, TX, 77708-5302"},"type":"Feature","geometry":{"type":"Point","coordinates":[-94.151097,30.12642]}},{"properties":{"geo_score":1.0,"total":2,"id":"a63rpv5arv7f","geo_precision":"range","address":"5660 College Ave, Oakland, CA, 94618-1541"},"type":"Feature","geometry":{"type":"Point","coordinates":[-122.251742,37.843839]}},{"properties":{"geo_score":1.0,"total":2,"id":"a63rpuvfkh3j","geo_precision":"range","address":"566 Brady Rd, Tarpon Springs, FL, 34689"},"type":"Feature","geometry":{"type":"Point","coordinates":[-82.770188,28.167233]}},{"properties":{"geo_score":0.83,"total":2,"id":"a63rpv0m6som","geo_precision":"range","address":"565 W 11th St, Upland, CA, 91786-4660"},"type":"Feature","geometry":{"type":"Point","coordinates":[-117.658343,34.103365]}},{"properties":{"geo_score":0.805,"total":8,"id":"a63rpus9p1ol","geo_precision":"range","address":"5600 Mannheim Rd, Chicago, IL, 60018"},"type":"Feature","geometry":{"type":"Point","coordinates":[-87.878789,41.976437]}},{"properties":{"geo_score":0.61,"total":1,"id":"a63rpv3xtwka","geo_precision":"range","address":"559 Lalor St, Hamilton, NJ, 86113233"},"type":"Feature","geometry":{"type":"Point","coordinates":[-76.188829,43.049513]}},{"properties":{"geo_score":0.805,"total":1,"id":"a63rpv1rek42","geo_precision":"street","address":"5575 N Azusa Ave, Azusa, CA, 91702-5544"},"type":"Feature","geometry":{"type":"Point","coordinates":[-117.907409,34.145095]}},{"properties":{"geo_score":0.0,"total":1,"id":"a63rpusbf5ai","geo_precision":"unmatched","address":"557 Maple Street, Manchester, NH, 31044300"},"type":"Feature","geometry":null},{"properties":{"geo_score":1.0,"total":1,"id":"a63rpuy2pe9p","geo_precision":"range","address":"5555 W Grand Ave, Chicago, IL, 60639"},"type":"Feature","geometry":{"type":"Point","coordinates":[-87.764503,41.918559]}},{"properties":{"geo_score":1.0,"total":1,"id":"a63rputuozze","geo_precision":"range","address":"5555 De Zavala Rd, San Antonio, TX, 78249-1735"},"type":"Feature","geometry":{"type":"Point","coordinates":[-98.591217,29.563169]}},{"properties":{"geo_score":0.478,"total":1,"id":"a63rpuza5e0i","geo_precision":"street","address":"555 Universal Hollywood Dr, Universal City, CA, 91608-1001"},"type":"Feature","geometry":{"type":"Point","coordinates":[-118.352736,34.137665]}},{"properties":{"geo_score":0.675,"total":2,"id":"a63rpuwxyxwf","geo_precision":"street","address":"555 Shops @ Mission Viejo, Mission Viejo, CA, 92691"},"type":"Feature","geometry":{"type":"Point","coordinates":[-117.669018,33.555524]}},{"properties":{"geo_score":0.958,"total":1,"id":"a63rpv5xur4k","geo_precision":"range","address":"5520 Hwy 80 East, Pearl, MS, 39208"},"type":"Feature","geometry":{"type":"Point","coordinates":[-90.047346,32.283711]}},{"properties":{"geo_score":0.919,"total":3,"id":"a63rpuwbtwrq","geo_precision":"range","address":"550 N Restwood Ave, Bartow, FL, 33830-4200"},"type":"Feature","geometry":{"type":"Point","coordinates":[-81.822414,27.897624]}},{"properties":{"geo_score":0.912,"total":1,"id":"a63rpuvqjsee","geo_precision":"range","address":"550 Deep Valley Dr, Palos Verdes Peninsula, CA, 90274-3664"},"type":"Feature","geometry":{"type":"Point","coordinates":[-118.374751,33.772822]}},{"properties":{"geo_score":1.0,"total":2,"id":"a63rpv0gwttv","geo_precision":"range","address":"543 Monterey Pass Rd, Monterey Park, CA, 91754-2416"},"type":"Feature","geometry":{"type":"Point","coordinates":[-118.145539,34.057143]}},{"properties":{"geo_score":0.791,"total":1,"id":"a63rpuzzldyv","geo_precision":"range","address":"542 N Rte 21, Gurnee, IL, 60031-5902"},"type":"Feature","geometry":{"type":"Point","coordinates":[-87.925084,42.368483]}},{"properties":{"geo_score":0.502,"total":1,"id":"a63rpv6pwvua","geo_precision":"zip","address":"5401 Radecke Ave, Baltimore, MD, 212064441"},"type":"Feature","geometry":{"type":"Point","coordinates":[-94.423294,40.478118]}},{"properties":{"geo_score":1.0,"total":1,"id":"a63rpv2i9kim","geo_precision":"range","address":"5400 S Cooper St, Arlington, TX, 76017-6108"},"type":"Feature","geometry":{"type":"Point","coordinates":[-97.134452,32.659644]}},{"properties":{"geo_score":0.913,"total":3,"id":"a63rpv1zzrhz","geo_precision":"range","address":"5400 Nw 135th St, Opa Locka, FL, 33054-4310"},"type":"Feature","geometry":{"type":"Point","coordinates":[-80.292002,25.898616]}},{"properties":{"geo_score":0.911,"total":1,"id":"a63rpv66a7m4","geo_precision":"range","address":"5360 Southwestern Blvd, HAMBURG, NY, 14075"},"type":"Feature","geometry":{"type":"Point","coordinates":[-78.867238,42.74225]}},{"properties":{"geo_score":0.896,"total":1,"id":"a63rpv6sc14k","geo_precision":"range","address":"530 So Graham-Hopedale Road, Burlington, NC, 27217"},"type":"Feature","geometry":{"type":"Point","coordinates":[-79.406037,36.092888]}},{"properties":{"geo_score":1.0,"total":1,"id":"a63rpuxjnuxy","geo_precision":"range","address":"525 N Parker St, Orange, CA, 92868-1323"},"type":"Feature","geometry":{"type":"Point","coordinates":[-117.859635,33.795359]}},{"properties":{"geo_score":0.805,"total":1,"id":"a63rpuvhh6s7","geo_precision":"range","address":"523 Main, Larned, KS, 67550"},"type":"Feature","geometry":{"type":"Point","coordinates":[-99.099763,38.178775]}},{"properties":{"geo_score":0.819,"total":1,"id":"a63rpuxu6k76","geo_precision":"range","address":"522 W 9th Ave, Escondido, CA, 92025-4708"},"type":"Feature","geometry":{"type":"Point","coordinates":[-117.082205,33.111533]}},{"properties":{"geo_score":0.724,"total":1,"id":"a63rpuxleum5","geo_precision":"street","address":"5200 Sterilite Dr, Ennis, TX, 75119-5438"},"type":"Feature","geometry":{"type":"Point","coordinates":[-96.584952,32.281871]}},{"properties":{"geo_score":0.902,"total":1,"id":"a63rpv5o2xnd","geo_precision":"range","address":"520 Sycamore St, New Richmond, OH, 45157-1148"},"type":"Feature","geometry":{"type":"Point","coordinates":[-84.280862,38.955529]}},{"properties":{"geo_score":0.902,"total":1,"id":"a63rpv2tbs68","geo_precision":"range","address":"520 James Madison Hwy, Culpeper, VA, 22701"},"type":"Feature","geometry":{"type":"Point","coordinates":[-77.983792,38.481015]}},{"properties":{"geo_score":0.902,"total":1,"id":"a63rpuy4yj0b","geo_precision":"range","address":"520 E Prien Lake Rd, Lake Charles, LA, 70601-8509"},"type":"Feature","geometry":{"type":"Point","coordinates":[-93.215244,30.198259]}},{"properties":{"geo_score":0.917,"total":1,"id":"a63rputw3sfg","geo_precision":"range","address":"513 Market St, Galveston, TX, 77550-2705"},"type":"Feature","geometry":{"type":"Point","coordinates":[-94.773385,29.310746]}},{"properties":{"geo_score":1.0,"total":1,"id":"a63rpuu007c1","geo_precision":"range","address":"5110 Jefferson Hwy, New Orleans, LA, 70123-5302"},"type":"Feature","geometry":{"type":"Point","coordinates":[-90.178711,29.953684]}},{"properties":{"geo_score":1.0,"total":1,"id":"a63rpv8fmeh2","geo_precision":"range","address":"5109 E Pacific Coast Hwy, Long Beach, CA, 90804-3311"},"type":"Feature","geometry":{"type":"Point","coordinates":[-118.133747,33.783491]}},{"properties":{"geo_score":0.447,"total":1,"id":"a63rpv4tijsg","geo_precision":"range","address":"51 Silver Spring Street, Providence, RI, 2904"},"type":"Feature","geometry":{"type":"Point","coordinates":[-93.733995,34.044257]}},{"properties":{"geo_score":1.0,"total":1,"id":"a63rpuw1hqg5","geo_precision":"range","address":"5050 Schaefer Rd, Dearborn, MI, 48126-3297"},"type":"Feature","geometry":{"type":"Point","coordinates":[-83.176048,42.324339]}},{"properties":{"geo_score":0.944,"total":2,"id":"a63rpv2pkp67","geo_precision":"range","address":"505 Touring Dr, Auburn, IN, 46706-2054"},"type":"Feature","geometry":{"type":"Point","coordinates":[-85.078598,41.362742]}},{"properties":{"geo_score":1.0,"total":1,"id":"a63rpuyfobej","geo_precision":"range","address":"505 E Foothill Blvd, Rialto, CA, 92376"},"type":"Feature","geometry":{"type":"Point","coordinates":[-117.361584,34.106787]}},{"properties":{"geo_score":0.916,"total":1,"id":"a63rpv185xx6","geo_precision":"range","address":"504 Edgewood Rd, Edgewood, MD, 21040"},"type":"Feature","geometry":{"type":"Point","coordinates":[-76.294865,39.422177]}},{"properties":{"geo_score":1.0,"total":2,"id":"a63rpv1m0odo","geo_precision":"range","address":"503 N VENTU PARK RD, NEWBURY PARK, CA, 91320-2710"},"type":"Feature","geometry":{"type":"Point","coordinates":[-118.911179,34.188226]}},{"properties":{"geo_score":0.874,"total":1,"id":"a63rpuz6f4k3","geo_precision":"range","address":"501 S Buena Vista St, Burbank, CA, 91505-4809"},"type":"Feature","geometry":{"type":"Point","coordinates":[-118.326825,34.155524]}},{"properties":{"geo_score":1.0,"total":2,"id":"a63rpuv1v3fj","geo_precision":"range","address":"501 S Broad St, Mobile, AL, 36603-1106"},"type":"Feature","geometry":{"type":"Point","coordinates":[-88.054116,30.677272]}},{"properties":{"geo_score":0.867,"total":1,"id":"a63rpuyhsrg8","geo_precision":"range","address":"501 E Fulton, Garden City, KS, 67846"},"type":"Feature","geometry":{"type":"Point","coordinates":[-100.869097,37.964666]}},{"properties":{"geo_score":0.787,"total":7,"id":"a63rpuvbpxmb","geo_precision":"range","address":"5000 S Pacific Coast Hwy, San Clemente, CA, 92674"},"type":"Feature","geometry":{"type":"Point","coordinates":[-117.940602,33.62365]}},{"properties":{"geo_score":0.925,"total":3,"id":"a63rpv599jv7","geo_precision":"range","address":"500 World Way, Los Angeles, CA, 90045"},"type":"Feature","geometry":{"type":"Point","coordinates":[-118.40752,33.942335]}},{"properties":{"geo_score":0.714,"total":4,"id":"a63rpv7wh5me","geo_precision":"zip","address":", , , 90045-5891"},"type":"Feature","geometry":{"type":"Point","coordinates":[-118.375354,33.994179]}},{"properties":{"geo_score":1.0,"total":2,"id":"a63rpuwt3621","geo_precision":"range","address":"500 Newport Dr, Allen, TX, 75013"},"type":"Feature","geometry":{"type":"Point","coordinates":[-96.695675,33.095059]}},{"properties":{"geo_score":0.817,"total":1,"id":"a63rpuu00c2v","geo_precision":"range","address":"500 John Daly Blvd, Daly City, CA, 94014-3849"},"type":"Feature","geometry":{"type":"Point","coordinates":[-122.48484,37.701388]}},{"properties":{"geo_score":0.916,"total":1,"id":"a63rpv3f7cp0","geo_precision":"range","address":"500 E 51st St, Chicago, IL, 60615"},"type":"Feature","geometry":{"type":"Point","coordinates":[-87.614192,41.802126]}},{"properties":{"geo_score":0.645,"total":2,"id":"a63rpv55namp","geo_precision":"range","address":"500 BAY BOTTOM RD, PAHOKEE, FL, 33476"},"type":"Feature","geometry":{"type":"Point","coordinates":[-80.060713,26.810765]}},{"properties":{"geo_score":0.614,"total":1,"id":"a63rpv1p5z2e","geo_precision":"street","address":"50 Main St, Ladera Ranch, CA, 92694"},"type":"Feature","geometry":{"type":"Point","coordinates":[-118.00196,33.657199]}},{"properties":{"geo_score":0.927,"total":1,"id":"a63rpv1clk3v","geo_precision":"range","address":"4983 Cass St, San Diego, CA, 92109-2039"},"type":"Feature","geometry":{"type":"Point","coordinates":[-117.254316,32.805502]}},{"properties":{"geo_score":0.902,"total":1,"id":"a63rpv1ewcj7","geo_precision":"range","address":"498 Maple Ln, Sugarloaf, CA, 92386"},"type":"Feature","geometry":{"type":"Point","coordinates":[-116.825178,34.243131]}},{"properties":{"geo_score":0.756,"total":1,"id":"a63rpuzjrwmr","geo_precision":"range","address":"4971 Okeechobee Blvd, West Palm Beach, FL, 33417-4629"},"type":"Feature","geometry":{"type":"Point","coordinates":[-80.118207,26.706993]}},{"properties":{"geo_score":0.922,"total":1,"id":"a63rpuus3zbm","geo_precision":"range","address":"4918 Harford Rd, Baltimore, MD, 21214"},"type":"Feature","geometry":{"type":"Point","coordinates":[-76.56641,39.34655]}},{"properties":{"geo_score":0.902,"total":1,"id":"a63rpv5ixbp6","geo_precision":"range","address":"4901 State Rd 26e, Lafayette, IN, 47905"},"type":"Feature","geometry":{"type":"Point","coordinates":[-86.81181,40.417526]}},{"properties":{"geo_score":0.967,"total":1,"id":"a63rpv5ivec4","geo_precision":"range","address":"4901 E Carson St, Long Beach, CA, 90808-1706"},"type":"Feature","geometry":{"type":"Point","coordinates":[-118.135603,33.832328]}},{"properties":{"geo_score":0.916,"total":3,"id":"a63rpusnnmxn","geo_precision":"range","address":"490 W 14th St, Long Beach, CA, 90813-2943"},"type":"Feature","geometry":{"type":"Point","coordinates":[-118.197622,33.783674]}},{"properties":{"geo_score":0.528,"total":1,"id":"a63rpuuz87f4","geo_precision":"street","address":"49 1/2 Tennis Villas Dr, Dana Point, CA, 92629-4138"},"type":"Feature","geometry":{"type":"Point","coordinates":[-117.70358,33.4596]}},{"properties":{"geo_score":1.0,"total":1,"id":"a63rpv71536p","geo_precision":"range","address":"4887 Kentucky Ave, Indianapolis, IN, 46221-3533"},"type":"Feature","geometry":{"type":"Point","coordinates":[-86.268827,39.694791]}},{"properties":{"geo_score":0.592,"total":1,"id":"a63rpuznouve","geo_precision":"zip","address":"4860 Y St, Sacramento, CA, 95817-2307"},"type":"Feature","geometry":{"type":"Point","coordinates":[-121.471066,38.551295]}},{"properties":{"geo_score":0.779,"total":2,"id":"a63rpux24tta","geo_precision":"street","address":"48578 W Pontiac Tr, Wixom, MI, 48393"},"type":"Feature","geometry":{"type":"Point","coordinates":[-83.517654,42.524929]}},{"properties":{"geo_score":1.0,"total":2,"id":"a63rpuwrejpg","geo_precision":"range","address":"4840 Longhill Rd, Williamsburg, VA, 23188-1571"},"type":"Feature","geometry":{"type":"Point","coordinates":[-76.75137,37.3056]}},{"properties":{"geo_score":0.469,"total":2,"id":"a63rpuza64jt","geo_precision":"street","address":"4825 Loosa Dr, Kelseyville, CA, 95451"},"type":"Feature","geometry":{"type":"Point","coordinates":[-122.84321,38.991889]}},{"properties":{"geo_score":0.872,"total":1,"id":"a63rpuzmm6fg","geo_precision":"range","address":"4790 Portage Street, Canton, OH, 44720"},"type":"Feature","geometry":{"type":"Point","coordinates":[-81.43703,40.879705]}},{"properties":{"geo_score":1.0,"total":1,"id":"a63rputmfh3p","geo_precision":"range","address":"4722 Rigsby Ave, San Antonio, TX, 78222-1214"},"type":"Feature","geometry":{"type":"Point","coordinates":[-98.399076,29.398267]}},{"properties":{"geo_score":0.728,"total":1,"id":"a63rpuwqa2xl","geo_precision":"range","address":"470 Route 211 E, Middletown, NY, 10940-2245"},"type":"Feature","geometry":{"type":"Point","coordinates":[-74.450295,41.465643]}},{"properties":{"geo_score":1.0,"total":1,"id":"a63rpv2e8rbg","geo_precision":"range","address":"465 S Brand Blvd, San Fernando, CA, 91340-3626"},"type":"Feature","geometry":{"type":"Point","coordinates":[-118.442236,34.279919]}},{"properties":{"geo_score":0.824,"total":1,"id":"a63rpuvvs5k0","geo_precision":"street","address":"4619 Rosemead Blvd, Rosemead, CA, 91770-1478"},"type":"Feature","geometry":{"type":"Point","coordinates":[-118.073295,34.088765]}},{"properties":{"geo_score":0.913,"total":1,"id":"a63rpuv89c5c","geo_precision":"range","address":"461 W Reservoir Rd, Woodstock, VA, 22664"},"type":"Feature","geometry":{"type":"Point","coordinates":[-78.529371,38.872345]}},{"properties":{"geo_score":1.0,"total":1,"id":"a63rpuzv44v9","geo_precision":"range","address":"4601 West Broad St, Richmond, VA, 23230"},"type":"Feature","geometry":{"type":"Point","coordinates":[-77.48904,37.57789]}},{"properties":{"geo_score":0.705,"total":2,"id":"a63rpus3k9cx","geo_precision":"range","address":"4572 Mega Street Northwest, North Canton, OH, 44720"},"type":"Feature","geometry":{"type":"Point","coordinates":[-81.434223,40.872499]}},{"properties":{"geo_score":0.721,"total":2,"id":"a63rpv04ema4","geo_precision":"street","address":"45071 State Highway 17, Marfa, TX, 79843"},"type":"Feature","geometry":{"type":"Point","coordinates":[-104.021333,30.31602]}},{"properties":{"geo_score":0.397,"total":1,"id":"a63rpuwp36pd","geo_precision":"city","address":"450 Highland Avenue, Salem, MA, 1970"},"type":"Feature","geometry":{"type":"Point","coordinates":[-169.428333,-14.219444]}},{"properties":{"geo_score":1.0,"total":1,"id":"a63rpus7opmg","geo_precision":"range","address":"445 Ledyard St, Detroit, MI, 48201-2688"},"type":"Feature","geometry":{"type":"Point","coordinates":[-83.058764,42.340038]}},{"properties":{"geo_score":1.0,"total":2,"id":"a63rpv7sxzxz","geo_precision":"range","address":"4440 W New Haven Ave, Melbourne, FL, 32904-3322"},"type":"Feature","geometry":{"type":"Point","coordinates":[-80.700262,28.078894]}},{"properties":{"geo_score":0.911,"total":2,"id":"a63rpuwqvazz","geo_precision":"range","address":"4440 Gulfway Dr, Port Arthur, TX, 77642"},"type":"Feature","geometry":{"type":"Point","coordinates":[-93.913433,29.915464]}},{"properties":{"geo_score":0.915,"total":1,"id":"a63rpuxb5oka","geo_precision":"range","address":"444 W Burton St, Sulphur, LA, 70663-2208"},"type":"Feature","geometry":{"type":"Point","coordinates":[-93.380191,30.241956]}},{"properties":{"geo_score":1.0,"total":2,"id":"a63rpuwpih8s","geo_precision":"range","address":"4433 ADMIRALTY WAY, MARINA DEL REY, CA, 90292-5415"},"type":"Feature","geometry":{"type":"Point","coordinates":[-118.450219,33.984663]}},{"properties":{"geo_score":0.61,"total":2,"id":"a63rpv3g9kxb","geo_precision":"street","address":"4432 Trailwood, Newport Beach, CA, 92660"},"type":"Feature","geometry":{"type":"Point","coordinates":[-117.762454,33.725086]}},{"properties":{"geo_score":0.912,"total":1,"id":"a63rpv2pum8s","geo_precision":"range","address":"4402 N Main St, Rockford, IL, 61103-1278"},"type":"Feature","geometry":{"type":"Point","coordinates":[-89.077452,42.323648]}},{"properties":{"geo_score":1.0,"total":1,"id":"a63rpuumw58u","geo_precision":"range","address":"440 W Market St, Akron, OH, 44303-1809"},"type":"Feature","geometry":{"type":"Point","coordinates":[-81.531549,41.091572]}},{"properties":{"geo_score":1.0,"total":1,"id":"a63rpuz3ierv","geo_precision":"range","address":"440 N Euclid St, Anaheim, CA, 92801-5505"},"type":"Feature","geometry":{"type":"Point","coordinates":[-117.941505,33.836307]}},{"properties":{"geo_score":0.935,"total":1,"id":"a63rput3mjd5","geo_precision":"range","address":"43533 Elizabeth St, Mount Clemens, MI, 48043-1034"},"type":"Feature","geometry":{"type":"Point","coordinates":[-82.886765,42.615822]}},{"properties":{"geo_score":0.935,"total":1,"id":"a63rpuvlcydh","geo_precision":"range","address":"43525 Elizabeth St, Mount Clemens, MI, 48043-1034"},"type":"Feature","geometry":{"type":"Point","coordinates":[-82.886739,42.615797]}},{"properties":{"geo_score":0.471,"total":2,"id":"a63rpv7frwck","geo_precision":"street","address":"432 Private Drive #288, South Point, OH, 45680"},"type":"Feature","geometry":{"type":"Point","coordinates":[-82.600601,38.47208]}},{"properties":{"geo_score":0.748,"total":1,"id":"a63rpv5ge529","geo_precision":"range","address":"427 Highway 425 N, Monticello, AR, 71655-4015"},"type":"Feature","geometry":{"type":"Point","coordinates":[-91.802762,33.62415]}},{"properties":{"geo_score":0.872,"total":1,"id":"a63rpuzmc7no","geo_precision":"range","address":"4252 Highway 54, Osage Beach, MO, 65065-2171"},"type":"Feature","geometry":{"type":"Point","coordinates":[-92.620587,38.148015]}},{"properties":{"geo_score":0.956,"total":1,"id":"a63rpv2nzywj","geo_precision":"range","address":"4250 Plank Rd # 3, Fredericksbrg, VA, 22407-4806"},"type":"Feature","geometry":{"type":"Point","coordinates":[-77.532757,38.288985]}},{"properties":{"geo_score":0.912,"total":1,"id":"a63rpv7k0a8k","geo_precision":"range","address":"4250 Greenwood Rd, Shreveport, LA, 71109-6415"},"type":"Feature","geometry":{"type":"Point","coordinates":[-93.813484,32.471246]}},{"properties":{"geo_score":0.91,"total":1,"id":"a63rpuspj4rl","geo_precision":"range","address":"425 Kings Grant Rd, Virginia Beach, VA, 23452-6920"},"type":"Feature","geometry":{"type":"Point","coordinates":[-76.081091,36.846703]}},{"properties":{"geo_score":1.0,"total":1,"id":"a63rpv3idan0","geo_precision":"range","address":"425 Coit Rd, Plano, TX, 75075-5709"},"type":"Feature","geometry":{"type":"Point","coordinates":[-96.76783,33.004164]}},{"properties":{"geo_score":0.719,"total":1,"id":"a63rpusq933a","geo_precision":"street","address":"4238 RECREATION DR, Canandaigua, NY, 14424-2235"},"type":"Feature","geometry":{"type":"Point","coordinates":[-77.241008,42.877776]}},{"properties":{"geo_score":1.0,"total":1,"id":"a63rpuzn8mmq","geo_precision":"range","address":"4211 ADMIRALTY WAY, MARINA DEL REY, CA, 90292-5413"},"type":"Feature","geometry":{"type":"Point","coordinates":[-118.457105,33.983906]}},{"properties":{"geo_score":0.875,"total":2,"id":"a63rpuwfhyk9","geo_precision":"range","address":"42 Fairhaven Commons Way, Fairhaven, MA, 02719-4627"},"type":"Feature","geometry":{"type":"Point","coordinates":[-70.886033,41.644261]}},{"properties":{"geo_score":0.499,"total":1,"id":"a63rpuyrzn5s","geo_precision":"street","address":"42 Carter Rd, Kent, CT, 6757"},"type":"Feature","geometry":{"type":"Point","coordinates":[-96.284717,29.168671]}},{"properties":{"geo_score":0.911,"total":2,"id":"a63rpv4gyirl","geo_precision":"range","address":"415 Diamond St, Redondo Beach, CA, 90277-2836"},"type":"Feature","geometry":{"type":"Point","coordinates":[-118.388127,33.844295]}},{"properties":{"geo_score":1.0,"total":1,"id":"a63rpuxs19ne","geo_precision":"range","address":"413 S Houston St, Dallas, TX, 75202"},"type":"Feature","geometry":{"type":"Point","coordinates":[-96.807146,32.776525]}},{"properties":{"geo_score":0.45,"total":1,"id":"a63rpuwhmbql","geo_precision":"street","address":"4101 W Point Loma Blvd, San Diego, CA, 92110"},"type":"Feature","geometry":{"type":"Point","coordinates":[-117.180305,32.682654]}},{"properties":{"geo_score":0.932,"total":1,"id":"a63rpuu4uz0k","geo_precision":"range","address":"4080 Convoy St, San Diego, CA, 92111-3726"},"type":"Feature","geometry":{"type":"Point","coordinates":[-117.154782,32.81676]}},{"properties":{"geo_score":0.61,"total":1,"id":"a63rpv5grrit","geo_precision":"range","address":"408 Rt 112, Port Jefferson Station, NY, 117761015"},"type":"Feature","geometry":{"type":"Point","coordinates":[-89.360883,42.313794]}},{"properties":{"geo_score":0.916,"total":1,"id":"a63rpuucsnh8","geo_precision":"range","address":"407 8th St Ne, Washington, DC, 20002-5227"},"type":"Feature","geometry":{"type":"Point","coordinates":[-76.994962,38.895268]}},{"properties":{"geo_score":0.915,"total":1,"id":"a63rpuw68xte","geo_precision":"range","address":"406 Burrell Ave, Lewiston, ID, 83501-4522"},"type":"Feature","geometry":{"type":"Point","coordinates":[-117.009521,46.37701]}},{"properties":{"geo_score":0.911,"total":1,"id":"a63rpuv0jgyx","geo_precision":"range","address":"405 Lakeshore Dr, Canandaigua, NY, 14424-2366"},"type":"Feature","geometry":{"type":"Point","coordinates":[-77.250931,42.872458]}},{"properties":{"geo_score":0.922,"total":1,"id":"a63rpv87tllx","geo_precision":"range","address":"4049 Miller Way, Sacramento, CA, 95817-1332"},"type":"Feature","geometry":{"type":"Point","coordinates":[-121.460875,38.556372]}},{"properties":{"geo_score":0.913,"total":2,"id":"a63rpus0b8hj","geo_precision":"range","address":"403 W Wise St, Bowie, TX, 76230-5017"},"type":"Feature","geometry":{"type":"Point","coordinates":[-97.852548,33.560825]}},{"properties":{"geo_score":1.0,"total":1,"id":"a63rpv884qnf","geo_precision":"range","address":"4020 Olive Hwy, Oroville, CA, 95966-5527"},"type":"Feature","geometry":{"type":"Point","coordinates":[-121.503524,39.504791]}},{"properties":{"geo_score":1.0,"total":1,"id":"a63rpv25grtq","geo_precision":"range","address":"402 W Front St, Wheaton, IL, 60187"},"type":"Feature","geometry":{"type":"Point","coordinates":[-88.111517,41.864787]}},{"properties":{"geo_score":1.0,"total":1,"id":"a63rpuwj6qj5","geo_precision":"range","address":"402 W Broadway, San Diego, CA, 92101-3542"},"type":"Feature","geometry":{"type":"Point","coordinates":[-117.166506,32.715718]}},{"properties":{"geo_score":0.73,"total":1,"id":"a63rpuvilvir","geo_precision":"street","address":"4015 Water St, Upper Marlboro, MD, 20772"},"type":"Feature","geometry":{"type":"Point","coordinates":[-76.751841,38.816275]}},{"properties":{"geo_score":0.415,"total":1,"id":"a63rpuxcyl0q","geo_precision":"street","address":"4000 Ritchie Hwy, Baltimore, MD, 212252763"},"type":"Feature","geometry":{"type":"Point","coordinates":[-75.307963,39.925545]}},{"properties":{"geo_score":0.734,"total":1,"id":"a63rpuwecnh7","geo_precision":"street","address":"4000 Recker Hwy, Winter Haven, FL, 33880-1231"},"type":"Feature","geometry":{"type":"Point","coordinates":[-81.771963,28.022527]}},{"properties":{"geo_score":0.652,"total":1,"id":"a63rpuywexyp","geo_precision":"range","address":"4000 Highway 4, Bear Valley, CA, 95223-9608"},"type":"Feature","geometry":{"type":"Point","coordinates":[-120.368575,38.210969]}},{"properties":{"geo_score":0.925,"total":11,"id":"a63rputfldza","geo_precision":"range","address":"400 World Way, Los Angeles, CA, 90045-5888"},"type":"Feature","geometry":{"type":"Point","coordinates":[-118.408044,33.943214]}},{"properties":{"geo_score":0.917,"total":1,"id":"a63rpv4by36g","geo_precision":"range","address":"400 W Merritt Island Cswy, Merritt Island, FL, 32952-4810"},"type":"Feature","geometry":{"type":"Point","coordinates":[-80.70472,28.356904]}},{"properties":{"geo_score":1.0,"total":1,"id":"a63rpuwu9oi0","geo_precision":"range","address":"400 S State St, Chicago, IL, 60605"},"type":"Feature","geometry":{"type":"Point","coordinates":[-87.627652,41.87693]}},{"properties":{"geo_score":0.911,"total":1,"id":"a63rpv7jvf0c","geo_precision":"range","address":"400 N Pepper Ave, Colton, CA, 92324-1801"},"type":"Feature","geometry":{"type":"Point","coordinates":[-117.352907,34.072078]}},{"properties":{"geo_score":0.947,"total":1,"id":"a63rpv29st77","geo_precision":"range","address":"400 N Civic Dr, Walnut Creek, CA, 94596"},"type":"Feature","geometry":{"type":"Point","coordinates":[-122.059628,37.910739]}},{"properties":{"geo_score":0.911,"total":2,"id":"a63rpv77kmso","geo_precision":"range","address":"400 Enterprise Blvd, LEBANON, IN, 46052"},"type":"Feature","geometry":{"type":"Point","coordinates":[-86.490641,40.036104]}},{"properties":{"geo_score":0.819,"total":3,"id":"a63rput2yip4","geo_precision":"range","address":"400 E 17th St, Santa Ana, CA, 92706"},"type":"Feature","geometry":{"type":"Point","coordinates":[-117.864,33.760017]}},{"properties":{"geo_score":1.0,"total":1,"id":"a63rpuu2yyrz","geo_precision":"range","address":"399 S Front St, Columbus, OH, 43215-5038"},"type":"Feature","geometry":{"type":"Point","coordinates":[-83.000827,39.95365]}},{"properties":{"geo_score":0.937,"total":1,"id":"a63rpv2xukhe","geo_precision":"range","address":"3961 Callan Blvd, South San Francisco, CA, 94080-5130"},"type":"Feature","geometry":{"type":"Point","coordinates":[-122.468775,37.650014]}},{"properties":{"geo_score":1.0,"total":1,"id":"a63rpv6undwd","geo_precision":"range","address":"3950 S Terminal Rd, Houston, TX, 77205"},"type":"Feature","geometry":{"type":"Point","coordinates":[-95.332235,29.985986]}},{"properties":{"geo_score":1.0,"total":1,"id":"a63rpv219315","geo_precision":"range","address":"39000 Bob Hope Dr, Rancho Mirage, CA, 92270-3221"},"type":"Feature","geometry":{"type":"Point","coordinates":[-116.408163,33.764915]}},{"properties":{"geo_score":0.805,"total":1,"id":"a63rpuu60m6m","geo_precision":"range","address":"3900 Lankershim Blvd, Studio City, CA, 91604"},"type":"Feature","geometry":{"type":"Point","coordinates":[-118.361967,34.139482]}},{"properties":{"geo_score":1.0,"total":1,"id":"a63rpusm5ic9","geo_precision":"range","address":"389 Terminal Way, San Pedro, CA, 90731-7430"},"type":"Feature","geometry":{"type":"Point","coordinates":[-118.266484,33.74146]}},{"properties":{"geo_score":0.524,"total":1,"id":"a63rpuum0hw8","geo_precision":"street","address":"389 Cabot Street, Beverly, MA, 19153101"},"type":"Feature","geometry":{"type":"Point","coordinates":[-88.038203,42.531895]}},{"properties":{"geo_score":0.922,"total":2,"id":"a63rpv5g2v2o","geo_precision":"range","address":"3883 S Soto St, Los Angeles, CA, 90058-1718"},"type":"Feature","geometry":{"type":"Point","coordinates":[-118.219709,34.007867]}},{"properties":{"geo_score":0.505,"total":1,"id":"a63rputxotj1","geo_precision":"street","address":"3838 E Old 36 Rd, Rockville, IN, 47872-7710"},"type":"Feature","geometry":{"type":"Point","coordinates":[-87.23626,39.762644]}},{"properties":{"geo_score":0.704,"total":1,"id":"a63rpv830yx1","geo_precision":"range","address":"381 E Whittier Blvd, La Habra, CA, 90631-3859"},"type":"Feature","geometry":{"type":"Point","coordinates":[-117.949199,33.939114]}},{"properties":{"geo_score":0.805,"total":1,"id":"a63rpv4pq7eu","geo_precision":"street","address":"3801 S US Highway 287, Corsicana, TX, 75109-9373"},"type":"Feature","geometry":{"type":"Point","coordinates":[-96.434519,32.062053]}},{"properties":{"geo_score":0.913,"total":1,"id":"a63rpv3pi16r","geo_precision":"range","address":"3800 Janes Rd, Arcata, CA, 95521-4742"},"type":"Feature","geometry":{"type":"Point","coordinates":[-124.091321,40.902701]}},{"properties":{"geo_score":0.925,"total":16,"id":"a63rputg3pcj","geo_precision":"range","address":"380 World Way, Los Angeles, CA, 90045-5800"},"type":"Feature","geometry":{"type":"Point","coordinates":[-118.408104,33.943468]}},{"properties":{"geo_score":0.634,"total":1,"id":"a63rpv7yuejt","geo_precision":"range","address":"380 Route 6, Andover, CT, 06232-1312"},"type":"Feature","geometry":{"type":"Point","coordinates":[-72.369143,41.738605]}},{"properties":{"geo_score":0.838,"total":1,"id":"a63rpuursfuv","geo_precision":"range","address":"37264 State Highway 299 E, Burney, CA, 96013-4374"},"type":"Feature","geometry":{"type":"Point","coordinates":[-121.658798,40.883767]}},{"properties":{"geo_score":0.927,"total":1,"id":"a63rpuyp241j","geo_precision":"range","address":"3721 Navarre Ave, Oregon, OH, 43616-3433"},"type":"Feature","geometry":{"type":"Point","coordinates":[-83.459541,41.637214]}},{"properties":{"geo_score":1.0,"total":1,"id":"a63rpuwkkjfa","geo_precision":"range","address":"3707 N Harbor Dr, San Diego, CA, 92101-1096"},"type":"Feature","geometry":{"type":"Point","coordinates":[-117.20533,32.729342]}},{"properties":{"geo_score":0.543,"total":1,"id":"a63rpv6ckrr4","geo_precision":"street","address":"3700 E Interstate 40, Amarillo, TX, 79103-6127"},"type":"Feature","geometry":{"type":"Point","coordinates":[-101.884022,35.191808]}},{"properties":{"geo_score":0.725,"total":1,"id":"a63rpv5hiqw6","geo_precision":"street","address":"3650 Stardust Dr, Hannibal, MO, 63401-2480"},"type":"Feature","geometry":{"type":"Point","coordinates":[-91.392187,39.7228]}},{"properties":{"geo_score":0.495,"total":1,"id":"a63rpv6gbogt","geo_precision":"zip","address":"3620 Federal St, Camden, NJ, 81052631"},"type":"Feature","geometry":{"type":"Point","coordinates":[-91.613795,40.769982]}},{"properties":{"geo_score":0.912,"total":1,"id":"a63rpv88li2v","geo_precision":"range","address":"3609 W Highway 390, Panama City, FL, 32405-2723"},"type":"Feature","geometry":{"type":"Point","coordinates":[-85.668303,30.217065]}},{"properties":{"geo_score":0.931,"total":1,"id":"a63rpuwcax5c","geo_precision":"range","address":"3606 Mayfield Road, Cleveland Hts., OH, 44118"},"type":"Feature","geometry":{"type":"Point","coordinates":[-81.555706,41.520394]}},{"properties":{"geo_score":0.72,"total":1,"id":"a63rpuxk87dz","geo_precision":"street","address":"3601 Falls Road, Baltimore, MD, 21211-1815"},"type":"Feature","geometry":{"type":"Point","coordinates":[-76.635476,39.332646]}},{"properties":{"geo_score":0.984,"total":1,"id":"a63rpuyiunzo","geo_precision":"range","address":"3600 E Highland Springs Rd, Lakeport, CA, 95453-9639"},"type":"Feature","geometry":{"type":"Point","coordinates":[-122.894076,39.003848]}},{"properties":{"geo_score":1.0,"total":1,"id":"a63rpv0v80uc","geo_precision":"range","address":"3575 Old Keystone Rd, Tarpon Springs, FL, 34688"},"type":"Feature","geometry":{"type":"Point","coordinates":[-82.670429,28.147294]}},{"properties":{"geo_score":0.805,"total":1,"id":"a63rpus4pddc","geo_precision":"street","address":"3565 FAIRLANE DR, ALLEN PARK, MI, 48101-2876"},"type":"Feature","geometry":{"type":"Point","coordinates":[-83.195732,42.295711]}},{"properties":{"geo_score":0.722,"total":2,"id":"a63rpuxdiz5f","geo_precision":"street","address":"3557  Campus Dr, Thousand Oaks, CA, 91360-2744"},"type":"Feature","geometry":{"type":"Point","coordinates":[-118.881873,34.230227]}},{"properties":{"geo_score":0.919,"total":1,"id":"a63rpuz3n094","geo_precision":"range","address":"35375 Mulholland Hwy, Malibu, CA, 90265-2364"},"type":"Feature","geometry":{"type":"Point","coordinates":[-118.925798,34.074346]}},{"properties":{"geo_score":1.0,"total":1,"id":"a63rputn1xto","geo_precision":"range","address":"3515 Towson Ave, Fort Smith, AR, 72901-7038"},"type":"Feature","geometry":{"type":"Point","coordinates":[-94.42224,35.350683]}},{"properties":{"geo_score":0.466,"total":2,"id":"a63rpv393jx4","geo_precision":"street","address":"35031 Twenty-Three Mile, New Baltimore, MI, 48047"},"type":"Feature","geometry":{"type":"Point","coordinates":[-82.741078,42.681514]}},{"properties":{"geo_score":0.805,"total":2,"id":"a63rpusjwihd","geo_precision":"range","address":"3470 Windmill Rd, Cleburne, TX, 76033-7746"},"type":"Feature","geometry":{"type":"Point","coordinates":[-97.430366,32.408487]}},{"properties":{"geo_score":0.439,"total":1,"id":"a63rpv1vvyu5","geo_precision":"street","address":"3465 York Commons Blvd, Dayton, OH, 45414"},"type":"Feature","geometry":{"type":"Point","coordinates":[-84.165384,39.766779]}},{"properties":{"geo_score":0.821,"total":2,"id":"a63rpuydknjh","geo_precision":"street","address":"3455 Solstice Canyon Rd, Malibu, CA, 90265-2978"},"type":"Feature","geometry":{"type":"Point","coordinates":[-118.753876,34.039927]}},{"properties":{"geo_score":0.902,"total":1,"id":"a63rpv3u5qt7","geo_precision":"range","address":"3454 S Western St, Amarillo, TX, 79109-4438"},"type":"Feature","geometry":{"type":"Point","coordinates":[-101.883957,35.174422]}},{"properties":{"geo_score":1.0,"total":1,"id":"a63rpv4abg7o","geo_precision":"range","address":"345 W Manchester Blvd, Inglewood, CA, 90301-1107"},"type":"Feature","geometry":{"type":"Point","coordinates":[-118.360337,33.961625]}},{"properties":{"geo_score":0.916,"total":1,"id":"a63rpuz35rwn","geo_precision":"range","address":"3449 Sw State Road 26, Trenton, FL, 32693"},"type":"Feature","geometry":{"type":"Point","coordinates":[-82.867079,29.612787]}},{"properties":{"geo_score":0.941,"total":1,"id":"a63rpuw459m5","geo_precision":"range","address":"34440 Vine Street, Eastlake, OH, 44095"},"type":"Feature","geometry":{"type":"Point","coordinates":[-81.443283,41.642537]}},{"properties":{"geo_score":0.415,"total":1,"id":"a63rpv4ic1sp","geo_precision":"street","address":"3429 Pa Turnpike, WILLOW GROVE, PA, 19090"},"type":"Feature","geometry":{"type":"Point","coordinates":[-75.15979,40.082592]}},{"properties":{"geo_score":1.0,"total":1,"id":"a63rpv3pv4t3","geo_precision":"range","address":"3405 Bradshaw Rd, Sacramento, CA, 95827-3327"},"type":"Feature","geometry":{"type":"Point","coordinates":[-121.336272,38.562016]}},{"properties":{"geo_score":0.911,"total":2,"id":"a63rpv2v6fh6","geo_precision":"range","address":"3400 Punta Alta, Laguna Hills, CA, 92637-2500"},"type":"Feature","geometry":{"type":"Point","coordinates":[-117.74617,33.611229]}},{"properties":{"geo_score":0.919,"total":1,"id":"a63rpv8672kq","geo_precision":"range","address":"3393 Laurel Fort Meade Rd, Laurel, MD, 20724-2001"},"type":"Feature","geometry":{"type":"Point","coordinates":[-76.810021,39.098976]}},{"properties":{"geo_score":0.92,"total":1,"id":"a63rpuurznya","geo_precision":"range","address":"3375 Jefferson St, Napa, CA, 94558-3437"},"type":"Feature","geometry":{"type":"Point","coordinates":[-122.299882,38.322439]}},{"properties":{"geo_score":1.0,"total":2,"id":"a63rpuvrgxzc","geo_precision":"range","address":"3366 E. Willow Street, Signal Hill, CA, 90755"},"type":"Feature","geometry":{"type":"Point","coordinates":[-118.152302,33.804415]}},{"properties":{"geo_score":1.0,"total":1,"id":"a63rpuwmkzzn","geo_precision":"range","address":"3333 E Michigan Ave, Jackson, MI, 49202-3853"},"type":"Feature","geometry":{"type":"Point","coordinates":[-84.36002,42.257075]}},{"properties":{"geo_score":1.0,"total":4,"id":"a63rpv3ga8mi","geo_precision":"range","address":"3333 Bristol St, Costa Mesa, CA, 92626-1811"},"type":"Feature","geometry":{"type":"Point","coordinates":[-117.885527,33.690957]}},{"properties":{"geo_score":0.927,"total":1,"id":"a63rpuxn8byi","geo_precision":"range","address":"33151 Double Canyon Road, Fallbrook, CA, 92082"},"type":"Feature","geometry":{"type":"Point","coordinates":[-117.122749,33.317384]}},{"properties":{"geo_score":0.893,"total":1,"id":"a63rpv0eugtq","geo_precision":"range","address":"3311 S State Road 19, Peru, IN, 46970-7476"},"type":"Feature","geometry":{"type":"Point","coordinates":[-86.039126,40.812985]}},{"properties":{"geo_score":0.893,"total":1,"id":"a63rpus3qrcm","geo_precision":"range","address":"3311 S State Rd 19, Peru, IN, 46970"},"type":"Feature","geometry":{"type":"Point","coordinates":[-86.039126,40.812985]}},{"properties":{"geo_score":1.0,"total":2,"id":"a63rpuyijzts","geo_precision":"range","address":"33000 Parkhill St, Wayne, MI, 48184-1363"},"type":"Feature","geometry":{"type":"Point","coordinates":[-83.364015,42.287585]}},{"properties":{"geo_score":0.917,"total":1,"id":"a63rpv1qdubs","geo_precision":"range","address":"3300 Crain Hwy, Bowie, MD, 20716-1398"},"type":"Feature","geometry":{"type":"Point","coordinates":[-76.717731,38.934159]}},{"properties":{"geo_score":1.0,"total":1,"id":"a63rpv5jhrep","geo_precision":"range","address":"3289 Highland Rd, Baton Rouge, LA, 70802-7918"},"type":"Feature","geometry":{"type":"Point","coordinates":[-91.176634,30.418373]}},{"properties":{"geo_score":0.933,"total":1,"id":"a63rpuz4eon4","geo_precision":"range","address":"328 W HUNTINGTON DR, MONROVIA, CA, 91016-3304"},"type":"Feature","geometry":{"type":"Point","coordinates":[-118.00578,34.14031]}},{"properties":{"geo_score":0.797,"total":1,"id":"a63rputav6ak","geo_precision":"range","address":"3243 Santa Anita Ave, South El Monte, CA, 91733"},"type":"Feature","geometry":{"type":"Point","coordinates":[-118.042401,34.067301]}},{"properties":{"geo_score":0.623,"total":1,"id":"a63rpv59c3no","geo_precision":"street","address":"3222 State Route 11, Malone, NY, 12953"},"type":"Feature","geometry":{"type":"Point","coordinates":[-74.309394,44.840849]}},{"properties":{"geo_score":0.777,"total":1,"id":"a63rputikn1d","geo_precision":"range","address":"32195 Avenue E, Yucaipa, CA, 92399-1731"},"type":"Feature","geometry":{"type":"Point","coordinates":[-117.100482,34.026661]}},{"properties":{"geo_score":0.912,"total":1,"id":"a63rpusp29vw","geo_precision":"range","address":"3201 Central Ave, Hot Springs, AR, 71913-6140"},"type":"Feature","geometry":{"type":"Point","coordinates":[-93.05981,34.477916]}},{"properties":{"geo_score":1.0,"total":1,"id":"a63rpv0xle0d","geo_precision":"range","address":"3197 N Glassell St, Orange, CA, 92865-1007"},"type":"Feature","geometry":{"type":"Point","coordinates":[-117.852323,33.840689]}},{"properties":{"geo_score":0.92,"total":1,"id":"a63rpv7xsyfo","geo_precision":"range","address":"318 E Fairmount Ave, Lakewood, NY, 14750-2007"},"type":"Feature","geometry":{"type":"Point","coordinates":[-79.302664,42.099154]}},{"properties":{"geo_score":0.902,"total":1,"id":"a63rpv1isee1","geo_precision":"range","address":"3173 Kerry St, San Bernardino, CA, 92407-6325"},"type":"Feature","geometry":{"type":"Point","coordinates":[-117.338682,34.153113]}},{"properties":{"geo_score":0.922,"total":2,"id":"a63rpuv0tdm3","geo_precision":"range","address":"3156 Clark Rd, Sarasota, FL, 34231"},"type":"Feature","geometry":{"type":"Point","coordinates":[-82.506423,27.269329]}},{"properties":{"geo_score":0.915,"total":1,"id":"a63rpuu22eqk","geo_precision":"range","address":"3155 French Rd, Beaumont, TX, 77706-7543"},"type":"Feature","geometry":{"type":"Point","coordinates":[-94.141163,30.111388]}},{"properties":{"geo_score":0.917,"total":1,"id":"a63rpv65pext","geo_precision":"range","address":"3131 Tuscarawas St W, Canton, OH, 44708-4160"},"type":"Feature","geometry":{"type":"Point","coordinates":[-81.410096,40.798278]}},{"properties":{"geo_score":0.951,"total":3,"id":"a63rpv3tstte","geo_precision":"range","address":"3105 N Ibp Rd, Holcomb, KS, 67851"},"type":"Feature","geometry":{"type":"Point","coordinates":[-101.011685,38.001566]}},{"properties":{"geo_score":0.634,"total":1,"id":"a63rpuuipazo","geo_precision":"street","address":"3100 North I-27, Plainview, TX, 79072"},"type":"Feature","geometry":{"type":"Point","coordinates":[-101.742383,34.204119]}},{"properties":{"geo_score":0.913,"total":2,"id":"a63rpuxir0hq","geo_precision":"range","address":"3090 Bee Ridge Rd, Sarasota, FL, 34239-7140"},"type":"Feature","geometry":{"type":"Point","coordinates":[-82.508178,27.298814]}},{"properties":{"geo_score":1.0,"total":1,"id":"a63rpuw6w7ko","geo_precision":"range","address":"308 Walnut St, Chico, CA, 95928-5053"},"type":"Feature","geometry":{"type":"Point","coordinates":[-121.848807,39.723337]}},{"properties":{"geo_score":0.917,"total":2,"id":"a63rpuvtqwfw","geo_precision":"range","address":"3072 Highland Ave, Highland, CA, 92346"},"type":"Feature","geometry":{"type":"Point","coordinates":[-117.220598,34.13581]}},{"properties":{"geo_score":0.924,"total":2,"id":"a63rpv3nwva6","geo_precision":"range","address":"307 Crownview Ct, San Marcos, CA, 92069-8107"},"type":"Feature","geometry":{"type":"Point","coordinates":[-117.158335,33.164111]}},{"properties":{"geo_score":1.0,"total":1,"id":"a63rpv69v6tk","geo_precision":"range","address":"3055 Loughborough Dr, Merced, CA, 95348-1119"},"type":"Feature","geometry":{"type":"Point","coordinates":[-120.499781,37.318692]}},{"properties":{"geo_score":0.912,"total":1,"id":"a63rpv2ilqs7","geo_precision":"range","address":"305 Justice Ave, Logan, WV, 25601-3116"},"type":"Feature","geometry":{"type":"Point","coordinates":[-81.992965,37.892876]}},{"properties":{"geo_score":0.318,"total":1,"id":"a63rpuso109e","geo_precision":"street","address":"304 N 36th Street, Seattle, WA, 981038632"},"type":"Feature","geometry":{"type":"Point","coordinates":[-89.925446,34.853218]}},{"properties":{"geo_score":1.0,"total":1,"id":"a63rpus2640o","geo_precision":"range","address":"3030 W Lincoln Ave, Anaheim, CA, 92801-6129"},"type":"Feature","geometry":{"type":"Point","coordinates":[-117.994833,33.832044]}},{"properties":{"geo_score":1.0,"total":1,"id":"a63rpv7pg56f","geo_precision":"range","address":"3030 Greenfield Rd, Royal Oak, MI, 48073-6528"},"type":"Feature","geometry":{"type":"Point","coordinates":[-83.203441,42.510907]}},{"properties":{"geo_score":1.0,"total":1,"id":"a63rpuxqzrlq","geo_precision":"range","address":"303 E Interstate Dr, Jennings, LA, 70546-3021"},"type":"Feature","geometry":{"type":"Point","coordinates":[-92.655425,30.244353]}},{"properties":{"geo_score":1.0,"total":1,"id":"a63rputjgr6l","geo_precision":"range","address":"3023 Duke St, Alexandria, VA, 22314"},"type":"Feature","geometry":{"type":"Point","coordinates":[-77.081525,38.807437]}},{"properties":{"geo_score":0.938,"total":1,"id":"a63rpuubg1ye","geo_precision":"range","address":"3022 South Belt Hwy, Saint Joseph, MO, 64503"},"type":"Feature","geometry":{"type":"Point","coordinates":[-94.801165,39.739523]}},{"properties":{"geo_score":0.935,"total":1,"id":"a63rpv76tcot","geo_precision":"range","address":"3011 NE 59th Ter, Gladstone, MO, 64119-2106"},"type":"Feature","geometry":{"type":"Point","coordinates":[-94.543507,39.200172]}},{"properties":{"geo_score":0.805,"total":1,"id":"a63rpv4h3tbw","geo_precision":"street","address":"301 W County Line Rd, Calimesa, CA, 92320-1213"},"type":"Feature","geometry":{"type":"Point","coordinates":[-117.065445,34.003406]}},{"properties":{"geo_score":0.919,"total":1,"id":"a63rpuuw6b86","geo_precision":"range","address":"301 W Brown St, Ennis, TX, 75119-4740"},"type":"Feature","geometry":{"type":"Point","coordinates":[-96.62847,32.326082]}},{"properties":{"geo_score":0.914,"total":2,"id":"a63rpuubkowh","geo_precision":"range","address":"301 So Village Road, El Dorado, KS, 67042"},"type":"Feature","geometry":{"type":"Point","coordinates":[-96.889567,37.819925]}},{"properties":{"geo_score":0.805,"total":1,"id":"a63rpv0gbqf2","geo_precision":"range","address":"30085 Industrial Pkwy, UNION CITY, CA, 94587-1758"},"type":"Feature","geometry":{"type":"Point","coordinates":[-122.066967,37.611324]}},{"properties":{"geo_score":1.0,"total":1,"id":"a63rpuxwzrkq","geo_precision":"range","address":"3007 Patrick Henry Dr, Falls Church, VA, 22044-2521"},"type":"Feature","geometry":{"type":"Point","coordinates":[-77.147207,38.867906]}},{"properties":{"geo_score":0.633,"total":1,"id":"a63rpuyr3cjg","geo_precision":"street","address":"3001 North State Road #7, FORT LAUDERDALE, FL, 33313-1913"},"type":"Feature","geometry":{"type":"Point","coordinates":[-80.203172,26.164865]}},{"properties":{"geo_score":1.0,"total":3,"id":"a63rpuypvmbt","geo_precision":"range","address":"3000 W Centennial Rd, Santa Ana, CA, 92704"},"type":"Feature","geometry":{"type":"Point","coordinates":[-117.909371,33.723343]}},{"properties":{"geo_score":0.925,"total":2,"id":"a63rpv18fqmv","geo_precision":"range","address":"300 World Way, Los Angeles, CA, 90045"},"type":"Feature","geometry":{"type":"Point","coordinates":[-118.40759,33.944379]}},{"properties":{"geo_score":0.714,"total":8,"id":"a63rpv3v1yfy","geo_precision":"zip","address":", , , 90045-5856"},"type":"Feature","geometry":{"type":"Point","coordinates":[-118.375354,33.994179]}},{"properties":{"geo_score":0.911,"total":2,"id":"a63rpv3nupfz","geo_precision":"range","address":"300 N Harbor Dr, Redondo Beach, CA, 90277-2552"},"type":"Feature","geometry":{"type":"Point","coordinates":[-118.39294,33.845178]}},{"properties":{"geo_score":0.827,"total":2,"id":"a63rpux4ub39","geo_precision":"street","address":"300 Enterprise Rd, Johnstown, NY, 12095-3345"},"type":"Feature","geometry":{"type":"Point","coordinates":[-74.405562,42.988299]}},{"properties":{"geo_score":0.829,"total":1,"id":"a63rpv14ueye","geo_precision":"range","address":"300 East Mulberry, San Antonio, TX, 78212"},"type":"Feature","geometry":{"type":"Point","coordinates":[-98.489915,29.456834]}},{"properties":{"geo_score":0.61,"total":1,"id":"a63rpv24cxkl","geo_precision":"range","address":"3 Lynnfield Street, Lynn, MA, 19042219"},"type":"Feature","geometry":{"type":"Point","coordinates":[-87.830285,36.866202]}},{"properties":{"geo_score":0.788,"total":1,"id":"a63rpv1aph4l","geo_precision":"range","address":"29969 Three Notch Road, Charlotte Hall, MD, 20622-3159"},"type":"Feature","geometry":{"type":"Point","coordinates":[-76.775275,38.491747]}},{"properties":{"geo_score":0.744,"total":1,"id":"a63rpux3ks7x","geo_precision":"street","address":"298 Holiday Rd, Lake Arrowhead, CA, 92352"},"type":"Feature","geometry":{"type":"Point","coordinates":[-117.193057,34.249763]}},{"properties":{"geo_score":1.0,"total":1,"id":"a63rpusyilty","geo_precision":"range","address":"2975 Vineland Road, Kissimmee, FL, 34746-5517"},"type":"Feature","geometry":{"type":"Point","coordinates":[-81.480405,28.337973]}},{"properties":{"geo_score":0.963,"total":2,"id":"a63rpv6u1atn","geo_precision":"range","address":"29582 US Highway 19 N, Clearwater, FL, 33761-2150"},"type":"Feature","geometry":{"type":"Point","coordinates":[-82.738272,28.040515]}},{"properties":{"geo_score":0.878,"total":2,"id":"a63rpuxnkuwk","geo_precision":"range","address":"2925 Michigan Ave, Kissimmee, FL, 34744-1200"},"type":"Feature","geometry":{"type":"Point","coordinates":[-81.390523,28.334739]}},{"properties":{"geo_score":0.476,"total":2,"id":"a63rpuzvtu8i","geo_precision":"street","address":"2924 N 5OTH ST  COOL, TAMPA, FL, 33619"},"type":"Feature","geometry":{"type":"Point","coordinates":[-82.347973,27.923302]}},{"properties":{"geo_score":1.0,"total":2,"id":"a63rputmwggd","geo_precision":"range","address":"2915 Cedar Lane, Fairfax, VA, 22031-2107"},"type":"Feature","geometry":{"type":"Point","coordinates":[-77.246105,38.872977]}},{"properties":{"geo_score":0.954,"total":2,"id":"a63rpv1zk1to","geo_precision":"range","address":"2910 S Main St, Santa Ana, CA, 92707-3719"},"type":"Feature","geometry":{"type":"Point","coordinates":[-117.868018,33.708538]}},{"properties":{"geo_score":1.0,"total":1,"id":"a63rpuuevkzr","geo_precision":"range","address":"2905 S Lees Summit Rd, Independence, MO, 64055-1942"},"type":"Feature","geometry":{"type":"Point","coordinates":[-94.391264,39.066222]}},{"properties":{"geo_score":0.935,"total":3,"id":"a63rpuzs5oh8","geo_precision":"range","address":"2901 Ne 39th Ave, Gainesville, FL, 32609"},"type":"Feature","geometry":{"type":"Point","coordinates":[-82.286402,29.683562]}},{"properties":{"geo_score":0.911,"total":2,"id":"a63rpv7zw22g","geo_precision":"range","address":"2901 Arlington Dr, Alexandria, VA, 22306-2325"},"type":"Feature","geometry":{"type":"Point","coordinates":[-77.080688,38.754689]}},{"properties":{"geo_score":1.0,"total":1,"id":"a63rpv63nps8","geo_precision":"range","address":"2900 W Edinger Ave, Santa Ana, CA, 92704-3902"},"type":"Feature","geometry":{"type":"Point","coordinates":[-117.908257,33.727471]}},{"properties":{"geo_score":0.911,"total":1,"id":"a63rpv5w6a2c","geo_precision":"range","address":"28933 Crown Valley Pkwy, Laguna Niguel, CA, 92677-1514"},"type":"Feature","geometry":{"type":"Point","coordinates":[-117.689936,33.546941]}},{"properties":{"geo_score":0.54,"total":1,"id":"a63rpv4yjtqr","geo_precision":"street","address":"28621 La Montrosa, Laguna Niguel, CA, 92677"},"type":"Feature","geometry":{"type":"Point","coordinates":[-117.69577,33.527271]}},{"properties":{"geo_score":1.0,"total":3,"id":"a63rpuztkwur","geo_precision":"range","address":"285 W Huntington Dr, Arcadia, CA, 91007-3439"},"type":"Feature","geometry":{"type":"Point","coordinates":[-118.049601,34.131682]}},{"properties":{"geo_score":0.811,"total":2,"id":"a63rpuw90map","geo_precision":"range","address":"2829 US HWY 301 South #250, TAMPA, FL, 33619"},"type":"Feature","geometry":{"type":"Point","coordinates":[-82.360377,27.969283]}},{"properties":{"geo_score":1.0,"total":2,"id":"a63rpuv2vgu9","geo_precision":"range","address":"28090 S Western Ave, San Pedro, CA, 90732-1246"},"type":"Feature","geometry":{"type":"Point","coordinates":[-118.310977,33.76513]}},{"properties":{"geo_score":0.805,"total":1,"id":"a63rpuwhm0s3","geo_precision":"street","address":"2809 Clovis Rd, Lubbock, TX, 79415-1603"},"type":"Feature","geometry":{"type":"Point","coordinates":[-101.884742,33.612915]}},{"properties":{"geo_score":0.621,"total":1,"id":"a63rpush4qvi","geo_precision":"zip","address":"28051 Lanzarote, Mission Viejo, CA, 92692"},"type":"Feature","geometry":{"type":"Point","coordinates":[-117.659899,33.575026]}},{"properties":{"geo_score":0.806,"total":1,"id":"a63rpv1ah63m","geo_precision":"street","address":"2800 N Terminal Rd, Houston, TX, 77032-5569"},"type":"Feature","geometry":{"type":"Point","coordinates":[-95.34222,29.987329]}},{"properties":{"geo_score":0.805,"total":1,"id":"a63rpv27abyc","geo_precision":"range","address":"2800 N Main St, Santa Ana, CA, 92705-6607"},"type":"Feature","geometry":{"type":"Point","coordinates":[-117.867329,33.774335]}},{"properties":{"geo_score":0.923,"total":1,"id":"a63rpuwg5s2c","geo_precision":"range","address":"2800 Mountain Rd, Pasadena, MD, 21122"},"type":"Feature","geometry":{"type":"Point","coordinates":[-76.541136,39.127707]}},{"properties":{"geo_score":0.924,"total":1,"id":"a63rpuy03750","geo_precision":"range","address":"2799 Health Center Dr, San Diego, CA, 92123-2708"},"type":"Feature","geometry":{"type":"Point","coordinates":[-117.157452,32.794914]}},{"properties":{"geo_score":0.637,"total":1,"id":"a63rpuvlz1ar","geo_precision":"street","address":"276-Willow Grove , WILLOW GROVE, PA, 19090"},"type":"Feature","geometry":{"type":"Point","coordinates":[-75.128627,40.169475]}},{"properties":{"geo_score":1.0,"total":1,"id":"a63rpv42rzos","geo_precision":"range","address":"27651 Casta Del Sol, Mission Viejo, CA, 92692-1557"},"type":"Feature","geometry":{"type":"Point","coordinates":[-117.649233,33.616057]}},{"properties":{"geo_score":1.0,"total":2,"id":"a63rpusfzgr6","geo_precision":"range","address":"27501 S Western Ave, Rancho Palos Verdes, CA, 90275-1012"},"type":"Feature","geometry":{"type":"Point","coordinates":[-118.309418,33.770225]}},{"properties":{"geo_score":0.867,"total":1,"id":"a63rpuxq2o8z","geo_precision":"range","address":"27500 Highway 189, Lake Arrowhead, CA, 92352"},"type":"Feature","geometry":{"type":"Point","coordinates":[-117.2071,34.24736]}},{"properties":{"geo_score":1.0,"total":2,"id":"a63rpuv2ys00","geo_precision":"range","address":"2745 W McFadden Ave, Santa Ana, CA, 92704-2713"},"type":"Feature","geometry":{"type":"Point","coordinates":[-117.90599,33.73452]}},{"properties":{"geo_score":0.915,"total":1,"id":"a63rpv0bifwl","geo_precision":"range","address":"2740 Hampton Hwy, Yorktown, VA, 23693-4702"},"type":"Feature","geometry":{"type":"Point","coordinates":[-76.420574,37.102712]}},{"properties":{"geo_score":0.717,"total":1,"id":"a63rpus3rbcz","geo_precision":"street","address":"27351 Dequindre Rd, Madison Heights, MI, 48071-3487"},"type":"Feature","geometry":{"type":"Point","coordinates":[-83.124733,42.522757]}},{"properties":{"geo_score":0.902,"total":2,"id":"a63rpuzy0ce2","geo_precision":"range","address":"2730 5th Ave, Rock Island, IL, 61201-1951"},"type":"Feature","geometry":{"type":"Point","coordinates":[-90.562,41.507841]}},{"properties":{"geo_score":0.805,"total":1,"id":"a63rpv2na4ay","geo_precision":"range","address":"2727 Highland Dr, Running Springs, CA, 92382"},"type":"Feature","geometry":{"type":"Point","coordinates":[-117.10377,34.204716]}},{"properties":{"geo_score":0.451,"total":1,"id":"a63rpv76wutg","geo_precision":"street","address":"27255 23 Mile Rd, New Baltimore, MI, 48051-2036"},"type":"Feature","geometry":{"type":"Point","coordinates":[-82.838501,42.694057]}},{"properties":{"geo_score":0.715,"total":2,"id":"a63rputmsdg7","geo_precision":"street","address":"2702 N Salisbury Blvd, Salisbury, MD, 21801"},"type":"Feature","geometry":{"type":"Point","coordinates":[-75.566983,38.413972]}},{"properties":{"geo_score":0.935,"total":1,"id":"a63rpv32w4og","geo_precision":"range","address":"2700 West State Street, Alliance, OH, 44601"},"type":"Feature","geometry":{"type":"Point","coordinates":[-81.158893,40.902028]}},{"properties":{"geo_score":0.716,"total":1,"id":"a63rpuvaeokr","geo_precision":"street","address":"2700 N Salisbury Blvd, Salisbury, MD, 21801-2143"},"type":"Feature","geometry":{"type":"Point","coordinates":[-75.566983,38.413972]}},{"properties":{"geo_score":1.0,"total":2,"id":"a63rpv22d0bb","geo_precision":"range","address":"2700 Martin Dr, Bedford, TX, 76021-5012"},"type":"Feature","geometry":{"type":"Point","coordinates":[-97.117354,32.847982]}},{"properties":{"geo_score":1.0,"total":2,"id":"a63rpuxk2l33","geo_precision":"range","address":"27 N Cameron St, Harrisburg, PA, 17101-2408"},"type":"Feature","geometry":{"type":"Point","coordinates":[-76.874933,40.26557]}},{"properties":{"geo_score":0.925,"total":2,"id":"a63rpustyjgw","geo_precision":"range","address":"26815 Rainbow Glen Dr., Santa Clarita, CA, 91351"},"type":"Feature","geometry":{"type":"Point","coordinates":[-118.486377,34.417244]}},{"properties":{"geo_score":0.626,"total":1,"id":"a63rpuzaxrep","geo_precision":"street","address":"2675 Taylor Rd, Reynoldsburg, OH, 43068"},"type":"Feature","geometry":{"type":"Point","coordinates":[-82.765459,40.017611]}},{"properties":{"geo_score":0.924,"total":1,"id":"a63rpv6jwtww","geo_precision":"range","address":"2663 Canyon Springs Pkwy, Riverside, CA, 92507-0911"},"type":"Feature","geometry":{"type":"Point","coordinates":[-117.283723,33.941571]}},{"properties":{"geo_score":0.772,"total":1,"id":"a63rpv7zyww4","geo_precision":"range","address":"265 S Rancho Rd, Westlake Village, CA, 91361-5222"},"type":"Feature","geometry":{"type":"Point","coordinates":[-118.857566,34.182166]}},{"properties":{"geo_score":0.415,"total":1,"id":"a63rpv04ap5n","geo_precision":"street","address":"26363 Ridge Rd, Damascus, MD, 208721946"},"type":"Feature","geometry":{"type":"Point","coordinates":[-74.98468,40.141503]}},{"properties":{"geo_score":0.595,"total":1,"id":"a63rpv16efv3","geo_precision":"zip","address":"263 Walmart Dr, Camden, DE, 19934-1308"},"type":"Feature","geometry":{"type":"Point","coordinates":[-75.558814,39.118168]}},{"properties":{"geo_score":0.919,"total":4,"id":"a63rpv8c9pjo","geo_precision":"range","address":"2627 N Hollywood Way, Burbank, CA, 91505-1062"},"type":"Feature","geometry":{"type":"Point","coordinates":[-118.348888,34.196026]}},{"properties":{"geo_score":0.911,"total":2,"id":"a63rpuucrz0t","geo_precision":"range","address":"2616a Springhill Rd, Tallahassee, FL, 32305"},"type":"Feature","geometry":{"type":"Point","coordinates":[-84.303662,30.412023]}},{"properties":{"geo_score":0.756,"total":2,"id":"a63rpuuh228p","geo_precision":"range","address":"2611 N 40th St # 262, TAMPA, FL, 33605-3208"},"type":"Feature","geometry":{"type":"Point","coordinates":[-82.414088,27.966131]}},{"properties":{"geo_score":0.825,"total":1,"id":"a63rpv2jc7h0","geo_precision":"range","address":"2605 N 50th St, TAMPA, FL, 33619-2743"},"type":"Feature","geometry":{"type":"Point","coordinates":[-82.401713,27.965948]}},{"properties":{"geo_score":1.0,"total":2,"id":"a63rpv1pz4y7","geo_precision":"range","address":"2595 Depot Rd, Hayward, CA, 94545-2341"},"type":"Feature","geometry":{"type":"Point","coordinates":[-122.114414,37.638743]}},{"properties":{"geo_score":0.922,"total":1,"id":"a63rpuu2294n","geo_precision":"range","address":"258 SANTA MONICA PIER, SANTA MONICA, CA, 90401-3126"},"type":"Feature","geometry":{"type":"Point","coordinates":[-118.496513,34.015357]}},{"properties":{"geo_score":0.659,"total":1,"id":"a63rpv3h36sr","geo_precision":"street","address":"255 Summit Park Dr, Irvine, CA, 92603"},"type":"Feature","geometry":{"type":"Point","coordinates":[-117.809259,33.638325]}},{"properties":{"geo_score":0.911,"total":1,"id":"a63rpuynrilj","geo_precision":"range","address":"2540 Rockwood Ave, Calexico, CA, 92231-4406"},"type":"Feature","geometry":{"type":"Point","coordinates":[-115.496264,32.694106]}},{"properties":{"geo_score":1.0,"total":2,"id":"a63rpv07zaf7","geo_precision":"range","address":"2525 N Lee Hwy, Arlington, VA, 22201-4023"},"type":"Feature","geometry":{"type":"Point","coordinates":[-77.090869,38.894879]}},{"properties":{"geo_score":1.0,"total":1,"id":"a63rpv2r9exi","geo_precision":"range","address":"2525 Allen Genoa Rd, Pasadena, TX, 77502-4319"},"type":"Feature","geometry":{"type":"Point","coordinates":[-95.222586,29.673736]}},{"properties":{"geo_score":1.0,"total":3,"id":"a63rpv8hj5pg","geo_precision":"range","address":"25209 Marguerite Pkwy, Mission Viejo, CA, 92692-2912"},"type":"Feature","geometry":{"type":"Point","coordinates":[-117.658737,33.595766]}},{"properties":{"geo_score":1.0,"total":1,"id":"a63rpv5j1qql","geo_precision":"range","address":"2510 S Reynolds Rd, Toledo, OH, 43614-1415"},"type":"Feature","geometry":{"type":"Point","coordinates":[-83.664678,41.59435]}},{"properties":{"geo_score":1.0,"total":1,"id":"a63rpuw5j98k","geo_precision":"range","address":"2505 San Ramon Valley Blvd, San Ramon, CA, 94583-1603"},"type":"Feature","geometry":{"type":"Point","coordinates":[-121.974643,37.772836]}},{"properties":{"geo_score":1.0,"total":2,"id":"a63rpuub9bm0","geo_precision":"range","address":"2500 S General Bruce Dr, Temple, TX, 76504-5142"},"type":"Feature","geometry":{"type":"Point","coordinates":[-97.370981,31.095542]}},{"properties":{"geo_score":0.621,"total":2,"id":"a63rpuz73xz3","geo_precision":"street","address":"2500 Progress Pkwy, Shelbyville, IN, 46176-8772"},"type":"Feature","geometry":{"type":"Point","coordinates":[-85.742663,39.523578]}},{"properties":{"geo_score":0.902,"total":1,"id":"a63rpuwu7u3b","geo_precision":"range","address":"250 S  Grand Ave, Glendora, CA, 91741-4218"},"type":"Feature","geometry":{"type":"Point","coordinates":[-117.87254,34.133272]}},{"properties":{"geo_score":1.0,"total":1,"id":"a63rpuy7cwmn","geo_precision":"range","address":"25 Windward Ave, Venice, CA, 90291-4102"},"type":"Feature","geometry":{"type":"Point","coordinates":[-118.473176,33.987129]}},{"properties":{"geo_score":0.717,"total":2,"id":"a63rpuyo6wp9","geo_precision":"street","address":"2465 Hempstead Tpke, East Meadow, NY, 11554-2028"},"type":"Feature","geometry":{"type":"Point","coordinates":[-73.546622,40.703944]}},{"properties":{"geo_score":1.0,"total":1,"id":"a63rpv71gjad","geo_precision":"range","address":"2465 Collingwood Blvd, Toledo, OH, 43620"},"type":"Feature","geometry":{"type":"Point","coordinates":[-83.555217,41.670126]}},{"properties":{"geo_score":0.922,"total":1,"id":"a63rpux92n17","geo_precision":"range","address":"2457 Endicott St, Los Angeles, CA, 90032-3047"},"type":"Feature","geometry":{"type":"Point","coordinates":[-118.171943,34.075387]}},{"properties":{"geo_score":0.965,"total":1,"id":"a63rpuwwvw0h","geo_precision":"range","address":"24566 Ashland Dr, Laguna Hills, CA, 92653-4332"},"type":"Feature","geometry":{"type":"Point","coordinates":[-117.700946,33.601386]}},{"properties":{"geo_score":0.957,"total":1,"id":"a63rpv27ufs9","geo_precision":"range","address":"245 Darrow Rd, Akron, OH, 44305-3801"},"type":"Feature","geometry":{"type":"Point","coordinates":[-81.442165,41.070252]}},{"properties":{"geo_score":0.707,"total":1,"id":"a63rpuuuj320","geo_precision":"street","address":"24255 Pacific Coast Hwy, Malibu, CA, 90263-3999"},"type":"Feature","geometry":{"type":"Point","coordinates":[-118.708596,34.034276]}},{"properties":{"geo_score":1.0,"total":1,"id":"a63rpv6xhnde","geo_precision":"range","address":"24251 Muirlands Blvd, El Toro, CA, 92630-3001"},"type":"Feature","geometry":{"type":"Point","coordinates":[-117.70366,33.62814]}},{"properties":{"geo_score":0.958,"total":1,"id":"a63rpv43auoy","geo_precision":"range","address":"24210 EAST FORK RD, Azusa, CA, 91702-6249"},"type":"Feature","geometry":{"type":"Point","coordinates":[-117.800259,34.233739]}},{"properties":{"geo_score":1.0,"total":1,"id":"a63rpv6z71vg","geo_precision":"range","address":"2411 Macarthur Blvd, Oakland, CA, 94602-2915"},"type":"Feature","geometry":{"type":"Point","coordinates":[-122.214015,37.79977]}},{"properties":{"geo_score":0.902,"total":1,"id":"a63rpux7bpq5","geo_precision":"range","address":"2405 Vestal Pkwy E, Vestal, NY, 13850-2087"},"type":"Feature","geometry":{"type":"Point","coordinates":[-76.014212,42.094212]}},{"properties":{"geo_score":1.0,"total":1,"id":"a63rpv7xr6xx","geo_precision":"range","address":"240 S Magnolia Ave, Anaheim, CA, 92804-2111"},"type":"Feature","geometry":{"type":"Point","coordinates":[-117.975956,33.829639]}},{"properties":{"geo_score":0.963,"total":1,"id":"a63rpv1n4r6a","geo_precision":"range","address":"24 S State St, Chicago, IL, 60602"},"type":"Feature","geometry":{"type":"Point","coordinates":[-87.627854,41.882634]}},{"properties":{"geo_score":0.861,"total":1,"id":"a63rpv4u974v","geo_precision":"street","address":"23701 East Fork Road , Azusa, CA, 91702-1477"},"type":"Feature","geometry":{"type":"Point","coordinates":[-117.796316,34.232695]}},{"properties":{"geo_score":1.0,"total":1,"id":"a63rpuwx0som","geo_precision":"range","address":"2353 Port Durness Pl, Newport Beach, CA, 92660-6804"},"type":"Feature","geometry":{"type":"Point","coordinates":[-117.846048,33.623098]}},{"properties":{"geo_score":0.89,"total":1,"id":"a63rpv5yq1z2","geo_precision":"range","address":"2335 S Mountain Ave, Duarte, CA, 91010-3559"},"type":"Feature","geometry":{"type":"Point","coordinates":[-117.99034,34.122564]}},{"properties":{"geo_score":0.902,"total":2,"id":"a63rpuu3yb7w","geo_precision":"range","address":"2335 N Josey Ln, Carrollton, TX, 75006-1614"},"type":"Feature","geometry":{"type":"Point","coordinates":[-96.890177,32.978195]}},{"properties":{"geo_score":1.0,"total":2,"id":"a63rpuv03pxe","geo_precision":"range","address":"2330 Roosevelt Ave, San Antonio, TX, 78210-4936"},"type":"Feature","geometry":{"type":"Point","coordinates":[-98.482073,29.379838]}},{"properties":{"geo_score":1.0,"total":2,"id":"a63rpv2l5yxr","geo_precision":"range","address":"23215 Early Ave, Torrance, CA, 90505-4002"},"type":"Feature","geometry":{"type":"Point","coordinates":[-118.343442,33.815168]}},{"properties":{"geo_score":0.922,"total":2,"id":"a63rpv3izior","geo_precision":"range","address":"2315 Stockton Blvd, Sacramento, CA, 95817-2201"},"type":"Feature","geometry":{"type":"Point","coordinates":[-121.45751,38.554336]}},{"properties":{"geo_score":0.723,"total":2,"id":"a63rpuw3y4xc","geo_precision":"street","address":"2311 S Jefferson Ave, Mount Pleasant, TX, 75455-6011"},"type":"Feature","geometry":{"type":"Point","coordinates":[-94.968192,33.136035]}},{"properties":{"geo_score":0.922,"total":1,"id":"a63rpv2taxnf","geo_precision":"range","address":"2308 Chamberlayne Ave, Richmond, VA, 23222-4204"},"type":"Feature","geometry":{"type":"Point","coordinates":[-77.443815,37.564416]}},{"properties":{"geo_score":0.913,"total":2,"id":"a63rpuuebsi9","geo_precision":"range","address":"2306 Manatee Ave E, Bradenton, FL, 34208-2450"},"type":"Feature","geometry":{"type":"Point","coordinates":[-82.535717,27.496222]}},{"properties":{"geo_score":1.0,"total":1,"id":"a63rpv0klbd5","geo_precision":"range","address":"2304 Sherman Blvd, Fort Wayne, IN, 46808-3162"},"type":"Feature","geometry":{"type":"Point","coordinates":[-85.153771,41.096028]}},{"properties":{"geo_score":1.0,"total":1,"id":"a63rpuw4swrk","geo_precision":"range","address":"2302 Fairfield Ave, Fort Wayne, IN, 46807-1209"},"type":"Feature","geometry":{"type":"Point","coordinates":[-85.145175,41.064105]}},{"properties":{"geo_score":0.913,"total":2,"id":"a63rpuzpr2ol","geo_precision":"range","address":"2301 E Markland Ave, Kokomo, IN, 46901-6245"},"type":"Feature","geometry":{"type":"Point","coordinates":[-86.100074,40.476716]}},{"properties":{"geo_score":0.902,"total":1,"id":"a63rpv1en0li","geo_precision":"range","address":"2299 S Airport Rd, Wichita, KS, 67209-1980"},"type":"Feature","geometry":{"type":"Point","coordinates":[-97.42834,37.655619]}},{"properties":{"geo_score":0.714,"total":1,"id":"a63rpuux5y42","geo_precision":"street","address":"2292 Upton Dr, Virginia Beach, VA, 23454-1185"},"type":"Feature","geometry":{"type":"Point","coordinates":[-75.994372,36.782841]}},{"properties":{"geo_score":0.911,"total":1,"id":"a63rpuy66at8","geo_precision":"range","address":"226 S Prospect Ave, Redondo Beach, CA, 90277-3521"},"type":"Feature","geometry":{"type":"Point","coordinates":[-118.376115,33.840221]}},{"properties":{"geo_score":0.902,"total":2,"id":"a63rpv5m6tw1","geo_precision":"range","address":"2238 Fm 3183, Plainview, TX, 79072"},"type":"Feature","geometry":{"type":"Point","coordinates":[-101.7019,34.248874]}},{"properties":{"geo_score":0.882,"total":1,"id":"a63rpv8gknki","geo_precision":"range","address":"2233 E 69th St, Long Beach, CA, 90805-1742"},"type":"Feature","geometry":{"type":"Point","coordinates":[-118.168263,33.880585]}},{"properties":{"geo_score":1.0,"total":2,"id":"a63rpv5arjqo","geo_precision":"range","address":"2215 W McFadden Ave, Santa Ana, CA, 92704-2803"},"type":"Feature","geometry":{"type":"Point","coordinates":[-117.898661,33.73449]}},{"properties":{"geo_score":0.397,"total":1,"id":"a63rpux2umyh","geo_precision":"city","address":"22027 Vanborn, Taylor, MI, 481801314"},"type":"Feature","geometry":{"type":"Point","coordinates":[-169.428333,-14.219444]}},{"properties":{"geo_score":0.911,"total":1,"id":"a63rpuugpaoy","geo_precision":"range","address":"220 Pearl St, Ypsilanti, MI, 48197-2651"},"type":"Feature","geometry":{"type":"Point","coordinates":[-83.614773,42.242241]}},{"properties":{"geo_score":0.922,"total":1,"id":"a63rpuy6nljc","geo_precision":"range","address":"21701 Lake Forest Dr, Lake Forest, CA, 92630-2792"},"type":"Feature","geometry":{"type":"Point","coordinates":[-117.69317,33.64348]}},{"properties":{"geo_score":0.919,"total":1,"id":"a63rpuub3it2","geo_precision":"range","address":"2170 Crain Highway, Waldorf, MD, 20601-3146"},"type":"Feature","geometry":{"type":"Point","coordinates":[-76.881433,38.652056]}},{"properties":{"geo_score":0.865,"total":1,"id":"a63rpv0ljl9m","geo_precision":"range","address":"21662 Honeysuckle, Trabuco Canyon, CA, 92679-3478"},"type":"Feature","geometry":{"type":"Point","coordinates":[-117.574794,33.648606]}},{"properties":{"geo_score":1.0,"total":2,"id":"a63rpv51c9kv","geo_precision":"range","address":"21630 Hessel Ave, Detroit, MI, 48219-1230"},"type":"Feature","geometry":{"type":"Point","coordinates":[-83.257568,42.441615]}},{"properties":{"geo_score":1.0,"total":1,"id":"a63rpuuidzh9","geo_precision":"range","address":"216 S State St, Chicago, IL, 60604"},"type":"Feature","geometry":{"type":"Point","coordinates":[-87.627703,41.879127]}},{"properties":{"geo_score":1.0,"total":2,"id":"a63rpuuex0y5","geo_precision":"range","address":"21551 Paseo Palmetto, Mission Viejo, CA, 92692-4958"},"type":"Feature","geometry":{"type":"Point","coordinates":[-117.627158,33.649715]}},{"properties":{"geo_score":0.697,"total":1,"id":"a63rpuxsiw53","geo_precision":"street","address":"2150 No Waterman Avenue, El Centro, CA, 92243-1605"},"type":"Feature","geometry":{"type":"Point","coordinates":[-115.574011,32.8074]}},{"properties":{"geo_score":0.912,"total":2,"id":"a63rpv7yw77d","geo_precision":"range","address":"215 W K St, Encinitas, CA, 92024"},"type":"Feature","geometry":{"type":"Point","coordinates":[-117.293665,33.036695]}},{"properties":{"geo_score":1.0,"total":1,"id":"a63rpuu1x57r","geo_precision":"range","address":"2135 Wabash Ave, Terre Haute, IN, 47807-3333"},"type":"Feature","geometry":{"type":"Point","coordinates":[-87.384655,39.469924]}},{"properties":{"geo_score":0.915,"total":4,"id":"a63rpuycwnzx","geo_precision":"range","address":"21333 Hawthorne Blvd, Torrance, CA, 90503-5602"},"type":"Feature","geometry":{"type":"Point","coordinates":[-118.353066,33.835239]}},{"properties":{"geo_score":0.902,"total":1,"id":"a63rpuvss4e9","geo_precision":"range","address":"2130 16th St, Sacramento, CA, 95818-1509"},"type":"Feature","geometry":{"type":"Point","coordinates":[-121.490576,38.565653]}},{"properties":{"geo_score":1.0,"total":1,"id":"a63rpuuj1276","geo_precision":"range","address":"2111 Sherman Blvd, Fort Wayne, IN, 46808-2356"},"type":"Feature","geometry":{"type":"Point","coordinates":[-85.153711,41.094328]}},{"properties":{"geo_score":1.0,"total":2,"id":"a63rpv7iyeoa","geo_precision":"range","address":"21100 Pacific Coast Hwy, Huntington Beach, CA, 92648-5307"},"type":"Feature","geometry":{"type":"Point","coordinates":[-117.999384,33.655323]}},{"properties":{"geo_score":0.816,"total":1,"id":"a63rpv8g9add","geo_precision":"range","address":"211 W 5th St, Holtville, CA, 92250-1111"},"type":"Feature","geometry":{"type":"Point","coordinates":[-115.381505,32.81096]}},{"properties":{"geo_score":0.805,"total":1,"id":"a63rpv75x6t9","geo_precision":"street","address":"211 Veterans Memorial Blvd, Metairie, LA, 70005-3005"},"type":"Feature","geometry":{"type":"Point","coordinates":[-90.132713,30.001762]}},{"properties":{"geo_score":0.921,"total":2,"id":"a63rpv69txfc","geo_precision":"range","address":"211 E Main St, Ottawa, IL, 61350-3111"},"type":"Feature","geometry":{"type":"Point","coordinates":[-88.839295,41.345757]}},{"properties":{"geo_score":0.823,"total":8,"id":"a63rpv16ppc5","geo_precision":"street","address":"2100 Napa Vallejo Hwy, Napa, CA, 94558-6234"},"type":"Feature","geometry":{"type":"Point","coordinates":[-122.271763,38.270095]}},{"properties":{"geo_score":0.862,"total":1,"id":"a63rpv647hbv","geo_precision":"street","address":"210 Andover St, Peabody, MA, 01960-1647"},"type":"Feature","geometry":{"type":"Point","coordinates":[-70.943722,42.544863]}},{"properties":{"geo_score":0.922,"total":2,"id":"a63rputucb4b","geo_precision":"range","address":"2088 N Beale Rd, Marysville, CA, 95901-7605"},"type":"Feature","geometry":{"type":"Point","coordinates":[-121.541918,39.12795]}},{"properties":{"geo_score":0.805,"total":2,"id":"a63rpuy7ctzc","geo_precision":"range","address":"208 Us Hwy 41 &amp; Haben Rd, PALMETTO, FL, 34221"},"type":"Feature","geometry":{"type":"Point","coordinates":[-82.560031,27.514776]}},{"properties":{"geo_score":0.902,"total":1,"id":"a63rpuuvfyug","geo_precision":"range","address":"208 E Eighth St, Liberal, KS, 67901"},"type":"Feature","geometry":{"type":"Point","coordinates":[-100.919669,37.0469]}},{"properties":{"geo_score":0.553,"total":2,"id":"a63rpv6c2crc","geo_precision":"street","address":"20772 W Coastal Peak, Newport Coast, CA, 92657"},"type":"Feature","geometry":{"type":"Point","coordinates":[-117.165078,33.781266]}},{"properties":{"geo_score":1.0,"total":1,"id":"a63rput5gxf9","geo_precision":"range","address":"2075 W Grand Blvd, Detroit, MI, 48208-1105"},"type":"Feature","geometry":{"type":"Point","coordinates":[-83.107826,42.357645]}},{"properties":{"geo_score":0.915,"total":1,"id":"a63rpv64kzwu","geo_precision":"range","address":"2060 Ruth St, Sulphur, LA, 70663-6900"},"type":"Feature","geometry":{"type":"Point","coordinates":[-93.376255,30.219498]}},{"properties":{"geo_score":0.821,"total":2,"id":"a63rpv1cmlgv","geo_precision":"range","address":"206 W 3rd St, Hearne, TX, 77859-2504"},"type":"Feature","geometry":{"type":"Point","coordinates":[-96.595823,30.880517]}},{"properties":{"geo_score":0.911,"total":2,"id":"a63rput15vg1","geo_precision":"range","address":"206 Hospital Circle , Westminster, CA, 92683-3910"},"type":"Feature","geometry":{"type":"Point","coordinates":[-117.994484,33.763173]}},{"properties":{"geo_score":0.595,"total":1,"id":"a63rpv0takve","geo_precision":"zip","address":"2052 Via Sonoma, Round Rock, TX, 78664"},"type":"Feature","geometry":{"type":"Point","coordinates":[-97.662228,30.451591]}},{"properties":{"geo_score":0.782,"total":2,"id":"a63rpus0xcdc","geo_precision":"range","address":"2050 North Mall Blvd, Alexandria, LA, 71301"},"type":"Feature","geometry":{"type":"Point","coordinates":[-92.452948,31.277148]}},{"properties":{"geo_score":1.0,"total":1,"id":"a63rpv5qcx57","geo_precision":"range","address":"20401 Haggerty Rd, Northville, MI, 48167-1999"},"type":"Feature","geometry":{"type":"Point","coordinates":[-83.433451,42.433722]}},{"properties":{"geo_score":0.916,"total":1,"id":"a63rpuskix0j","geo_precision":"range","address":"204 E 17th St, Costa Mesa, CA, 92627-7300"},"type":"Feature","geometry":{"type":"Point","coordinates":[-117.918582,33.635294]}},{"properties":{"geo_score":1.0,"total":2,"id":"a63rpv49jdj5","geo_precision":"range","address":"20310 Settlers Valley, San Antonio, TX, 78258-3136"},"type":"Feature","geometry":{"type":"Point","coordinates":[-98.513734,29.631362]}},{"properties":{"geo_score":0.959,"total":1,"id":"a63rpuuded7q","geo_precision":"range","address":"203 Sunrise Hwy, Merrick, NY, 11566-3812"},"type":"Feature","geometry":{"type":"Point","coordinates":[-73.560872,40.661023]}},{"properties":{"geo_score":0.887,"total":1,"id":"a63rpusjihrq","geo_precision":"range","address":"203 South Stuart Ave, Elkton, VA, 22827"},"type":"Feature","geometry":{"type":"Point","coordinates":[-78.61877,38.411472]}},{"properties":{"geo_score":0.591,"total":1,"id":"a63rpuynfzwp","geo_precision":"zip","address":"2025 Sams Way, Lake Charles, LA, 70601-8783"},"type":"Feature","geometry":{"type":"Point","coordinates":[-93.122376,30.409369]}},{"properties":{"geo_score":1.0,"total":2,"id":"a63rpv6e1amq","geo_precision":"range","address":"20221 Cape Coral Ln, Huntington Beach, CA, 92646-8513"},"type":"Feature","geometry":{"type":"Point","coordinates":[-117.987675,33.668759]}},{"properties":{"geo_score":0.537,"total":1,"id":"a63rpux7yxro","geo_precision":"street","address":"202 Cedar Rd, Ennis, TX, 75119"},"type":"Feature","geometry":{"type":"Point","coordinates":[-96.575262,32.74057]}},{"properties":{"geo_score":0.708,"total":1,"id":"a63rpuyszwpw","geo_precision":"street","address":"2019 N Richmond Rd, Mchenry, IL, 60050"},"type":"Feature","geometry":{"type":"Point","coordinates":[-88.267322,42.351653]}},{"properties":{"geo_score":0.5,"total":1,"id":"a63rpus60614","geo_precision":"zip","address":"2014 Delmar Dr, Folcroft, PA, 190321501"},"type":"Feature","geometry":{"type":"Point","coordinates":[-78.690593,39.580691]}},{"properties":{"geo_score":1.0,"total":1,"id":"a63rpuxkngnd","geo_precision":"range","address":"201 W Orangethorpe Ave, Fullerton, CA, 92832-2902"},"type":"Feature","geometry":{"type":"Point","coordinates":[-117.926275,33.859441]}},{"properties":{"geo_score":0.536,"total":3,"id":"a63rpuw91tfk","geo_precision":"street","address":"201 W North Ave, West Chicago, IL, 60185-6224"},"type":"Feature","geometry":{"type":"Point","coordinates":[-88.174821,41.920603]}},{"properties":{"geo_score":0.902,"total":1,"id":"a63rpuz9qo1u","geo_precision":"range","address":"201 N Broadway, Escondido, CA, 92025-2709"},"type":"Feature","geometry":{"type":"Point","coordinates":[-117.081948,33.12267]}},{"properties":{"geo_score":0.805,"total":3,"id":"a63rpuydm7lg","geo_precision":"range","address":"201 E Cypress St, Anaheim, CA, 92899"},"type":"Feature","geometry":{"type":"Point","coordinates":[-117.913662,33.837899]}},{"properties":{"geo_score":0.78,"total":1,"id":"a63rpv3k68t6","geo_precision":"range","address":"2009 S Shepard Ave, El Reno, OK, 73036-6319"},"type":"Feature","geometry":{"type":"Point","coordinates":[-97.93709,35.516032]}},{"properties":{"geo_score":0.924,"total":1,"id":"a63rpuwd919x","geo_precision":"range","address":"2006 W Avenue J, Lancaster, CA, 93536-5913"},"type":"Feature","geometry":{"type":"Point","coordinates":[-118.165649,34.68933]}},{"properties":{"geo_score":0.857,"total":3,"id":"a63rpuyvme66","geo_precision":"range","address":"2001 River Ave, Long Beach, CA, 90810-3622"},"type":"Feature","geometry":{"type":"Point","coordinates":[-118.222184,33.791604]}},{"properties":{"geo_score":0.932,"total":1,"id":"a63rpv0pghra","geo_precision":"range","address":"2001 N Central Ave, Marshfield, WI, 54449-8337"},"type":"Feature","geometry":{"type":"Point","coordinates":[-90.160002,44.68601]}},{"properties":{"geo_score":0.781,"total":1,"id":"a63rpv7p7q8p","geo_precision":"street","address":"2001 E Central Av, Toledo, OH, 43608"},"type":"Feature","geometry":{"type":"Point","coordinates":[-83.512621,41.679642]}},{"properties":{"geo_score":0.902,"total":1,"id":"a63rpuurqg2t","geo_precision":"street","address":"2000 E Gene Autry Way, Anaheim, CA, 92806-6143"},"type":"Feature","geometry":{"type":"Point","coordinates":[-117.888646,33.799701]}},{"properties":{"geo_score":0.925,"total":6,"id":"a63rpuu5t1v7","geo_precision":"range","address":"200 World Way, Los Angeles, CA, 90045"},"type":"Feature","geometry":{"type":"Point","coordinates":[-118.406209,33.944711]}},{"properties":{"geo_score":0.714,"total":2,"id":"a63rputzcb68","geo_precision":"zip","address":", , , 90045-5885"},"type":"Feature","geometry":{"type":"Point","coordinates":[-118.375354,33.994179]}},{"properties":{"geo_score":1.0,"total":1,"id":"a63rput4bn1s","geo_precision":"range","address":"200 S Pine Ave, Long Beach, CA, 90802-4553"},"type":"Feature","geometry":{"type":"Point","coordinates":[-118.192731,33.762983]}},{"properties":{"geo_score":0.53,"total":1,"id":"a63rpv4p2uso","geo_precision":"street","address":"200 Mission Blvd, Jackson, CA, 95642-2564"},"type":"Feature","geometry":{"type":"Point","coordinates":[-121.353858,38.587364]}},{"properties":{"geo_score":1.0,"total":1,"id":"a63rpv64govk","geo_precision":"range","address":"200 Kalmus Dr, Costa Mesa, CA, 92626-5922"},"type":"Feature","geometry":{"type":"Point","coordinates":[-117.881308,33.672401]}},{"properties":{"geo_score":0.591,"total":1,"id":"a63rpuzww414","geo_precision":"zip","address":"200 Dutch Meadows Lane, Glenville, NY, 12302"},"type":"Feature","geometry":{"type":"Point","coordinates":[-74.009571,42.851187]}},{"properties":{"geo_score":0.902,"total":1,"id":"a63rpuzp05mz","geo_precision":"range","address":"2 University Blvd W, Silver Spring, MD, 20901-2438"},"type":"Feature","geometry":{"type":"Point","coordinates":[-77.012748,39.020369]}},{"properties":{"geo_score":0.383,"total":1,"id":"a63rpv7ho12b","geo_precision":"street","address":"2 Gannett Dr, Johnson City, NY, 13790"},"type":"Feature","geometry":{"type":"Point","coordinates":[-76.018238,42.106518]}},{"properties":{"geo_score":1.0,"total":1,"id":"a63rpv5x5n89","geo_precision":"range","address":"19640 Beach Blvd, Huntington Beach, CA, 92648-2905"},"type":"Feature","geometry":{"type":"Point","coordinates":[-117.988534,33.677815]}},{"properties":{"geo_score":0.833,"total":1,"id":"a63rpuunpv2p","geo_precision":"range","address":"19471 Campus Dr, Santa Ana, CA, 92707-5201"},"type":"Feature","geometry":{"type":"Point","coordinates":[-117.865929,33.671225]}},{"properties":{"geo_score":0.512,"total":2,"id":"a63rpv06vbml","geo_precision":"street","address":"1939 East Second St., Defiance, OH, 43152"},"type":"Feature","geometry":{"type":"Point","coordinates":[-82.393808,39.538145]}},{"properties":{"geo_score":1.0,"total":1,"id":"a63rpv344pq9","geo_precision":"range","address":"1935 Manhattan Beach Blvd, Redondo Beach, CA, 90278"},"type":"Feature","geometry":{"type":"Point","coordinates":[-118.378143,33.887377]}},{"properties":{"geo_score":0.722,"total":1,"id":"a63rpv4wbn61","geo_precision":"street","address":"1933 River Rd, Norco, CA, 92860-3306"},"type":"Feature","geometry":{"type":"Point","coordinates":[-117.554223,33.945595]}},{"properties":{"geo_score":1.0,"total":1,"id":"a63rpv8fyrr2","geo_precision":"range","address":"1931 Old Gallows Rd, Vienna, VA, 22182-3924"},"type":"Feature","geometry":{"type":"Point","coordinates":[-77.222099,38.911476]}},{"properties":{"geo_score":0.915,"total":1,"id":"a63rpv5gzfqg","geo_precision":"range","address":"1923 E Kearney St, Springfield, MO, 65803-4607"},"type":"Feature","geometry":{"type":"Point","coordinates":[-93.258547,37.239942]}},{"properties":{"geo_score":1.0,"total":1,"id":"a63rpuw8fpx8","geo_precision":"range","address":"1919 Torrance Blvd, Torrance, CA, 90501-2722"},"type":"Feature","geometry":{"type":"Point","coordinates":[-118.31554,33.836331]}},{"properties":{"geo_score":1.0,"total":1,"id":"a63rpv06stbs","geo_precision":"range","address":"1901 Tchoupitoulas St, New Orleans, LA, 70130-1915"},"type":"Feature","geometry":{"type":"Point","coordinates":[-90.067827,29.925765]}},{"properties":{"geo_score":1.0,"total":2,"id":"a63rpus1ptwz","geo_precision":"range","address":"19001 S Western Ave, Torrance, CA, 90501-1106"},"type":"Feature","geometry":{"type":"Point","coordinates":[-118.309279,33.858348]}},{"properties":{"geo_score":0.924,"total":1,"id":"a63rpv0k38o5","geo_precision":"range","address":"18800 W Corral Hollow Rd, Livermore, CA, 94550"},"type":"Feature","geometry":{"type":"Point","coordinates":[-121.59766,37.64398]}},{"properties":{"geo_score":0.808,"total":1,"id":"a63rpv0lms4q","geo_precision":"street","address":"188 Dodge Ridge Rd, Pinecrest, CA, 95364"},"type":"Feature","geometry":{"type":"Point","coordinates":[-120.003296,38.187054]}},{"properties":{"geo_score":0.922,"total":2,"id":"a63rpv3byycu","geo_precision":"range","address":"18750 Fuller Heights Rd, Triangle, VA, 22172-2005"},"type":"Feature","geometry":{"type":"Point","coordinates":[-77.332662,38.545031]}},{"properties":{"geo_score":0.914,"total":1,"id":"a63rpuup0ti9","geo_precision":"range","address":"187 N San Antonio Ave, Upland, CA, 91786-4520"},"type":"Feature","geometry":{"type":"Point","coordinates":[-117.660757,34.095974]}},{"properties":{"geo_score":0.902,"total":1,"id":"a63rpux5s5n5","geo_precision":"range","address":"1868 E Palmdale Blvd, Palmdale, CA, 93550-4852"},"type":"Feature","geometry":{"type":"Point","coordinates":[-118.094824,34.579702]}},{"properties":{"geo_score":0.954,"total":10,"id":"a63rpv7bm58l","geo_precision":"range","address":"18601 Airport Way, Santa Ana, CA, 92707-5200"},"type":"Feature","geometry":{"type":"Point","coordinates":[-117.859999,33.680846]}},{"properties":{"geo_score":1.0,"total":1,"id":"a63rpv47z0jl","geo_precision":"range","address":"1860 Coronado Ave, San Diego, CA, 92154-2007"},"type":"Feature","geometry":{"type":"Point","coordinates":[-117.09365,32.576501]}},{"properties":{"geo_score":0.868,"total":2,"id":"a63rpv75vfe4","geo_precision":"range","address":"1860 2nd St, Cuyahoga Fls, OH, 44221-3963"},"type":"Feature","geometry":{"type":"Point","coordinates":[-81.485137,41.131425]}},{"properties":{"geo_score":0.833,"total":1,"id":"a63rputjx6lc","geo_precision":"range","address":"1845 S 8th St, Rogers, AR, 72756-5912"},"type":"Feature","geometry":{"type":"Point","coordinates":[-94.126271,36.313095]}},{"properties":{"geo_score":1.0,"total":2,"id":"a63rpv7omrbl","geo_precision":"range","address":"1830 Lomita Blvd, Lomita, CA, 90717-1906"},"type":"Feature","geometry":{"type":"Point","coordinates":[-118.309794,33.798003]}},{"properties":{"geo_score":0.4,"total":1,"id":"a63rpuvtqype","geo_precision":"city","address":"1826 Merriman, Westland, MI, 481865308"},"type":"Feature","geometry":{"type":"Point","coordinates":[-169.428333,-14.219444]}},{"properties":{"geo_score":0.927,"total":2,"id":"a63rpv6w38ig","geo_precision":"range","address":"18240 Livernois, Detroit, MI, 48221"},"type":"Feature","geometry":{"type":"Point","coordinates":[-83.141195,42.425138]}},{"properties":{"geo_score":0.912,"total":1,"id":"a63rpv7xf07a","geo_precision":"range","address":"1815 M St, Belleville, KS, 66935-2242"},"type":"Feature","geometry":{"type":"Point","coordinates":[-97.630984,39.823606]}},{"properties":{"geo_score":1.0,"total":2,"id":"a63rpv2z6t39","geo_precision":"range","address":"18125 Bloomfield Ave, Cerritos, CA, 90703-8526"},"type":"Feature","geometry":{"type":"Point","coordinates":[-118.063754,33.867142]}},{"properties":{"geo_score":0.657,"total":2,"id":"a63rpuu8gkgr","geo_precision":"street","address":"18075 Jefferson Davis Blv, Dumfries, VA, 22026"},"type":"Feature","geometry":{"type":"Point","coordinates":[-77.331784,38.558384]}},{"properties":{"geo_score":0.915,"total":1,"id":"a63rpuuh94fw","geo_precision":"range","address":"18025 Pioneer Blvd, Artesia, CA, 90701-3904"},"type":"Feature","geometry":{"type":"Point","coordinates":[-118.082213,33.867612]}},{"properties":{"geo_score":0.911,"total":1,"id":"a63rpv2gtaif","geo_precision":"range","address":"1801 N Velasco St, Angleton, TX, 77515-3014"},"type":"Feature","geometry":{"type":"Point","coordinates":[-95.433791,29.194918]}},{"properties":{"geo_score":0.972,"total":1,"id":"a63rpv1rmlij","geo_precision":"range","address":"179 Progress Drive, Waynesburg, PA, 15370-8090"},"type":"Feature","geometry":{"type":"Point","coordinates":[-80.139729,39.900148]}},{"properties":{"geo_score":0.769,"total":1,"id":"a63rpuwi8lcz","geo_precision":"street","address":"17801 E Us Highway 24, Independence, MO, 64056-1164"},"type":"Feature","geometry":{"type":"Point","coordinates":[-94.369492,39.121082]}},{"properties":{"geo_score":0.913,"total":1,"id":"a63rpv3kisbs","geo_precision":"range","address":"1779 Corby Ave, Santa Rosa, CA, 95407-7516"},"type":"Feature","geometry":{"type":"Point","coordinates":[-122.717354,38.42125]}},{"properties":{"geo_score":0.941,"total":1,"id":"a63rpv2k92i1","geo_precision":"range","address":"17719 E Cypress , Covina, CA, 91722-2634"},"type":"Feature","geometry":{"type":"Point","coordinates":[-117.903594,34.095724]}},{"properties":{"geo_score":1.0,"total":2,"id":"a63rpuxekldb","geo_precision":"range","address":"17660 Pleasant Valley Rd, Penn Valley, CA, 95946-9728"},"type":"Feature","geometry":{"type":"Point","coordinates":[-121.194133,39.291837]}},{"properties":{"geo_score":0.746,"total":1,"id":"a63rpv8f9p2j","geo_precision":"range","address":"17650 Norhwest 2nd Ave, MIAMI, FL, 33169"},"type":"Feature","geometry":{"type":"Point","coordinates":[-80.204863,25.936616]}},{"properties":{"geo_score":0.982,"total":1,"id":"a63rpuxnef4a","geo_precision":"range","address":"1736 E Avd De Los Arboles, Thousand Oaks, CA, 91362-1301"},"type":"Feature","geometry":{"type":"Point","coordinates":[-118.846175,34.211411]}},{"properties":{"geo_score":1.0,"total":1,"id":"a63rput2ejgi","geo_precision":"range","address":"1726 Butternut St, Abilene, TX, 79602-4842"},"type":"Feature","geometry":{"type":"Point","coordinates":[-99.738659,32.428799]}},{"properties":{"geo_score":1.0,"total":1,"id":"a63rpv0ro40a","geo_precision":"range","address":"1725 Drew St, Clearwater, FL, 33755-6215"},"type":"Feature","geometry":{"type":"Point","coordinates":[-82.766005,27.968008]}},{"properties":{"geo_score":0.911,"total":1,"id":"a63rpv5h3zty","geo_precision":"range","address":"1724 North Mallory St, Hampton, VA, 23664-1102"},"type":"Feature","geometry":{"type":"Point","coordinates":[-76.295788,37.039245]}},{"properties":{"geo_score":0.913,"total":1,"id":"a63rpv4064uk","geo_precision":"range","address":"1720 N National Rd, Columbus, IN, 47201-4502"},"type":"Feature","geometry":{"type":"Point","coordinates":[-85.884545,39.217366]}},{"properties":{"geo_score":0.913,"total":1,"id":"a63rpuv5sksn","geo_precision":"range","address":"1710 Apple Glen Blvd, Fort Wayne, IN, 46804-1725"},"type":"Feature","geometry":{"type":"Point","coordinates":[-85.194109,41.07326]}},{"properties":{"geo_score":0.922,"total":3,"id":"a63rpuvz97ht","geo_precision":"range","address":"17050 Arnold Dr - March Air Reserve Base, Riverview, CA, 92518-2855"},"type":"Feature","geometry":{"type":"Point","coordinates":[-117.293501,33.872711]}},{"properties":{"geo_score":0.902,"total":1,"id":"a63rpv2tsdxj","geo_precision":"range","address":"17041 Jefferson Davis Hwy, Dumfries, VA, 22026-2129"},"type":"Feature","geometry":{"type":"Point","coordinates":[-77.310761,38.581254]}},{"properties":{"geo_score":1.0,"total":1,"id":"a63rpv4ti5in","geo_precision":"range","address":"1701 Featherstone Rd, Woodbridge, VA, 22191"},"type":"Feature","geometry":{"type":"Point","coordinates":[-77.268045,38.635986]}},{"properties":{"geo_score":0.974,"total":2,"id":"a63rpuwnimin","geo_precision":"range","address":"17000 Mercantile Blvd, Noblesville, IN, 46060-3941"},"type":"Feature","geometry":{"type":"Point","coordinates":[-85.994886,40.035616]}},{"properties":{"geo_score":0.819,"total":2,"id":"a63rpv84sxd3","geo_precision":"street","address":"1700 W 25th St, San Pedro, CA, 90732-4201"},"type":"Feature","geometry":{"type":"Point","coordinates":[-118.314829,33.723981]}},{"properties":{"geo_score":0.732,"total":2,"id":"a63rpuyw8e6s","geo_precision":"street","address":"1700 Nevin Av, Richmond, CA, 94801"},"type":"Feature","geometry":{"type":"Point","coordinates":[-122.3515,37.936861]}},{"properties":{"geo_score":0.902,"total":1,"id":"a63rpuxvollj","geo_precision":"range","address":"16971 Van Buren Blvd, Riverside, CA, 92504-5890"},"type":"Feature","geometry":{"type":"Point","coordinates":[-117.366729,33.882374]}},{"properties":{"geo_score":0.726,"total":2,"id":"a63rpuxzkri1","geo_precision":"street","address":"16900 Morgan Hill Trail, Austin, TX, 78717"},"type":"Feature","geometry":{"type":"Point","coordinates":[-97.742888,30.509393]}},{"properties":{"geo_score":1.0,"total":1,"id":"a63rpuv06sga","geo_precision":"range","address":"1680 W Katella Ave, Anaheim, CA, 92802-3015"},"type":"Feature","geometry":{"type":"Point","coordinates":[-117.941164,33.803156]}},{"properties":{"geo_score":0.602,"total":1,"id":"a63rput7i6y2","geo_precision":"zip","address":"168 Huff Creek Highway, MAN, WV, 25635"},"type":"Feature","geometry":{"type":"Point","coordinates":[-81.879564,37.729274]}},{"properties":{"geo_score":0.814,"total":1,"id":"a63rpv4h3abv","geo_precision":"range","address":"168 E Cole Blvd, Calexico, CA, 92231-9735"},"type":"Feature","geometry":{"type":"Point","coordinates":[-115.496132,32.69399]}},{"properties":{"geo_score":1.0,"total":1,"id":"a63rputh59z8","geo_precision":"range","address":"16791 Mcfadden Ave, Tustin, CA, 92780-4930"},"type":"Feature","geometry":{"type":"Point","coordinates":[-117.836491,33.73382]}},{"properties":{"geo_score":0.959,"total":1,"id":"a63rpuytlnf4","geo_precision":"range","address":"16777 Orange Way, Fontana, CA, 92335"},"type":"Feature","geometry":{"type":"Point","coordinates":[-117.438697,34.095862]}},{"properties":{"geo_score":0.902,"total":2,"id":"a63rpv29z4qh","geo_precision":"range","address":"16767 Main St, Hesperia, CA, 92345-6027"},"type":"Feature","geometry":{"type":"Point","coordinates":[-117.297663,34.420952]}},{"properties":{"geo_score":0.577,"total":1,"id":"a63rpv6387dx","geo_precision":"street","address":"16723 Floral Av, Helm, CA, 93627"},"type":"Feature","geometry":{"type":"Point","coordinates":[-119.458994,36.575244]}},{"properties":{"geo_score":0.894,"total":1,"id":"a63rpv7kfnwb","geo_precision":"range","address":"16618 Marion Twp Rd 208, FINDLAY, OH, 45840"},"type":"Feature","geometry":{"type":"Point","coordinates":[-83.575609,41.02893]}},{"properties":{"geo_score":0.915,"total":1,"id":"a63rpv2zm8bl","geo_precision":"range","address":"166 SIESTA AVE, Thousand Oaks, CA, 91360-1816"},"type":"Feature","geometry":{"type":"Point","coordinates":[-118.879265,34.210634]}},{"properties":{"geo_score":0.639,"total":2,"id":"a63rpv3hdjtm","geo_precision":"street","address":"1655 Iron Point Rd, Folsom, CA, 95630-7801"},"type":"Feature","geometry":{"type":"Point","coordinates":[-121.12527,38.645734]}},{"properties":{"geo_score":0.709,"total":1,"id":"a63rpv4e9y4z","geo_precision":"street","address":"1651 W Sunflower Ave, Santa Ana, CA, 92704-7441"},"type":"Feature","geometry":{"type":"Point","coordinates":[-117.91958,33.695589]}},{"properties":{"geo_score":0.0,"total":1,"id":"a63rpv6nxy90","geo_precision":"unmatched","address":"1650 Rt 27 &amp; Belmont Ave, EDISON, NJ, 8817"},"type":"Feature","geometry":null},{"properties":{"geo_score":1.0,"total":1,"id":"a63rpuwmodfo","geo_precision":"range","address":"16475 Harbor Blvd, Fountain Valley, CA, 92708-1370"},"type":"Feature","geometry":{"type":"Point","coordinates":[-117.920553,33.720249]}},{"properties":{"geo_score":0.916,"total":1,"id":"a63rpv3zcot8","geo_precision":"range","address":"1636 W 25th St, San Pedro, CA, 90732-4302"},"type":"Feature","geometry":{"type":"Point","coordinates":[-118.31355,33.723393]}},{"properties":{"geo_score":0.829,"total":1,"id":"a63rpv67dihn","geo_precision":"street","address":"1635 Av A, Beaumont, TX, 77701"},"type":"Feature","geometry":{"type":"Point","coordinates":[-94.099147,30.067545]}},{"properties":{"geo_score":1.0,"total":1,"id":"a63rpuwbxe0p","geo_precision":"range","address":"1621 N Placentia Ave, Fullerton, CA, 92831-2213"},"type":"Feature","geometry":{"type":"Point","coordinates":[-117.872829,33.892166]}},{"properties":{"geo_score":0.812,"total":1,"id":"a63rpv2i8znm","geo_precision":"range","address":"1621 Leopard St, Corpus Christi, TX, 78401-2128"},"type":"Feature","geometry":{"type":"Point","coordinates":[-97.4077,27.796425]}},{"properties":{"geo_score":0.878,"total":1,"id":"a63rpuyyklnc","geo_precision":"range","address":"1616 W Katella Ave, Anaheim, CA, 92802-3015"},"type":"Feature","geometry":{"type":"Point","coordinates":[-117.937787,33.803185]}},{"properties":{"geo_score":0.915,"total":1,"id":"a63rpv5sxz4r","geo_precision":"range","address":"1612 Furnace Branch Road, Glen Burnie, MD, 21061-1432"},"type":"Feature","geometry":{"type":"Point","coordinates":[-76.638976,39.200659]}},{"properties":{"geo_score":1.0,"total":1,"id":"a63rpuxiqob2","geo_precision":"range","address":"16107 Gale Ave, Hacienda Heights, CA, 91745"},"type":"Feature","geometry":{"type":"Point","coordinates":[-117.955102,34.008455]}},{"properties":{"geo_score":1.0,"total":1,"id":"a63rputqth31","geo_precision":"range","address":"16100 E. Foothill Blvd, Azusa, CA, 91702-2855"},"type":"Feature","geometry":{"type":"Point","coordinates":[-117.89124,34.133428]}},{"properties":{"geo_score":1.0,"total":1,"id":"a63rpv6z68wr","geo_precision":"range","address":"1610 S Riverside Ave, Rialto, CA, 92376"},"type":"Feature","geometry":{"type":"Point","coordinates":[-117.370316,34.072101]}},{"properties":{"geo_score":0.717,"total":1,"id":"a63rpuvvqtqy","geo_precision":"street","address":"1603 Vance Jackson Rd, San Antonio, TX, 78213-4470"},"type":"Feature","geometry":{"type":"Point","coordinates":[-98.534981,29.489067]}},{"properties":{"geo_score":1.0,"total":1,"id":"a63rpv86npp5","geo_precision":"range","address":"1602 University Ave, San Diego, CA, 92103-3415"},"type":"Feature","geometry":{"type":"Point","coordinates":[-117.149268,32.748409]}},{"properties":{"geo_score":1.0,"total":1,"id":"a63rpv3j62n8","geo_precision":"range","address":"1601 Ygnacio Valley Rd, Walnut Creek, CA, 94598-3122"},"type":"Feature","geometry":{"type":"Point","coordinates":[-122.042214,37.914283]}},{"properties":{"geo_score":0.9,"total":1,"id":"a63rpuyulng5","geo_precision":"range","address":"1601 Commerce Shrs, Commerce TWP, MI, 48382-1892"},"type":"Feature","geometry":{"type":"Point","coordinates":[-83.503267,42.582805]}},{"properties":{"geo_score":0.902,"total":1,"id":"a63rputuwbc9","geo_precision":"range","address":"1601 66th St, Lubbock, TX, 79412-4098"},"type":"Feature","geometry":{"type":"Point","coordinates":[-101.853093,33.534245]}},{"properties":{"geo_score":0.78,"total":1,"id":"a63rpuswnnk5","geo_precision":"range","address":"16007 Crenshaw Blvd, Torrance, CA, 90506-0001"},"type":"Feature","geometry":{"type":"Point","coordinates":[-118.326505,33.88554]}},{"properties":{"geo_score":0.915,"total":1,"id":"a63rpv1kxz9l","geo_precision":"range","address":"1600 Mountain Ave, Duarte, CA, 91010"},"type":"Feature","geometry":{"type":"Point","coordinates":[-117.986324,34.135016]}},{"properties":{"geo_score":0.789,"total":1,"id":"a63rpusokmgc","geo_precision":"range","address":"1600 Main St, Woodward, OK, 73801-3000"},"type":"Feature","geometry":{"type":"Point","coordinates":[-99.39965,36.435974]}},{"properties":{"geo_score":0.91,"total":2,"id":"a63rpuynmi6u","geo_precision":"range","address":"1600 Clearlake Rd, Cocoa, FL, 32922-5704"},"type":"Feature","geometry":{"type":"Point","coordinates":[-80.755025,28.386075]}},{"properties":{"geo_score":0.736,"total":2,"id":"a63rpuzjwl4m","geo_precision":"street","address":"160 FM 2507, Alice, TX, 78332-7763"},"type":"Feature","geometry":{"type":"Point","coordinates":[-98.12261,27.739828]}},{"properties":{"geo_score":0.617,"total":1,"id":"a63rpuyy09h1","geo_precision":"street","address":"16 Pinecrest Avenue, Pinecrest, CA, 95370"},"type":"Feature","geometry":{"type":"Point","coordinates":[-119.997894,38.192919]}},{"properties":{"geo_score":1.0,"total":1,"id":"a63rpuyfox4c","geo_precision":"range","address":"15901 Cicero Ave, Oak Forest, IL, 60452-4005"},"type":"Feature","geometry":{"type":"Point","coordinates":[-87.736491,41.603252]}},{"properties":{"geo_score":0.912,"total":2,"id":"a63rpuv3fj5y","geo_precision":"range","address":"1565 S BROADWAY, SANTA MARIA, CA, 93454-7213"},"type":"Feature","geometry":{"type":"Point","coordinates":[-120.436111,34.93241]}},{"properties":{"geo_score":1.0,"total":1,"id":"a63rpuwzr6p2","geo_precision":"range","address":"1550 OCEAN AVE, SANTA MONICA, CA, 90401-2119"},"type":"Feature","geometry":{"type":"Point","coordinates":[-118.495702,34.012063]}},{"properties":{"geo_score":0.61,"total":1,"id":"a63rpuvmc4s6","geo_precision":"range","address":"1550 Nw Market Street, Seattle, WA, 981075211"},"type":"Feature","geometry":{"type":"Point","coordinates":[-96.801209,32.727766]}},{"properties":{"geo_score":0.967,"total":3,"id":"a63rpv2s6ji0","geo_precision":"range","address":"15402 N US Hwy 301, Thonotosassa, FL, 33592-2316"},"type":"Feature","geometry":{"type":"Point","coordinates":[-82.228698,28.137926]}},{"properties":{"geo_score":0.911,"total":1,"id":"a63rpuzk8536","geo_precision":"range","address":"1533 Chelmsford Rd, Mayfield Hts., OH, 44124-3311"},"type":"Feature","geometry":{"type":"Point","coordinates":[-81.457032,41.519114]}},{"properties":{"geo_score":0.902,"total":1,"id":"a63rpv1335mp","geo_precision":"range","address":"15265 Culver Dr, Irvine, CA, 92604-3085"},"type":"Feature","geometry":{"type":"Point","coordinates":[-117.796374,33.695989]}},{"properties":{"geo_score":1.0,"total":1,"id":"a63rpurzck1y","geo_precision":"range","address":"15202 Williams St, Tustin, CA, 92780-7424"},"type":"Feature","geometry":{"type":"Point","coordinates":[-117.83949,33.742007]}},{"properties":{"geo_score":0.707,"total":1,"id":"a63rpuu6l1zm","geo_precision":"range","address":"15200 Rosecrans Ave, La Mirada, CA, 90638-4735"},"type":"Feature","geometry":{"type":"Point","coordinates":[-118.007165,33.898634]}},{"properties":{"geo_score":1.0,"total":2,"id":"a63rpuxwq6p6","geo_precision":"range","address":"1520 Grand Ave, San Rafael, CA, 94901-2236"},"type":"Feature","geometry":{"type":"Point","coordinates":[-122.515745,37.979939]}},{"properties":{"geo_score":1.0,"total":2,"id":"a63rpv0a685e","geo_precision":"range","address":"1519 N Gaffey St, San Pedro, CA, 90731-1338"},"type":"Feature","geometry":{"type":"Point","coordinates":[-118.292431,33.758426]}},{"properties":{"geo_score":1.0,"total":1,"id":"a63rpv17psx8","geo_precision":"range","address":"1515 Pacific Ave, Venice, CA, 90291-3611"},"type":"Feature","geometry":{"type":"Point","coordinates":[-118.472541,33.988024]}},{"properties":{"geo_score":0.585,"total":1,"id":"a63rpuvubj9i","geo_precision":"range","address":"1515 N Fm 1604 East, San Antonio, TX, 78258"},"type":"Feature","geometry":{"type":"Point","coordinates":[-98.474104,29.219759]}},{"properties":{"geo_score":1.0,"total":1,"id":"a63rpv68k82d","geo_precision":"range","address":"1515 Dana Dr, Redding, CA, 96003-4014"},"type":"Feature","geometry":{"type":"Point","coordinates":[-122.343542,40.585608]}},{"properties":{"geo_score":1.0,"total":1,"id":"a63rpv6y7z6i","geo_precision":"range","address":"15031 Rinaldi St, Mission Hills, CA, 91345-1207"},"type":"Feature","geometry":{"type":"Point","coordinates":[-118.45952,34.279006]}},{"properties":{"geo_score":0.902,"total":1,"id":"a63rpv57w9dw","geo_precision":"range","address":"15020 Perris Blvd, Moreno Valley, CA, 92551-4597"},"type":"Feature","geometry":{"type":"Point","coordinates":[-117.226304,33.902558]}},{"properties":{"geo_score":0.919,"total":1,"id":"a63rpv5ta72x","geo_precision":"range","address":"1501 E Amarillo Blvd, Amarillo, TX, 79107-5554"},"type":"Feature","geometry":{"type":"Point","coordinates":[-101.816419,35.221978]}},{"properties":{"geo_score":0.971,"total":1,"id":"a63rputjka7g","geo_precision":"range","address":"15007 Charlevoix St, Grosse Pointe, MI, 48230-1001"},"type":"Feature","geometry":{"type":"Point","coordinates":[-82.944923,42.38493]}},{"properties":{"geo_score":0.912,"total":2,"id":"a63rpv5yf2m2","geo_precision":"range","address":"14835 Pioneer Blvd, Norwalk, CA, 90650"},"type":"Feature","geometry":{"type":"Point","coordinates":[-118.082442,33.896164]}},{"properties":{"geo_score":1.0,"total":1,"id":"a63rpv61m7h8","geo_precision":"range","address":"14557 Victory Blvd, Van Nuys, CA, 91411-1619"},"type":"Feature","geometry":{"type":"Point","coordinates":[-118.449747,34.18666]}},{"properties":{"geo_score":0.415,"total":1,"id":"a63rpuvzgush","geo_precision":"street","address":"14515 Northline, Southgate, MI, 481952446"},"type":"Feature","geometry":{"type":"Point","coordinates":[-91.631717,42.032698]}},{"properties":{"geo_score":1.0,"total":2,"id":"a63rpushvqwt","geo_precision":"range","address":"1441 Saint Antoine St, Detroit, MI, 48226-2311"},"type":"Feature","geometry":{"type":"Point","coordinates":[-83.042015,42.337229]}},{"properties":{"geo_score":0.494,"total":2,"id":"a63rpv5vs409","geo_precision":"zip","address":"14400 Marsh Lane, Addison, TX, 752342557"},"type":"Feature","geometry":{"type":"Point","coordinates":[-84.436883,37.15147]}},{"properties":{"geo_score":0.911,"total":1,"id":"a63rpuxyjocu","geo_precision":"range","address":"1430 Austin Hwy, San Antonio, TX, 78209-4338"},"type":"Feature","geometry":{"type":"Point","coordinates":[-98.437325,29.492176]}},{"properties":{"geo_score":1.0,"total":1,"id":"a63rpuurin9r","geo_precision":"range","address":"1425 W Warner Ave, Santa Ana, CA, 92704-5119"},"type":"Feature","geometry":{"type":"Point","coordinates":[-117.887479,33.716146]}},{"properties":{"geo_score":0.792,"total":2,"id":"a63rpv2xx08g","geo_precision":"range","address":"1424 S Harrison St, Shelbyville, IN, 46176-2722"},"type":"Feature","geometry":{"type":"Point","coordinates":[-85.774262,39.512528]}},{"properties":{"geo_score":1.0,"total":1,"id":"a63rpv0mu2td","geo_precision":"range","address":"1408 E Rancier Ave, Killeen, TX, 76541-3731"},"type":"Feature","geometry":{"type":"Point","coordinates":[-97.716548,31.123168]}},{"properties":{"geo_score":0.912,"total":1,"id":"a63rpv16ukqm","geo_precision":"range","address":"14040 San Antonio Dr, Norwalk, CA, 90650"},"type":"Feature","geometry":{"type":"Point","coordinates":[-118.080589,33.903914]}},{"properties":{"geo_score":0.39,"total":1,"id":"a63rputeca7e","geo_precision":"street","address":"14003 S Ih 37, San Antonio, TX, 78223"},"type":"Feature","geometry":{"type":"Point","coordinates":[-98.576591,29.411388]}},{"properties":{"geo_score":0.939,"total":2,"id":"a63rpus0bk6q","geo_precision":"range","address":"14001 Baltimore Ave, Laurel, MD, 20707-5072"},"type":"Feature","geometry":{"type":"Point","coordinates":[-76.862982,39.083124]}},{"properties":{"geo_score":1.0,"total":2,"id":"a63rpuyw6mqi","geo_precision":"range","address":"1400 Vanguard Dr, Oxnard, CA, 93033-2402"},"type":"Feature","geometry":{"type":"Point","coordinates":[-119.161526,34.187044]}},{"properties":{"geo_score":0.707,"total":4,"id":"a63rpv0vpbbm","geo_precision":"street","address":"1400 E 5th St, Tyler, TX, 75701-3400"},"type":"Feature","geometry":{"type":"Point","coordinates":[-95.284076,32.332547]}},{"properties":{"geo_score":0.528,"total":1,"id":"a63rpv0tou2u","geo_precision":"street","address":"14 W 95th St, Chicago, IL, 60620"},"type":"Feature","geometry":{"type":"Point","coordinates":[-87.626236,41.721689]}},{"properties":{"geo_score":0.863,"total":2,"id":"a63rpv51frw2","geo_precision":"range","address":"139 W Lagrange, Hanover, IN, 47243-9438"},"type":"Feature","geometry":{"type":"Point","coordinates":[-85.478864,38.714684]}},{"properties":{"geo_score":1.0,"total":1,"id":"a63rpv5ffn4h","geo_precision":"range","address":"13881 Dawson St, Garden Grove, CA, 92843-3166"},"type":"Feature","geometry":{"type":"Point","coordinates":[-117.950811,33.761006]}},{"properties":{"geo_score":0.922,"total":2,"id":"a63rpuzj0djv","geo_precision":"range","address":"1380 Sunbury Rd, Delaware, OH, 43015-6035"},"type":"Feature","geometry":{"type":"Point","coordinates":[-83.031498,40.292897]}},{"properties":{"geo_score":0.913,"total":1,"id":"a63rpv7k0sqd","geo_precision":"range","address":"13701 Hawthorne Blvd, Hawthorne, CA, 90250-7009"},"type":"Feature","geometry":{"type":"Point","coordinates":[-118.352358,33.90795]}},{"properties":{"geo_score":1.0,"total":2,"id":"a63rpv2uu540","geo_precision":"range","address":"1370 Alamitos Ave, Long Beach, CA, 90813-2239"},"type":"Feature","geometry":{"type":"Point","coordinates":[-118.177552,33.783936]}},{"properties":{"geo_score":0.902,"total":1,"id":"a63rpuzp99tz","geo_precision":"range","address":"137 W 2nd St, Erie, PA, 16507-1403"},"type":"Feature","geometry":{"type":"Point","coordinates":[-80.089843,42.13249]}},{"properties":{"geo_score":1.0,"total":1,"id":"a63rpv2jbp7l","geo_precision":"range","address":"1365 E Citrus Ave, Redlands, CA, 92374-4012"},"type":"Feature","geometry":{"type":"Point","coordinates":[-117.153587,34.055617]}},{"properties":{"geo_score":0.51,"total":2,"id":"a63rpv406k9y","geo_precision":"street","address":"13617 Se Highway 70, Arcadia, FL, 34266"},"type":"Feature","geometry":{"type":"Point","coordinates":[-81.84722,27.210839]}},{"properties":{"geo_score":0.756,"total":1,"id":"a63rpv47p0gi","geo_precision":"range","address":"1360 Eastlake Pkwy, Chula Vista, CA, 91915-4116"},"type":"Feature","geometry":{"type":"Point","coordinates":[-116.967254,32.633485]}},{"properties":{"geo_score":1.0,"total":1,"id":"a63rpuxm0zw0","geo_precision":"range","address":"13555 Old Hammond Hwy, Baton Rouge, LA, 70816-1161"},"type":"Feature","geometry":{"type":"Point","coordinates":[-91.03277,30.446664]}},{"properties":{"geo_score":0.718,"total":1,"id":"a63rpv87qyef","geo_precision":"street","address":"13500 Riverside Dr, Guerneville, CA, 95446-8515"},"type":"Feature","geometry":{"type":"Point","coordinates":[-122.957179,38.502487]}},{"properties":{"geo_score":0.805,"total":1,"id":"a63rpv4qoe4r","geo_precision":"range","address":"13500 FOSTER RD, Santa Fe Springs, CA, 90670-4837"},"type":"Feature","geometry":{"type":"Point","coordinates":[-118.044623,33.909643]}},{"properties":{"geo_score":0.922,"total":1,"id":"a63rpus6toxl","geo_precision":"range","address":"135 Willow Ln, Mcdonough, GA, 30253-6574"},"type":"Feature","geometry":{"type":"Point","coordinates":[-84.178732,33.431715]}},{"properties":{"geo_score":0.423,"total":1,"id":"a63rpuyh4rff","geo_precision":"street","address":"135 Jt Connell Highway, NEWPORT, RI, 2840"},"type":"Feature","geometry":{"type":"Point","coordinates":[-93.884161,33.258691]}},{"properties":{"geo_score":0.911,"total":1,"id":"a63rpuvpwf3f","geo_precision":"range","address":"1345 N Fountain Blvd, Springfield, OH, 45504-1422"},"type":"Feature","geometry":{"type":"Point","coordinates":[-83.808887,39.940558]}},{"properties":{"geo_score":0.611,"total":1,"id":"a63rpv3nnkm3","geo_precision":"zip","address":"13352 S OBT, ORLANDO, FL, 32837-6636"},"type":"Feature","geometry":{"type":"Point","coordinates":[-81.433155,28.390234]}},{"properties":{"geo_score":0.805,"total":2,"id":"a63rpv38aadm","geo_precision":"range","address":"1332 S Lone Hill Ave, Glendora, CA, 91740-5339"},"type":"Feature","geometry":{"type":"Point","coordinates":[-117.828829,34.116241]}},{"properties":{"geo_score":0.819,"total":1,"id":"a63rput5ohkz","geo_precision":"range","address":"1329 N Lake, Aurora, IL, 60506"},"type":"Feature","geometry":{"type":"Point","coordinates":[-88.320955,41.787826]}},{"properties":{"geo_score":1.0,"total":3,"id":"a63rpusdpj1m","geo_precision":"range","address":"13264 Mountain Rd, Glen Allen, VA, 23059-1737"},"type":"Feature","geometry":{"type":"Point","coordinates":[-77.552923,37.697424]}},{"properties":{"geo_score":0.557,"total":1,"id":"a63rpuuovsb4","geo_precision":"street","address":"13227 City Square Dr, Jacksonville, FL, 32218-7218"},"type":"Feature","geometry":{"type":"Point","coordinates":[-81.609957,30.475672]}},{"properties":{"geo_score":0.902,"total":1,"id":"a63rpv0y2pg5","geo_precision":"range","address":"13200 Old Kings Rd, Jacksonville, FL, 32219-1242"},"type":"Feature","geometry":{"type":"Point","coordinates":[-81.784318,30.468531]}},{"properties":{"geo_score":0.443,"total":2,"id":"a63rpuvl0wd2","geo_precision":"street","address":"1320 Yellow Hammer Rd, Yreka, CA, 96097"},"type":"Feature","geometry":{"type":"Point","coordinates":[-122.387888,40.43899]}},{"properties":{"geo_score":0.853,"total":1,"id":"a63rpuyc1x80","geo_precision":"range","address":"13131 Hillendale Avenue, Dale City, VA, 22193-5131"},"type":"Feature","geometry":{"type":"Point","coordinates":[-77.333891,38.666351]}},{"properties":{"geo_score":1.0,"total":1,"id":"a63rpus08c7q","geo_precision":"range","address":"1312 Oakland Dr, Kalamazoo, MI, 49008-1205"},"type":"Feature","geometry":{"type":"Point","coordinates":[-85.601592,42.278975]}},{"properties":{"geo_score":0.89,"total":1,"id":"a63rpv4pv9rv","geo_precision":"range","address":"1311 W 11th St, Coffeyville, KS, 67337-3607"},"type":"Feature","geometry":{"type":"Point","coordinates":[-95.63642,37.033177]}},{"properties":{"geo_score":1.0,"total":1,"id":"a63rpv8a4agn","geo_precision":"range","address":"1311 Palm Ave, Imperial Beach, CA, 91932-1739"},"type":"Feature","geometry":{"type":"Point","coordinates":[-117.105407,32.583872]}},{"properties":{"geo_score":0.883,"total":2,"id":"a63rpuupae33","geo_precision":"range","address":"1310 3rd St, Graham, TX, 76450-3302"},"type":"Feature","geometry":{"type":"Point","coordinates":[-98.575395,33.105808]}},{"properties":{"geo_score":0.729,"total":1,"id":"a63rpv3g17r4","geo_precision":"street","address":"1309 E Highway 24, Moberly, MO, 65270-3682"},"type":"Feature","geometry":{"type":"Point","coordinates":[-92.424681,39.444146]}},{"properties":{"geo_score":0.915,"total":1,"id":"a63rputctjw7","geo_precision":"range","address":"1306 N Main St, FINDLAY, OH, 45840"},"type":"Feature","geometry":{"type":"Point","coordinates":[-83.650042,41.057085]}},{"properties":{"geo_score":1.0,"total":1,"id":"a63rpuujxtvh","geo_precision":"range","address":"13045 MAGNOLIA ST, Garden Grove, CA, 92844-1312"},"type":"Feature","geometry":{"type":"Point","coordinates":[-117.9743,33.772829]}},{"properties":{"geo_score":0.913,"total":1,"id":"a63rpv2uxkkl","geo_precision":"range","address":"1301 W Jefferson St, Kokomo, IN, 46901-4242"},"type":"Feature","geometry":{"type":"Point","coordinates":[-86.145747,40.490787]}},{"properties":{"geo_score":0.324,"total":2,"id":"a63rpv4k71zl","geo_precision":"street","address":"13000-1 2 Twin Lakes Blvd, Houston, TX, 77041"},"type":"Feature","geometry":{"type":"Point","coordinates":[-95.590527,29.95092]}},{"properties":{"geo_score":1.0,"total":1,"id":"a63rpuu5jxkx","geo_precision":"range","address":"1300 S Lewis St, Anaheim, CA, 92805-6430"},"type":"Feature","geometry":{"type":"Point","coordinates":[-117.897959,33.815322]}},{"properties":{"geo_score":0.911,"total":2,"id":"a63rpv6z2cqi","geo_precision":"range","address":"1290 Marina Dr, Ukiah, CA, 95482"},"type":"Feature","geometry":{"type":"Point","coordinates":[-123.181945,39.235705]}},{"properties":{"geo_score":0.902,"total":1,"id":"a63rpv7ev71n","geo_precision":"range","address":"129 Lee St W, Charleston, WV, 25302-2341"},"type":"Feature","geometry":{"type":"Point","coordinates":[-81.641782,38.359601]}},{"properties":{"geo_score":1.0,"total":1,"id":"a63rpusuf8x1","geo_precision":"range","address":"12890 San Pablo Ave, Richmond, CA, 94805-1305"},"type":"Feature","geometry":{"type":"Point","coordinates":[-122.330729,37.94723]}},{"properties":{"geo_score":0.913,"total":1,"id":"a63rpuxjhfo1","geo_precision":"range","address":"1284 W Washington St, Sequim, WA, 98382-3227"},"type":"Feature","geometry":{"type":"Point","coordinates":[-123.134396,48.077603]}},{"properties":{"geo_score":0.707,"total":1,"id":"a63rpuzfi9rh","geo_precision":"range","address":"1281 N Santa Fe Ave, Vista, CA, 92084-4379"},"type":"Feature","geometry":{"type":"Point","coordinates":[-117.244866,33.21717]}},{"properties":{"geo_score":0.805,"total":2,"id":"a63rpv405rh2","geo_precision":"street","address":"1280 Lafayette Avenue, Terre Haute, IN, 47807"},"type":"Feature","geometry":{"type":"Point","coordinates":[-87.4042,39.484677]}},{"properties":{"geo_score":1.0,"total":1,"id":"a63rpuz159zv","geo_precision":"range","address":"128 S Salinas St, SANTA BARBARA, CA, 93103-2866"},"type":"Feature","geometry":{"type":"Point","coordinates":[-119.671223,34.425293]}},{"properties":{"geo_score":1.0,"total":1,"id":"a63rpv0jlveb","geo_precision":"range","address":"12604 Beverly Blvd, Whittier, CA, 90601-3001"},"type":"Feature","geometry":{"type":"Point","coordinates":[-118.04201,33.988137]}},{"properties":{"geo_score":0.809,"total":1,"id":"a63rpv7yqb0t","geo_precision":"range","address":"1260 E Arrow Hwy-Bldg C, Upland, CA, 91786-4982"},"type":"Feature","geometry":{"type":"Point","coordinates":[-117.63315,34.099524]}},{"properties":{"geo_score":1.0,"total":1,"id":"a63rpv5axpzq","geo_precision":"range","address":"12515 Philadelphia St, Whittier, CA, 90601-3935"},"type":"Feature","geometry":{"type":"Point","coordinates":[-118.043034,33.979115]}},{"properties":{"geo_score":0.98,"total":2,"id":"a63rpv6oztde","geo_precision":"range","address":"1250 Bellflower Blvd, Long Beach, CA, 90840-0004"},"type":"Feature","geometry":{"type":"Point","coordinates":[-118.122344,33.782344]}},{"properties":{"geo_score":0.902,"total":2,"id":"a63rpuzcyjkl","geo_precision":"range","address":"1250 16TH ST, SANTA MONICA, CA, 90404-1249"},"type":"Feature","geometry":{"type":"Point","coordinates":[-118.486188,34.027619]}},{"properties":{"geo_score":0.928,"total":1,"id":"a63rpv1v3cwh","geo_precision":"range","address":"125 E Main St, Grass Valley, CA, 95945-6505"},"type":"Feature","geometry":{"type":"Point","coordinates":[-121.060868,39.2194]}},{"properties":{"geo_score":1.0,"total":1,"id":"a63rpuwvnci8","geo_precision":"range","address":"1245 Broadway, Oakland, CA, 94612-1801"},"type":"Feature","geometry":{"type":"Point","coordinates":[-122.27194,37.803284]}},{"properties":{"geo_score":0.74,"total":1,"id":"a63rpv3goifo","geo_precision":"street","address":"12333 Sago Ave, Jacksonville, FL, 32218"},"type":"Feature","geometry":{"type":"Point","coordinates":[-81.625986,30.462975]}},{"properties":{"geo_score":1.0,"total":1,"id":"a63rpuzywcti","geo_precision":"range","address":"12305 Dexter Ave, Detroit, MI, 48206"},"type":"Feature","geometry":{"type":"Point","coordinates":[-83.12675,42.38362]}},{"properties":{"geo_score":0.985,"total":1,"id":"a63rpv3wfe6a","geo_precision":"range","address":"1229 Ne Evangeline Thruway, Lafayette, LA, 70501"},"type":"Feature","geometry":{"type":"Point","coordinates":[-92.006586,30.219494]}},{"properties":{"geo_score":0.876,"total":1,"id":"a63rpv10n50d","geo_precision":"range","address":"12280 State Highway 16 S, San Antonio, TX, 78224-3094"},"type":"Feature","geometry":{"type":"Point","coordinates":[-98.55719,29.297584]}},{"properties":{"geo_score":0.915,"total":1,"id":"a63rpv582n1t","geo_precision":"range","address":"12200 Artesia Blvd, Artesia, CA, 90701-4345"},"type":"Feature","geometry":{"type":"Point","coordinates":[-118.072562,33.873098]}},{"properties":{"geo_score":0.915,"total":1,"id":"a63rpv3dld9k","geo_precision":"range","address":"1220 E Huntington Drive, Duarte, CA, 91010-2477"},"type":"Feature","geometry":{"type":"Point","coordinates":[-117.979498,34.139539]}},{"properties":{"geo_score":0.902,"total":1,"id":"a63rpv6tglam","geo_precision":"range","address":"1218 THIRD ST PROMENADE, SANTA MONICA, CA, 90401"},"type":"Feature","geometry":{"type":"Point","coordinates":[-118.49896,34.018107]}},{"properties":{"geo_score":1.0,"total":1,"id":"a63rpv49uc12","geo_precision":"range","address":"12109 Bailey St, Whittier, CA, 90601"},"type":"Feature","geometry":{"type":"Point","coordinates":[-118.047658,33.980881]}},{"properties":{"geo_score":0.911,"total":1,"id":"a63rpuxrsw3w","geo_precision":"range","address":"12101 Jefferson Ave, Newport News, VA, 23602-6907"},"type":"Feature","geometry":{"type":"Point","coordinates":[-76.492338,37.102331]}},{"properties":{"geo_score":1.0,"total":1,"id":"a63rpusihu77","geo_precision":"range","address":"1210 N Blue Gum St, Anaheim, CA, 92806-2411"},"type":"Feature","geometry":{"type":"Point","coordinates":[-117.871167,33.851814]}},{"properties":{"geo_score":1.0,"total":1,"id":"a63rpuv79m49","geo_precision":"range","address":"121 W Stowell Rd, SANTA MARIA, CA, 93458-6522"},"type":"Feature","geometry":{"type":"Point","coordinates":[-120.436335,34.938559]}},{"properties":{"geo_score":0.417,"total":1,"id":"a63rpuykgo0x","geo_precision":"street","address":"121 Turner Rd, Richmond, VA, 232256413"},"type":"Feature","geometry":{"type":"Point","coordinates":[-92.424573,41.005131]}},{"properties":{"geo_score":1.0,"total":5,"id":"a63rpv34181m","geo_precision":"range","address":"121 N Campbell Ave, Chicago, IL, 60612"},"type":"Feature","geometry":{"type":"Point","coordinates":[-87.688542,41.883537]}},{"properties":{"geo_score":0.819,"total":1,"id":"a63rpuz8jybt","geo_precision":"range","address":"12033 N 28th Dr, Phoenix, AZ, 85029-3304"},"type":"Feature","geometry":{"type":"Point","coordinates":[-112.120059,33.594495]}},{"properties":{"geo_score":0.954,"total":1,"id":"a63rpuzj4riz","geo_precision":"range","address":"1203 S Standard Ave, Santa Ana, CA, 92707-1430"},"type":"Feature","geometry":{"type":"Point","coordinates":[-117.85639,33.733581]}},{"properties":{"geo_score":1.0,"total":1,"id":"a63rpv6nvn52","geo_precision":"range","address":"1203 N Clark St, Chicago, IL, 60610"},"type":"Feature","geometry":{"type":"Point","coordinates":[-87.631446,41.903939]}},{"properties":{"geo_score":1.0,"total":2,"id":"a63rpv7nnfv8","geo_precision":"range","address":"1201 WALNUT AVE, Long Beach, CA, 90813-3893"},"type":"Feature","geometry":{"type":"Point","coordinates":[-118.171981,33.781706]}},{"properties":{"geo_score":0.941,"total":1,"id":"a63rpv22y6ab","geo_precision":"range","address":"1201 Old Dixie Hwy, Vero Beach, FL, 32960-3746"},"type":"Feature","geometry":{"type":"Point","coordinates":[-80.39425,27.623379]}},{"properties":{"geo_score":1.0,"total":2,"id":"a63rpv2st7th","geo_precision":"range","address":"1201 E Santa Ana St, Anaheim, CA, 92805-4202"},"type":"Feature","geometry":{"type":"Point","coordinates":[-117.901219,33.833712]}},{"properties":{"geo_score":1.0,"total":1,"id":"a63rpux9l83y","geo_precision":"range","address":"1201 Centinela Ave, Inglewood, CA, 90302"},"type":"Feature","geometry":{"type":"Point","coordinates":[-118.359465,33.976411]}},{"properties":{"geo_score":0.929,"total":2,"id":"a63rpv3vi7y0","geo_precision":"range","address":"1200 W Market St, Bloomington, IL, 61701-2632"},"type":"Feature","geometry":{"type":"Point","coordinates":[-89.008138,40.482336]}},{"properties":{"geo_score":1.0,"total":2,"id":"a63rpus8zryp","geo_precision":"range","address":"1200 S Euclid St, Anaheim, CA, 92802-1904"},"type":"Feature","geometry":{"type":"Point","coordinates":[-117.941415,33.817934]}},{"properties":{"geo_score":0.902,"total":1,"id":"a63rpv0rlo3i","geo_precision":"street","address":"1200 Pacific Coast Hwy, Seal Beach, CA, 90740-6204"},"type":"Feature","geometry":{"type":"Point","coordinates":[-118.09992,33.743179]}},{"properties":{"geo_score":0.805,"total":1,"id":"a63rpuyfqb7o","geo_precision":"range","address":"1200 E California Blvd, Pasadena, CA, 91125-0001"},"type":"Feature","geometry":{"type":"Point","coordinates":[-118.126393,34.13591]}},{"properties":{"geo_score":0.916,"total":1,"id":"a63rpuyi6uyf","geo_precision":"range","address":"1200 E Brin St, Terrell, TX, 75160-2938"},"type":"Feature","geometry":{"type":"Point","coordinates":[-96.262621,32.738427]}},{"properties":{"geo_score":1.0,"total":1,"id":"a63rpv6q2epq","geo_precision":"range","address":"120 N Raymond Ave, Fullerton, CA, 92831-4610"},"type":"Feature","geometry":{"type":"Point","coordinates":[-117.906983,33.87066]}},{"properties":{"geo_score":0.66,"total":1,"id":"a63rpusmykuw","geo_precision":"street","address":"1199 Skyway, Chico, CA, 95928-8345"},"type":"Feature","geometry":{"type":"Point","coordinates":[-121.792143,39.714936]}},{"properties":{"geo_score":0.488,"total":1,"id":"a63rpuzjqmeg","geo_precision":"street","address":"11926 La Mirada Boulevard, La Mirada, CA, 90638"},"type":"Feature","geometry":{"type":"Point","coordinates":[-117.990208,33.899846]}},{"properties":{"geo_score":0.915,"total":1,"id":"a63rpv3nl3df","geo_precision":"range","address":"119 Main St, Stamford, CT, 06901-2818"},"type":"Feature","geometry":{"type":"Point","coordinates":[-73.543525,41.052701]}},{"properties":{"geo_score":1.0,"total":1,"id":"a63rputsptea","geo_precision":"range","address":"11875 Pigeon Pass Rd, Moreno Valley, CA, 92557-6039"},"type":"Feature","geometry":{"type":"Point","coordinates":[-117.261469,33.948957]}},{"properties":{"geo_score":0.916,"total":1,"id":"a63rpuworuc7","geo_precision":"range","address":"117 E Main St, Newark, OH, 43055-5605"},"type":"Feature","geometry":{"type":"Point","coordinates":[-82.397163,40.059252]}},{"properties":{"geo_score":0.888,"total":1,"id":"a63rpv7wmfqq","geo_precision":"range","address":"1161 Trenton Ave, FINDLAY, OH, 45840-1919"},"type":"Feature","geometry":{"type":"Point","coordinates":[-83.67247,41.058568]}},{"properties":{"geo_score":0.902,"total":1,"id":"a63rpuuocpdb","geo_precision":"range","address":"1151 Huntington Ave E, San Bruno, CA, 94066-1500"},"type":"Feature","geometry":{"type":"Point","coordinates":[-122.415308,37.637104]}},{"properties":{"geo_score":1.0,"total":1,"id":"a63rpuwni61a","geo_precision":"range","address":"11501 Dolan Ave, Downey, CA, 90241-4921"},"type":"Feature","geometry":{"type":"Point","coordinates":[-118.133079,33.936978]}},{"properties":{"geo_score":0.397,"total":1,"id":"a63rpv5jd63n","geo_precision":"city","address":"115 Broadway, Chelsea, MA, 21502608"},"type":"Feature","geometry":{"type":"Point","coordinates":[-169.428333,-14.219444]}},{"properties":{"geo_score":0.92,"total":1,"id":"a63rpuxbk2zk","geo_precision":"range","address":"1147 N Limestone St, Springfield, OH, 45503-3621"},"type":"Feature","geometry":{"type":"Point","coordinates":[-83.805577,39.937819]}},{"properties":{"geo_score":0.912,"total":1,"id":"a63rpuwxm2ip","geo_precision":"range","address":"11461 Firestone Blvd, Norwalk, CA, 90650-8849"},"type":"Feature","geometry":{"type":"Point","coordinates":[-118.089193,33.916717]}},{"properties":{"geo_score":1.0,"total":1,"id":"a63rpus0pcs3","geo_precision":"range","address":"1145 Griswold St, Detroit, MI, 48226-1901"},"type":"Feature","geometry":{"type":"Point","coordinates":[-83.048574,42.332033]}},{"properties":{"geo_score":0.798,"total":1,"id":"a63rpuxqx26a","geo_precision":"range","address":"11400 Norwalk Blvd-Ward 420, Norwalk, CA, 90650-2084"},"type":"Feature","geometry":{"type":"Point","coordinates":[-118.072587,33.927896]}},{"properties":{"geo_score":0.798,"total":1,"id":"a63rpuup9a1b","geo_precision":"range","address":"11400 Norwalk Blvd-Ward 407, Norwalk, CA, 90650-2084"},"type":"Feature","geometry":{"type":"Point","coordinates":[-118.072587,33.927896]}},{"properties":{"geo_score":0.798,"total":1,"id":"a63rputyvqsi","geo_precision":"range","address":"11400 Norwalk Blvd-Ward 403, Norwalk, CA, 90650-2084"},"type":"Feature","geometry":{"type":"Point","coordinates":[-118.072587,33.927896]}},{"properties":{"geo_score":0.912,"total":1,"id":"a63rpuwhotyk","geo_precision":"range","address":"11400 Norwalk Blvd, Norwalk, CA, 90650-2084"},"type":"Feature","geometry":{"type":"Point","coordinates":[-118.072587,33.927896]}},{"properties":{"geo_score":0.962,"total":2,"id":"a63rput6g81q","geo_precision":"range","address":"114 W Adams St, Sandusky, OH, 44870"},"type":"Feature","geometry":{"type":"Point","coordinates":[-82.710337,41.453671]}},{"properties":{"geo_score":0.78,"total":1,"id":"a63rpuy9dtai","geo_precision":"range","address":"11340 Magnolia Blvd, North Hollywood, CA, 91601-3705"},"type":"Feature","geometry":{"type":"Point","coordinates":[-118.37793,34.164897]}},{"properties":{"geo_score":1.0,"total":2,"id":"a63rpuuokob7","geo_precision":"range","address":"1127 W Adams St, Chicago, IL, 60607"},"type":"Feature","geometry":{"type":"Point","coordinates":[-87.65522,41.879086]}},{"properties":{"geo_score":0.61,"total":2,"id":"a63rpuvy6dn5","geo_precision":"range","address":"1125 New Market Rd, Richmond, VA, 232315727"},"type":"Feature","geometry":{"type":"Point","coordinates":[-79.029593,40.781559]}},{"properties":{"geo_score":1.0,"total":1,"id":"a63rpv44uh0c","geo_precision":"range","address":"1122 The Strand, Manhattan Beach, CA, 90266"},"type":"Feature","geometry":{"type":"Point","coordinates":[-118.411631,33.884355]}},{"properties":{"geo_score":0.346,"total":2,"id":"a63rpv64yed7","geo_precision":"street","address":"11201 E. M.L.K. BLVD, TAMPA, FL, 33584"},"type":"Feature","geometry":{"type":"Point","coordinates":[-82.422051,28.085048]}},{"properties":{"geo_score":0.97,"total":2,"id":"a63rpv6heeeh","geo_precision":"range","address":"1115 Manatee Ave W, Bradenton, FL, 34205-7803"},"type":"Feature","geometry":{"type":"Point","coordinates":[-82.572788,27.495423]}},{"properties":{"geo_score":0.927,"total":1,"id":"a63rpv7baa4k","geo_precision":"range","address":"1115 Coplin, Detroit, MI, 48215"},"type":"Feature","geometry":{"type":"Point","coordinates":[-82.94959,42.371548]}},{"properties":{"geo_score":1.0,"total":2,"id":"a63rpuzij9v5","geo_precision":"range","address":"11112 Barclay Dr, Garden Grove, CA, 92841-1309"},"type":"Feature","geometry":{"type":"Point","coordinates":[-117.963702,33.801876]}},{"properties":{"geo_score":0.665,"total":1,"id":"a63rpv38jtsi","geo_precision":"range","address":"111 N Maysville Ave, South Zanesville, OH, 43701-6112"},"type":"Feature","geometry":{"type":"Point","coordinates":[-82.022779,39.900471]}},{"properties":{"geo_score":0.724,"total":1,"id":"a63rpuwqcz6n","geo_precision":"street","address":"1107 Liberty Ave, Beloit, WI, 53511-5124"},"type":"Feature","geometry":{"type":"Point","coordinates":[-89.037857,42.511066]}},{"properties":{"geo_score":0.708,"total":1,"id":"a63rpuyyxyj2","geo_precision":"street","address":"1106 Brazos St, Marble Falls, TX, 78654"},"type":"Feature","geometry":{"type":"Point","coordinates":[-98.28942,30.567085]}},{"properties":{"geo_score":1.0,"total":1,"id":"a63rpv2vgxcp","geo_precision":"range","address":"1105 N Courtenay Pkwy, Merritt Island, FL, 32953-4558"},"type":"Feature","geometry":{"type":"Point","coordinates":[-80.701487,28.376124]}},{"properties":{"geo_score":1.0,"total":1,"id":"a63rpuuglddl","geo_precision":"range","address":"1104 S Blosser Rd, SANTA MARIA, CA, 93458-4924"},"type":"Feature","geometry":{"type":"Point","coordinates":[-120.453741,34.941078]}},{"properties":{"geo_score":1.0,"total":1,"id":"a63rpuwmwo66","geo_precision":"range","address":"11001 Washington Blvd, Culver City, CA, 90232-3917"},"type":"Feature","geometry":{"type":"Point","coordinates":[-118.410568,34.011477]}},{"properties":{"geo_score":0.611,"total":1,"id":"a63rpv32x9av","geo_precision":"zip","address":"1100 S La Brea Ave, Inglewood, CA, 90301-3820"},"type":"Feature","geometry":{"type":"Point","coordinates":[-118.298662,33.786594]}},{"properties":{"geo_score":1.0,"total":1,"id":"a63rpv08ddvs","geo_precision":"range","address":"110 E 51st St, Kansas City, MO, 64112-2760"},"type":"Feature","geometry":{"type":"Point","coordinates":[-94.586063,39.034854]}},{"properties":{"geo_score":0.663,"total":1,"id":"a63rpuvqt8gi","geo_precision":"street","address":"11 Serra Vista Ave, Daly City, CA, 94015"},"type":"Feature","geometry":{"type":"Point","coordinates":[-122.462585,37.657179]}},{"properties":{"geo_score":0.61,"total":1,"id":"a63rpuydmmsi","geo_precision":"range","address":"1099 1st Ave South, Winterhaven, FL, 338803612"},"type":"Feature","geometry":{"type":"Point","coordinates":[-92.652935,33.205436]}},{"properties":{"geo_score":1.0,"total":2,"id":"a63rpv65e5bi","geo_precision":"range","address":"1097 Baker St, Costa Mesa, CA, 92626-4127"},"type":"Feature","geometry":{"type":"Point","coordinates":[-117.902956,33.68014]}},{"properties":{"geo_score":0.815,"total":1,"id":"a63rpuvpxddd","geo_precision":"range","address":"10962 Alondra Blvd, Norwalk, CA, 90650-5402"},"type":"Feature","geometry":{"type":"Point","coordinates":[-118.101043,33.887531]}},{"properties":{"geo_score":0.252,"total":2,"id":"a63rpuw3xq9k","geo_precision":"street","address":"10911 Main St, Fairfax, VA, 220304703"},"type":"Feature","geometry":{"type":"Point","coordinates":[-92.003343,41.184048]}},{"properties":{"geo_score":0.537,"total":2,"id":"a63rpv08iww0","geo_precision":"street","address":"1091 Midway Dr, Lynn Creek, MO, 65052"},"type":"Feature","geometry":{"type":"Point","coordinates":[-92.573661,38.258002]}},{"properties":{"geo_score":0.927,"total":2,"id":"a63rpuvg8wtp","geo_precision":"range","address":"10901 E Washington St, Indianapolis, IN, 46229-2617"},"type":"Feature","geometry":{"type":"Point","coordinates":[-85.974305,39.77571]}},{"properties":{"geo_score":1.0,"total":1,"id":"a63rputtpghh","geo_precision":"range","address":"109 W Lambert Rd, Brea, CA, 92821-4042"},"type":"Feature","geometry":{"type":"Point","coordinates":[-117.895987,33.924815]}},{"properties":{"geo_score":1.0,"total":1,"id":"a63rpuu4bko4","geo_precision":"range","address":"10802 College Pl, Cerritos, CA, 90703-1505"},"type":"Feature","geometry":{"type":"Point","coordinates":[-118.102926,33.884925]}},{"properties":{"geo_score":1.0,"total":2,"id":"a63rpv25lvcn","geo_precision":"range","address":"10795 Tamiami Trl N, Naples, FL, 34108-1901"},"type":"Feature","geometry":{"type":"Point","coordinates":[-81.801577,26.269655]}},{"properties":{"geo_score":0.601,"total":2,"id":"a63rpv3xexmi","geo_precision":"street","address":"10740 Westview Pkwy, San Diego, CA, 92126-2962"},"type":"Feature","geometry":{"type":"Point","coordinates":[-117.120548,32.917212]}},{"properties":{"geo_score":0.92,"total":1,"id":"a63rpuyzstk3","geo_precision":"range","address":"10735 W Florissant Ave, St Louis, MO, 63136-2403"},"type":"Feature","geometry":{"type":"Point","coordinates":[-90.280466,38.767531]}},{"properties":{"geo_score":1.0,"total":2,"id":"a63rpuz3h6po","geo_precision":"range","address":"107 W Ball Rd, Anaheim, CA, 92805-6045"},"type":"Feature","geometry":{"type":"Point","coordinates":[-117.908189,33.818079]}},{"properties":{"geo_score":0.919,"total":1,"id":"a63rputh9p8s","geo_precision":"range","address":"1065 St Ignatius Drive, Waldorf, MD, 20602-1844"},"type":"Feature","geometry":{"type":"Point","coordinates":[-76.902622,38.598479]}},{"properties":{"geo_score":0.756,"total":3,"id":"a63rpuw13p3r","geo_precision":"street","address":"10596 N. Gandy Blvd, St Petersburg, FL, 33702"},"type":"Feature","geometry":{"type":"Point","coordinates":[-82.684013,27.839619]}},{"properties":{"geo_score":1.0,"total":1,"id":"a63rpv6sz0tu","geo_precision":"range","address":"10545 Slater Ave, Fountain Valley, CA, 92708-4841"},"type":"Feature","geometry":{"type":"Point","coordinates":[-117.945039,33.709097]}},{"properties":{"geo_score":0.967,"total":2,"id":"a63rpv8ehxkl","geo_precision":"range","address":"10437 Whittier Blvd, Whittier, CA, 90606-1353"},"type":"Feature","geometry":{"type":"Point","coordinates":[-118.067225,33.992097]}},{"properties":{"geo_score":0.923,"total":1,"id":"a63rpv14b5i1","geo_precision":"range","address":"10425 PAINTER AVE, Santa Fe Springs, CA, 90670-3429"},"type":"Feature","geometry":{"type":"Point","coordinates":[-118.051338,33.94114]}},{"properties":{"geo_score":1.0,"total":1,"id":"a63rpv4mh7px","geo_precision":"range","address":"1042 W Patrick Street, Frederick, MD, 21703-3963"},"type":"Feature","geometry":{"type":"Point","coordinates":[-77.441305,39.416624]}},{"properties":{"geo_score":0.902,"total":1,"id":"a63rpuznym2j","geo_precision":"range","address":"1036 N 8th St, MILWAUKEE, WI, 53233"},"type":"Feature","geometry":{"type":"Point","coordinates":[-87.921628,43.043463]}},{"properties":{"geo_score":0.912,"total":1,"id":"a63rpusg8nny","geo_precision":"range","address":"1032 S Florissant Rd, St Louis, MO, 63135-3237"},"type":"Feature","geometry":{"type":"Point","coordinates":[-90.301712,38.731049]}},{"properties":{"geo_score":0.954,"total":1,"id":"a63rpv6qb2vi","geo_precision":"range","address":"1030 W Warner Ave, Santa Ana, CA, 92707-3147"},"type":"Feature","geometry":{"type":"Point","coordinates":[-117.881808,33.716171]}},{"properties":{"geo_score":1.0,"total":1,"id":"a63rput4dgw5","geo_precision":"range","address":"10299 Dumfries Road, Manassas, VA, 20110-7954"},"type":"Feature","geometry":{"type":"Point","coordinates":[-77.474192,38.733019]}},{"properties":{"geo_score":0.922,"total":1,"id":"a63rpv0ixtdi","geo_precision":"range","address":"10290 Southton Rd, San Antonio, TX, 78223-4899"},"type":"Feature","geometry":{"type":"Point","coordinates":[-98.432367,29.314688]}},{"properties":{"geo_score":0.824,"total":1,"id":"a63rpuvshij0","geo_precision":"range","address":"1028 Richmond Ave Ste C, Staunton, VA, 24401"},"type":"Feature","geometry":{"type":"Point","coordinates":[-79.047649,38.138311]}},{"properties":{"geo_score":0.911,"total":1,"id":"a63rpv0jn3ya","geo_precision":"range","address":"1025 Westminster Mall, Westminster, CA, 92683-4943"},"type":"Feature","geometry":{"type":"Point","coordinates":[-118.014038,33.749606]}},{"properties":{"geo_score":1.0,"total":1,"id":"a63rpv1ylhs3","geo_precision":"range","address":"1025 S Anaheim Blvd, Anaheim, CA, 92805-5806"},"type":"Feature","geometry":{"type":"Point","coordinates":[-117.908857,33.820301]}},{"properties":{"geo_score":1.0,"total":2,"id":"a63rpv73pgv4","geo_precision":"range","address":"1021 Santa Barbara Blvd, Cape Coral, FL, 33991"},"type":"Feature","geometry":{"type":"Point","coordinates":[-81.974142,26.633216]}},{"properties":{"geo_score":0.812,"total":1,"id":"a63rpuzyt8fi","geo_precision":"street","address":"1020 Irvine Ave, Newport Beach, CA, 92660-4602"},"type":"Feature","geometry":{"type":"Point","coordinates":[-117.908691,33.628434]}},{"properties":{"geo_score":0.923,"total":1,"id":"a63rpv5xhmw2","geo_precision":"range","address":"1020 CHAPALA ST, SANTA BARBARA, CA, 93101-3219"},"type":"Feature","geometry":{"type":"Point","coordinates":[-119.703236,34.420589]}},{"properties":{"geo_score":0.912,"total":1,"id":"a63rpux1qz9x","geo_precision":"range","address":"10175 Fox Run Dr, Clinton, MD, 20735-3141"},"type":"Feature","geometry":{"type":"Point","coordinates":[-76.878171,38.750122]}},{"properties":{"geo_score":0.973,"total":2,"id":"a63rpuwjts7b","geo_precision":"range","address":"1015 W Republic Dr, Addison, IL, 60101-3132"},"type":"Feature","geometry":{"type":"Point","coordinates":[-88.013298,41.925041]}},{"properties":{"geo_score":1.0,"total":1,"id":"a63rpuua5rl9","geo_precision":"range","address":"1015 W Ball Rd, Anaheim, CA, 92802-1803"},"type":"Feature","geometry":{"type":"Point","coordinates":[-117.921142,33.818064]}},{"properties":{"geo_score":0.707,"total":1,"id":"a63rpuucf93t","geo_precision":"range","address":"1015 N 6th St, MILWAUKEE, WI, 53203-1203"},"type":"Feature","geometry":{"type":"Point","coordinates":[-87.918929,43.04313]}},{"properties":{"geo_score":0.415,"total":1,"id":"a63rpuzwjf2a","geo_precision":"street","address":"1015 Hartnell Av Rdg, Redding, CA, 0"},"type":"Feature","geometry":{"type":"Point","coordinates":[-85.716629,34.459576]}},{"properties":{"geo_score":0.317,"total":1,"id":"a63rput09knp","geo_precision":"street","address":"1010 Southfield, Lincoln Park, MI, 481462604"},"type":"Feature","geometry":{"type":"Point","coordinates":[-158.037028,21.346619]}},{"properties":{"geo_score":0.888,"total":1,"id":"a63rpv5c31cm","geo_precision":"range","address":"101 W Torrance Blvd, Redondo Beach , CA, 90277-3633"},"type":"Feature","geometry":{"type":"Point","coordinates":[-118.388044,33.838238]}},{"properties":{"geo_score":0.882,"total":1,"id":"a63rpuxjtn6u","geo_precision":"range","address":"101 Parsons St, Manor, TX, 78653-5153"},"type":"Feature","geometry":{"type":"Point","coordinates":[-97.557699,30.341075]}},{"properties":{"geo_score":0.862,"total":1,"id":"a63rpuzx3hhx","geo_precision":"range","address":"101 North Gilbert, Danville, IL, 61832-8528"},"type":"Feature","geometry":{"type":"Point","coordinates":[-87.63557,40.12631]}},{"properties":{"geo_score":0.596,"total":1,"id":"a63rpux5ermv","geo_precision":"zip","address":"1005 E Kingshighway, Paragould, AR, 72450-4638"},"type":"Feature","geometry":{"type":"Point","coordinates":[-90.663723,36.097291]}},{"properties":{"geo_score":0.92,"total":2,"id":"a63rpv8g47vf","geo_precision":"range","address":"100250 State Park Rd, Mecca, CA, 92254"},"type":"Feature","geometry":{"type":"Point","coordinates":[-115.914146,33.510855]}},{"properties":{"geo_score":0.758,"total":1,"id":"a63rpv4xtzwi","geo_precision":"street","address":"1001 Nw Argosy Parkway, Riverside, MO, 64150"},"type":"Feature","geometry":{"type":"Point","coordinates":[-94.615045,39.165509]}},{"properties":{"geo_score":0.915,"total":1,"id":"a63rpv4j2q7j","geo_precision":"range","address":"1000 E. AVE DE LOS ARBOLES, Thousand Oaks, CA, 91360-4709"},"type":"Feature","geometry":{"type":"Point","coordinates":[-118.860993,34.21547]}},{"properties":{"geo_score":0.908,"total":1,"id":"a63rpuzulfuz","geo_precision":"range","address":"1000 E Pulaski Hwy, Elkton, MD, 21921-6306"},"type":"Feature","geometry":{"type":"Point","coordinates":[-75.79401,39.604074]}},{"properties":{"geo_score":0.925,"total":2,"id":"a63rpv1sczaz","geo_precision":"range","address":"100 World Way, Los Angeles, CA, 90045"},"type":"Feature","geometry":{"type":"Point","coordinates":[-118.402008,33.945212]}},{"properties":{"geo_score":0.847,"total":1,"id":"a63rpv4rvsw3","geo_precision":"range","address":"100 W Main, LEBANON, IN, 46052"},"type":"Feature","geometry":{"type":"Point","coordinates":[-86.46864,40.047574]}},{"properties":{"geo_score":0.601,"total":1,"id":"a63rpuv0aq7s","geo_precision":"zip","address":"100 Nitro Marketplace, NITRO, WV, 25143"},"type":"Feature","geometry":{"type":"Point","coordinates":[-81.616124,38.323042]}},{"properties":{"geo_score":0.902,"total":1,"id":"a63rpusarqer","geo_precision":"range","address":"100 E College Dr, Colby, KS, 67701-3799"},"type":"Feature","geometry":{"type":"Point","coordinates":[-101.04594,39.379722]}},{"properties":{"geo_score":0.921,"total":1,"id":"a63rpv01le34","geo_precision":"range","address":"1 W Hegeler Ln, Danville, IL, 61832-8341"},"type":"Feature","geometry":{"type":"Point","coordinates":[-87.644039,40.076]}},{"properties":{"geo_score":0.902,"total":1,"id":"a63rpv14p0z1","geo_precision":"range","address":"1 Tygart Valley Mall, Fairmont, WV, 26554"},"type":"Feature","geometry":{"type":"Point","coordinates":[-80.195216,39.425508]}},{"properties":{"geo_score":0.537,"total":2,"id":"a63rpuskyad2","geo_precision":"street","address":"1 Sonata St, Irvine, CA, 92618-7021"},"type":"Feature","geometry":{"type":"Point","coordinates":[-117.92779,33.6547]}},{"properties":{"geo_score":0.522,"total":2,"id":"a63rpv5ctp7o","geo_precision":"street","address":"1 Riverside Park Play Ground, Independence, KS, 67301"},"type":"Feature","geometry":{"type":"Point","coordinates":[-95.701167,37.223229]}},{"properties":{"geo_score":0.487,"total":1,"id":"a63rpuuwcve3","geo_precision":"street","address":"1 Massillon Market Place Dr, Massillon, OH, 44646"},"type":"Feature","geometry":{"type":"Point","coordinates":[-81.914892,40.556141]}},{"properties":{"geo_score":0.399,"total":8,"id":"a63rpv0mo402","geo_precision":"city","address":"1 Harborside Drive, East Boston, MA, 2128"},"type":"Feature","geometry":{"type":"Point","coordinates":[-169.428333,-14.219444]}},{"properties":{"geo_score":1.0,"total":2,"id":"a63rpv3gws4b","geo_precision":"range","address":"1 Airport Dr., Oakland, CA, 94621"},"type":"Feature","geometry":{"type":"Point","coordinates":[-122.200254,37.729715]}},{"properties":{"geo_score":0.733,"total":1,"id":"a63rpv871ysk","geo_precision":"street","address":"014 Main St, Sierra City, CA, 96125"},"type":"Feature","geometry":{"type":"Point","coordinates":[-120.644959,39.563831]}}],"is_temporal":false,"author":{"url":null,"metadata":null,"contact_name":null,"contact_address":null,"source":null,"contact_phone":null},"source":null,"pagination":{"sort":null,"start":0,"total":834,"limit":1000000},"state":"complete","tags":"","published":"2014-08-13T04:14:25-04:00","id":174485}