{"type":"FeatureCollection","data_type":"Dataset","url_type":null,"permissions":[{"permissions":{"download":true,"view":true},"group_id":"everyone"}],"classification":null,"title":"portage_geocommons_test","count":32,"stream_id":174463,"contributor":{"url":"http://geocommons.com/users/35607","name":"ACRFB"},"data_attributes":null,"calculation_params":null,"icon_link":null,"link":"http://geocommons.com/overlays/174463.json","extent":[-81.3473,41.0231,-81.1459,41.3089],"geometry_types":["point"],"unique_name":null,"name":"portage_geocommons_test","feature_count":32,"description":"","next_feature":null,"is_raster":false,"short_classification":"Y","stats":{},"features":[{"properties":{"addr1":"1066 S. Water Street","city":"Kent","addr2":null,"zip":"44240","agencyref":"B012","geo_score":0.873,"agencyname":"Kent Social Services","agency size":"Extra Extra Large","id":"a64xa81tdxni","geo_precision":"zip","group":"Food Pantry &amp; Hot Meal Site","state":"OH"},"type":"Feature","geometry":{"type":"Point","coordinates":[-81.340663,41.201723]}},{"properties":{"addr1":"2643 Waterloo Road","city":"Mogadore","addr2":null,"zip":"44260","agencyref":"B078","geo_score":0.857,"agencyname":"Randolph Suffield Atwater Food Shelf","agency size":"Large","id":"a64xa7zeayjl","geo_precision":"zip","group":"Food Pantry","state":"OH"},"type":"Feature","geometry":{"type":"Point","coordinates":[-81.347331,41.023113]}},{"properties":{"addr1":"3897 Summit Rd.","city":"Ravenna","addr2":null,"zip":"44266","agencyref":"B231","geo_score":0.883,"agencyname":"Church of Christ/Ravenna","agency size":"Small","id":"a64xa7yrac7q","geo_precision":"zip","group":"Food Pantry","state":"OH"},"type":"Feature","geometry":{"type":"Point","coordinates":[-81.147877,41.163112]}},{"properties":{"addr1":"6595 Winfield St.","city":"Ravenna","addr2":null,"zip":"44266","agencyref":"B361","geo_score":0.883,"agencyname":"Winfield Food Pantry","agency size":"Medium","id":"a64xa81jh1ab","geo_precision":"zip","group":"Food Pantry &amp; Hot Meal Site","state":"OH"},"type":"Feature","geometry":{"type":"Point","coordinates":[-81.147877,41.163112]}},{"properties":{"addr1":"268 W. Main Street","city":"Ravenna","addr2":null,"zip":"44266","agencyref":"B571","geo_score":0.883,"agencyname":"Salvation Army/Ravenna","agency size":"Small","id":"a64xa7qnyiih","geo_precision":"zip","group":"Food Pantry","state":"OH"},"type":"Feature","geometry":{"type":"Point","coordinates":[-81.147877,41.163112]}},{"properties":{"addr1":"1211 Anita Drive","city":"Kent","addr2":null,"zip":"44240","agencyref":"C314","geo_score":0.873,"agencyname":"Miller Community House","agency size":"Small","id":"a64xa7v67p2u","geo_precision":"zip","group":"Shelter","state":"OH"},"type":"Feature","geometry":{"type":"Point","coordinates":[-81.340663,41.201723]}},{"properties":{"addr1":"5536 S. Prospect","city":"Ravenna","addr2":null,"zip":"44266","agencyref":"C348","geo_score":0.883,"agencyname":"Town Hall ll / Horizon House","agency size":"Small","id":"a64xa831os4w","geo_precision":"zip","group":"Shelter","state":"OH"},"type":"Feature","geometry":{"type":"Point","coordinates":[-81.147877,41.163112]}},{"properties":{"addr1":"6695 N. Chestnut St.","city":"Ravenna","addr2":null,"zip":"44266","agencyref":"C349","geo_score":0.883,"agencyname":"Coleman Adult Day Services","agency size":"Extra Small","id":"a64xa82c97ru","geo_precision":"zip","group":"Day Care-Adult","state":"OH"},"type":"Feature","geometry":{"type":"Point","coordinates":[-81.147877,41.163112]}},{"properties":{"addr1":"1034 W. Main Street","city":"Ravenna","addr2":null,"zip":"44266","agencyref":"C507","geo_score":0.883,"agencyname":"Center of Hope","agency size":"Extra Extra Large","id":"a64xa85qabri","geo_precision":"zip","group":"Hot Meal","state":"OH"},"type":"Feature","geometry":{"type":"Point","coordinates":[-81.147877,41.163112]}},{"properties":{"addr1":"3920 Lovers Lane","city":"Ravenna","addr2":null,"zip":"44266","agencyref":"C690","geo_score":0.883,"agencyname":"Coleman Professional Services/Crisis","agency size":"Extra Small","id":"a64xa8168fkd","geo_precision":"zip","group":"Residential/Group Home","state":"OH"},"type":"Feature","geometry":{"type":"Point","coordinates":[-81.147877,41.163112]}},{"properties":{"addr1":"9537 Cloverleaf Dr.","city":"Windham","addr2":null,"zip":"44288","agencyref":"C694","geo_score":0.878,"agencyname":"Coleman Professional Services/Windham","agency size":"Extra Small","id":"a64xa7s6pcf7","geo_precision":"zip","group":"Residential/Group Home","state":"OH"},"type":"Feature","geometry":{"type":"Point","coordinates":[-81.147599,41.205612]}},{"properties":{"addr1":"1407 Fairchild Ave.","city":"Kent","addr2":null,"zip":"44240","agencyref":"1033","geo_score":0.873,"agencyname":"Riverwood Community Chapel","agency size":"Extra Small","id":"a64xa84ohndo","geo_precision":"zip","group":"Food Pantry","state":"OH"},"type":"Feature","geometry":{"type":"Point","coordinates":[-81.340663,41.201723]}},{"properties":{"addr1":"1034 W. Main St.","city":"Ravenna","addr2":null,"zip":"44266","agencyref":"P077","geo_score":0.883,"agencyname":"Christian Cupboard/Ravenna","agency size":"Extra Extra Large","id":"a64xa7tmo0um","geo_precision":"zip","group":"Food Pantry","state":"OH"},"type":"Feature","geometry":{"type":"Point","coordinates":[-81.147877,41.163112]}},{"properties":{"addr1":"1235 Tallmadge Rd.","city":"Kent","addr2":null,"zip":"44240","agencyref":"P105","geo_score":0.873,"agencyname":"Brimfield Community Cupboard, Inc.","agency size":"Small","id":"a64xa85obiz0","geo_precision":"zip","group":"Food Pantry","state":"OH"},"type":"Feature","geometry":{"type":"Point","coordinates":[-81.340663,41.201723]}},{"properties":{"addr1":"438 Dodge St.","city":"Kent","addr2":null,"zip":"44240","agencyref":"P535","geo_score":0.873,"agencyname":"New Beginning Church of God","agency size":"Extra Small","id":"a64xa7yc5l49","geo_precision":"zip","group":"Food Pantry","state":"OH"},"type":"Feature","geometry":{"type":"Point","coordinates":[-81.340663,41.201723]}},{"properties":{"addr1":"5599 South Prospect St.","city":"Ravenna","addr2":null,"zip":"44266","agencyref":"P680","geo_score":0.883,"agencyname":"City of Refuge International Ministries","agency size":"Extra Small","id":"a64xa81ic882","geo_precision":"zip","group":"Food Pantry","state":"OH"},"type":"Feature","geometry":{"type":"Point","coordinates":[-81.147877,41.163112]}},{"properties":{"addr1":"154 N. Depeyster St.","city":"Kent","addr2":null,"zip":"44240","agencyref":"1034","geo_score":0.873,"agencyname":"Bread of Life Ministries-Portage","agency size":"Small","id":"a64xa7v30h6n","geo_precision":"zip","group":"Food Pantry","state":"OH"},"type":"Feature","geometry":{"type":"Point","coordinates":[-81.340663,41.201723]}},{"properties":{"addr1":"9005 Wilverne Dr.","city":"Windham","addr2":null,"zip":"44288","agencyref":"1030","geo_score":0.878,"agencyname":"Renaissance Family Center of Windham, OH, Inc.","agency size":"Small","id":"a64xa7r1zh4l","geo_precision":"zip","group":"Hot Meal","state":"OH"},"type":"Feature","geometry":{"type":"Point","coordinates":[-81.147599,41.205612]}},{"properties":{"addr1":"3090 State Route 59","city":"Ravenna","addr2":null,"zip":"44266","agencyref":"752","geo_score":0.883,"agencyname":"Upper Room Cultural Development Center","agency size":"Extra Small","id":"a64xa7yefdfs","geo_precision":"zip","group":"Food Pantry","state":"OH"},"type":"Feature","geometry":{"type":"Point","coordinates":[-81.147877,41.163112]}},{"properties":{"addr1":"9307 St. Rt. 43","city":"Streetsboro","addr2":null,"zip":"44241","agencyref":"P103","geo_score":1.0,"agencyname":"Streetsboro Christian Cupboard","agency size":"Extra Small","id":"a64xa7y626i1","geo_precision":"zip","group":"Food Pantry","state":"OH"},"type":"Feature","geometry":{"type":"Point","coordinates":[-81.340528,41.241655]}},{"properties":{"addr1":"9222 Route 43","city":"Streetsboro","addr2":null,"zip":"44241","agencyref":"778","geo_score":1.0,"agencyname":"Community Food Pantry","agency size":"Medium","id":"a64xa7qktjb0","geo_precision":"zip","group":"Food Pantry","state":"OH"},"type":"Feature","geometry":{"type":"Point","coordinates":[-81.340528,41.241655]}},{"properties":{"addr1":"143 Gougler Ave.","city":"Kent","addr2":null,"zip":"44240","agencyref":"C275","geo_score":0.873,"agencyname":"Safer Futures","agency size":"Small","id":"a64xa7rhgb9y","geo_precision":"zip","group":"Shelter","state":"OH"},"type":"Feature","geometry":{"type":"Point","coordinates":[-81.340663,41.201723]}},{"properties":{"addr1":"4572 W. Prospect St.","city":"Mantua","addr2":null,"zip":"44255","agencyref":"P076","geo_score":0.857,"agencyname":"Crestwood 4Cs","agency size":"Small","id":"a64xa7t9slx0","geo_precision":"zip","group":"Food Pantry","state":"OH"},"type":"Feature","geometry":{"type":"Point","coordinates":[-81.281216,41.308944]}},{"properties":{"addr1":"8940 State Rt. 43","city":"Streetsboro","addr2":null,"zip":"44241","agencyref":"838","geo_score":1.0,"agencyname":"Streetsboro Community Pantry","agency size":"Extra Small","id":"a64xa83u66ml","geo_precision":"zip","group":"Food Pantry","state":"OH"},"type":"Feature","geometry":{"type":"Point","coordinates":[-81.340528,41.241655]}},{"properties":{"addr1":"3920 Lovers Lane","city":"Ravenna","addr2":null,"zip":"44266","agencyref":"C691","geo_score":0.883,"agencyname":"Coleman Professional Services/PSR","agency size":"Extra Small","id":"a64xa7x3ueu1","geo_precision":"zip","group":"Residential/Group Home","state":"OH"},"type":"Feature","geometry":{"type":"Point","coordinates":[-81.147877,41.163112]}},{"properties":{"addr1":"9005 Wilvern Dr.","city":"Windham","addr2":null,"zip":"44288","agencyref":"P572","geo_score":0.878,"agencyname":"Salvation Army/North East Portage Foodshelf","agency size":"Small","id":"a64xa7x0aeca","geo_precision":"zip","group":"Food Pantry","state":"OH"},"type":"Feature","geometry":{"type":"Point","coordinates":[-81.147599,41.205612]}},{"properties":{"addr1":"3671 Tallmadge Rd.","city":"Rootstown","addr2":null,"zip":"44272","agencyref":"849","geo_score":0.857,"agencyname":"Community Bible Church","agency size":"Extra Small","id":"a64xa86gv1v2","geo_precision":"zip","group":"Food Pantry","state":"OH"},"type":"Feature","geometry":{"type":"Point","coordinates":[-81.145932,41.099779]}},{"properties":{"addr1":"3790 Pelham Lane","city":"Brimfield","addr2":null,"zip":"44240","agencyref":"901","geo_score":0.873,"agencyname":"Blick Clinic #2 - PELHAM","agency size":"Extra Small","id":"a64xa84237ms","geo_precision":"zip","group":"Residential/Group Home","state":"OH"},"type":"Feature","geometry":{"type":"Point","coordinates":[-81.340663,41.201723]}},{"properties":{"addr1":"6240 First Ave.","city":"Kent","addr2":null,"zip":"44240","agencyref":"915","geo_score":0.873,"agencyname":"Blick Clinic #16 - FIRST AVE.","agency size":"Extra Small","id":"a64xa809rusu","geo_precision":"zip","group":"Residential/Group Home","state":"OH"},"type":"Feature","geometry":{"type":"Point","coordinates":[-81.340663,41.201723]}},{"properties":{"addr1":"P.O. Box 917","city":"Ravenna","addr2":null,"zip":"44266","agencyref":"893","geo_score":0.883,"agencyname":"Community Action Council Youth Center","agency size":"Large","id":"a64xa80kwboa","geo_precision":"zip","group":"Youth Program","state":"OH"},"type":"Feature","geometry":{"type":"Point","coordinates":[-81.147877,41.163112]}},{"properties":{"addr1":"600 S. Water Street","city":"Kent","addr2":null,"zip":"44240","agencyref":"969","geo_score":0.873,"agencyname":"The Lord's Pantry (Trinity Lutheran Church)","agency size":"Extra Small","id":"a64xa7qrxezp","geo_precision":"zip","group":"Food Pantry","state":"OH"},"type":"Feature","geometry":{"type":"Point","coordinates":[-81.340663,41.201723]}},{"properties":{"addr1":"9772 Diagonal Road","city":"Mantua","addr2":null,"zip":"44255","agencyref":"1040","geo_score":0.857,"agencyname":"Hattie Larlham Center for Children with Disabilities","agency size":"Extra Extra Large","id":"a64xa83fvg0c","geo_precision":"zip","group":"Residential/Group Home","state":"OH"},"type":"Feature","geometry":{"type":"Point","coordinates":[-81.281216,41.308944]}}],"is_temporal":false,"author":{"url":"","metadata":null,"contact_name":null,"contact_address":null,"source":null,"contact_phone":null},"source":"","pagination":{"sort":null,"start":0,"total":32,"limit":1000000},"state":"complete","tags":"","published":"2014-08-13T04:13:38-04:00","id":174463}