{"type":"FeatureCollection","data_type":"Dataset","url_type":null,"permissions":[{"permissions":{"download":true,"view":true},"group_id":"everyone"}],"classification":null,"title":"McDonalds Locations in Chiago, IL, 2007","count":385,"stream_id":17511,"contributor":{"url":"http://geocommons.com/users/695","name":"Bill"},"data_attributes":null,"calculation_params":null,"icon_link":null,"link":"http://geocommons.com/overlays/17511.json","extent":[-88.4711,40.943,-87.5255,42.4723],"geometry_types":["point"],"unique_name":null,"name":"McDonalds Locations in Chiago, IL, 2007","feature_count":385,"description":"This data set has the locations of various McDonald's Locations throughout Chicago. Addresses were pulled after doing a 50 mile search radius around many of the major cities in the United states. results were geocoded to the point level, and includes street address data.","next_feature":null,"is_raster":false,"short_classification":"Y","stats":{"geo_score":{"max":1.0,"mean":0.921358441558441,"variance":0.0181153295183982,"stdev":0.134593200119464,"min":0.37,"median":1.0}},"features":[{"properties":{"city":"Romeoville","zip":"60446","geo_score":1.0,"street address":"1300 Marquette Dr","store":"McDonald's","id":"a635p1a98eow","geo_precision":"range","state":"IL"},"type":"Feature","geometry":{"type":"Point","coordinates":[-88.075383,41.671447]}},{"properties":{"city":"Chicago","zip":"60638","geo_score":1.0,"street address":"5700 S Cicero Ave","store":"McDonald's","id":"a635p18uzzyc","geo_precision":"range","state":"IL"},"type":"Feature","geometry":{"type":"Point","coordinates":[-87.741556,41.789428]}},{"properties":{"city":"Chicago","zip":"60638","geo_score":1.0,"street address":"6430 S Cicero Ave","store":"McDonald's","id":"a635p166b8ko","geo_precision":"range","state":"IL"},"type":"Feature","geometry":{"type":"Point","coordinates":[-87.742202,41.776046]}},{"properties":{"city":"Chicago","zip":"60651","geo_score":1.0,"street address":"5153 W Chicago Ave","store":"McDonald's","id":"a635p17mpcrn","geo_precision":"range","state":"IL"},"type":"Feature","geometry":{"type":"Point","coordinates":[-87.754715,41.894949]}},{"properties":{"city":"Chicago","zip":"60629","geo_score":1.0,"street address":"6737 S Pulaski Rd","store":"McDonald's","id":"a635p1hhausw","geo_precision":"range","state":"IL"},"type":"Feature","geometry":{"type":"Point","coordinates":[-87.72255,41.770378]}},{"properties":{"city":"River Forest","zip":"60305","geo_score":0.805,"street address":"624 N Harlem Ave","store":"McDonald's","id":"a635p1hndvd5","geo_precision":"range","state":"IL"},"type":"Feature","geometry":{"type":"Point","coordinates":[-87.821744,41.890461]}},{"properties":{"city":"Maywood","zip":"60153","geo_score":0.916,"street address":"11 N 1st Ave","store":"McDonald's","id":"a635p1atz0ur","geo_precision":"range","state":"IL"},"type":"Feature","geometry":{"type":"Point","coordinates":[-87.834367,41.888108]}},{"properties":{"city":"Chicago","zip":"60620","geo_score":1.0,"street address":"7601 S Vincennes Ave","store":"McDonald's","id":"a635p1a4tbxv","geo_precision":"range","state":"IL"},"type":"Feature","geometry":{"type":"Point","coordinates":[-87.63225,41.756288]}},{"properties":{"city":"Chicago","zip":"60641","geo_score":1.0,"street address":"3560 N Cicero Ave","store":"McDonald's","id":"a635p16b4nxo","geo_precision":"range","state":"IL"},"type":"Feature","geometry":{"type":"Point","coordinates":[-87.747044,41.94552]}},{"properties":{"city":"Chicago","zip":"60619","geo_score":0.916,"street address":"29 E 87th St","store":"McDonald's","id":"a635p1ap9lxw","geo_precision":"range","state":"IL"},"type":"Feature","geometry":{"type":"Point","coordinates":[-87.623123,41.736355]}},{"properties":{"city":"Chicago","zip":"60646","geo_score":1.0,"street address":"5600 N Menard Ave","store":"McDonald's","id":"a635p19zogda","geo_precision":"range","state":"IL"},"type":"Feature","geometry":{"type":"Point","coordinates":[-87.773191,41.982921]}},{"properties":{"city":"Schiller Park","zip":"60176","geo_score":1.0,"street address":"9449 Irving Park Rd","store":"McDonald's","id":"a635p1ipveh0","geo_precision":"range","state":"IL"},"type":"Feature","geometry":{"type":"Point","coordinates":[-87.86336,41.954475]}},{"properties":{"city":"Calumet Park","zip":"60827","geo_score":0.92,"street address":"12700 S Ashland Ave","store":"McDonald's","id":"a635p1di81r9","geo_precision":"range","state":"IL"},"type":"Feature","geometry":{"type":"Point","coordinates":[-87.660904,41.662908]}},{"properties":{"city":"Oak Brook","zip":"60523","geo_score":1.0,"street address":"2111 Midwest Rd","store":"McDonald's","id":"a635p157zk06","geo_precision":"range","state":"IL"},"type":"Feature","geometry":{"type":"Point","coordinates":[-87.972391,41.846554]}},{"properties":{"city":"Elmhurst","zip":"60126","geo_score":1.0,"street address":"920 N York St","store":"McDonald's","id":"a635p1cd0bm0","geo_precision":"range","state":"IL"},"type":"Feature","geometry":{"type":"Point","coordinates":[-87.939647,41.928219]}},{"properties":{"city":"Chicago","zip":"60601","geo_score":0.612,"street address":"2001 W Chgo Ave","store":"McDonald's","id":"a635p1cu5efw","geo_precision":"zip","state":"IL"},"type":"Feature","geometry":{"type":"Point","coordinates":[-87.68732,41.811929]}},{"properties":{"city":"Chicago","zip":"60601","geo_score":0.389,"street address":"Ohare International Airport","store":"McDonald's","id":"a635p16wkxp2","geo_precision":"street","state":"IL"},"type":"Feature","geometry":{"type":"Point","coordinates":[-87.740288,41.791872]}},{"properties":{"city":"Bensenville","zip":"60106","geo_score":0.603,"street address":"1100 W Irving Park Rd","store":"McDonald's","id":"a635p16wnjg1","geo_precision":"street","state":"IL"},"type":"Feature","geometry":{"type":"Point","coordinates":[-87.932323,41.94414]}},{"properties":{"city":"Downers Grove","zip":"60516","geo_score":0.902,"street address":"809 Plainfield Rd","store":"McDonald's","id":"a635p191cboq","geo_precision":"range","state":"IL"},"type":"Feature","geometry":{"type":"Point","coordinates":[-88.004244,41.737192]}},{"properties":{"city":"Tinley Park","zip":"60477","geo_score":1.0,"street address":"15920 Harlem Ave","store":"McDonald's","id":"a635p1a1krs3","geo_precision":"range","state":"IL"},"type":"Feature","geometry":{"type":"Point","coordinates":[-87.794148,41.60189]}},{"properties":{"city":"Elk Grove Village","zip":"60007","geo_score":1.0,"street address":"2010 E Higgins Rd","store":"McDonald's","id":"a635p1hcgvao","geo_precision":"range","state":"IL"},"type":"Feature","geometry":{"type":"Point","coordinates":[-87.952317,42.01716]}},{"properties":{"city":"Glen Ellyn","zip":"60137","geo_score":0.786,"street address":"3S010 Route 53","store":"McDonald's","id":"a635p14v2zlc","geo_precision":"street","state":"IL"},"type":"Feature","geometry":{"type":"Point","coordinates":[-88.052782,41.852077]}},{"properties":{"city":"Homer Glen","zip":"60491","geo_score":1.0,"street address":"14298 S Bell Rd","store":"McDonald's","id":"a635p1cyggdo","geo_precision":"range","state":"IL"},"type":"Feature","geometry":{"type":"Point","coordinates":[-87.931086,41.630046]}},{"properties":{"city":"Homewood","zip":"60430","geo_score":1.0,"street address":"17740 Halsted St","store":"McDonald's","id":"a635p1938phv","geo_precision":"range","state":"IL"},"type":"Feature","geometry":{"type":"Point","coordinates":[-87.636344,41.567817]}},{"properties":{"city":"Winnetka","zip":"60093","geo_score":1.0,"street address":"858 Green Bay Rd","store":"McDonald's","id":"a635p15698rd","geo_precision":"range","state":"IL"},"type":"Feature","geometry":{"type":"Point","coordinates":[-87.76096,42.138409]}},{"properties":{"city":"Rolling Meadows","zip":"60008","geo_score":1.0,"street address":"2580 Golf Rd","store":"McDonald's","id":"a635p145pswn","geo_precision":"range","state":"IL"},"type":"Feature","geometry":{"type":"Point","coordinates":[-88.012453,42.051185]}},{"properties":{"city":"Lockport","zip":"60441","geo_score":0.902,"street address":"1039 E 9th St","store":"McDonald's","id":"a635p1b7850l","geo_precision":"range","state":"IL"},"type":"Feature","geometry":{"type":"Point","coordinates":[-88.038297,41.594644]}},{"properties":{"city":"Chicago Heights","zip":"60411","geo_score":0.717,"street address":"19767 S Halsted St","store":"McDonald's","id":"a635p1hr7obp","geo_precision":"street","state":"IL"},"type":"Feature","geometry":{"type":"Point","coordinates":[-87.63716,41.477053]}},{"properties":{"city":"Aurora","zip":"60504","geo_score":0.781,"street address":"188 Fox Valley Ctr","store":"McDonald's","id":"a635p1eguofu","geo_precision":"street","state":"IL"},"type":"Feature","geometry":{"type":"Point","coordinates":[-88.260393,41.736838]}},{"properties":{"city":"Highland Park","zip":"60035","geo_score":1.0,"street address":"2748 Skokie Valley Rd","store":"McDonald's","id":"a635p1hkq5ks","geo_precision":"range","state":"IL"},"type":"Feature","geometry":{"type":"Point","coordinates":[-87.833967,42.201462]}},{"properties":{"city":"Aurora","zip":"60504","geo_score":0.707,"street address":"2595 Ogden Ave","store":"McDonald's","id":"a635p16pq3cg","geo_precision":"street","state":"IL"},"type":"Feature","geometry":{"type":"Point","coordinates":[-88.273327,41.724222]}},{"properties":{"city":"Lake Forest","zip":"60045","geo_score":1.0,"street address":"884 S Waukegan Rd","store":"McDonald's","id":"a635p1iezxa5","geo_precision":"range","state":"IL"},"type":"Feature","geometry":{"type":"Point","coordinates":[-87.873274,42.223956]}},{"properties":{"city":"Crest Hill","zip":"60435","geo_score":0.563,"street address":"1704 Plainfield Rd","store":"McDonald's","id":"a635p17sv9g8","geo_precision":"street","state":"IL"},"type":"Feature","geometry":{"type":"Point","coordinates":[-88.12136,41.551729]}},{"properties":{"city":"Aurora","zip":"60505","geo_score":1.0,"street address":"1185 N Farnsworth Ave","store":"McDonald's","id":"a635p1hlr0uc","geo_precision":"range","state":"IL"},"type":"Feature","geometry":{"type":"Point","coordinates":[-88.281792,41.780643]}},{"properties":{"city":"Joliet","zip":"60435","geo_score":1.0,"street address":"1515 W Jefferson St","store":"McDonald's","id":"a635p14s27ro","geo_precision":"range","state":"IL"},"type":"Feature","geometry":{"type":"Point","coordinates":[-88.117462,41.522817]}},{"properties":{"city":"Aurora","zip":"60505","geo_score":1.0,"street address":"711 E New York St","store":"McDonald's","id":"a635p1j9winu","geo_precision":"range","state":"IL"},"type":"Feature","geometry":{"type":"Point","coordinates":[-88.300994,41.754165]}},{"properties":{"city":"Vernon Hills","zip":"60061","geo_score":0.554,"street address":"909 Hawtllorne Shopping Ctr","store":"McDonald's","id":"a635p1dcnm1x","geo_precision":"street","state":"IL"},"type":"Feature","geometry":{"type":"Point","coordinates":[-87.959184,42.243987]}},{"properties":{"city":"Mettawa","zip":"60045","geo_score":0.923,"street address":"695 N Bradley Rd","store":"McDonald's","id":"a635p172ap99","geo_precision":"range","state":"IL"},"type":"Feature","geometry":{"type":"Point","coordinates":[-87.905548,42.254447]}},{"properties":{"city":"Elgin","zip":"60120","geo_score":0.481,"street address":"816 Saint Charles St","store":"McDonald's","id":"a635p1j46pjq","geo_precision":"street","state":"IL"},"type":"Feature","geometry":{"type":"Point","coordinates":[-88.128036,41.900832]}},{"properties":{"city":"Aurora","zip":"60506","geo_score":1.0,"street address":"350 W Galena Blvd","store":"McDonald's","id":"a635p143agu1","geo_precision":"range","state":"IL"},"type":"Feature","geometry":{"type":"Point","coordinates":[-88.321461,41.760689]}},{"properties":{"city":"Beecher","zip":"60401","geo_score":1.0,"street address":"901 Dixie Hwy","store":"McDonald's","id":"a635p1j7c0ag","geo_precision":"range","state":"IL"},"type":"Feature","geometry":{"type":"Point","coordinates":[-87.621445,41.354608]}},{"properties":{"city":"Oswego","zip":"60543","geo_score":1.0,"street address":"2890 Us Highway 34","store":"McDonald's","id":"a635p19bt86k","geo_precision":"range","state":"IL"},"type":"Feature","geometry":{"type":"Point","coordinates":[-88.317433,41.698771]}},{"properties":{"city":"Saint Charles","zip":"60174","geo_score":1.0,"street address":"1915 W Main St","store":"McDonald's","id":"a635p1c46r2d","geo_precision":"range","state":"IL"},"type":"Feature","geometry":{"type":"Point","coordinates":[-88.336945,41.912636]}},{"properties":{"city":"Joliet","zip":"60431","geo_score":0.878,"street address":"4280 W Jefferson St","store":"McDonald's","id":"a635p14lnlll","geo_precision":"range","state":"IL"},"type":"Feature","geometry":{"type":"Point","coordinates":[-88.169282,41.521853]}},{"properties":{"city":"Joliet","zip":"60431","geo_score":1.0,"street address":"1421 Riverboat Center Dr","store":"McDonald's","id":"a635p1jr7pb3","geo_precision":"range","state":"IL"},"type":"Feature","geometry":{"type":"Point","coordinates":[-88.167375,41.496264]}},{"properties":{"city":"Aurora","zip":"60506","geo_score":1.0,"street address":"2011 W Galena Blvd","store":"McDonald's","id":"a635p1gdv3lo","geo_precision":"range","state":"IL"},"type":"Feature","geometry":{"type":"Point","coordinates":[-88.367052,41.764592]}},{"properties":{"city":"Great Lakes","zip":"60088","geo_score":0.62,"street address":"200 Building","store":"McDonald's","id":"a635p16egl58","geo_precision":"zip","state":"IL"},"type":"Feature","geometry":{"type":"Point","coordinates":[-87.85427,42.309272]}},{"properties":{"city":"West Dundee","zip":"60118","geo_score":0.707,"street address":"386 S 8th St","store":"McDonald's","id":"a635p16rh38v","geo_precision":"range","state":"IL"},"type":"Feature","geometry":{"type":"Point","coordinates":[-88.287691,42.101012]}},{"properties":{"city":"Carpentersville","zip":"60110","geo_score":0.786,"street address":"Route 25","store":"McDonald's","id":"a635p16x9jq6","geo_precision":"street","state":"IL"},"type":"Feature","geometry":{"type":"Point","coordinates":[-88.257879,42.121627]}},{"properties":{"city":"Yorkville","zip":"60560","geo_score":0.87,"street address":"2007 Bridge St","store":"McDonald's","id":"a635p1h9i4fr","geo_precision":"range","state":"IL"},"type":"Feature","geometry":{"type":"Point","coordinates":[-88.441933,41.666793]}},{"properties":{"city":"Peotone","zip":"60468","geo_score":1.0,"street address":"701 Oriole Dr","store":"McDonald's","id":"a635p1kfspbb","geo_precision":"range","state":"IL"},"type":"Feature","geometry":{"type":"Point","coordinates":[-87.815838,41.324529]}},{"properties":{"city":"Waukegan","zip":"60085","geo_score":1.0,"street address":"1010 Waukegan Rd","store":"McDonald's","id":"a635p1b4gvlv","geo_precision":"range","state":"IL"},"type":"Feature","geometry":{"type":"Point","coordinates":[-87.894905,42.343413]}},{"properties":{"city":"Minooka","zip":"60447","geo_score":0.805,"street address":"100 Ridge Rd","store":"McDonald's","id":"a635p19jrj75","geo_precision":"street","state":"IL"},"type":"Feature","geometry":{"type":"Point","coordinates":[-88.2744,41.5423]}},{"properties":{"city":"Yorkville","zip":"60560","geo_score":0.878,"street address":"3 W Veterans Pkwy","store":"McDonald's","id":"a635p14ako7j","geo_precision":"range","state":"IL"},"type":"Feature","geometry":{"type":"Point","coordinates":[-88.442639,41.657591]}},{"properties":{"city":"Gurnee","zip":"60031","geo_score":0.952,"street address":"Delany Rd","store":"McDonald's","id":"a635p1jqjyz5","geo_precision":"street","state":"IL"},"type":"Feature","geometry":{"type":"Point","coordinates":[-87.904637,42.357331]}},{"properties":{"city":"Manteno","zip":"60950","geo_score":1.0,"street address":"103 Southcreek Dr","store":"McDonald's","id":"a635p1i9i27a","geo_precision":"range","state":"IL"},"type":"Feature","geometry":{"type":"Point","coordinates":[-87.847367,41.250402]}},{"properties":{"city":"Round Lake Beach","zip":"60073","geo_score":1.0,"street address":"774 E Rollins Rd","store":"McDonald's","id":"a635p1bnxttm","geo_precision":"range","state":"IL"},"type":"Feature","geometry":{"type":"Point","coordinates":[-88.064553,42.379373]}},{"properties":{"city":"Wadsworth","zip":"60083","geo_score":1.0,"street address":"39105 N Us Highway 41","store":"McDonald's","id":"a635p1f8ztke","geo_precision":"range","state":"IL"},"type":"Feature","geometry":{"type":"Point","coordinates":[-87.93791,42.429273]}},{"properties":{"city":"Wilmington","zip":"60481","geo_score":1.0,"street address":"1055 S Water St","store":"McDonald's","id":"a635p14m8obe","geo_precision":"range","state":"IL"},"type":"Feature","geometry":{"type":"Point","coordinates":[-88.140842,41.296671]}},{"properties":{"city":"Braidwood","zip":"60408","geo_score":1.0,"street address":"285 N Front St","store":"McDonald's","id":"a635p1e76p49","geo_precision":"range","state":"IL"},"type":"Feature","geometry":{"type":"Point","coordinates":[-88.208412,41.26631]}},{"properties":{"city":"Coal City","zip":"60416","geo_score":1.0,"street address":"2 S Broadway St","store":"McDonald's","id":"a635p18xpaih","geo_precision":"range","state":"IL"},"type":"Feature","geometry":{"type":"Point","coordinates":[-88.285434,41.287743]}},{"properties":{"city":"Bourbonnais","zip":"60914","geo_score":0.944,"street address":"9 Briarcliff Prof Ctr Ste A","store":"McDonald's","id":"a635p16h3moo","geo_precision":"range","state":"IL"},"type":"Feature","geometry":{"type":"Point","coordinates":[-87.893463,41.153322]}},{"properties":{"city":"Morris","zip":"60450","geo_score":0.743,"street address":"Rt 47","store":"McDonald's","id":"a635p18x4uhh","geo_precision":"street","state":"IL"},"type":"Feature","geometry":{"type":"Point","coordinates":[-88.42164,41.357394]}},{"properties":{"city":"Elburn","zip":"60119","geo_score":1.0,"street address":"932 Center Ave","store":"McDonalds","id":"a635p1fx8z9q","geo_precision":"range","state":"IL"},"type":"Feature","geometry":{"type":"Point","coordinates":[-88.471107,41.90235]}},{"properties":{"city":"Kankakee","zip":"60901","geo_score":0.37,"street address":"1780 E Court St","store":"McDonalds","id":"a635p1gj2vh9","geo_precision":"street","state":"IL"},"type":"Feature","geometry":{"type":"Point","coordinates":[-87.795403,40.943034]}},{"properties":{"city":"Kankakee","zip":"60901","geo_score":0.916,"street address":"1030 N 5th Ave","store":"McDonalds","id":"a635p1fzmcuk","geo_precision":"range","state":"IL"},"type":"Feature","geometry":{"type":"Point","coordinates":[-87.875837,41.131763]}},{"properties":{"city":"Sandwich","zip":"60548","geo_score":0.531,"street address":"Indian Spring Dr","store":"McDonalds","id":"a635p1galrvf","geo_precision":"street","state":"IL"},"type":"Feature","geometry":{"type":"Point","coordinates":[-87.96649,41.802268]}},{"properties":{"city":"Antioch","zip":"60002","geo_score":1.0,"street address":"1150 Main St","store":"McDonalds","id":"a635p1ilx2lv","geo_precision":"range","state":"IL"},"type":"Feature","geometry":{"type":"Point","coordinates":[-88.093806,42.472264]}},{"properties":{"city":"Bourbonnais","zip":"60914","geo_score":1.0,"street address":"575 Main St Nw","store":"McDonalds","id":"a635p1iy3dmb","geo_precision":"range","state":"IL"},"type":"Feature","geometry":{"type":"Point","coordinates":[-87.887072,41.159661]}},{"properties":{"city":"Bradley","zip":"60915","geo_score":1.0,"street address":"1180 N Kinzie Ave","store":"McDonalds","id":"a635p15bbkxc","geo_precision":"range","state":"IL"},"type":"Feature","geometry":{"type":"Point","coordinates":[-87.851115,41.161106]}},{"properties":{"city":"McHenry","zip":"60050","geo_score":1.0,"street address":"4411 W Elm St","store":"McDonalds","id":"a635p1jnoveo","geo_precision":"range","state":"IL"},"type":"Feature","geometry":{"type":"Point","coordinates":[-88.282983,42.347022]}},{"properties":{"city":"Fox Lake","zip":"60020","geo_score":1.0,"street address":"40 S Us Highway 12","store":"McDonalds","id":"a635p1bq22p7","geo_precision":"range","state":"IL"},"type":"Feature","geometry":{"type":"Point","coordinates":[-88.184036,42.39546]}},{"properties":{"city":"Midlothian","zip":"60445","geo_score":1.0,"street address":"14601 Pulaski Rd","store":"McDonalds","id":"a635p1a9ei1i","geo_precision":"range","state":"IL"},"type":"Feature","geometry":{"type":"Point","coordinates":[-87.71779,41.627375]}},{"properties":{"city":"Lake Villa","zip":"60046","geo_score":0.805,"street address":"431 E Grand Ave","store":"McDonalds","id":"a635p1c1ndeq","geo_precision":"street","state":"IL"},"type":"Feature","geometry":{"type":"Point","coordinates":[-88.047888,42.415397]}},{"properties":{"city":"McHenry","zip":"60050","geo_score":0.883,"street address":"522 S Il Route 31","store":"McDonalds","id":"a635p1jtgtbt","geo_precision":"range","state":"IL"},"type":"Feature","geometry":{"type":"Point","coordinates":[-88.274513,42.335356]}},{"properties":{"city":"Zion","zip":"60099","geo_score":1.0,"street address":"2008 Sheridan Rd","store":"McDonalds","id":"a635p1iamctm","geo_precision":"range","state":"IL"},"type":"Feature","geometry":{"type":"Point","coordinates":[-87.825143,42.458874]}},{"properties":{"city":"Huntley","zip":"60142","geo_score":0.867,"street address":"10711 N Il Route 47","store":"McDonalds","id":"a635p1frbzzj","geo_precision":"range","state":"IL"},"type":"Feature","geometry":{"type":"Point","coordinates":[-88.427288,42.173985]}},{"properties":{"city":"Crystal Lake","zip":"60012","geo_score":0.902,"street address":"7617 Us Highway 14","store":"McDonalds","id":"a635p1f7084i","geo_precision":"street","state":"IL"},"type":"Feature","geometry":{"type":"Point","coordinates":[-88.346474,42.248568]}},{"properties":{"city":"Lindenhurst","zip":"60046","geo_score":1.0,"street address":"2250 E Grand Ave","store":"McDonalds","id":"a635p1iz5il3","geo_precision":"range","state":"IL"},"type":"Feature","geometry":{"type":"Point","coordinates":[-88.029743,42.407759]}},{"properties":{"city":"Crystal Lake","zip":"60014","geo_score":0.92,"street address":"130 S Virginia St","store":"McDonalds","id":"a635p1bov6d8","geo_precision":"range","state":"IL"},"type":"Feature","geometry":{"type":"Point","coordinates":[-88.315198,42.215743]}},{"properties":{"city":"Beach Park","zip":"60099","geo_score":1.0,"street address":"39082 N Sheridan Rd","store":"McDonalds","id":"a635p1e1w5nb","geo_precision":"range","state":"IL"},"type":"Feature","geometry":{"type":"Point","coordinates":[-87.825684,42.426983]}},{"properties":{"city":"Volo","zip":"60073","geo_score":1.0,"street address":"31699 N Us Highway 12","store":"McDonalds","id":"a635p1crf5n1","geo_precision":"range","state":"IL"},"type":"Feature","geometry":{"type":"Point","coordinates":[-88.164323,42.324887]}},{"properties":{"city":"Crystal Lake","zip":"60014","geo_score":0.672,"street address":"230 N Il Route 31","store":"McDonalds","id":"a635p1brircj","geo_precision":"street","state":"IL"},"type":"Feature","geometry":{"type":"Point","coordinates":[-88.286665,42.245592]}},{"properties":{"city":"Crystal Lake","zip":"60014","geo_score":0.937,"street address":"551 Crystal Point Dr","store":"McDonalds","id":"a635p1h98svl","geo_precision":"range","state":"IL"},"type":"Feature","geometry":{"type":"Point","coordinates":[-88.311848,42.225423]}},{"properties":{"city":"Grayslake","zip":"60030","geo_score":0.867,"street address":"1275 N Il Route 83","store":"McDonalds","id":"a635p1echoql","geo_precision":"range","state":"IL"},"type":"Feature","geometry":{"type":"Point","coordinates":[-88.033226,42.356188]}},{"properties":{"city":"Gurnee","zip":"60031","geo_score":1.0,"street address":"6380 Grand Ave","store":"McDonalds","id":"a635p1hpwuxk","geo_precision":"range","state":"IL"},"type":"Feature","geometry":{"type":"Point","coordinates":[-87.960385,42.384776]}},{"properties":{"city":"Gurnee","zip":"60031","geo_score":1.0,"street address":"6170 Grand Ave","store":"McDonalds","id":"a635p1id1r3e","geo_precision":"range","state":"IL"},"type":"Feature","geometry":{"type":"Point","coordinates":[-87.955184,42.383355]}},{"properties":{"city":"Gurnee","zip":"60031","geo_score":1.0,"street address":"5555 Grand Ave","store":"McDonalds","id":"a635p175ek3s","geo_precision":"range","state":"IL"},"type":"Feature","geometry":{"type":"Point","coordinates":[-87.93969,42.378618]}},{"properties":{"city":"Algonquin","zip":"60102","geo_score":1.0,"street address":"125 S Randall Rd","store":"McDonalds","id":"a635p1bz99pa","geo_precision":"range","state":"IL"},"type":"Feature","geometry":{"type":"Point","coordinates":[-88.335247,42.169773]}},{"properties":{"city":"Waukegan","zip":"60087","geo_score":1.0,"street address":"1939 N Lewis Ave","store":"McDonalds","id":"a635p1dlsazs","geo_precision":"range","state":"IL"},"type":"Feature","geometry":{"type":"Point","coordinates":[-87.855357,42.38736]}},{"properties":{"city":"Gilberts","zip":"60136","geo_score":1.0,"street address":"200 Tyler Creek St","store":"McDonalds","id":"a635p1aduh02","geo_precision":"range","state":"IL"},"type":"Feature","geometry":{"type":"Point","coordinates":[-88.38146,42.103668]}},{"properties":{"city":"Island Lake","zip":"60042","geo_score":0.807,"street address":"600 E State Rd","store":"McDonalds","id":"a635p1bc92l9","geo_precision":"street","state":"IL"},"type":"Feature","geometry":{"type":"Point","coordinates":[-88.191212,42.2702]}},{"properties":{"city":"Grayslake","zip":"60030","geo_score":1.0,"street address":"1804 Belvidere Rd","store":"McDonalds","id":"a635p1d6e4jw","geo_precision":"range","state":"IL"},"type":"Feature","geometry":{"type":"Point","coordinates":[-88.004626,42.338744]}},{"properties":{"city":"Cary","zip":"60013","geo_score":0.829,"street address":"678 Northwest Hwy","store":"McDonalds","id":"a635p19nhm80","geo_precision":"range","state":"IL"},"type":"Feature","geometry":{"type":"Point","coordinates":[-88.256394,42.217325]}},{"properties":{"city":"Waukegan","zip":"60085","geo_score":1.0,"street address":"304 N Sheridan Rd","store":"McDonalds","id":"a635p1frzdqk","geo_precision":"range","state":"IL"},"type":"Feature","geometry":{"type":"Point","coordinates":[-87.829856,42.363817]}},{"properties":{"city":"Carpentersville","zip":"60110","geo_score":1.0,"street address":"2290 Randall Rd","store":"McDonalds","id":"a635p149ejt5","geo_precision":"range","state":"IL"},"type":"Feature","geometry":{"type":"Point","coordinates":[-88.335229,42.119678]}},{"properties":{"city":"Algonquin","zip":"60102","geo_score":1.0,"street address":"500 E Algonquin Rd","store":"McDonalds","id":"a635p1h3tg1h","geo_precision":"range","state":"IL"},"type":"Feature","geometry":{"type":"Point","coordinates":[-88.283889,42.163743]}},{"properties":{"city":"Park City","zip":"60085","geo_score":1.0,"street address":"3249 Belvidere Rd","store":"McDonalds","id":"a635p15dx01u","geo_precision":"range","state":"IL"},"type":"Feature","geometry":{"type":"Point","coordinates":[-87.88099,42.34874]}},{"properties":{"city":"Wauconda","zip":"60084","geo_score":1.0,"street address":"511 W Liberty St","store":"McDonalds","id":"a635p19kgk00","geo_precision":"range","state":"IL"},"type":"Feature","geometry":{"type":"Point","coordinates":[-88.154386,42.258158]}},{"properties":{"city":"Libertyville","zip":"60048","geo_score":1.0,"street address":"1417 Peterson Rd","store":"McDonalds","id":"a635p1i05e36","geo_precision":"range","state":"IL"},"type":"Feature","geometry":{"type":"Point","coordinates":[-87.981037,42.30565]}},{"properties":{"city":"Fox River Grove","zip":"60021","geo_score":0.513,"street address":"840 Northwest Hwy","store":"McDonalds","id":"a635p1g4t89v","geo_precision":"street","state":"IL"},"type":"Feature","geometry":{"type":"Point","coordinates":[-88.224511,42.192513]}},{"properties":{"city":"Elgin","zip":"60123","geo_score":0.805,"street address":"1001 N Randall Rd","store":"McDonalds","id":"a635p1dyczng","geo_precision":"street","state":"IL"},"type":"Feature","geometry":{"type":"Point","coordinates":[-88.3399,42.052703]}},{"properties":{"city":"North Chicago","zip":"60064","geo_score":0.737,"street address":"2211 Green Bay Rd","store":"McDonalds","id":"a635p17n06w8","geo_precision":"range","state":"IL"},"type":"Feature","geometry":{"type":"Point","coordinates":[-87.866431,42.319302]}},{"properties":{"city":"Libertyville","zip":"60048","geo_score":1.0,"street address":"1330 N Milwaukee Ave","store":"McDonalds","id":"a635p1ci7u6d","geo_precision":"range","state":"IL"},"type":"Feature","geometry":{"type":"Point","coordinates":[-87.956316,42.297098]}},{"properties":{"city":"West Dundee","zip":"60118","geo_score":0.545,"street address":"1074 Spring Hill Mall","store":"McDonalds","id":"a635p18lc9ms","geo_precision":"street","state":"IL"},"type":"Feature","geometry":{"type":"Point","coordinates":[-88.277262,42.091676]}},{"properties":{"city":"Elgin","zip":"60123","geo_score":1.0,"street address":"255 S Randall Rd","store":"McDonalds","id":"a635p1bp815c","geo_precision":"range","state":"IL"},"type":"Feature","geometry":{"type":"Point","coordinates":[-88.33847,42.027898]}},{"properties":{"city":"Mundelein","zip":"60060","geo_score":0.785,"street address":"665 S Il Route 83","store":"McDonalds","id":"a635p1ilmhe8","geo_precision":"range","state":"IL"},"type":"Feature","geometry":{"type":"Point","coordinates":[-87.997749,42.238237]}},{"properties":{"city":"Elgin","zip":"60123","geo_score":1.0,"street address":"1480 Larkin Ave","store":"McDonalds","id":"a635p1cgkekh","geo_precision":"range","state":"IL"},"type":"Feature","geometry":{"type":"Point","coordinates":[-88.313687,42.034688]}},{"properties":{"city":"Aurora","zip":"60506","geo_score":0.883,"street address":"1975 W Downer Pl Ste 302","store":"McDonalds","id":"a635p167y1i5","geo_precision":"range","state":"IL"},"type":"Feature","geometry":{"type":"Point","coordinates":[-88.366263,41.761052]}},{"properties":{"city":"Mundelein","zip":"60060","geo_score":1.0,"street address":"151 N Lake St","store":"McDonalds","id":"a635p1cnygtd","geo_precision":"range","state":"IL"},"type":"Feature","geometry":{"type":"Point","coordinates":[-88.004006,42.26488]}},{"properties":{"city":"Carpentersville","zip":"60110","geo_score":0.707,"street address":"1660 S Kennedy Dr","store":"McDonalds","id":"a635p1a2vvjt","geo_precision":"street","state":"IL"},"type":"Feature","geometry":{"type":"Point","coordinates":[-88.257894,42.118393]}},{"properties":{"city":"South Elgin","zip":"60177","geo_score":0.679,"street address":"100 N McLean Blvd","store":"McDonalds","id":"a635p1j9os8k","geo_precision":"street","state":"IL"},"type":"Feature","geometry":{"type":"Point","coordinates":[-88.305977,41.971898]}},{"properties":{"city":"Lake Bluff","zip":"60044","geo_score":1.0,"street address":"28929 N Waukegan Rd","store":"McDonalds","id":"a635p1gaavql","geo_precision":"range","state":"IL"},"type":"Feature","geometry":{"type":"Point","coordinates":[-87.884438,42.287932]}},{"properties":{"city":"Elgin","zip":"60120","geo_score":1.0,"street address":"401 Summit St","store":"McDonalds","id":"a635p19iii4m","geo_precision":"range","state":"IL"},"type":"Feature","geometry":{"type":"Point","coordinates":[-88.275802,42.046284]}},{"properties":{"city":"Geneva","zip":"60134","geo_score":1.0,"street address":"1812 S Randall Rd","store":"McDonalds","id":"a635p17qrre1","geo_precision":"range","state":"IL"},"type":"Feature","geometry":{"type":"Point","coordinates":[-88.340369,41.869461]}},{"properties":{"city":"Barrington","zip":"60010","geo_score":0.842,"street address":"227 W Northwest Hwy","store":"McDonalds","id":"a635p1fyffp5","geo_precision":"range","state":"IL"},"type":"Feature","geometry":{"type":"Point","coordinates":[-88.139085,42.161488]}},{"properties":{"city":"Mundelein","zip":"60060","geo_score":1.0,"street address":"450 Townline Rd","store":"McDonalds","id":"a635p1fh416g","geo_precision":"range","state":"IL"},"type":"Feature","geometry":{"type":"Point","coordinates":[-87.967436,42.240448]}},{"properties":{"city":"Saint Charles","zip":"60174","geo_score":0.766,"street address":"40W225 Route 64","store":"McDonalds","id":"a635p18r0jb6","geo_precision":"street","state":"IL"},"type":"Feature","geometry":{"type":"Point","coordinates":[-88.314286,41.91356]}},{"properties":{"city":"Aurora","zip":"60506","geo_score":1.0,"street address":"1023 N Lake St","store":"McDonalds","id":"a635p18dc9fp","geo_precision":"range","state":"IL"},"type":"Feature","geometry":{"type":"Point","coordinates":[-88.315846,41.779022]}},{"properties":{"city":"Joliet","zip":"60436","geo_score":1.0,"street address":"305 S Larkin Ave","store":"McDonalds","id":"a635p1jtcjz8","geo_precision":"range","state":"IL"},"type":"Feature","geometry":{"type":"Point","coordinates":[-88.124505,41.517082]}},{"properties":{"city":"Batavia","zip":"60510","geo_score":1.0,"street address":"125 W Wilson St","store":"McDonalds","id":"a635p1al6w34","geo_precision":"range","state":"IL"},"type":"Feature","geometry":{"type":"Point","coordinates":[-88.309692,41.849964]}},{"properties":{"city":"Joliet","zip":"60435","geo_score":1.0,"street address":"2212 Essington Rd","store":"McDonalds","id":"a635p1ghnd5v","geo_precision":"range","state":"IL"},"type":"Feature","geometry":{"type":"Point","coordinates":[-88.161569,41.562267]}},{"properties":{"city":"Geneva","zip":"60134","geo_score":1.0,"street address":"1190 E State St","store":"McDonalds","id":"a635p18cjsdg","geo_precision":"range","state":"IL"},"type":"Feature","geometry":{"type":"Point","coordinates":[-88.282379,41.887205]}},{"properties":{"city":"Joliet","zip":"60435","geo_score":0.805,"street address":"2885 Plainfield Rd","store":"McDonalds","id":"a635p1hny8ep","geo_precision":"street","state":"IL"},"type":"Feature","geometry":{"type":"Point","coordinates":[-88.12136,41.551729]}},{"properties":{"city":"Saint Charles","zip":"60174","geo_score":1.0,"street address":"3800 E Main St","store":"McDonalds","id":"a635p16a176v","geo_precision":"range","state":"IL"},"type":"Feature","geometry":{"type":"Point","coordinates":[-88.26786,41.921203]}},{"properties":{"city":"Monee","zip":"60449","geo_score":1.0,"street address":"6002 W Monee Manhattan Rd","store":"McDonalds","id":"a635p1fxnc46","geo_precision":"range","state":"IL"},"type":"Feature","geometry":{"type":"Point","coordinates":[-87.756191,41.426957]}},{"properties":{"city":"Saint Charles","zip":"60174","geo_score":1.0,"street address":"3900 E Main St","store":"McDonalds","id":"a635p166w8kf","geo_precision":"range","state":"IL"},"type":"Feature","geometry":{"type":"Point","coordinates":[-88.263464,41.92128]}},{"properties":{"city":"Joliet","zip":"60432","geo_score":1.0,"street address":"508 E Cass St","store":"McDonalds","id":"a635p1k15dsq","geo_precision":"range","state":"IL"},"type":"Feature","geometry":{"type":"Point","coordinates":[-88.070118,41.527933]}},{"properties":{"city":"Aurora","zip":"60504","geo_score":0.902,"street address":"425 N Eola Rd","store":"McDonalds","id":"a635p1j9r7x9","geo_precision":"range","state":"IL"},"type":"Feature","geometry":{"type":"Point","coordinates":[-88.243057,41.759515]}},{"properties":{"city":"Plainfield","zip":"60544","geo_score":1.0,"street address":"15810 S Route 59","store":"McDonalds","id":"a635p1drunkq","geo_precision":"range","state":"IL"},"type":"Feature","geometry":{"type":"Point","coordinates":[-88.201573,41.594006]}},{"properties":{"city":"Joliet","zip":"60435","geo_score":1.0,"street address":"1555 N Broadway St","store":"McDonalds","id":"a635p1fxd8xq","geo_precision":"range","state":"IL"},"type":"Feature","geometry":{"type":"Point","coordinates":[-88.087916,41.552045]}},{"properties":{"city":"Buffalo Grove","zip":"60089","geo_score":0.938,"street address":"1200 N Arlington Heights Rd","store":"McDonalds","id":"a635p15f38t3","geo_precision":"range","state":"IL"},"type":"Feature","geometry":{"type":"Point","coordinates":[-87.984806,42.174017]}},{"properties":{"city":"Highwood","zip":"60040","geo_score":0.725,"street address":"894 Sheridan Rd","store":"McDonalds","id":"a635p1adkln0","geo_precision":"street","state":"IL"},"type":"Feature","geometry":{"type":"Point","coordinates":[-87.815514,42.206089]}},{"properties":{"city":"Streamwood","zip":"60107","geo_score":1.0,"street address":"91 W Irving Park Rd","store":"McDonalds","id":"a635p18ldd4x","geo_precision":"range","state":"IL"},"type":"Feature","geometry":{"type":"Point","coordinates":[-88.187715,42.01475]}},{"properties":{"city":"Crete","zip":"60417","geo_score":1.0,"street address":"1350 E Steger Rd","store":"McDonalds","id":"a635p1agm4rr","geo_precision":"range","state":"IL"},"type":"Feature","geometry":{"type":"Point","coordinates":[-87.579082,41.469985]}},{"properties":{"city":"Bartlett","zip":"60103","geo_score":0.598,"street address":"791 S Il Route 59","store":"McDonalds","id":"a635p1732xqb","geo_precision":"street","state":"IL"},"type":"Feature","geometry":{"type":"Point","coordinates":[-88.205748,41.996643]}},{"properties":{"city":"West Chicago","zip":"60185","geo_score":0.624,"street address":"89 W North Ave","store":"McDonalds","id":"a635p1jb109z","geo_precision":"street","state":"IL"},"type":"Feature","geometry":{"type":"Point","coordinates":[-88.174821,41.920603]}},{"properties":{"city":"Hoffman Estates","zip":"60195","geo_score":0.902,"street address":"2250 W Higgins Rd","store":"McDonalds","id":"a635p1id1jhg","geo_precision":"street","state":"IL"},"type":"Feature","geometry":{"type":"Point","coordinates":[-88.135264,42.056415]}},{"properties":{"city":"Palatine","zip":"60074","geo_score":1.0,"street address":"1576 N Rand Rd","store":"McDonalds","id":"a635p1ikb3uf","geo_precision":"range","state":"IL"},"type":"Feature","geometry":{"type":"Point","coordinates":[-88.021257,42.138813]}},{"properties":{"city":"Aurora","zip":"60504","geo_score":0.966,"street address":"4440 Fox Valley Center Dr","store":"McDonalds","id":"a635p1eod0gc","geo_precision":"range","state":"IL"},"type":"Feature","geometry":{"type":"Point","coordinates":[-88.207583,41.759366]}},{"properties":{"city":"Palatine","zip":"60067","geo_score":0.842,"street address":"275 W Northwest Hwy","store":"McDonalds","id":"a635p160uiey","geo_precision":"range","state":"IL"},"type":"Feature","geometry":{"type":"Point","coordinates":[-88.050007,42.122908]}},{"properties":{"city":"Sauk Village","zip":"60411","geo_score":1.0,"street address":"2707 E Sauk Trl","store":"McDonalds","id":"a635p18bz58r","geo_precision":"range","state":"IL"},"type":"Feature","geometry":{"type":"Point","coordinates":[-87.557828,41.491407]}},{"properties":{"city":"New Lenox","zip":"60451","geo_score":0.902,"street address":"600 W Maple St","store":"McDonalds","id":"a635p1ivvjh7","geo_precision":"street","state":"IL"},"type":"Feature","geometry":{"type":"Point","coordinates":[-87.983708,41.518727]}},{"properties":{"city":"Deerfield","zip":"60015","geo_score":0.878,"street address":"20914 Milwaukee Ave","store":"McDonalds","id":"a635p1jfnbbp","geo_precision":"range","state":"IL"},"type":"Feature","geometry":{"type":"Point","coordinates":[-87.921901,42.168356]}},{"properties":{"city":"Schaumburg","zip":"60194","geo_score":1.0,"street address":"2545 W Schaumburg Rd","store":"McDonalds","id":"a635p1bfpca1","geo_precision":"range","state":"IL"},"type":"Feature","geometry":{"type":"Point","coordinates":[-88.153384,42.029383]}},{"properties":{"city":"Chicago Heights","zip":"60411","geo_score":1.0,"street address":"100 W Sauk Trl","store":"McDonalds","id":"a635p17ll4j0","geo_precision":"range","state":"IL"},"type":"Feature","geometry":{"type":"Point","coordinates":[-87.639069,41.480749]}},{"properties":{"city":"Highland Park","zip":"60035","geo_score":0.883,"street address":"1988 1st St","store":"McDonalds","id":"a635p17492i3","geo_precision":"range","state":"IL"},"type":"Feature","geometry":{"type":"Point","coordinates":[-87.801219,42.188629]}},{"properties":{"city":"Wheeling","zip":"60090","geo_score":0.805,"street address":"1355 E Lake Cook Rd","store":"McDonalds","id":"a635p165agvm","geo_precision":"street","state":"IL"},"type":"Feature","geometry":{"type":"Point","coordinates":[-87.958894,42.154135]}},{"properties":{"city":"Hanover Park","zip":"60133","geo_score":1.0,"street address":"7455 Barrington Rd","store":"McDonalds","id":"a635p18lh9k3","geo_precision":"range","state":"IL"},"type":"Feature","geometry":{"type":"Point","coordinates":[-88.144783,42.00699]}},{"properties":{"city":"Richton Park","zip":"60471","geo_score":1.0,"street address":"4855 Sauk Trl","store":"McDonalds","id":"a635p1kfvmxb","geo_precision":"range","state":"IL"},"type":"Feature","geometry":{"type":"Point","coordinates":[-87.73336,41.484309]}},{"properties":{"city":"Warrenville","zip":"60555","geo_score":0.857,"street address":"2S602 State Route 59","store":"McDonalds","id":"a635p1alqd2m","geo_precision":"street","state":"IL"},"type":"Feature","geometry":{"type":"Point","coordinates":[-88.20267,41.842617]}},{"properties":{"city":"Arlington Heights","zip":"60004","geo_score":1.0,"street address":"15 E Dundee Rd","store":"McDonalds","id":"a635p15dv22c","geo_precision":"range","state":"IL"},"type":"Feature","geometry":{"type":"Point","coordinates":[-87.983015,42.139108]}},{"properties":{"city":"West Chicago","zip":"60185","geo_score":0.74,"street address":"305 S Neltnor Blvd","store":"McDonalds","id":"a635p1abigvr","geo_precision":"street","state":"IL"},"type":"Feature","geometry":{"type":"Point","coordinates":[-88.199391,41.883677]}},{"properties":{"city":"Wheeling","zip":"60090","geo_score":1.0,"street address":"188 E Dundee Rd","store":"McDonalds","id":"a635p1cpyagd","geo_precision":"range","state":"IL"},"type":"Feature","geometry":{"type":"Point","coordinates":[-87.911644,42.139632]}},{"properties":{"city":"Warrenville","zip":"60555","geo_score":0.707,"street address":"4320 Ferry Rd","store":"McDonalds","id":"a635p1id1xb9","geo_precision":"street","state":"IL"},"type":"Feature","geometry":{"type":"Point","coordinates":[-88.187953,41.806831]}},{"properties":{"city":"Schaumburg","zip":"60195","geo_score":1.0,"street address":"522 W Golf Rd","store":"McDonalds","id":"a635p19h8j12","geo_precision":"range","state":"IL"},"type":"Feature","geometry":{"type":"Point","coordinates":[-88.09104,42.048927]}},{"properties":{"city":"Schaumburg","zip":"60173","geo_score":1.0,"street address":"775 E Algonquin Rd","store":"McDonalds","id":"a635p185rt78","geo_precision":"range","state":"IL"},"type":"Feature","geometry":{"type":"Point","coordinates":[-88.05989,42.073434]}},{"properties":{"city":"Naperville","zip":"60563","geo_score":0.927,"street address":"514 N River Rd","store":"McDonalds","id":"a635p1betio4","geo_precision":"range","state":"IL"},"type":"Feature","geometry":{"type":"Point","coordinates":[-88.179562,41.78084]}},{"properties":{"city":"Arlington Heights","zip":"60004","geo_score":0.585,"street address":"1920 N Arlington Heights Rd","store":"McDonalds","id":"a635p1hawger","geo_precision":"street","state":"IL"},"type":"Feature","geometry":{"type":"Point","coordinates":[-87.985048,42.151484]}},{"properties":{"city":"Naperville","zip":"60565","geo_score":0.854,"street address":"892 W 75th St","store":"McDonalds","id":"a635p19z814d","geo_precision":"range","state":"IL"},"type":"Feature","geometry":{"type":"Point","coordinates":[-88.164345,41.747673]}},{"properties":{"city":"Frankfort","zip":"60423","geo_score":1.0,"street address":"7215 W Lincoln Hwy","store":"McDonalds","id":"a635p14zx9lw","geo_precision":"range","state":"IL"},"type":"Feature","geometry":{"type":"Point","coordinates":[-87.794667,41.506257]}},{"properties":{"city":"Northbrook","zip":"60062","geo_score":1.0,"street address":"4193 Dundee Rd","store":"McDonalds","id":"a635p1685t9p","geo_precision":"range","state":"IL"},"type":"Feature","geometry":{"type":"Point","coordinates":[-87.882104,42.138467]}},{"properties":{"city":"Palatine","zip":"60074","geo_score":0.842,"street address":"1570 E Northwest Hwy","store":"McDonalds","id":"a635p16ho3vr","geo_precision":"range","state":"IL"},"type":"Feature","geometry":{"type":"Point","coordinates":[-88.006297,42.094417]}},{"properties":{"city":"Carol Stream","zip":"60188","geo_score":1.0,"street address":"1335 N County Farm Rd","store":"McDonalds","id":"a635p15cxifo","geo_precision":"range","state":"IL"},"type":"Feature","geometry":{"type":"Point","coordinates":[-88.150427,41.94063]}},{"properties":{"city":"Matteson","zip":"60443","geo_score":1.0,"street address":"4010 Lincoln Hwy","store":"McDonalds","id":"a635p1jiesp0","geo_precision":"range","state":"IL"},"type":"Feature","geometry":{"type":"Point","coordinates":[-87.713288,41.506104]}},{"properties":{"city":"Deerfield","zip":"60015","geo_score":1.0,"street address":"50 Waukegan Rd","store":"McDonalds","id":"a635p1jt0622","geo_precision":"range","state":"IL"},"type":"Feature","geometry":{"type":"Point","coordinates":[-87.834548,42.15128]}},{"properties":{"city":"Warrenville","zip":"60555","geo_score":0.963,"street address":"28231 Diehl Rd","store":"McDonalds","id":"a635p1k0r7ni","geo_precision":"range","state":"IL"},"type":"Feature","geometry":{"type":"Point","coordinates":[-88.163612,41.801303]}},{"properties":{"city":"Hanover Park","zip":"60133","geo_score":0.958,"street address":"1050 E Lake St","store":"McDonalds","id":"a635p1jyje0r","geo_precision":"range","state":"IL"},"type":"Feature","geometry":{"type":"Point","coordinates":[-88.129658,41.976826]}},{"properties":{"city":"Frankfort","zip":"60423","geo_score":0.477,"street address":"455 N la Grange Rd","store":"McDonalds","id":"a635p17gpo4n","geo_precision":"street","state":"IL"},"type":"Feature","geometry":{"type":"Point","coordinates":[-87.907018,41.575561]}},{"properties":{"city":"Rolling Meadows","zip":"60008","geo_score":1.0,"street address":"3140 Kirchoff Rd","store":"McDonalds","id":"a635p1k122p2","geo_precision":"range","state":"IL"},"type":"Feature","geometry":{"type":"Point","coordinates":[-88.019552,42.078211]}},{"properties":{"city":"Northbrook","zip":"60062","geo_score":0.737,"street address":"2261 Northbrook Ct","store":"McDonalds","id":"a635p18hckb0","geo_precision":"street","state":"IL"},"type":"Feature","geometry":{"type":"Point","coordinates":[-87.797345,42.135875]}},{"properties":{"city":"Schaumburg","zip":"60173","geo_score":0.806,"street address":"720 E Higgins Rd","store":"McDonalds","id":"a635p1bqkzp8","geo_precision":"street","state":"IL"},"type":"Feature","geometry":{"type":"Point","coordinates":[-88.054166,42.040272]}},{"properties":{"city":"Olympia Fields","zip":"60461","geo_score":1.0,"street address":"2400 Lincoln Hwy","store":"McDonalds","id":"a635p1a6olqy","geo_precision":"range","state":"IL"},"type":"Feature","geometry":{"type":"Point","coordinates":[-87.674341,41.506097]}},{"properties":{"city":"Schaumburg","zip":"60193","geo_score":1.0,"street address":"550 S Roselle Rd","store":"McDonalds","id":"a635p154arve","geo_precision":"range","state":"IL"},"type":"Feature","geometry":{"type":"Point","coordinates":[-88.07999,42.017725]}},{"properties":{"city":"Bloomingdale","zip":"60108","geo_score":1.0,"street address":"72 Stratford Dr","store":"McDonalds","id":"a635p1e87jjl","geo_precision":"range","state":"IL"},"type":"Feature","geometry":{"type":"Point","coordinates":[-88.116802,41.951481]}},{"properties":{"city":"Bloomingdale","zip":"60108","geo_score":1.0,"street address":"101 E Lake St","store":"McDonalds","id":"a635p1b8ey9x","geo_precision":"range","state":"IL"},"type":"Feature","geometry":{"type":"Point","coordinates":[-88.081116,41.957716]}},{"properties":{"city":"Wheaton","zip":"60187","geo_score":1.0,"street address":"2175 W Roosevelt Rd","store":"McDonalds","id":"a635p1e8cv6q","geo_precision":"range","state":"IL"},"type":"Feature","geometry":{"type":"Point","coordinates":[-88.142705,41.857632]}},{"properties":{"city":"Rolling Meadows","zip":"60008","geo_score":1.0,"street address":"1775 Algonquin Rd","store":"McDonalds","id":"a635p1gxhx2m","geo_precision":"range","state":"IL"},"type":"Feature","geometry":{"type":"Point","coordinates":[-88.00063,42.056099]}},{"properties":{"city":"Prospect Heights","zip":"60070","geo_score":0.752,"street address":"1200 S Milwaukee Ave","store":"McDonalds","id":"a635p14cps61","geo_precision":"street","state":"IL"},"type":"Feature","geometry":{"type":"Point","coordinates":[-87.944578,42.099337]}},{"properties":{"city":"Lansing","zip":"60438","geo_score":1.0,"street address":"17810 Torrence Ave","store":"McDonalds","id":"a635p1j52946","geo_precision":"range","state":"IL"},"type":"Feature","geometry":{"type":"Point","coordinates":[-87.558833,41.571766]}},{"properties":{"city":"Mount Prospect","zip":"60056","geo_score":1.0,"street address":"999 N Elmhurst Rd","store":"McDonalds","id":"a635p19tlc6b","geo_precision":"range","state":"IL"},"type":"Feature","geometry":{"type":"Point","coordinates":[-87.936792,42.082893]}},{"properties":{"city":"Roselle","zip":"60172","geo_score":0.967,"street address":"440 E Maple Ave","store":"McDonalds","id":"a635p1ew7tjo","geo_precision":"range","state":"IL"},"type":"Feature","geometry":{"type":"Point","coordinates":[-88.090263,41.980913]}},{"properties":{"city":"Mount Prospect","zip":"60056","geo_score":1.0,"street address":"100 W Rand Rd","store":"McDonalds","id":"a635p14p8qkg","geo_precision":"range","state":"IL"},"type":"Feature","geometry":{"type":"Point","coordinates":[-87.936889,42.081384]}},{"properties":{"city":"Naperville","zip":"60563","geo_score":1.0,"street address":"1520 N Naper Blvd","store":"McDonalds","id":"a635p1ec6hjn","geo_precision":"range","state":"IL"},"type":"Feature","geometry":{"type":"Point","coordinates":[-88.119183,41.796764]}},{"properties":{"city":"Elk Grove Village","zip":"60007","geo_score":1.0,"street address":"633 Meacham Rd","store":"McDonalds","id":"a635p14lxurw","geo_precision":"range","state":"IL"},"type":"Feature","geometry":{"type":"Point","coordinates":[-88.045857,42.007691]}},{"properties":{"city":"Arlington Heights","zip":"60005","geo_score":1.0,"street address":"45 E Golf Rd","store":"McDonalds","id":"a635p1dhu3na","geo_precision":"range","state":"IL"},"type":"Feature","geometry":{"type":"Point","coordinates":[-87.98144,42.051438]}},{"properties":{"city":"Glenview","zip":"60026","geo_score":0.936,"street address":"2741 Pfingsten Rd","store":"McDonalds","id":"a635p175dt4e","geo_precision":"range","state":"IL"},"type":"Feature","geometry":{"type":"Point","coordinates":[-87.849049,42.103902]}},{"properties":{"city":"Carol Stream","zip":"60188","geo_score":1.0,"street address":"355 S Schmale Rd","store":"McDonalds","id":"a635p1h9w0r2","geo_precision":"range","state":"IL"},"type":"Feature","geometry":{"type":"Point","coordinates":[-88.103274,41.8939]}},{"properties":{"city":"Homewood","zip":"60430","geo_score":1.0,"street address":"3132 183rd St","store":"McDonalds","id":"a635p1erbl4p","geo_precision":"range","state":"IL"},"type":"Feature","geometry":{"type":"Point","coordinates":[-87.692559,41.557173]}},{"properties":{"city":"Wheaton","zip":"60187","geo_score":1.0,"street address":"2030 S Naperville Rd","store":"McDonalds","id":"a635p143rk99","geo_precision":"range","state":"IL"},"type":"Feature","geometry":{"type":"Point","coordinates":[-88.103935,41.830645]}},{"properties":{"city":"Calumet City","zip":"60409","geo_score":0.947,"street address":"656 River Oaks Dr","store":"McDonalds","id":"a635p1k3b0jr","geo_precision":"range","state":"IL"},"type":"Feature","geometry":{"type":"Point","coordinates":[-87.541092,41.599982]}},{"properties":{"city":"Glendale Heights","zip":"60139","geo_score":0.707,"street address":"292 E Army Trail Rd","store":"McDonalds","id":"a635p16lmipl","geo_precision":"range","state":"IL"},"type":"Feature","geometry":{"type":"Point","coordinates":[-88.076031,41.936595]}},{"properties":{"city":"Des Plaines","zip":"60016","geo_score":1.0,"street address":"725 W Golf Rd","store":"McDonalds","id":"a635p1jltwlg","geo_precision":"range","state":"IL"},"type":"Feature","geometry":{"type":"Point","coordinates":[-87.937965,42.047651]}},{"properties":{"city":"Glendale Heights","zip":"60139","geo_score":0.424,"street address":"215 North Ave","store":"McDonalds","id":"a635p14zy5bz","geo_precision":"street","state":"IL"},"type":"Feature","geometry":{"type":"Point","coordinates":[-88.080878,41.873892]}},{"properties":{"city":"Lemont","zip":"60439","geo_score":1.0,"street address":"1152 State St","store":"McDonalds","id":"a635p1ifvwcs","geo_precision":"range","state":"IL"},"type":"Feature","geometry":{"type":"Point","coordinates":[-87.999873,41.658425]}},{"properties":{"city":"Elk Grove Village","zip":"60007","geo_score":1.0,"street address":"10 Biesterfield Rd","store":"McDonalds","id":"a635p1jz4rle","geo_precision":"range","state":"IL"},"type":"Feature","geometry":{"type":"Point","coordinates":[-88.004042,42.003637]}},{"properties":{"city":"Orland Park","zip":"60467","geo_score":1.0,"street address":"11241 W 159th St","store":"McDonalds","id":"a635p1eu4dbe","geo_precision":"range","state":"IL"},"type":"Feature","geometry":{"type":"Point","coordinates":[-87.892443,41.600652]}},{"properties":{"city":"Tinley Park","zip":"60477","geo_score":1.0,"street address":"17171 Harlem Ave","store":"McDonalds","id":"a635p1iltzdb","geo_precision":"range","state":"IL"},"type":"Feature","geometry":{"type":"Point","coordinates":[-87.793422,41.579196]}},{"properties":{"city":"Lisle","zip":"60532","geo_score":1.0,"street address":"1019 Maple Ave","store":"McDonalds","id":"a635p1bsypln","geo_precision":"range","state":"IL"},"type":"Feature","geometry":{"type":"Point","coordinates":[-88.071426,41.786716]}},{"properties":{"city":"South Holland","zip":"60473","geo_score":0.688,"street address":"801 E 162nd St","store":"McDonalds","id":"a635p1jz3e4t","geo_precision":"street","state":"IL"},"type":"Feature","geometry":{"type":"Point","coordinates":[-87.609771,41.593607]}},{"properties":{"city":"Glen Ellyn","zip":"60137","geo_score":0.976,"street address":"445 Roosevelt Rd","store":"McDonalds","id":"a635p17ehuc8","geo_precision":"range","state":"IL"},"type":"Feature","geometry":{"type":"Point","coordinates":[-88.070394,41.859359]}},{"properties":{"city":"Elk Grove Village","zip":"60007","geo_score":1.0,"street address":"1912 E Higgins Rd","store":"McDonalds","id":"a635p1hg9lnb","geo_precision":"range","state":"IL"},"type":"Feature","geometry":{"type":"Point","coordinates":[-87.955432,42.019807]}},{"properties":{"city":"Orland Park","zip":"60462","geo_score":0.902,"street address":"9110 W 159th St","store":"McDonalds","id":"a635p1jd8ir7","geo_precision":"range","state":"IL"},"type":"Feature","geometry":{"type":"Point","coordinates":[-87.843887,41.601515]}},{"properties":{"city":"Woodridge","zip":"60517","geo_score":0.875,"street address":"2310 75th St","store":"McDonalds","id":"a635p1gz16uk","geo_precision":"range","state":"IL"},"type":"Feature","geometry":{"type":"Point","coordinates":[-88.037466,41.750541]}},{"properties":{"city":"Elk Grove Village","zip":"60007","geo_score":1.0,"street address":"1450 Busse Rd","store":"McDonalds","id":"a635p1am4ui5","geo_precision":"range","state":"IL"},"type":"Feature","geometry":{"type":"Point","coordinates":[-87.959523,42.005888]}},{"properties":{"city":"Des Plaines","zip":"60016","geo_score":0.927,"street address":"444 S River Rd","store":"McDonalds","id":"a635p1ake703","geo_precision":"range","state":"IL"},"type":"Feature","geometry":{"type":"Point","coordinates":[-87.885026,42.045208]}},{"properties":{"city":"Des Plaines","zip":"60016","geo_score":1.0,"street address":"9815 Milwaukee Ave","store":"McDonalds","id":"a635p1e31moa","geo_precision":"range","state":"IL"},"type":"Feature","geometry":{"type":"Point","coordinates":[-87.84194,42.058874]}},{"properties":{"city":"Itasca","zip":"60143","geo_score":0.902,"street address":"1301 E Irving Park Rd","store":"McDonalds","id":"a635p1hswu28","geo_precision":"street","state":"IL"},"type":"Feature","geometry":{"type":"Point","coordinates":[-87.998347,41.966573]}},{"properties":{"city":"Calumet City","zip":"60409","geo_score":1.0,"street address":"2004 Sibley Blvd","store":"McDonalds","id":"a635p1j7beee","geo_precision":"range","state":"IL"},"type":"Feature","geometry":{"type":"Point","coordinates":[-87.573654,41.622727]}},{"properties":{"city":"Glenview","zip":"60025","geo_score":1.0,"street address":"530 Waukegan Rd","store":"McDonalds","id":"a635p15h890w","geo_precision":"range","state":"IL"},"type":"Feature","geometry":{"type":"Point","coordinates":[-87.799729,42.063909]}},{"properties":{"city":"Markham","zip":"60428","geo_score":0.708,"street address":"3010 W 159th St","store":"McDonalds","id":"a635p17d2gzi","geo_precision":"street","state":"IL"},"type":"Feature","geometry":{"type":"Point","coordinates":[-87.681947,41.600834]}},{"properties":{"city":"Lombard","zip":"60148","geo_score":0.817,"street address":"540 W North Ave","store":"McDonalds","id":"a635p1cb9yk8","geo_precision":"range","state":"IL"},"type":"Feature","geometry":{"type":"Point","coordinates":[-88.031034,41.904398]}},{"properties":{"city":"Oak Forest","zip":"60452","geo_score":1.0,"street address":"5441 159th St","store":"McDonalds","id":"a635p1btn1ki","geo_precision":"range","state":"IL"},"type":"Feature","geometry":{"type":"Point","coordinates":[-87.752922,41.602969]}},{"properties":{"city":"Des Plaines","zip":"60018","geo_score":1.0,"street address":"1960 S Mount Prospect Rd","store":"McDonalds","id":"a635p1a8cm3f","geo_precision":"range","state":"IL"},"type":"Feature","geometry":{"type":"Point","coordinates":[-87.920762,42.01696]}},{"properties":{"city":"Niles","zip":"60714","geo_score":0.619,"street address":"298 Golf Mill Ctr","store":"McDonalds","id":"a635p18px45m","geo_precision":"street","state":"IL"},"type":"Feature","geometry":{"type":"Point","coordinates":[-87.828467,42.054808]}},{"properties":{"city":"Orland Park","zip":"60462","geo_score":0.477,"street address":"14445 S La Grange Rd","store":"McDonalds","id":"a635p1b52qke","geo_precision":"street","state":"IL"},"type":"Feature","geometry":{"type":"Point","coordinates":[-87.907018,41.575561]}},{"properties":{"city":"Dolton","zip":"60419","geo_score":1.0,"street address":"226 W Sibley Blvd","store":"McDonalds","id":"a635p1gm25ni","geo_precision":"range","state":"IL"},"type":"Feature","geometry":{"type":"Point","coordinates":[-87.622752,41.622642]}},{"properties":{"city":"Addison","zip":"60101","geo_score":1.0,"street address":"501 W Lake St","store":"McDonalds","id":"a635p1jco7xy","geo_precision":"range","state":"IL"},"type":"Feature","geometry":{"type":"Point","coordinates":[-88.002526,41.938267]}},{"properties":{"city":"Des Plaines","zip":"60018","geo_score":1.0,"street address":"1101 E Oakton St","store":"McDonalds","id":"a635p18ro0y0","geo_precision":"range","state":"IL"},"type":"Feature","geometry":{"type":"Point","coordinates":[-87.895825,42.023876]}},{"properties":{"city":"Skokie","zip":"60077","geo_score":0.963,"street address":"275 Old Orchard Shopping Ctr","store":"McDonalds","id":"a635p1jps9it","geo_precision":"range","state":"IL"},"type":"Feature","geometry":{"type":"Point","coordinates":[-87.748134,42.061527]}},{"properties":{"city":"Niles","zip":"60714","geo_score":1.0,"street address":"8460 W Dempster St","store":"McDonalds","id":"a635p1i34vz5","geo_precision":"range","state":"IL"},"type":"Feature","geometry":{"type":"Point","coordinates":[-87.837068,42.04007]}},{"properties":{"city":"Bensenville","zip":"60106","geo_score":0.854,"street address":"630 Il Route 83","store":"McDonalds","id":"a635p1j5qhgf","geo_precision":"range","state":"IL"},"type":"Feature","geometry":{"type":"Point","coordinates":[-87.959217,41.973071]}},{"properties":{"city":"Downers Grove","zip":"60515","geo_score":1.0,"street address":"1620 Ogden Ave","store":"McDonalds","id":"a635p1a126hl","geo_precision":"range","state":"IL"},"type":"Feature","geometry":{"type":"Point","coordinates":[-88.02472,41.808218]}},{"properties":{"city":"Bensenville","zip":"60106","geo_score":0.854,"street address":"550 Il Route 83","store":"McDonalds","id":"a635p1jw2aah","geo_precision":"range","state":"IL"},"type":"Feature","geometry":{"type":"Point","coordinates":[-87.959205,41.971815]}},{"properties":{"city":"Harvey","zip":"60426","geo_score":1.0,"street address":"14702 Dixie Hwy","store":"McDonalds","id":"a635p1g5dlly","geo_precision":"range","state":"IL"},"type":"Feature","geometry":{"type":"Point","coordinates":[-87.674674,41.622628]}},{"properties":{"city":"Park Ridge","zip":"60068","geo_score":0.842,"street address":"1032 N Northwest Hwy","store":"McDonalds","id":"a635p1d301ty","geo_precision":"range","state":"IL"},"type":"Feature","geometry":{"type":"Point","coordinates":[-87.85274,42.025936]}},{"properties":{"city":"Morton Grove","zip":"60053","geo_score":1.0,"street address":"6309 Dempster St","store":"McDonalds","id":"a635p1gdl8xi","geo_precision":"range","state":"IL"},"type":"Feature","geometry":{"type":"Point","coordinates":[-87.784384,42.0409]}},{"properties":{"city":"Evanston","zip":"60201","geo_score":1.0,"street address":"1919 Dempster St","store":"McDonalds","id":"a635p1ix5h3u","geo_precision":"range","state":"IL"},"type":"Feature","geometry":{"type":"Point","coordinates":[-87.699401,42.041116]}},{"properties":{"city":"Lombard","zip":"60148","geo_score":0.709,"street address":"300 E Roosevelt Rd","store":"McDonalds","id":"a635p1di951q","geo_precision":"street","state":"IL"},"type":"Feature","geometry":{"type":"Point","coordinates":[-88.037131,41.859623]}},{"properties":{"city":"Skokie","zip":"60077","geo_score":1.0,"street address":"4830 Dempster St","store":"McDonalds","id":"a635p1d00rsg","geo_precision":"range","state":"IL"},"type":"Feature","geometry":{"type":"Point","coordinates":[-87.748243,42.040762]}},{"properties":{"city":"Lombard","zip":"60148","geo_score":0.456,"street address":"269 Yorktown Shopping Ctr","store":"McDonalds","id":"a635p1fd6c8f","geo_precision":"street","state":"IL"},"type":"Feature","geometry":{"type":"Point","coordinates":[-88.309225,42.164024]}},{"properties":{"city":"Chicago","zip":"60617","geo_score":1.0,"street address":"4047 E 106th St","store":"McDonalds","id":"a635p1cvqe2j","geo_precision":"range","state":"IL"},"type":"Feature","geometry":{"type":"Point","coordinates":[-87.525452,41.702684]}},{"properties":{"city":"Niles","zip":"60714","geo_score":1.0,"street address":"7939 N Milwaukee Ave","store":"McDonalds","id":"a635p1a9b1s2","geo_precision":"range","state":"IL"},"type":"Feature","geometry":{"type":"Point","coordinates":[-87.813004,42.025024]}},{"properties":{"city":"Des Plaines","zip":"60018","geo_score":1.0,"street address":"3067 Mannheim Rd","store":"McDonalds","id":"a635p1h2hqlo","geo_precision":"range","state":"IL"},"type":"Feature","geometry":{"type":"Point","coordinates":[-87.884542,41.998462]}},{"properties":{"city":"Bensenville","zip":"60106","geo_score":1.0,"street address":"55 N York Rd","store":"McDonalds","id":"a635p18x5pz6","geo_precision":"range","state":"IL"},"type":"Feature","geometry":{"type":"Point","coordinates":[-87.9396,41.957775]}},{"properties":{"city":"Downers Grove","zip":"60515","geo_score":1.0,"street address":"225 Ogden Ave","store":"McDonalds","id":"a635p18u67q2","geo_precision":"range","state":"IL"},"type":"Feature","geometry":{"type":"Point","coordinates":[-87.990987,41.809651]}},{"properties":{"city":"Crestwood","zip":"60445","geo_score":1.0,"street address":"13730 Cicero Ave","store":"McDonalds","id":"a635p158kbfb","geo_precision":"range","state":"IL"},"type":"Feature","geometry":{"type":"Point","coordinates":[-87.737927,41.643072]}},{"properties":{"city":"Evanston","zip":"60202","geo_score":1.0,"street address":"1117 Howard St","store":"McDonalds","id":"a635p1gf5bqk","geo_precision":"range","state":"IL"},"type":"Feature","geometry":{"type":"Point","coordinates":[-87.687541,42.019514]}},{"properties":{"city":"Westmont","zip":"60559","geo_score":0.916,"street address":"31 E 63rd St","store":"McDonalds","id":"a635p1abzp31","geo_precision":"range","state":"IL"},"type":"Feature","geometry":{"type":"Point","coordinates":[-87.973982,41.773674]}},{"properties":{"city":"Rosemont","zip":"60018","geo_score":0.927,"street address":"6200 N River Rd","store":"McDonalds","id":"a635p17scvnb","geo_precision":"range","state":"IL"},"type":"Feature","geometry":{"type":"Point","coordinates":[-87.860163,41.991897]}},{"properties":{"city":"Palos Heights","zip":"60463","geo_score":0.677,"street address":"7100 W 127th St","store":"McDonalds","id":"a635p181ch8k","geo_precision":"street","state":"IL"},"type":"Feature","geometry":{"type":"Point","coordinates":[-87.798065,41.659547]}},{"properties":{"city":"Skokie","zip":"60077","geo_score":1.0,"street address":"5360 Touhy Ave","store":"McDonalds","id":"a635p17nhft2","geo_precision":"range","state":"IL"},"type":"Feature","geometry":{"type":"Point","coordinates":[-87.761731,42.011878]}},{"properties":{"city":"Chicago","zip":"60645","geo_score":0.878,"street address":"3122 W Touhy Ave","store":"McDonalds","id":"a635p1k63i03","geo_precision":"range","state":"IL"},"type":"Feature","geometry":{"type":"Point","coordinates":[-87.707321,42.011896]}},{"properties":{"city":"Chicago","zip":"60626","geo_score":1.0,"street address":"6740 N Clark St","store":"McDonalds","id":"a635p1bouri5","geo_precision":"range","state":"IL"},"type":"Feature","geometry":{"type":"Point","coordinates":[-87.672728,42.004244]}},{"properties":{"city":"Chicago","zip":"60645","geo_score":1.0,"street address":"6900 N Western Ave","store":"McDonalds","id":"a635p144oo4m","geo_precision":"range","state":"IL"},"type":"Feature","geometry":{"type":"Point","coordinates":[-87.690113,42.006837]}},{"properties":{"city":"Chicago","zip":"60628","geo_score":1.0,"street address":"600 E 115th St","store":"McDonalds","id":"a635p1cc6975","geo_precision":"range","state":"IL"},"type":"Feature","geometry":{"type":"Point","coordinates":[-87.608266,41.68547]}},{"properties":{"city":"Oak Brook","zip":"60523","geo_score":0.916,"street address":"1120 W 22nd St","store":"McDonalds","id":"a635p1cstcx0","geo_precision":"range","state":"IL"},"type":"Feature","geometry":{"type":"Point","coordinates":[-87.945895,41.846988]}},{"properties":{"city":"Chicago","zip":"60617","geo_score":1.0,"street address":"9211 S Commercial Ave","store":"McDonalds","id":"a635p185eud7","geo_precision":"range","state":"IL"},"type":"Feature","geometry":{"type":"Point","coordinates":[-87.551211,41.728036]}},{"properties":{"city":"Chicago","zip":"60660","geo_score":1.0,"street address":"1831 W Devon Ave","store":"McDonalds","id":"a635p1erml4z","geo_precision":"range","state":"IL"},"type":"Feature","geometry":{"type":"Point","coordinates":[-87.675113,41.997991]}},{"properties":{"city":"Oak Brook","zip":"60523","geo_score":0.752,"street address":"66 Oakbrook Ctr","store":"McDonalds","id":"a635p1bphoi6","geo_precision":"street","state":"IL"},"type":"Feature","geometry":{"type":"Point","coordinates":[-87.986798,41.833124]}},{"properties":{"city":"Chicago","zip":"60646","geo_score":1.0,"street address":"6125 N Milwaukee Ave","store":"McDonalds","id":"a635p1epjcib","geo_precision":"range","state":"IL"},"type":"Feature","geometry":{"type":"Point","coordinates":[-87.783911,41.993195]}},{"properties":{"city":"Chicago","zip":"60628","geo_score":1.0,"street address":"11421 S Halsted St","store":"McDonalds","id":"a635p1fnaw93","geo_precision":"range","state":"IL"},"type":"Feature","geometry":{"type":"Point","coordinates":[-87.642196,41.686531]}},{"properties":{"city":"Chicago","zip":"60617","geo_score":0.916,"street address":"1951 E 95th St","store":"McDonalds","id":"a635p1jrz4ks","geo_precision":"range","state":"IL"},"type":"Feature","geometry":{"type":"Point","coordinates":[-87.576572,41.722453]}},{"properties":{"city":"Chicago","zip":"60617","geo_score":1.0,"street address":"8871 S Kingston Ave","store":"McDonalds","id":"a635p1a95znz","geo_precision":"range","state":"IL"},"type":"Feature","geometry":{"type":"Point","coordinates":[-87.564216,41.73393]}},{"properties":{"city":"Elmhurst","zip":"60126","geo_score":1.0,"street address":"190 E Butterfield Rd","store":"McDonalds","id":"a635p19uaa4c","geo_precision":"range","state":"IL"},"type":"Feature","geometry":{"type":"Point","coordinates":[-87.935505,41.869387]}},{"properties":{"city":"Chicago","zip":"60660","geo_score":1.0,"street address":"5614 N Clark St","store":"McDonalds","id":"a635p162cnxy","geo_precision":"range","state":"IL"},"type":"Feature","geometry":{"type":"Point","coordinates":[-87.668834,41.983909]}},{"properties":{"city":"Elmhurst","zip":"60126","geo_score":1.0,"street address":"340 E Saint Charles Rd","store":"McDonalds","id":"a635p14nrgz2","geo_precision":"range","state":"IL"},"type":"Feature","geometry":{"type":"Point","coordinates":[-87.928381,41.889955]}},{"properties":{"city":"Palos Hills","zip":"60465","geo_score":0.829,"street address":"11050 Southwest Hwy","store":"McDonalds","id":"a635p16emby8","geo_precision":"range","state":"IL"},"type":"Feature","geometry":{"type":"Point","coordinates":[-87.809526,41.690602]}},{"properties":{"city":"Chicago","zip":"60656","geo_score":1.0,"street address":"4550 N Cumberland Ave","store":"McDonalds","id":"a635p19v8q9s","geo_precision":"range","state":"IL"},"type":"Feature","geometry":{"type":"Point","coordinates":[-87.836693,41.963049]}},{"properties":{"city":"Hinsdale","zip":"60521","geo_score":0.582,"street address":"5800 Tri State Toll Rd","store":"McDonalds","id":"a635p1dzesys","geo_precision":"street","state":"IL"},"type":"Feature","geometry":{"type":"Point","coordinates":[-87.945158,41.73663]}},{"properties":{"city":"Harwood Heights","zip":"60706","geo_score":0.766,"street address":"5022 N Harlem Ave","store":"McDonalds","id":"a635p1e5xx7x","geo_precision":"range","state":"IL"},"type":"Feature","geometry":{"type":"Point","coordinates":[-87.807094,41.971542]}},{"properties":{"city":"Chicago","zip":"60649","geo_score":0.916,"street address":"2425 E 79th St","store":"McDonalds","id":"a635p1dzq8da","geo_precision":"range","state":"IL"},"type":"Feature","geometry":{"type":"Point","coordinates":[-87.565149,41.751744]}},{"properties":{"city":"Northlake","zip":"60164","geo_score":0.87,"street address":"1 E North Ave","store":"McDonalds","id":"a635p1hk4yi8","geo_precision":"range","state":"IL"},"type":"Feature","geometry":{"type":"Point","coordinates":[-87.90319,41.907205]}},{"properties":{"city":"Hinsdale","zip":"60521","geo_score":1.0,"street address":"935 N York Rd","store":"McDonalds","id":"a635p182dosc","geo_precision":"range","state":"IL"},"type":"Feature","geometry":{"type":"Point","coordinates":[-87.925822,41.816854]}},{"properties":{"city":"Berkeley","zip":"60163","geo_score":1.0,"street address":"5707 Saint Charles Rd","store":"McDonalds","id":"a635p15z3nzx","geo_precision":"range","state":"IL"},"type":"Feature","geometry":{"type":"Point","coordinates":[-87.910913,41.889496]}},{"properties":{"city":"Chicago","zip":"60619","geo_score":0.916,"street address":"1443 E 87th St","store":"McDonalds","id":"a635p1el44e5","geo_precision":"range","state":"IL"},"type":"Feature","geometry":{"type":"Point","coordinates":[-87.589264,41.736864]}},{"properties":{"city":"Chicago","zip":"60640","geo_score":1.0,"street address":"1004 W Wilson Ave","store":"McDonalds","id":"a635p1jjeu4t","geo_precision":"range","state":"IL"},"type":"Feature","geometry":{"type":"Point","coordinates":[-87.654921,41.965428]}},{"properties":{"city":"Chicago","zip":"60625","geo_score":1.0,"street address":"4844 N Lincoln Ave","store":"McDonalds","id":"a635p1hpsjos","geo_precision":"range","state":"IL"},"type":"Feature","geometry":{"type":"Point","coordinates":[-87.689238,41.969765]}},{"properties":{"city":"Chicago","zip":"60630","geo_score":1.0,"street address":"4946 N Milwaukee Ave","store":"McDonalds","id":"a635p1gjyyt9","geo_precision":"range","state":"IL"},"type":"Feature","geometry":{"type":"Point","coordinates":[-87.763373,41.970828]}},{"properties":{"city":"Hickory Hills","zip":"60457","geo_score":0.916,"street address":"8715 W 95th St","store":"McDonalds","id":"a635p17jo76x","geo_precision":"range","state":"IL"},"type":"Feature","geometry":{"type":"Point","coordinates":[-87.835631,41.718228]}},{"properties":{"city":"Norridge","zip":"60706","geo_score":0.923,"street address":"4104 N Harlem Ave","store":"McDonalds","id":"a635p15i6egy","geo_precision":"range","state":"IL"},"type":"Feature","geometry":{"type":"Point","coordinates":[-87.807288,41.953955]}},{"properties":{"city":"Chicago","zip":"60625","geo_score":1.0,"street address":"3855 W Lawrence Ave","store":"McDonalds","id":"a635p1hmcdcw","geo_precision":"range","state":"IL"},"type":"Feature","geometry":{"type":"Point","coordinates":[-87.724766,41.968275]}},{"properties":{"city":"Harwood Heights","zip":"60706","geo_score":0.732,"street address":"6400 W Montrose Ave","store":"McDonalds","id":"a635p1epejkn","geo_precision":"range","state":"IL"},"type":"Feature","geometry":{"type":"Point","coordinates":[-87.786805,41.960217]}},{"properties":{"city":"Chicago","zip":"60628","geo_score":1.0,"street address":"9560 S Halsted St","store":"McDonalds","id":"a635p1b56gb8","geo_precision":"range","state":"IL"},"type":"Feature","geometry":{"type":"Point","coordinates":[-87.643164,41.719581]}},{"properties":{"city":"Chicago","zip":"60625","geo_score":1.0,"street address":"4546 N Kedzie Ave","store":"McDonalds","id":"a635p16r3ocu","geo_precision":"range","state":"IL"},"type":"Feature","geometry":{"type":"Point","coordinates":[-87.708322,41.963804]}},{"properties":{"city":"Chicago","zip":"60655","geo_score":1.0,"street address":"10320 S Kedzie Ave","store":"McDonalds","id":"a635p1awy086","geo_precision":"range","state":"IL"},"type":"Feature","geometry":{"type":"Point","coordinates":[-87.701313,41.705811]}},{"properties":{"city":"River Grove","zip":"60171","geo_score":1.0,"street address":"8800 Grand Ave","store":"McDonalds","id":"a635p1etd8ai","geo_precision":"range","state":"IL"},"type":"Feature","geometry":{"type":"Point","coordinates":[-87.846063,41.929553]}},{"properties":{"city":"Chicago","zip":"60641","geo_score":1.0,"street address":"4318 N Cicero Ave","store":"McDonalds","id":"a635p1ftsn34","geo_precision":"range","state":"IL"},"type":"Feature","geometry":{"type":"Point","coordinates":[-87.747493,41.959445]}},{"properties":{"city":"Westchester","zip":"60154","geo_score":0.902,"street address":"11110 31st St","store":"McDonalds","id":"a635p19os2uh","geo_precision":"range","state":"IL"},"type":"Feature","geometry":{"type":"Point","coordinates":[-87.895363,41.833685]}},{"properties":{"city":"Chicago","zip":"60619","geo_score":1.0,"street address":"7800 S Cottage Grove Ave","store":"McDonalds","id":"a635p17x0y8t","geo_precision":"range","state":"IL"},"type":"Feature","geometry":{"type":"Point","coordinates":[-87.60525,41.753106]}},{"properties":{"city":"Chicago","zip":"60643","geo_score":0.723,"street address":"1651 W 95th St","store":"McDonalds","id":"a635p17fnlg4","geo_precision":"street","state":"IL"},"type":"Feature","geometry":{"type":"Point","coordinates":[-87.662683,41.721212]}},{"properties":{"city":"Chicago","zip":"60634","geo_score":1.0,"street address":"3540 N Harlem Ave","store":"McDonalds","id":"a635p1iye06c","geo_precision":"range","state":"IL"},"type":"Feature","geometry":{"type":"Point","coordinates":[-87.806967,41.944185]}},{"properties":{"city":"Chicago","zip":"60637","geo_score":1.0,"street address":"6560 S Stony Island Ave","store":"McDonalds","id":"a635p1k6r38j","geo_precision":"range","state":"IL"},"type":"Feature","geometry":{"type":"Point","coordinates":[-87.586283,41.775667]}},{"properties":{"city":"Chicago","zip":"60619","geo_score":0.875,"street address":"7900 S Dr Martin Luther King Dr","store":"McDonalds","id":"a635p145ug95","geo_precision":"range","state":"IL"},"type":"Feature","geometry":{"type":"Point","coordinates":[-87.614958,41.751114]}},{"properties":{"city":"Chicago","zip":"60618","geo_score":1.0,"street address":"3615 W Irving Park Rd","store":"McDonalds","id":"a635p19nhigg","geo_precision":"range","state":"IL"},"type":"Feature","geometry":{"type":"Point","coordinates":[-87.718301,41.953783]}},{"properties":{"city":"Evergreen Park","zip":"60805","geo_score":0.902,"street address":"9500 S Western Ave","store":"McDonalds","id":"a635p18l4a31","geo_precision":"street","state":"IL"},"type":"Feature","geometry":{"type":"Point","coordinates":[-87.682066,41.72094]}},{"properties":{"city":"Oak Lawn","zip":"60453","geo_score":0.916,"street address":"6034 W 95th St","store":"McDonalds","id":"a635p1givxdt","geo_precision":"range","state":"IL"},"type":"Feature","geometry":{"type":"Point","coordinates":[-87.771416,41.719667]}},{"properties":{"city":"Chicago","zip":"60614","geo_score":1.0,"street address":"2635 N Clark St","store":"McDonalds","id":"a635p1k9zv31","geo_precision":"range","state":"IL"},"type":"Feature","geometry":{"type":"Point","coordinates":[-87.643725,41.930498]}},{"properties":{"city":"Hillside","zip":"60162","geo_score":1.0,"street address":"4012 Roosevelt Rd","store":"McDonalds","id":"a635p1d9uxbi","geo_precision":"range","state":"IL"},"type":"Feature","geometry":{"type":"Point","coordinates":[-87.88267,41.863251]}},{"properties":{"city":"Chicago","zip":"60615","geo_score":1.0,"street address":"5220 S Lake Park Ave","store":"McDonalds","id":"a635p1hfqwrt","geo_precision":"range","state":"IL"},"type":"Feature","geometry":{"type":"Point","coordinates":[-87.587433,41.800622]}},{"properties":{"city":"Countryside","zip":"60525","geo_score":0.397,"street address":"5701 S la Grange Rd","store":"McDonalds","id":"a635p18jvsfv","geo_precision":"street","state":"IL"},"type":"Feature","geometry":{"type":"Point","coordinates":[-88.103305,41.735614]}},{"properties":{"city":"Bridgeview","zip":"60455","geo_score":1.0,"street address":"8611 S Harlem Ave","store":"McDonalds","id":"a635p147wmz0","geo_precision":"range","state":"IL"},"type":"Feature","geometry":{"type":"Point","coordinates":[-87.799179,41.735131]}},{"properties":{"city":"Chicago","zip":"60614","geo_score":1.0,"street address":"2402 N Lincoln Ave","store":"McDonalds","id":"a635p1f7o3eu","geo_precision":"range","state":"IL"},"type":"Feature","geometry":{"type":"Point","coordinates":[-87.648809,41.925499]}},{"properties":{"city":"Chicago","zip":"60657","geo_score":1.0,"street address":"2834 N Ashland Ave","store":"McDonalds","id":"a635p190fy5y","geo_precision":"range","state":"IL"},"type":"Feature","geometry":{"type":"Point","coordinates":[-87.668431,41.933309]}},{"properties":{"city":"Bellwood","zip":"60104","geo_score":0.794,"street address":"520 25th Ave","store":"McDonalds","id":"a635p1bqtb2y","geo_precision":"range","state":"IL"},"type":"Feature","geometry":{"type":"Point","coordinates":[-87.863656,41.8833]}},{"properties":{"city":"Oak Lawn","zip":"60453","geo_score":1.0,"street address":"9128 S Cicero Ave","store":"McDonalds","id":"a635p1ifzszo","geo_precision":"range","state":"IL"},"type":"Feature","geometry":{"type":"Point","coordinates":[-87.741012,41.726451]}},{"properties":{"city":"Bridgeview","zip":"60455","geo_score":0.916,"street address":"7920 W 79th St","store":"McDonalds","id":"a635p1gb2ph2","geo_precision":"range","state":"IL"},"type":"Feature","geometry":{"type":"Point","coordinates":[-87.817121,41.747685]}},{"properties":{"city":"Chicago","zip":"60611","geo_score":1.0,"street address":"600 E Grand Ave","store":"McDonalds","id":"a635p1awyy5v","geo_precision":"range","state":"IL"},"type":"Feature","geometry":{"type":"Point","coordinates":[-87.611578,41.891982]}},{"properties":{"city":"Melrose Park","zip":"60160","geo_score":0.87,"street address":"8327 W North Ave","store":"McDonalds","id":"a635p1ijvedu","geo_precision":"range","state":"IL"},"type":"Feature","geometry":{"type":"Point","coordinates":[-87.833239,41.908404]}},{"properties":{"city":"Chicago","zip":"60620","geo_score":1.0,"street address":"8321 S Ashland Ave","store":"McDonalds","id":"a635p177yq16","geo_precision":"range","state":"IL"},"type":"Feature","geometry":{"type":"Point","coordinates":[-87.663243,41.742704]}},{"properties":{"city":"Chicago","zip":"60610","geo_score":1.0,"street address":"1563 N Wells St","store":"McDonalds","id":"a635p1h00uzs","geo_precision":"range","state":"IL"},"type":"Feature","geometry":{"type":"Point","coordinates":[-87.63468,41.91045]}},{"properties":{"city":"Chicago","zip":"60641","geo_score":1.0,"street address":"4038 W Belmont Ave","store":"McDonalds","id":"a635p19yji84","geo_precision":"range","state":"IL"},"type":"Feature","geometry":{"type":"Point","coordinates":[-87.728029,41.939083]}},{"properties":{"city":"Lincolnshire","zip":"60069","geo_score":0.878,"street address":"450 Milwaukee Ave","store":"McDonalds","id":"a635p1dinc4t","geo_precision":"range","state":"IL"},"type":"Feature","geometry":{"type":"Point","coordinates":[-87.933014,42.200484]}},{"properties":{"city":"Chicago","zip":"60639","geo_score":1.0,"street address":"2754 N Narragansett Ave","store":"McDonalds","id":"a635p1d3k9sg","geo_precision":"range","state":"IL"},"type":"Feature","geometry":{"type":"Point","coordinates":[-87.785678,41.930399]}},{"properties":{"city":"Chicago","zip":"60611","geo_score":1.0,"street address":"645 N McClurg Ct","store":"McDonalds","id":"a635p17mzacm","geo_precision":"range","state":"IL"},"type":"Feature","geometry":{"type":"Point","coordinates":[-87.617748,41.893847]}},{"properties":{"city":"la Grange","zip":"60525","geo_score":0.376,"street address":"100 N la Grange Rd","store":"McDonalds","id":"a635p1epwcxc","geo_precision":"street","state":"IL"},"type":"Feature","geometry":{"type":"Point","coordinates":[-88.103864,41.73486]}},{"properties":{"city":"Chicago","zip":"60611","geo_score":1.0,"street address":"845 N Michigan Ave","store":"McDonalds","id":"a635p1cc0m9m","geo_precision":"range","state":"IL"},"type":"Feature","geometry":{"type":"Point","coordinates":[-87.624092,41.898116]}},{"properties":{"city":"Chicago","zip":"60637","geo_score":1.0,"street address":"6355 S King Dr","store":"McDonalds","id":"a635p1dfcing","geo_precision":"range","state":"IL"},"type":"Feature","geometry":{"type":"Point","coordinates":[-87.615604,41.779241]}},{"properties":{"city":"Evergreen Park","zip":"60805","geo_score":1.0,"street address":"8715 S Kedzie Ave","store":"McDonalds","id":"a635p1ajlt35","geo_precision":"range","state":"IL"},"type":"Feature","geometry":{"type":"Point","coordinates":[-87.702177,41.734937]}},{"properties":{"city":"Chicago","zip":"60621","geo_score":1.0,"street address":"6900 S Lafayette Ave","store":"McDonalds","id":"a635p1auqff2","geo_precision":"range","state":"IL"},"type":"Feature","geometry":{"type":"Point","coordinates":[-87.626667,41.769127]}},{"properties":{"city":"Chicago","zip":"60614","geo_score":1.0,"street address":"1737 W Fullerton Ave","store":"McDonalds","id":"a635p17ovuzs","geo_precision":"range","state":"IL"},"type":"Feature","geometry":{"type":"Point","coordinates":[-87.671827,41.925103]}},{"properties":{"city":"Chicago","zip":"60611","geo_score":1.0,"street address":"700 N Michigan Ave","store":"McDonalds","id":"a635p1dh74vx","geo_precision":"range","state":"IL"},"type":"Feature","geometry":{"type":"Point","coordinates":[-87.624252,41.894942]}},{"properties":{"city":"Chicago","zip":"60611","geo_score":1.0,"street address":"10 E Chicago Ave","store":"McDonalds","id":"a635p1hp1dnl","geo_precision":"range","state":"IL"},"type":"Feature","geometry":{"type":"Point","coordinates":[-87.627894,41.896681]}},{"properties":{"city":"Bridgeview","zip":"60455","geo_score":1.0,"street address":"7701 S Harlem Ave","store":"McDonalds","id":"a635p1b6r6vd","geo_precision":"range","state":"IL"},"type":"Feature","geometry":{"type":"Point","coordinates":[-87.79985,41.751726]}},{"properties":{"city":"Chicago","zip":"60707","geo_score":0.911,"street address":"1933 N Harlem Ave","store":"McDonalds","id":"a635p15tpukp","geo_precision":"range","state":"IL"},"type":"Feature","geometry":{"type":"Point","coordinates":[-87.805965,41.914956]}},{"properties":{"city":"Chicago","zip":"60647","geo_score":1.0,"street address":"2701 N Milwaukee Ave","store":"McDonalds","id":"a635p16vw2en","geo_precision":"range","state":"IL"},"type":"Feature","geometry":{"type":"Point","coordinates":[-87.709572,41.930393]}},{"properties":{"city":"Chicago","zip":"60639","geo_score":1.0,"street address":"4605 W Diversey Ave","store":"McDonalds","id":"a635p1hq2vj0","geo_precision":"range","state":"IL"},"type":"Feature","geometry":{"type":"Point","coordinates":[-87.741971,41.931593]}},{"properties":{"city":"Chicago","zip":"60653","geo_score":0.916,"street address":"740 E 47th St","store":"McDonalds","id":"a635p1h80csg","geo_precision":"range","state":"IL"},"type":"Feature","geometry":{"type":"Point","coordinates":[-87.60764,41.809516]}},{"properties":{"city":"Chicago","zip":"60611","geo_score":0.87,"street address":"405 N Wabash Ave Apt 2903 3","store":"McDonalds","id":"a635p1h3tqp8","geo_precision":"range","state":"IL"},"type":"Feature","geometry":{"type":"Point","coordinates":[-87.626657,41.889454]}},{"properties":{"city":"Chicago","zip":"60601","geo_score":1.0,"street address":"233 N Michigan Ave","store":"McDonalds","id":"a635p15z2ga4","geo_precision":"range","state":"IL"},"type":"Feature","geometry":{"type":"Point","coordinates":[-87.624524,41.886098]}},{"properties":{"city":"Chicago","zip":"60601","geo_score":1.0,"street address":"201 N Clark St","store":"McDonalds","id":"a635p1ajmiyb","geo_precision":"range","state":"IL"},"type":"Feature","geometry":{"type":"Point","coordinates":[-87.630975,41.885742]}},{"properties":{"city":"Chicago","zip":"60652","geo_score":1.0,"street address":"8415 S Pulaski Rd","store":"McDonalds","id":"a635p16ww9i9","geo_precision":"range","state":"IL"},"type":"Feature","geometry":{"type":"Point","coordinates":[-87.721606,41.73992]}},{"properties":{"city":"Chicago","zip":"60602","geo_score":1.0,"street address":"119 N Wabash Ave","store":"McDonalds","id":"a635p1ee9har","geo_precision":"range","state":"IL"},"type":"Feature","geometry":{"type":"Point","coordinates":[-87.62623,41.88372]}},{"properties":{"city":"Chicago","zip":"60601","geo_score":1.0,"street address":"36 W Randolph St","store":"McDonalds","id":"a635p1da488b","geo_precision":"range","state":"IL"},"type":"Feature","geometry":{"type":"Point","coordinates":[-87.628841,41.884482]}},{"properties":{"city":"Chicago","zip":"60620","geo_score":1.0,"street address":"7832 S Western Ave","store":"McDonalds","id":"a635p1irkp7v","geo_precision":"range","state":"IL"},"type":"Feature","geometry":{"type":"Point","coordinates":[-87.682877,41.751112]}},{"properties":{"city":"Chicago","zip":"60604","geo_score":1.0,"street address":"64 E Jackson Blvd","store":"McDonalds","id":"a635p19bhjq5","geo_precision":"range","state":"IL"},"type":"Feature","geometry":{"type":"Point","coordinates":[-87.625453,41.878263]}},{"properties":{"city":"Chicago","zip":"60615","geo_score":1.0,"street address":"70 E Garfield Blvd","store":"McDonalds","id":"a635p1ddebyh","geo_precision":"range","state":"IL"},"type":"Feature","geometry":{"type":"Point","coordinates":[-87.62324,41.794679]}},{"properties":{"city":"Chicago","zip":"60639","geo_score":1.0,"street address":"2317 N Cicero Ave","store":"McDonalds","id":"a635p17utzpg","geo_precision":"range","state":"IL"},"type":"Feature","geometry":{"type":"Point","coordinates":[-87.746261,41.922707]}},{"properties":{"city":"Chicago","zip":"60654","geo_score":0.985,"street address":"222 Merchandise Mart Plz","store":"McDonalds","id":"a635p1d2xr6u","geo_precision":"range","state":"IL"},"type":"Feature","geometry":{"type":"Point","coordinates":[-87.634454,41.887971]}},{"properties":{"city":"Chicago","zip":"60604","geo_score":1.0,"street address":"230 S State St","store":"McDonalds","id":"a635p173gcc7","geo_precision":"range","state":"IL"},"type":"Feature","geometry":{"type":"Point","coordinates":[-87.627695,41.87884]}},{"properties":{"city":"Chicago","zip":"60647","geo_score":1.0,"street address":"1951 N Western Ave","store":"McDonalds","id":"a635p191zjns","geo_precision":"range","state":"IL"},"type":"Feature","geometry":{"type":"Point","coordinates":[-87.687394,41.916996]}},{"properties":{"city":"chicago","zip":"60604","geo_score":1.0,"street address":"230 South State St.","store":"McDonalds","id":"a635p1ewadix","geo_precision":"range","state":"IL"},"type":"Feature","geometry":{"type":"Point","coordinates":[-87.627695,41.87884]}},{"properties":{"city":"Broadview","zip":"60155","geo_score":0.496,"street address":"6000 Broadview Village Sq","store":"McDonalds","id":"a635p1eindzq","geo_precision":"street","state":"IL"},"type":"Feature","geometry":{"type":"Point","coordinates":[-87.891759,41.880378]}},{"properties":{"city":"Chicago","zip":"60602","geo_score":0.902,"street address":"105 W Madison St","store":"McDonalds","id":"a635p1co292x","geo_precision":"range","state":"IL"},"type":"Feature","geometry":{"type":"Point","coordinates":[-87.630983,41.881975]}},{"properties":{"city":"Chicago","zip":"60616","geo_score":0.875,"street address":"450 E 23rd Dr","store":"McDonalds","id":"a635p1apo6od","geo_precision":"range","state":"IL"},"type":"Feature","geometry":{"type":"Point","coordinates":[-87.61643,41.851529]}},{"properties":{"city":"Burbank","zip":"60459","geo_score":0.916,"street address":"5355 W 79th St","store":"McDonalds","id":"a635p1gybdfp","geo_precision":"range","state":"IL"},"type":"Feature","geometry":{"type":"Point","coordinates":[-87.755034,41.748905]}},{"properties":{"city":"Chicago","zip":"60603","geo_score":1.0,"street address":"186 W Adams St","store":"McDonalds","id":"a635p1ac5xys","geo_precision":"range","state":"IL"},"type":"Feature","geometry":{"type":"Point","coordinates":[-87.633204,41.879388]}},{"properties":{"city":"Chicago","zip":"60616","geo_score":0.902,"street address":"2525 S King Dr","store":"McDonalds","id":"a635p1kbq298","geo_precision":"street","state":"IL"},"type":"Feature","geometry":{"type":"Point","coordinates":[-87.617239,41.843427]}},{"properties":{"city":"Chicago","zip":"60606","geo_score":1.0,"street address":"29 N Wacker Dr","store":"McDonalds","id":"a635p14s07te","geo_precision":"range","state":"IL"},"type":"Feature","geometry":{"type":"Point","coordinates":[-87.636782,41.882623]}},{"properties":{"city":"Chicago","zip":"60622","geo_score":1.0,"street address":"1266 N Milwaukee Ave","store":"McDonalds","id":"a635p1fxzcvo","geo_precision":"range","state":"IL"},"type":"Feature","geometry":{"type":"Point","coordinates":[-87.668177,41.904542]}},{"properties":{"city":"Chicago","zip":"60606","geo_score":1.0,"street address":"233 W Jackson Blvd","store":"McDonalds","id":"a635p1j8w0ig","geo_precision":"range","state":"IL"},"type":"Feature","geometry":{"type":"Point","coordinates":[-87.634643,41.878109]}},{"properties":{"city":"Chicago","zip":"60661","geo_score":0.713,"street address":"500 W Madison St","store":"McDonalds","id":"a635p1iprbd6","geo_precision":"street","state":"IL"},"type":"Feature","geometry":{"type":"Point","coordinates":[-87.641193,41.881859]}},{"properties":{"city":"Chicago","zip":"60616","geo_score":0.916,"street address":"207 E 35th St","store":"McDonalds","id":"a635p1ioonjc","geo_precision":"range","state":"IL"},"type":"Feature","geometry":{"type":"Point","coordinates":[-87.621507,41.831061]}},{"properties":{"city":"Chicago","zip":"60606","geo_score":1.0,"street address":"210 S Canal St","store":"McDonalds","id":"a635p1go68mg","geo_precision":"range","state":"IL"},"type":"Feature","geometry":{"type":"Point","coordinates":[-87.639597,41.879183]}},{"properties":{"city":"Chicago","zip":"60609","geo_score":0.708,"street address":"5057 S Wentworth Ave","store":"McDonalds","id":"a635p1cma4ph","geo_precision":"street","state":"IL"},"type":"Feature","geometry":{"type":"Point","coordinates":[-87.632573,41.809111]}},{"properties":{"city":"Chicago","zip":"60639","geo_score":0.87,"street address":"5133 W North Ave","store":"McDonalds","id":"a635p171uxo2","geo_precision":"range","state":"IL"},"type":"Feature","geometry":{"type":"Point","coordinates":[-87.754712,41.909515]}},{"properties":{"city":"Chicago","zip":"60639","geo_score":0.87,"street address":"4338 W North Ave","store":"McDonalds","id":"a635p1f4uhjo","geo_precision":"range","state":"IL"},"type":"Feature","geometry":{"type":"Point","coordinates":[-87.735669,41.909828]}},{"properties":{"city":"Forest Park","zip":"60130","geo_score":1.0,"street address":"420 Des Plaines Ave","store":"McDonalds","id":"a635p1c868ax","geo_precision":"range","state":"IL"},"type":"Feature","geometry":{"type":"Point","coordinates":[-87.814033,41.878719]}},{"properties":{"city":"Chicago","zip":"60636","geo_score":1.0,"street address":"6340 S Ashland Ave","store":"McDonalds","id":"a635p17o2n02","geo_precision":"range","state":"IL"},"type":"Feature","geometry":{"type":"Point","coordinates":[-87.664197,41.77858]}},{"properties":{"city":"Lyons","zip":"60534","geo_score":1.0,"street address":"7850 Ogden Ave","store":"McDonalds","id":"a635p1ewouee","geo_precision":"range","state":"IL"},"type":"Feature","geometry":{"type":"Point","coordinates":[-87.817138,41.820001]}},{"properties":{"city":"Chicago","zip":"60636","geo_score":1.0,"street address":"6158 S Western Ave","store":"McDonalds","id":"a635p1b3l0c9","geo_precision":"range","state":"IL"},"type":"Feature","geometry":{"type":"Point","coordinates":[-87.683716,41.781812]}},{"properties":{"city":"Chicago","zip":"60638","geo_score":1.0,"street address":"6720 W Archer Ave","store":"McDonalds","id":"a635p1kblmix","geo_precision":"range","state":"IL"},"type":"Feature","geometry":{"type":"Point","coordinates":[-87.789801,41.792187]}},{"properties":{"city":"Chicago","zip":"60608","geo_score":1.0,"street address":"1664 S Blue Island Ave","store":"McDonalds","id":"a635p1fdwl5y","geo_precision":"range","state":"IL"},"type":"Feature","geometry":{"type":"Point","coordinates":[-87.660566,41.858514]}},{"properties":{"city":"Chicago","zip":"60612","geo_score":1.0,"street address":"23 N Western Ave","store":"McDonalds","id":"a635p1fiet05","geo_precision":"range","state":"IL"},"type":"Feature","geometry":{"type":"Point","coordinates":[-87.68645,41.881887]}},{"properties":{"city":"Chicago","zip":"60609","geo_score":0.916,"street address":"1454 W 47th St","store":"McDonalds","id":"a635p1jfwokb","geo_precision":"range","state":"IL"},"type":"Feature","geometry":{"type":"Point","coordinates":[-87.661682,41.808646]}},{"properties":{"city":"Oak Park","zip":"60302","geo_score":1.0,"street address":"111 Madison St","store":"McDonalds","id":"a635p14h9omz","geo_precision":"range","state":"IL"},"type":"Feature","geometry":{"type":"Point","coordinates":[-87.777318,41.880108]}},{"properties":{"city":"Chicago","zip":"60609","geo_score":1.0,"street address":"4158 S Ashland Ave","store":"McDonalds","id":"a635p1gdmbb6","geo_precision":"range","state":"IL"},"type":"Feature","geometry":{"type":"Point","coordinates":[-87.665195,41.818067]}},{"properties":{"city":"Chicago","zip":"60629","geo_score":1.0,"street address":"5733 S Kedzie Ave","store":"McDonalds","id":"a635p1h6pngd","geo_precision":"range","state":"IL"},"type":"Feature","geometry":{"type":"Point","coordinates":[-87.703438,41.78929]}},{"properties":{"city":"Chicago","zip":"60644","geo_score":1.0,"street address":"5015 W Madison St","store":"McDonalds","id":"a635p19ntvuf","geo_precision":"range","state":"IL"},"type":"Feature","geometry":{"type":"Point","coordinates":[-87.750172,41.880435]}},{"properties":{"city":"Chicago","zip":"60608","geo_score":1.0,"street address":"2438 W Cermak Rd","store":"McDonalds","id":"a635p19g27ir","geo_precision":"range","state":"IL"},"type":"Feature","geometry":{"type":"Point","coordinates":[-87.686464,41.852024]}},{"properties":{"city":"Chicago","zip":"60624","geo_score":1.0,"street address":"3200 W Roosevelt Rd","store":"McDonalds","id":"a635p1jrfm8g","geo_precision":"range","state":"IL"},"type":"Feature","geometry":{"type":"Point","coordinates":[-87.705669,41.866405]}},{"properties":{"city":"Chicago","zip":"60632","geo_score":1.0,"street address":"5253 S Pulaski Rd","store":"McDonalds","id":"a635p17yyf3s","geo_precision":"range","state":"IL"},"type":"Feature","geometry":{"type":"Point","coordinates":[-87.723284,41.797574]}},{"properties":{"city":"Bolingbrook","zip":"60490","geo_score":0.902,"street address":"295 N Weber Rd","store":"McDonalds","id":"a635p1bdksm3","geo_precision":"range","state":"IL"},"type":"Feature","geometry":{"type":"Point","coordinates":[-88.125969,41.704362]}},{"properties":{"city":"Chicago","zip":"60632","geo_score":1.0,"street address":"3867 S Archer Ave","store":"McDonalds","id":"a635p1an04zn","geo_precision":"range","state":"IL"},"type":"Feature","geometry":{"type":"Point","coordinates":[-87.68933,41.823221]}},{"properties":{"city":"Chicago","zip":"60638","geo_score":1.0,"street address":"4704 S Cicero Ave","store":"McDonalds","id":"a635p14pxndw","geo_precision":"range","state":"IL"},"type":"Feature","geometry":{"type":"Point","coordinates":[-87.743157,41.807548]}},{"properties":{"city":"Chicago","zip":"60607","geo_score":1.0,"street address":"562 W Roosevelt Rd","store":"McDonalds","id":"a635p1587gw0","geo_precision":"range","state":"IL"},"type":"Feature","geometry":{"type":"Point","coordinates":[-87.640517,41.867243]}},{"properties":{"city":"Chicago","zip":"60623","geo_score":1.0,"street address":"2609 S Kedzie Ave","store":"McDonalds","id":"a635p1d0aqof","geo_precision":"range","state":"IL"},"type":"Feature","geometry":{"type":"Point","coordinates":[-87.705037,41.844369]}},{"properties":{"city":"Cicero","zip":"60804","geo_score":0.805,"street address":"2827 S Cicero Ave","store":"McDonalds","id":"a635p1e06zav","geo_precision":"street","state":"IL"},"type":"Feature","geometry":{"type":"Point","coordinates":[-87.74354,41.822167]}},{"properties":{"city":"Chicago","zip":"60623","geo_score":0.916,"street address":"4334 W 26th St","store":"McDonalds","id":"a635p1j76b0v","geo_precision":"range","state":"IL"},"type":"Feature","geometry":{"type":"Point","coordinates":[-87.732546,41.84414]}},{"properties":{"city":"Channahon","zip":"60410","geo_score":1.0,"street address":"24061 W Eames St","store":"McDonalds","id":"a635p1jtlfbc","geo_precision":"range","state":"IL"},"type":"Feature","geometry":{"type":"Point","coordinates":[-88.197153,41.455344]}},{"properties":{"city":"Romeoville","zip":"60446","geo_score":1.0,"street address":"675 N Weber Rd","store":"McDonalds","id":"a635p1egasuc","geo_precision":"range","state":"IL"},"type":"Feature","geometry":{"type":"Point","coordinates":[-88.125388,41.673434]}},{"properties":{"city":"Bolingbrook","zip":"60440","geo_score":0.736,"street address":"Illinois Route 53","store":"McDonalds","id":"a635p1dovkn8","geo_precision":"street","state":"IL"},"type":"Feature","geometry":{"type":"Point","coordinates":[-88.068285,41.698509]}},{"properties":{"city":"Chicago","zip":"60601","geo_score":0.883,"street address":"Chgo Ohare International Air","store":"McDonalds","id":"a635p1b2n4st","geo_precision":"zip","state":"IL"},"type":"Feature","geometry":{"type":"Point","coordinates":[-87.68732,41.811929]}},{"properties":{"city":"Addison","zip":"60101","geo_score":0.643,"street address":"410 W North Ave","store":"McDonalds","id":"a635p14cxdzj","geo_precision":"street","state":"IL"},"type":"Feature","geometry":{"type":"Point","coordinates":[-87.983359,41.932001]}},{"properties":{"city":"South Elgin","zip":"60177","geo_score":0.777,"street address":"453 Redington Dr","store":"McDonalds","id":"a635p1jge2q7","geo_precision":"range","state":"IL"},"type":"Feature","geometry":{"type":"Point","coordinates":[-88.305968,41.973884]}},{"properties":{"city":"Plainfield","zip":"60544","geo_score":0.854,"street address":"2220 Route 59","store":"McDonalds","id":"a635p1i7o5hd","geo_precision":"range","state":"IL"},"type":"Feature","geometry":{"type":"Point","coordinates":[-88.202823,41.627665]}},{"properties":{"city":"Chicago","zip":"60659","geo_score":1.0,"street address":"3241 W Peterson Ave","store":"McDonalds","id":"a635p1cwc9nq","geo_precision":"range","state":"IL"},"type":"Feature","geometry":{"type":"Point","coordinates":[-87.710716,41.990364]}},{"properties":{"city":"Alsip","zip":"60803","geo_score":1.0,"street address":"11850 S Pulaski Rd","store":"McDonalds","id":"a635p1aqfhi9","geo_precision":"range","state":"IL"},"type":"Feature","geometry":{"type":"Point","coordinates":[-87.71978,41.677567]}},{"properties":{"city":"Chicago","zip":"60625","geo_score":1.0,"street address":"3154 W Foster Ave","store":"McDonalds","id":"a635p1bsi3ru","geo_precision":"range","state":"IL"},"type":"Feature","geometry":{"type":"Point","coordinates":[-87.707823,41.975752]}},{"properties":{"city":"Oak Lawn","zip":"60453","geo_score":1.0,"street address":"10549 S Cicero Ave","store":"McDonalds","id":"a635p1b3mwfi","geo_precision":"range","state":"IL"},"type":"Feature","geometry":{"type":"Point","coordinates":[-87.74009,41.70066]}},{"properties":{"city":"North Riverside","zip":"60546","geo_score":0.707,"street address":"7501 W Cermak Rd","store":"McDonalds","id":"a635p1eidvau","geo_precision":"range","state":"IL"},"type":"Feature","geometry":{"type":"Point","coordinates":[-87.808078,41.850291]}},{"properties":{"city":"Chicago","zip":"60613","geo_score":1.0,"street address":"3620 N Clark St","store":"McDonalds","id":"a635p1br2o55","geo_precision":"range","state":"IL"},"type":"Feature","geometry":{"type":"Point","coordinates":[-87.656981,41.947781]}},{"properties":{"city":"Berwyn","zip":"60402","geo_score":1.0,"street address":"6401 Cermak Rd","store":"McDonalds","id":"a635p1ckzh1k","geo_precision":"range","state":"IL"},"type":"Feature","geometry":{"type":"Point","coordinates":[-87.783547,41.850764]}},{"properties":{"city":"Blue Island","zip":"60406","geo_score":1.0,"street address":"11920 Western Ave","store":"McDonalds","id":"a635p19bey6i","geo_precision":"range","state":"IL"},"type":"Feature","geometry":{"type":"Point","coordinates":[-87.680678,41.676978]}},{"properties":{"city":"Cicero","zip":"60804","geo_score":1.0,"street address":"5500 W Cermak Rd","store":"McDonalds","id":"a635p19o523i","geo_precision":"range","state":"IL"},"type":"Feature","geometry":{"type":"Point","coordinates":[-87.761449,41.851085]}}],"is_temporal":false,"author":{"url":"","metadata":"","contact_name":"","contact_address":"","source":"","contact_phone":""},"source":"","pagination":{"sort":null,"start":0,"total":385,"limit":1000000},"state":"complete","tags":"fast,food,mcdonalds,retail","published":"2007-01-01T12:00:00Z","id":17511}