{"type":"FeatureCollection","data_type":"Dataset","url_type":null,"permissions":[{"permissions":{"download":true,"view":true},"group_id":"everyone"}],"classification":null,"title":"houses","count":158,"stream_id":17522,"contributor":{"url":"http://geocommons.com/users/8548","name":"mweisman"},"data_attributes":null,"calculation_params":null,"icon_link":null,"link":"http://geocommons.com/overlays/17522.json","extent":[-123.185,49.226,-123.051,49.2899],"geometry_types":["point"],"unique_name":null,"name":"houses","feature_count":158,"description":"","next_feature":null,"is_raster":false,"short_classification":"Y","stats":{"x":{"max":49.2898917,"mean":49.2623827791139,"variance":0.000181670438684212,"stdev":0.0134785176738472,"min":49.2260418,"median":49.263588},"y":{"max":-123.050998,"mean":-123.099389218987,"variance":0.000952281852342071,"stdev":0.0308590643465104,"min":-123.1853597,"median":-123.0902329}},"features":[{"properties":{"x":49.2729375,"y":-123.0567859,"id":"a65dllzlgodt","address":"10 2389 CHARLES ST"},"type":"Feature","geometry":{"type":"Point","coordinates":[-123.0567859,49.2729375]}},{"properties":{"x":49.2488665,"y":-123.0761459,"id":"a65dlln3nfjq","address":"1004 4028 KNIGHT ST"},"type":"Feature","geometry":{"type":"Point","coordinates":[-123.0761459,49.2488665]}},{"properties":{"x":49.2625607,"y":-123.1350191,"id":"a65dllvqhlll","address":"101 1352 W 10TH AV"},"type":"Feature","geometry":{"type":"Point","coordinates":[-123.1350191,49.2625607]}},{"properties":{"x":49.279341,"y":-123.066965,"id":"a65dlm31y5ko","address":"101 1833 FRANCES ST"},"type":"Feature","geometry":{"type":"Point","coordinates":[-123.066965,49.279341]}},{"properties":{"x":49.2884329,"y":-123.0582576,"id":"a65dlm1115z0","address":"101 2277 MCGILL ST"},"type":"Feature","geometry":{"type":"Point","coordinates":[-123.0582576,49.2884329]}},{"properties":{"x":49.2539032,"y":-123.081793,"id":"a65dllsncsfq","address":"101 3465 GLEN DR"},"type":"Feature","geometry":{"type":"Point","coordinates":[-123.081793,49.2539032]}},{"properties":{"x":49.257067,"y":-123.1235125,"id":"a65dllrsnufd","address":"101 863 W 16TH AV"},"type":"Feature","geometry":{"type":"Point","coordinates":[-123.1235125,49.257067]}},{"properties":{"x":49.2644097,"y":-123.1311949,"id":"a65dllt9j47f","address":"102 1195 W 8TH AV"},"type":"Feature","geometry":{"type":"Point","coordinates":[-123.1311949,49.2644097]}},{"properties":{"x":49.2609103,"y":-123.1451734,"id":"a65dlltn7gcq","address":"102 1770 W 12TH AV"},"type":"Feature","geometry":{"type":"Point","coordinates":[-123.1451734,49.2609103]}},{"properties":{"x":49.2642805,"y":-123.0846051,"id":"a65dllpjeowp","address":"103 930 E 7TH AV"},"type":"Feature","geometry":{"type":"Point","coordinates":[-123.0846051,49.2642805]}},{"properties":{"x":49.2570701,"y":-123.1252606,"id":"a65dllsetsii","address":"103 930 W 16TH AV"},"type":"Feature","geometry":{"type":"Point","coordinates":[-123.1252606,49.2570701]}},{"properties":{"x":49.2615837,"y":-123.1318471,"id":"a65dlluwx1ie","address":"104 1216 W 11TH AV"},"type":"Feature","geometry":{"type":"Point","coordinates":[-123.1318471,49.2615837]}},{"properties":{"x":49.2655765,"y":-123.1520555,"id":"a65dllr3w728","address":"104 2033 W 7TH AV"},"type":"Feature","geometry":{"type":"Point","coordinates":[-123.1520555,49.2655765]}},{"properties":{"x":49.2652097,"y":-123.1240828,"id":"a65dllvgsjrz","address":"104 2288 LAUREL ST"},"type":"Feature","geometry":{"type":"Point","coordinates":[-123.1240828,49.2652097]}},{"properties":{"x":49.2564403,"y":-123.0900619,"id":"a65dllp4s64c","address":"104 688 E 16TH AV"},"type":"Feature","geometry":{"type":"Point","coordinates":[-123.0900619,49.2564403]}},{"properties":{"x":49.264678,"y":-123.1474473,"id":"a65dllw0i92o","address":"105 1875 W 8TH AV"},"type":"Feature","geometry":{"type":"Point","coordinates":[-123.1474473,49.264678]}},{"properties":{"x":49.2784683,"y":-123.0677158,"id":"a65dllqogxgh","address":"106 1823 E GEORGIA ST"},"type":"Feature","geometry":{"type":"Point","coordinates":[-123.0677158,49.2784683]}},{"properties":{"x":49.2647115,"y":-123.1508509,"id":"a65dllv74ai0","address":"106 2010 W 8TH AV"},"type":"Feature","geometry":{"type":"Point","coordinates":[-123.1508509,49.2647115]}},{"properties":{"x":49.25388,"y":-123.1002822,"id":"a65dllzqexl7","address":"106 225 E 19TH AV"},"type":"Feature","geometry":{"type":"Point","coordinates":[-123.1002822,49.25388]}},{"properties":{"x":49.2652593,"y":-123.0906035,"id":"a65dlm02zjda","address":"106 621 E 6TH AV"},"type":"Feature","geometry":{"type":"Point","coordinates":[-123.0906035,49.2652593]}},{"properties":{"x":49.2643873,"y":-123.1315749,"id":"a65dlm0qjj80","address":"107 1210 W 8TH AV"},"type":"Feature","geometry":{"type":"Point","coordinates":[-123.1315749,49.2643873]}},{"properties":{"x":49.2655765,"y":-123.1520555,"id":"a65dllrxgymg","address":"109 2033 W 7TH AV"},"type":"Feature","geometry":{"type":"Point","coordinates":[-123.1520555,49.2655765]}},{"properties":{"x":49.2643103,"y":-123.0880929,"id":"a65dllnjvouq","address":"109 750 E 7TH AV"},"type":"Feature","geometry":{"type":"Point","coordinates":[-123.0880929,49.2643103]}},{"properties":{"x":49.2847689,"y":-123.0609851,"id":"a65dllvtj05c","address":"110 2133 DUNDAS ST"},"type":"Feature","geometry":{"type":"Point","coordinates":[-123.0609851,49.2847689]}},{"properties":{"x":49.279341,"y":-123.066965,"id":"a65dllzbfjtg","address":"1104 1833 FRANCES ST"},"type":"Feature","geometry":{"type":"Point","coordinates":[-123.066965,49.279341]}},{"properties":{"x":49.2651005,"y":-123.1220301,"id":"a65dlm1q6q6n","address":"117 811 W 7TH AV"},"type":"Feature","geometry":{"type":"Point","coordinates":[-123.1220301,49.2651005]}},{"properties":{"x":49.2650504,"y":-123.1199095,"id":"a65dlltt2vfu","address":"12 704 W 7TH AV"},"type":"Feature","geometry":{"type":"Point","coordinates":[-123.1199095,49.2650504]}},{"properties":{"x":49.279341,"y":-123.066965,"id":"a65dlm0sfog6","address":"1201 1833 FRANCES ST"},"type":"Feature","geometry":{"type":"Point","coordinates":[-123.066965,49.279341]}},{"properties":{"x":49.2645768,"y":-123.1418297,"id":"a65dllsxoc5b","address":"2 1633 W 8TH AV"},"type":"Feature","geometry":{"type":"Point","coordinates":[-123.1418297,49.2645768]}},{"properties":{"x":49.2750613,"y":-123.1019343,"id":"a65dllvc84xp","address":"201 1088 QUEBEC ST"},"type":"Feature","geometry":{"type":"Point","coordinates":[-123.1019343,49.2750613]}},{"properties":{"x":49.263588,"y":-123.138565,"id":"a65dlm0exvai","address":"201 1777 KINGSWAY BB"},"type":"Feature","geometry":{"type":"Point","coordinates":[-123.138565,49.263588]}},{"properties":{"x":49.2783394,"y":-123.0653261,"id":"a65dllwaqknp","address":"201 1915 E GEORGIA ST"},"type":"Feature","geometry":{"type":"Point","coordinates":[-123.0653261,49.2783394]}},{"properties":{"x":49.2811587,"y":-123.0607058,"id":"a65dllsfodxe","address":"201 2150 E HASTINGS ST"},"type":"Feature","geometry":{"type":"Point","coordinates":[-123.0607058,49.2811587]}},{"properties":{"x":49.2643724,"y":-123.0989276,"id":"a65dlltszjag","address":"201 2321  SCOTIA ST"},"type":"Feature","geometry":{"type":"Point","coordinates":[-123.0989276,49.2643724]}},{"properties":{"x":49.2639529,"y":-123.0775385,"id":"a65dlm2l2j99","address":"201 2333 CLARK DR"},"type":"Feature","geometry":{"type":"Point","coordinates":[-123.0775385,49.2639529]}},{"properties":{"x":49.2555221,"y":-123.0901287,"id":"a65dllz3sn11","address":"201 688 E 17TH AV"},"type":"Feature","geometry":{"type":"Point","coordinates":[-123.0901287,49.2555221]}},{"properties":{"x":49.2660874,"y":-123.1342615,"id":"a65dlm0rnm05","address":"202 1318 W 6TH AV"},"type":"Feature","geometry":{"type":"Point","coordinates":[-123.1342615,49.2660874]}},{"properties":{"x":49.2641837,"y":-123.0745669,"id":"a65dllu4ldwz","address":"202 1450 E 7TH AV"},"type":"Feature","geometry":{"type":"Point","coordinates":[-123.0745669,49.2641837]}},{"properties":{"x":49.2721554,"y":-123.1525955,"id":"a65dlln75sdo","address":"202 1526 ARBUTUS ST"},"type":"Feature","geometry":{"type":"Point","coordinates":[-123.1525955,49.2721554]}},{"properties":{"x":49.2604151,"y":-123.0653735,"id":"a65dllwyj1zo","address":"202 1928 E 11TH AV"},"type":"Feature","geometry":{"type":"Point","coordinates":[-123.0653735,49.2604151]}},{"properties":{"x":49.2893174,"y":-123.0574378,"id":"a65dllntn1lw","address":"202 2320 TRINITY ST"},"type":"Feature","geometry":{"type":"Point","coordinates":[-123.0574378,49.2893174]}},{"properties":{"x":49.2893551,"y":-123.0570411,"id":"a65dllwwawcm","address":"202 2355 TRINITY ST"},"type":"Feature","geometry":{"type":"Point","coordinates":[-123.0570411,49.2893551]}},{"properties":{"x":49.2301932,"y":-123.0962947,"id":"a65dlm2gz5ja","address":"202 431 E 44TH AV"},"type":"Feature","geometry":{"type":"Point","coordinates":[-123.0962947,49.2301932]}},{"properties":{"x":49.2312818,"y":-123.0905005,"id":"a65dllq9ei9m","address":"202 5868 FRASER ST"},"type":"Feature","geometry":{"type":"Point","coordinates":[-123.0905005,49.2312818]}},{"properties":{"x":49.2555221,"y":-123.0901287,"id":"a65dlm2nnywt","address":"202 688 E 17TH AV"},"type":"Feature","geometry":{"type":"Point","coordinates":[-123.0901287,49.2555221]}},{"properties":{"x":49.2528028,"y":-123.0897165,"id":"a65dllsisnt4","address":"202 707 EAST 20TH AV"},"type":"Feature","geometry":{"type":"Point","coordinates":[-123.0897165,49.2528028]}},{"properties":{"x":49.2368998,"y":-123.0649596,"id":"a65dlm286xho","address":"203 2028 E 37TH AV"},"type":"Feature","geometry":{"type":"Point","coordinates":[-123.0649596,49.2368998]}},{"properties":{"x":49.2603591,"y":-123.0659561,"id":"a65dllv97i17","address":"203 2709 VICTORIA DR"},"type":"Feature","geometry":{"type":"Point","coordinates":[-123.0659561,49.2603591]}},{"properties":{"x":49.2406403,"y":-123.0902329,"id":"a65dllrxtam3","address":"203 4868 FRASER ST"},"type":"Feature","geometry":{"type":"Point","coordinates":[-123.0902329,49.2406403]}},{"properties":{"x":49.2312818,"y":-123.0905005,"id":"a65dllsqh02l","address":"203 5868 FRASER ST"},"type":"Feature","geometry":{"type":"Point","coordinates":[-123.0905005,49.2312818]}},{"properties":{"x":49.2260418,"y":-123.1015877,"id":"a65dllnw41q3","address":"203 6460 MAIN ST"},"type":"Feature","geometry":{"type":"Point","coordinates":[-123.1015877,49.2260418]}},{"properties":{"x":49.2586372,"y":-123.1229321,"id":"a65dllnfui31","address":"203 838 W 14TH AV"},"type":"Feature","geometry":{"type":"Point","coordinates":[-123.1229321,49.2586372]}},{"properties":{"x":49.2624337,"y":-123.0844288,"id":"a65dllupzo21","address":"203 942 E BROADWAY ST"},"type":"Feature","geometry":{"type":"Point","coordinates":[-123.0844288,49.2624337]}},{"properties":{"x":49.2586917,"y":-123.1259709,"id":"a65dlluml5wq","address":"203 966 W 14TH AV"},"type":"Feature","geometry":{"type":"Point","coordinates":[-123.1259709,49.2586917]}},{"properties":{"x":49.274993,"y":-123.1002958,"id":"a65dlm1tnqzj","address":"204 189 NATIONAL AV"},"type":"Feature","geometry":{"type":"Point","coordinates":[-123.1002958,49.274993]}},{"properties":{"x":49.2634399,"y":-123.0908175,"id":"a65dlm1qlc3q","address":"204 607 E 8TH AV"},"type":"Feature","geometry":{"type":"Point","coordinates":[-123.0908175,49.2634399]}},{"properties":{"x":49.2782969,"y":-123.0704923,"id":"a65dlm1hwt3r","address":"204 725 COMMERCIAL DR"},"type":"Feature","geometry":{"type":"Point","coordinates":[-123.0704923,49.2782969]}},{"properties":{"x":49.2604066,"y":-123.0649478,"id":"a65dllqvjtrv","address":"205 1950 E 11TH AV"},"type":"Feature","geometry":{"type":"Point","coordinates":[-123.0649478,49.2604066]}},{"properties":{"x":49.2686665,"y":-123.1836129,"id":"a65dllz7mszv","address":"205 1990 DUNBAR ST"},"type":"Feature","geometry":{"type":"Point","coordinates":[-123.1836129,49.2686665]}},{"properties":{"x":49.2410404,"y":-123.0902202,"id":"a65dllyeuuka","address":"205 4838 FRASER ST"},"type":"Feature","geometry":{"type":"Point","coordinates":[-123.0902202,49.2410404]}},{"properties":{"x":49.2660408,"y":-123.1304966,"id":"a65dllrfngji","address":"206 1166 W 6TH AV"},"type":"Feature","geometry":{"type":"Point","coordinates":[-123.1304966,49.2660408]}},{"properties":{"x":49.2368998,"y":-123.0649596,"id":"a65dllwdyah6","address":"206 2028 E 37TH AV"},"type":"Feature","geometry":{"type":"Point","coordinates":[-123.0649596,49.2368998]}},{"properties":{"x":49.2643356,"y":-123.0920374,"id":"a65dlm2dphg3","address":"206 550 E 7TH AV"},"type":"Feature","geometry":{"type":"Point","coordinates":[-123.0920374,49.2643356]}},{"properties":{"x":49.263588,"y":-123.138565,"id":"a65dlm0m448q","address":"206 868 KINGSWAY BB"},"type":"Feature","geometry":{"type":"Point","coordinates":[-123.138565,49.263588]}},{"properties":{"x":49.264989,"y":-123.1151482,"id":"a65dlm2pubiq","address":"207 511 W 7TH AV"},"type":"Feature","geometry":{"type":"Point","coordinates":[-123.1151482,49.264989]}},{"properties":{"x":49.263588,"y":-123.138565,"id":"a65dllwqpid8","address":"208 1099 E BROADWAY BB"},"type":"Feature","geometry":{"type":"Point","coordinates":[-123.138565,49.263588]}},{"properties":{"x":49.2632952,"y":-123.0729758,"id":"a65dllmqr05z","address":"208 1533 E 8TH AV"},"type":"Feature","geometry":{"type":"Point","coordinates":[-123.0729758,49.2632952]}},{"properties":{"x":49.2410404,"y":-123.0902202,"id":"a65dllmnoojt","address":"208 4838 FRASER ST"},"type":"Feature","geometry":{"type":"Point","coordinates":[-123.0902202,49.2410404]}},{"properties":{"x":49.2368998,"y":-123.0649596,"id":"a65dllu16clc","address":"210 2028 E 37TH AV"},"type":"Feature","geometry":{"type":"Point","coordinates":[-123.0649596,49.2368998]}},{"properties":{"x":49.2410404,"y":-123.0902202,"id":"a65dllrcbxxm","address":"210 4838 FRASER ST"},"type":"Feature","geometry":{"type":"Point","coordinates":[-123.0902202,49.2410404]}},{"properties":{"x":49.2555221,"y":-123.0901287,"id":"a65dlm0z5eiv","address":"210 688 E 17TH AV"},"type":"Feature","geometry":{"type":"Point","coordinates":[-123.0901287,49.2555221]}},{"properties":{"x":49.263588,"y":-123.138565,"id":"a65dllnx997m","address":"212 2238 KINGSWAY BB"},"type":"Feature","geometry":{"type":"Point","coordinates":[-123.138565,49.263588]}},{"properties":{"x":49.2555221,"y":-123.0901287,"id":"a65dllzti8q3","address":"212 688 E 17TH AV"},"type":"Feature","geometry":{"type":"Point","coordinates":[-123.0901287,49.2555221]}},{"properties":{"x":49.264989,"y":-123.1151482,"id":"a65dllqsgx5f","address":"215 511 W 7TH AV"},"type":"Feature","geometry":{"type":"Point","coordinates":[-123.1151482,49.264989]}},{"properties":{"x":49.2820776,"y":-123.0603555,"id":"a65dllwx14ke","address":"2168 FRANKLIN ST"},"type":"Feature","geometry":{"type":"Point","coordinates":[-123.0603555,49.2820776]}},{"properties":{"x":49.263588,"y":-123.138565,"id":"a65dlloww1mw","address":"217 2239 KINGSWAY BB"},"type":"Feature","geometry":{"type":"Point","coordinates":[-123.138565,49.263588]}},{"properties":{"x":49.263588,"y":-123.138565,"id":"a65dllnyki79","address":"224 2545 W BROADWAY BB"},"type":"Feature","geometry":{"type":"Point","coordinates":[-123.138565,49.263588]}},{"properties":{"x":49.2661346,"y":-123.1358212,"id":"a65dlm1t1v3w","address":"27 1388 W 6TH AV"},"type":"Feature","geometry":{"type":"Point","coordinates":[-123.1358212,49.2661346]}},{"properties":{"x":49.2679242,"y":-123.1362869,"id":"a65dllvtr15r","address":"30 1425 LAMEY'S MILL RD"},"type":"Feature","geometry":{"type":"Point","coordinates":[-123.1362869,49.2679242]}},{"properties":{"x":49.2642438,"y":-123.1216954,"id":"a65dlltjbv7t","address":"30 795 W 8TH AV"},"type":"Feature","geometry":{"type":"Point","coordinates":[-123.1216954,49.2642438]}},{"properties":{"x":49.2784892,"y":-123.0698553,"id":"a65dllubb8yv","address":"301 1729 E GEORGIA ST"},"type":"Feature","geometry":{"type":"Point","coordinates":[-123.0698553,49.2784892]}},{"properties":{"x":49.2526012,"y":-123.1272028,"id":"a65dllute985","address":"301 988 W 21ST AV"},"type":"Feature","geometry":{"type":"Point","coordinates":[-123.1272028,49.2526012]}},{"properties":{"x":49.2686354,"y":-123.1365704,"id":"a65dllvhduho","address":"302 1477 FOUNTAIN WY"},"type":"Feature","geometry":{"type":"Point","coordinates":[-123.1365704,49.2686354]}},{"properties":{"x":49.2618078,"y":-123.145615,"id":"a65dllz9197d","address":"302 1790 W 11TH AV"},"type":"Feature","geometry":{"type":"Point","coordinates":[-123.145615,49.2618078]}},{"properties":{"x":49.2604066,"y":-123.0649478,"id":"a65dllmurki7","address":"302 1950 E 11TH AV"},"type":"Feature","geometry":{"type":"Point","coordinates":[-123.0649478,49.2604066]}},{"properties":{"x":49.248667,"y":-123.0761414,"id":"a65dllyg8zwn","address":"302 4078 KNIGHT ST"},"type":"Feature","geometry":{"type":"Point","coordinates":[-123.0761414,49.248667]}},{"properties":{"x":49.2301504,"y":-123.095353,"id":"a65dllql8wbs","address":"302 458 E 44TH AV"},"type":"Feature","geometry":{"type":"Point","coordinates":[-123.095353,49.2301504]}},{"properties":{"x":49.2485702,"y":-123.0899516,"id":"a65dlm1puo2d","address":"303 702 E KING EDWARD AV"},"type":"Feature","geometry":{"type":"Point","coordinates":[-123.0899516,49.2485702]}},{"properties":{"x":49.257067,"y":-123.1235125,"id":"a65dllvnvtyg","address":"303 863 W 16TH AV"},"type":"Feature","geometry":{"type":"Point","coordinates":[-123.1235125,49.257067]}},{"properties":{"x":49.2660408,"y":-123.1304966,"id":"a65dllqjrkld","address":"305 1166 W 6TH AV"},"type":"Feature","geometry":{"type":"Point","coordinates":[-123.1304966,49.2660408]}},{"properties":{"x":49.2686354,"y":-123.1365704,"id":"a65dllmyg8yd","address":"305 1477 FOUNTAIN W"},"type":"Feature","geometry":{"type":"Point","coordinates":[-123.1365704,49.2686354]}},{"properties":{"x":49.2721697,"y":-123.0725141,"id":"a65dlm2in5qi","address":"305 1549 KITCHENER ST"},"type":"Feature","geometry":{"type":"Point","coordinates":[-123.0725141,49.2721697]}},{"properties":{"x":49.248667,"y":-123.0761414,"id":"a65dllvpohli","address":"305 4078 KNIGHT ST"},"type":"Feature","geometry":{"type":"Point","coordinates":[-123.0761414,49.248667]}},{"properties":{"x":49.2555221,"y":-123.0901287,"id":"a65dllthi5yz","address":"305 688 E 17TH AV"},"type":"Feature","geometry":{"type":"Point","coordinates":[-123.0901287,49.2555221]}},{"properties":{"x":49.2847689,"y":-123.0609851,"id":"a65dllv62vrc","address":"306 2133 DUNDAS ST"},"type":"Feature","geometry":{"type":"Point","coordinates":[-123.0609851,49.2847689]}},{"properties":{"x":49.2525673,"y":-123.0898705,"id":"a65dllvsmpcb","address":"306 3624 FRASER ST"},"type":"Feature","geometry":{"type":"Point","coordinates":[-123.0898705,49.2525673]}},{"properties":{"x":49.2634535,"y":-123.0919666,"id":"a65dllwnutz7","address":"306 555 E 8TH AV"},"type":"Feature","geometry":{"type":"Point","coordinates":[-123.0919666,49.2634535]}},{"properties":{"x":49.2594925,"y":-123.1170086,"id":"a65dllpnchdj","address":"306 575 W 13TH AV"},"type":"Feature","geometry":{"type":"Point","coordinates":[-123.1170086,49.2594925]}},{"properties":{"x":49.2555221,"y":-123.0901287,"id":"a65dlly5bm2t","address":"306 688 E 17TH AV"},"type":"Feature","geometry":{"type":"Point","coordinates":[-123.0901287,49.2555221]}},{"properties":{"x":49.2898917,"y":-123.0583302,"id":"a65dlly590so","address":"307 2336 WALL ST"},"type":"Feature","geometry":{"type":"Point","coordinates":[-123.0583302,49.2898917]}},{"properties":{"x":49.2310525,"y":-123.0953805,"id":"a65dlly6zhiu","address":"307 458 E 43RD AV"},"type":"Feature","geometry":{"type":"Point","coordinates":[-123.0953805,49.2310525]}},{"properties":{"x":49.263588,"y":-123.138565,"id":"a65dllrmu5xr","address":"308 1015 KINGSWAY BB"},"type":"Feature","geometry":{"type":"Point","coordinates":[-123.138565,49.263588]}},{"properties":{"x":49.273979,"y":-123.101485,"id":"a65dllr5obxv","address":"308 1188 QUEBEC ST"},"type":"Feature","geometry":{"type":"Point","coordinates":[-123.101485,49.273979]}},{"properties":{"x":49.2875304,"y":-123.0585818,"id":"a65dllwp6653","address":"308 2255 ETON ST"},"type":"Feature","geometry":{"type":"Point","coordinates":[-123.0585818,49.2875304]}},{"properties":{"x":49.2643873,"y":-123.1315749,"id":"a65dllsutnis","address":"309 1210 W 8TH AV"},"type":"Feature","geometry":{"type":"Point","coordinates":[-123.1315749,49.2643873]}},{"properties":{"x":49.2875048,"y":-123.0588943,"id":"a65dllo5oy77","address":"309 2238 ETON ST"},"type":"Feature","geometry":{"type":"Point","coordinates":[-123.0588943,49.2875048]}},{"properties":{"x":49.2660408,"y":-123.1304966,"id":"a65dlm1tz2ot","address":"310 1166 W 6TH AV"},"type":"Feature","geometry":{"type":"Point","coordinates":[-123.1304966,49.2660408]}},{"properties":{"x":49.2847689,"y":-123.0609851,"id":"a65dllt2lmri","address":"310 2133 DUNDAS ST"},"type":"Feature","geometry":{"type":"Point","coordinates":[-123.0609851,49.2847689]}},{"properties":{"x":49.2811456,"y":-123.050998,"id":"a65dllymc55q","address":"311 2636 E HASTINGS ST"},"type":"Feature","geometry":{"type":"Point","coordinates":[-123.050998,49.2811456]}},{"properties":{"x":49.2484628,"y":-123.0901781,"id":"a65dllz5h2la","address":"311 4113 FRASER ST"},"type":"Feature","geometry":{"type":"Point","coordinates":[-123.0901781,49.2484628]}},{"properties":{"x":49.2811587,"y":-123.0607058,"id":"a65dllw09dog","address":"312 2150 E HASTINGS ST"},"type":"Feature","geometry":{"type":"Point","coordinates":[-123.0607058,49.2811587]}},{"properties":{"x":49.2776843,"y":-123.0991402,"id":"a65dlm0i9x5y","address":"312 221 UNION ST"},"type":"Feature","geometry":{"type":"Point","coordinates":[-123.0991402,49.2776843]}},{"properties":{"x":49.263588,"y":-123.138565,"id":"a65dllorn61g","address":"312 868 KINGSWAY BB"},"type":"Feature","geometry":{"type":"Point","coordinates":[-123.138565,49.263588]}},{"properties":{"x":49.2485702,"y":-123.0899516,"id":"a65dlm1xkjru","address":"315 702 E KING EDWARD AV"},"type":"Feature","geometry":{"type":"Point","coordinates":[-123.0899516,49.2485702]}},{"properties":{"x":49.263588,"y":-123.138565,"id":"a65dllx31ctf","address":"319 2238 KINGSWAY BB"},"type":"Feature","geometry":{"type":"Point","coordinates":[-123.138565,49.263588]}},{"properties":{"x":49.263588,"y":-123.138565,"id":"a65dlm0suk10","address":"319 2239 KINGSWAY BB"},"type":"Feature","geometry":{"type":"Point","coordinates":[-123.138565,49.263588]}},{"properties":{"x":49.2661296,"y":-123.0894461,"id":"a65dlm04z4ed","address":"320 680 E 5TH AV"},"type":"Feature","geometry":{"type":"Point","coordinates":[-123.0894461,49.2661296]}},{"properties":{"x":49.2815373,"y":-123.0578501,"id":"a65dllqw0ii2","address":"327 GARDEN DR"},"type":"Feature","geometry":{"type":"Point","coordinates":[-123.0578501,49.2815373]}},{"properties":{"x":49.263588,"y":-123.138565,"id":"a65dllncob34","address":"328 888 KINGSWAY BB"},"type":"Feature","geometry":{"type":"Point","coordinates":[-123.138565,49.263588]}},{"properties":{"x":49.2625527,"y":-123.1853597,"id":"a65dllt0qkc4","address":"401 3673 W 11TH AV"},"type":"Feature","geometry":{"type":"Point","coordinates":[-123.1853597,49.2625527]}},{"properties":{"x":49.2622279,"y":-123.1150512,"id":"a65dllphacm7","address":"403 500 W 10TH AV"},"type":"Feature","geometry":{"type":"Point","coordinates":[-123.1150512,49.2622279]}},{"properties":{"x":49.2721697,"y":-123.0725141,"id":"a65dlm1d4kf5","address":"404 1549 KITCHENER ST"},"type":"Feature","geometry":{"type":"Point","coordinates":[-123.0725141,49.2721697]}},{"properties":{"x":49.2488665,"y":-123.0761459,"id":"a65dllrlpx71","address":"404 4028 KNIGHT ST"},"type":"Feature","geometry":{"type":"Point","coordinates":[-123.0761459,49.2488665]}},{"properties":{"x":49.2416506,"y":-123.1014558,"id":"a65dllqqql9h","address":"405 4823 MAIN ST"},"type":"Feature","geometry":{"type":"Point","coordinates":[-123.1014558,49.2416506]}},{"properties":{"x":49.2652593,"y":-123.0906035,"id":"a65dlls0wi02","address":"408 621 E 6TH AV"},"type":"Feature","geometry":{"type":"Point","coordinates":[-123.0906035,49.2652593]}},{"properties":{"x":49.2847689,"y":-123.0609851,"id":"a65dllxkry0p","address":"409 2133 DUNDAS ST"},"type":"Feature","geometry":{"type":"Point","coordinates":[-123.0609851,49.2847689]}},{"properties":{"x":49.248667,"y":-123.0761414,"id":"a65dllztzsn0","address":"417 4078 KNIGHT ST"},"type":"Feature","geometry":{"type":"Point","coordinates":[-123.0761414,49.248667]}},{"properties":{"x":49.248667,"y":-123.0761414,"id":"a65dllt57qm3","address":"504 4078 KNIGHT ST"},"type":"Feature","geometry":{"type":"Point","coordinates":[-123.0761414,49.248667]}},{"properties":{"x":49.248667,"y":-123.0761414,"id":"a65dllwskcmx","address":"513 4078 KNIGHT ST"},"type":"Feature","geometry":{"type":"Point","coordinates":[-123.0761414,49.248667]}},{"properties":{"x":49.2658899,"y":-123.0968864,"id":"a65dlm2qulqc","address":"6 2150 BRUNSWICK ST"},"type":"Feature","geometry":{"type":"Point","coordinates":[-123.0968864,49.2658899]}},{"properties":{"x":49.2651675,"y":-123.0957885,"id":"a65dllo077yw","address":"6 2223 PRINCE EDWARD ST"},"type":"Feature","geometry":{"type":"Point","coordinates":[-123.0957885,49.2651675]}},{"properties":{"x":49.248667,"y":-123.0761414,"id":"a65dlm1qkg16","address":"603 4078 KNIGHT ST"},"type":"Feature","geometry":{"type":"Point","coordinates":[-123.0761414,49.248667]}},{"properties":{"x":49.248667,"y":-123.0761414,"id":"a65dllzn1wvt","address":"604 4078 KNIGHT ST"},"type":"Feature","geometry":{"type":"Point","coordinates":[-123.0761414,49.248667]}},{"properties":{"x":49.273545,"y":-123.10024,"id":"a65dlm22m3ch","address":"703 1255 MAIN ST"},"type":"Feature","geometry":{"type":"Point","coordinates":[-123.10024,49.273545]}},{"properties":{"x":49.2607698,"y":-123.1363328,"id":"a65dllv38grn","address":"703 1405 W 12TH AV"},"type":"Feature","geometry":{"type":"Point","coordinates":[-123.1363328,49.2607698]}},{"properties":{"x":49.2597203,"y":-123.0890071,"id":"a65dlm2ko4mr","address":"708 E 12TH AV"},"type":"Feature","geometry":{"type":"Point","coordinates":[-123.0890071,49.2597203]}},{"properties":{"x":49.2597464,"y":-123.0888475,"id":"a65dllv3x4wi","address":"717 E 12TH AV"},"type":"Feature","geometry":{"type":"Point","coordinates":[-123.0888475,49.2597464]}},{"properties":{"x":49.248667,"y":-123.0761414,"id":"a65dlm259sxm","address":"718 4078 KNIGHT ST"},"type":"Feature","geometry":{"type":"Point","coordinates":[-123.0761414,49.248667]}},{"properties":{"x":49.263588,"y":-123.138565,"id":"a65dllyvwqu4","address":"720 1268 W BROADWAY BB"},"type":"Feature","geometry":{"type":"Point","coordinates":[-123.138565,49.263588]}},{"properties":{"x":49.2485467,"y":-123.0738224,"id":"a65dllp5l00q","address":"751 1483 E KING EDWARD AV"},"type":"Feature","geometry":{"type":"Point","coordinates":[-123.0738224,49.2485467]}},{"properties":{"x":49.2644279,"y":-123.1328108,"id":"a65dllrdcz9f","address":"8 1263 W 8TH AV"},"type":"Feature","geometry":{"type":"Point","coordinates":[-123.1328108,49.2644279]}},{"properties":{"x":49.2765298,"y":-123.0860103,"id":"a65dlm0qn51n","address":"857 PRIOR ST"},"type":"Feature","geometry":{"type":"Point","coordinates":[-123.0860103,49.2765298]}},{"properties":{"x":49.2488665,"y":-123.0761459,"id":"a65dllxktqo3","address":"902 4028 KNIGHT ST"},"type":"Feature","geometry":{"type":"Point","coordinates":[-123.0761459,49.2488665]}},{"properties":{"x":49.263588,"y":-123.138565,"id":"a65dllrvf9ub","address":"910 1268 W BROADWAY BB"},"type":"Feature","geometry":{"type":"Point","coordinates":[-123.138565,49.263588]}},{"properties":{"x":49.2573347,"y":-123.0935733,"id":"a65dllwinpi0","address":"E304 515 E 15TH AV"},"type":"Feature","geometry":{"type":"Point","coordinates":[-123.0935733,49.2573347]}},{"properties":{"x":49.263588,"y":-123.138565,"id":"a65dlm1b3jg5","address":"P2 1777 KINGSWAY BB"},"type":"Feature","geometry":{"type":"Point","coordinates":[-123.138565,49.263588]}},{"properties":{"x":49.2601069,"y":-123.0659188,"id":"a65dlm2i5aki","address":"P3 2736 VICTORIA DR"},"type":"Feature","geometry":{"type":"Point","coordinates":[-123.0659188,49.2601069]}},{"properties":{"x":49.2811587,"y":-123.0607058,"id":"a65dlltvyw83","address":"PH 23 2150 E HASTINGS ST"},"type":"Feature","geometry":{"type":"Point","coordinates":[-123.0607058,49.2811587]}},{"properties":{"x":49.2811587,"y":-123.0607058,"id":"a65dlm2zqbg2","address":"PH10 2150 E HASTINGS ST"},"type":"Feature","geometry":{"type":"Point","coordinates":[-123.0607058,49.2811587]}},{"properties":{"x":49.263588,"y":-123.138565,"id":"a65dllxuqoto","address":"PH11 760 KINGSWAY BB"},"type":"Feature","geometry":{"type":"Point","coordinates":[-123.138565,49.263588]}},{"properties":{"x":49.2811587,"y":-123.0607058,"id":"a65dllwypcv7","address":"PH22 2150 E HASTINGS ST"},"type":"Feature","geometry":{"type":"Point","coordinates":[-123.0607058,49.2811587]}},{"properties":{"x":49.2410404,"y":-123.0902202,"id":"a65dllpflqy7","address":"PH3 4838 FRASER ST"},"type":"Feature","geometry":{"type":"Point","coordinates":[-123.0902202,49.2410404]}},{"properties":{"x":49.2811864,"y":-123.0585117,"id":"a65dllzn3nwx","address":"PH5 2265 E HASTINGS ST"},"type":"Feature","geometry":{"type":"Point","coordinates":[-123.0585117,49.2811864]}},{"properties":{"x":49.263588,"y":-123.138565,"id":"a65dllv30ica","address":"PH5 760 KINGSWAY BB"},"type":"Feature","geometry":{"type":"Point","coordinates":[-123.138565,49.263588]}},{"properties":{"x":49.2368998,"y":-123.0649596,"id":"a65dlm0ikpai","address":"PH6 2028 E 37TH AV"},"type":"Feature","geometry":{"type":"Point","coordinates":[-123.0649596,49.2368998]}},{"properties":{"x":49.2555221,"y":-123.0901287,"id":"a65dllunafmp","address":"PH6 688 E 17TH AV"},"type":"Feature","geometry":{"type":"Point","coordinates":[-123.0901287,49.2555221]}},{"properties":{"x":49.263588,"y":-123.138565,"id":"a65dllwptafu","address":"PH7 868 KINGSWAY BB"},"type":"Feature","geometry":{"type":"Point","coordinates":[-123.138565,49.263588]}},{"properties":{"x":49.263588,"y":-123.138565,"id":"a65dllue4wtb","address":"W207 488 KINGSWAY BB"},"type":"Feature","geometry":{"type":"Point","coordinates":[-123.138565,49.263588]}}],"is_temporal":false,"author":{"url":"","metadata":"","contact_name":"","contact_address":"","source":"","contact_phone":""},"source":"","pagination":{"sort":null,"start":0,"total":158,"limit":1000000},"state":"complete","tags":"","published":"2014-08-10T22:48:45-04:00","id":17522}