{"type":"FeatureCollection","data_type":"Dataset","url_type":null,"permissions":[{"permissions":{"download":true,"view":true},"group_id":"everyone"}],"classification":null,"title":"Farms","count":12,"stream_id":176470,"contributor":{"url":"http://geocommons.com/users/23742","name":"HDMT"},"data_attributes":null,"calculation_params":null,"icon_link":null,"link":"http://geocommons.com/overlays/176470.json","extent":[-122.415,37.7086,-122.383,37.7664],"geometry_types":["point"],"unique_name":null,"name":"Farms","feature_count":12,"description":"Farmland locations in San Francisco. Data includes the area of each parcel of farmland.\r\n\r\nFarmland data is being used to promote food access and sustainable urban and rural agriculture.\r\n\r\nFor further information see http://www.sfdph.org/dph/EH/Agriculture/default.asp\r\n\r\nThe City and County of San Francisco does not guarantee the accuracy, adequacy, completeness or usefulness of any information. CCSF provides this information on an &quot;as is&quot; basis without warranty of any kind, including but not limited to warranties of merchantability or fitness for a particular purpose, and assumes no responsibility for anyone's use of the information.","next_feature":null,"is_raster":false,"short_classification":"Y","stats":{"AREA__SQ_F":{"max":196020.0,"mean":32043.8333333333,"variance":3068808467.24242,"stdev":55396.82723083,"min":2286.0,"median":5500.0},"AREAACRE":{"max":4.5,"mean":0.733333333333333,"variance":1.61151515151515,"stdev":1.26945466697915,"min":0.1,"median":0.1},"GROSS_VALU":{"max":1228500.0,"mean":261741.666666667,"variance":168382000833.333,"stdev":410343.759344934,"min":0.0,"median":37000.0}},"features":[{"properties":{"AREA__SQ_F":27500.0,"CITY":"San Francisco","AREAACRE":0.6,"BUSINESS_N":"Golden Gate Orchids","PRODUCTION":"Orchids","GROSS_VALU":590000.0,"id":"0","ADDRESS":"225 Velasco Street"},"type":"Feature","geometry":{"type":"Point","coordinates":[-122.414539859848,37.7085948170818]}},{"properties":{"AREA__SQ_F":45000.0,"CITY":"San Francisco","AREAACRE":1.0,"BUSINESS_N":"Sunborne Nursery","PRODUCTION":"Cuttings","GROSS_VALU":37000.0,"id":"1","ADDRESS":"1150 Phelps Street"},"type":"Feature","geometry":{"type":"Point","coordinates":[-122.392684513594,37.7382757926271]}},{"properties":{"AREA__SQ_F":5500.0,"CITY":"San Francisco","AREAACRE":0.1,"BUSINESS_N":"Silver Sprouts","PRODUCTION":"Bean Sprouts","GROSS_VALU":845000.0,"id":"2","ADDRESS":"1069 Pennsylvania Ave"},"type":"Feature","geometry":{"type":"Point","coordinates":[-122.392670660272,37.7528706998937]}},{"properties":{"AREA__SQ_F":5500.0,"CITY":"San Francisco","AREAACRE":0.1,"BUSINESS_N":"Silver Sprouts","PRODUCTION":"Soybean Sprouts","GROSS_VALU":300000.0,"id":"3","ADDRESS":"1070 Pennsylvania Ave"},"type":"Feature","geometry":{"type":"Point","coordinates":[-122.39266867664,37.7528500213667]}},{"properties":{"AREA__SQ_F":3000.0,"CITY":"San Francisco","AREAACRE":0.1,"BUSINESS_N":"Silver Sprouts","PRODUCTION":"Alfalfa Sprouts","GROSS_VALU":104000.0,"id":"4","ADDRESS":"1071 Pennsylvania Ave"},"type":"Feature","geometry":{"type":"Point","coordinates":[-122.39266867664,37.7528500213667]}},{"properties":{"AREA__SQ_F":3000.0,"CITY":"San Francisco","AREAACRE":0.1,"BUSINESS_N":"Wo chong","PRODUCTION":"Tofu","GROSS_VALU":1228500.0,"id":"5","ADDRESS":"1001 16th Street"},"type":"Feature","geometry":{"type":"Point","coordinates":[-122.396926092702,37.7664281498]}},{"properties":{"AREA__SQ_F":4800.0,"CITY":"San Francisco","AREAACRE":0.1,"BUSINESS_N":"Autamataun Produce Co","PRODUCTION":"Cabbage (Salad)","GROSS_VALU":10400.0,"id":"6","ADDRESS":"2010 Jerrold Ave"},"type":"Feature","geometry":{"type":"Point","coordinates":[-122.397074682642,37.7433580956643]}},{"properties":{"AREA__SQ_F":4800.0,"CITY":"San Francisco","AREAACRE":0.1,"BUSINESS_N":"Autamataun Produce Co","PRODUCTION":"Lettuce (Salad)","GROSS_VALU":26000.0,"id":"7","ADDRESS":"2010 Jerrold Ave"},"type":"Feature","geometry":{"type":"Point","coordinates":[-122.397074682642,37.7433580956643]}},{"properties":{"AREA__SQ_F":2286.0,"CITY":"San Francisco","AREAACRE":0.1,"BUSINESS_N":"Kim's Orchids","PRODUCTION":"Orchids","GROSS_VALU":0.0,"id":"8","ADDRESS":"2951 Griffith St"},"type":"Feature","geometry":{"type":"Point","coordinates":[-122.389646634582,37.716551064211]}},{"properties":{"AREA__SQ_F":196020.0,"CITY":"San Francisco","AREAACRE":4.5,"BUSINESS_N":"Alemany Farm","PRODUCTION":"Salad Crop","GROSS_VALU":0.0,"id":"9","ADDRESS":"Alemany Blvd &amp; Putnam St"},"type":"Feature","geometry":{"type":"Point","coordinates":[-122.410829500929,37.7347329151923]}},{"properties":{"AREA__SQ_F":65340.0,"CITY":"San Francisco","AREAACRE":1.5,"BUSINESS_N":"Girls 2000 Double Rock Garden","PRODUCTION":"Salad Crop and Herb","GROSS_VALU":0.0,"id":"10","ADDRESS":"1651 Quesada St"},"type":"Feature","geometry":{"type":"Point","coordinates":[-122.390438309094,37.7327655670096]}},{"properties":{"AREA__SQ_F":21780.0,"CITY":"San Francisco","AREAACRE":0.5,"BUSINESS_N":"Adam Rogers Garden","PRODUCTION":"Salad Crop and Herb","GROSS_VALU":0.0,"id":"11","ADDRESS":"Ingalls St &amp; Oakdale Ave"},"type":"Feature","geometry":{"type":"Point","coordinates":[-122.382887871601,37.730341971312]}}],"is_temporal":false,"author":{"url":"http://www.TheHDMT.org","metadata":"","contact_name":"Meg Wall","contact_address":"www.thehdmt.org","source":"www.TheHDMT.org","contact_phone":"www.TheHDMT.org"},"source":"http://www.TheHDMT.org","pagination":{"sort":null,"start":0,"total":12,"limit":1000000},"state":"complete","tags":"agriculture,francisco,hdmt,san","published":"2014-08-13T07:12:33-04:00","id":176470}