{"type":"FeatureCollection","data_type":"Dataset","url_type":null,"permissions":[{"permissions":{"download":true,"view":true},"group_id":"everyone"}],"classification":null,"title":"CMBS Test","count":245,"stream_id":17698,"contributor":{"url":"http://geocommons.com/users/4398","name":"tgildner"},"data_attributes":null,"calculation_params":null,"icon_link":null,"link":"http://geocommons.com/overlays/17698.json","extent":[-122.81,32.6795,-115.567,40.7163],"geometry_types":["point"],"unique_name":null,"name":"CMBS Test","feature_count":245,"description":"","next_feature":null,"is_raster":false,"short_classification":"Y","stats":{"geo_score":{"max":0.714,"mean":0.713999999999999,"variance":1.23764678393409e-30,"stdev":1.11249574558022e-15,"min":0.714,"median":0.714},"amount":{"max":6120295.92,"mean":1251218.31155102,"variance":1332676866354.48,"stdev":1154416.24484173,"min":69182.32,"median":907202.57}},"features":[{"properties":{"zip":"90015","dq":"N","geo_score":0.714,"amount":1000752.44,"id":"a6i1xuu3p8to","geo_precision":"zip"},"type":"Feature","geometry":{"type":"Point","coordinates":[-118.298662,33.786594]}},{"properties":{"zip":"90021","dq":"N","geo_score":0.714,"amount":1044061.81,"id":"a6i1xuntxwf9","geo_precision":"zip"},"type":"Feature","geometry":{"type":"Point","coordinates":[-118.298662,33.786594]}},{"properties":{"zip":"94103","dq":"N","geo_score":0.714,"amount":1045133.62,"id":"a6i1xuuurwh6","geo_precision":"zip"},"type":"Feature","geometry":{"type":"Point","coordinates":[-122.412131,37.775678]}},{"properties":{"zip":"94115","dq":"N","geo_score":0.714,"amount":1057678.68,"id":"a6i1xunt92hd","geo_precision":"zip"},"type":"Feature","geometry":{"type":"Point","coordinates":[-122.437032,37.786028]}},{"properties":{"zip":"92021","dq":"N","geo_score":0.714,"amount":1062628.16,"id":"a6i1xuvq83xb","geo_precision":"zip"},"type":"Feature","geometry":{"type":"Point","coordinates":[-116.86808,32.807274]}},{"properties":{"zip":"92868","dq":"N","geo_score":0.714,"amount":1078687.47,"id":"a6i1xusy15xz","geo_precision":"zip"},"type":"Feature","geometry":{"type":"Point","coordinates":[-117.769442,33.640302]}},{"properties":{"zip":"91745","dq":"N","geo_score":0.714,"amount":1094598.2,"id":"a6i1xuqwu0k1","geo_precision":"zip"},"type":"Feature","geometry":{"type":"Point","coordinates":[-117.981631,33.976114]}},{"properties":{"zip":"91770","dq":"N","geo_score":0.714,"amount":1115003.65,"id":"a6i1xun2s3se","geo_precision":"zip"},"type":"Feature","geometry":{"type":"Point","coordinates":[-118.090347,34.06251]}},{"properties":{"zip":"94041","dq":"N","geo_score":0.714,"amount":1116691.4,"id":"a6i1xurlvpww","geo_precision":"zip"},"type":"Feature","geometry":{"type":"Point","coordinates":[-121.705327,37.189396]}},{"properties":{"zip":"94520","dq":"N","geo_score":0.714,"amount":1132090.26,"id":"a6i1xulq1p8a","geo_precision":"zip"},"type":"Feature","geometry":{"type":"Point","coordinates":[-122.013355,37.988871]}},{"properties":{"zip":"92562","dq":"N","geo_score":0.714,"amount":1147992.04,"id":"a6i1xupvgi31","geo_precision":"zip"},"type":"Feature","geometry":{"type":"Point","coordinates":[-116.861027,33.44204]}},{"properties":{"zip":"94118","dq":"N","geo_score":0.714,"amount":1148061.11,"id":"a6i1xv164ko7","geo_precision":"zip"},"type":"Feature","geometry":{"type":"Point","coordinates":[-122.459982,37.778779]}},{"properties":{"zip":"95131","dq":"N","geo_score":0.714,"amount":1153638.57,"id":"a6i1xuzr4ud6","geo_precision":"zip"},"type":"Feature","geometry":{"type":"Point","coordinates":[-121.886316,37.388389]}},{"properties":{"zip":"92843","dq":"N","geo_score":0.714,"amount":1153971.35,"id":"a6i1xut7e251","geo_precision":"zip"},"type":"Feature","geometry":{"type":"Point","coordinates":[-117.769442,33.640302]}},{"properties":{"zip":"94108","dq":"N","geo_score":0.714,"amount":116346.43,"id":"a6i1xuxbfaiz","geo_precision":"zip"},"type":"Feature","geometry":{"type":"Point","coordinates":[-122.408582,37.796596]}},{"properties":{"zip":"94541","dq":"N","geo_score":0.714,"amount":1171257.3,"id":"a6i1xuwvkr1f","geo_precision":"zip"},"type":"Feature","geometry":{"type":"Point","coordinates":[-122.113853,37.694653]}},{"properties":{"zip":"95035","dq":"N","geo_score":0.714,"amount":1189754.4,"id":"a6i1xuya0uvt","geo_precision":"zip"},"type":"Feature","geometry":{"type":"Point","coordinates":[-121.861989,37.436454]}},{"properties":{"zip":"91706","dq":"N","geo_score":0.714,"amount":1190044.38,"id":"a6i1xuxy795u","geo_precision":"zip"},"type":"Feature","geometry":{"type":"Point","coordinates":[-118.298662,33.786594]}},{"properties":{"zip":"94619","dq":"N","geo_score":0.714,"amount":1260993.88,"id":"a6i1xuqhux8e","geo_precision":"zip"},"type":"Feature","geometry":{"type":"Point","coordinates":[-122.167126,37.783877]}},{"properties":{"zip":"94116","dq":"N","geo_score":0.714,"amount":126480.74,"id":"a6i1xuxu3dt2","geo_precision":"zip"},"type":"Feature","geometry":{"type":"Point","coordinates":[-122.483232,37.743857]}},{"properties":{"zip":"90704","dq":"N","geo_score":0.714,"amount":1265340.76,"id":"a6i1xv0hz4w0","geo_precision":"zip"},"type":"Feature","geometry":{"type":"Point","coordinates":[-118.298662,33.786594]}},{"properties":{"zip":"94607","dq":"N","geo_score":0.714,"amount":1281404.12,"id":"a6i1xuxv6q34","geo_precision":"zip"},"type":"Feature","geometry":{"type":"Point","coordinates":[-122.29878,37.807967]}},{"properties":{"zip":"91761","dq":"N","geo_score":0.714,"amount":1287625.47,"id":"a6i1xumr6nt0","geo_precision":"zip"},"type":"Feature","geometry":{"type":"Point","coordinates":[-115.967051,34.839964]}},{"properties":{"zip":"94545","dq":"N","geo_score":0.714,"amount":1294128.92,"id":"a6i1xuu9rmq0","geo_precision":"zip"},"type":"Feature","geometry":{"type":"Point","coordinates":[-122.092324,37.635482]}},{"properties":{"zip":"91775","dq":"N","geo_score":0.714,"amount":1297795.61,"id":"a6i1xux12gxc","geo_precision":"zip"},"type":"Feature","geometry":{"type":"Point","coordinates":[-118.298662,33.786594]}},{"properties":{"zip":"90058","dq":"N","geo_score":0.714,"amount":1301370.45,"id":"a6i1xurzta64","geo_precision":"zip"},"type":"Feature","geometry":{"type":"Point","coordinates":[-118.230073,34.003903]}},{"properties":{"zip":"90280","dq":"N","geo_score":0.714,"amount":1305904.7,"id":"a6i1xusvvwwj","geo_precision":"zip"},"type":"Feature","geometry":{"type":"Point","coordinates":[-118.163681,33.953626]}},{"properties":{"zip":"93422","dq":"N","geo_score":0.714,"amount":1315262.62,"id":"a6i1xuowpoif","geo_precision":"zip"},"type":"Feature","geometry":{"type":"Point","coordinates":[-120.712459,35.464793]}},{"properties":{"zip":"94022","dq":"N","geo_score":0.714,"amount":1333855.55,"id":"a6i1xuqckkg8","geo_precision":"zip"},"type":"Feature","geometry":{"type":"Point","coordinates":[-122.100518,37.35133]}},{"properties":{"zip":"90680","dq":"N","geo_score":0.714,"amount":1340236.6,"id":"a6i1xv0ryt5o","geo_precision":"zip"},"type":"Feature","geometry":{"type":"Point","coordinates":[-117.769442,33.640302]}},{"properties":{"zip":"95403","dq":"N","geo_score":0.714,"amount":1342011.35,"id":"a6i1xv0kahur","geo_precision":"zip"},"type":"Feature","geometry":{"type":"Point","coordinates":[-122.810328,38.477043]}},{"properties":{"zip":"95210","dq":"N","geo_score":0.714,"amount":137874.8,"id":"a6i1xulpu74y","geo_precision":"zip"},"type":"Feature","geometry":{"type":"Point","coordinates":[-121.291628,38.025472]}},{"properties":{"zip":"95112","dq":"N","geo_score":0.714,"amount":1385216.74,"id":"a6i1xuymi9fu","geo_precision":"zip"},"type":"Feature","geometry":{"type":"Point","coordinates":[-121.892093,37.37004]}},{"properties":{"zip":"90680","dq":"N","geo_score":0.714,"amount":1391508.23,"id":"a6i1xunpf30r","geo_precision":"zip"},"type":"Feature","geometry":{"type":"Point","coordinates":[-117.769442,33.640302]}},{"properties":{"zip":"93271","dq":"N","geo_score":0.714,"amount":1404612.83,"id":"a6i1xuqzddhw","geo_precision":"zip"},"type":"Feature","geometry":{"type":"Point","coordinates":[-118.82759,36.435485]}},{"properties":{"zip":"94118","dq":"N","geo_score":0.714,"amount":1431333.78,"id":"a6i1xuxxydgc","geo_precision":"zip"},"type":"Feature","geometry":{"type":"Point","coordinates":[-122.459982,37.778779]}},{"properties":{"zip":"94606","dq":"N","geo_score":0.714,"amount":1448547.17,"id":"a6i1xv1h4bv4","geo_precision":"zip"},"type":"Feature","geometry":{"type":"Point","coordinates":[-122.243979,37.789927]}},{"properties":{"zip":"94025","dq":"N","geo_score":0.714,"amount":1466047.85,"id":"a6i1xv0f7a6m","geo_precision":"zip"},"type":"Feature","geometry":{"type":"Point","coordinates":[-122.159409,37.476327]}},{"properties":{"zip":"94080","dq":"N","geo_score":0.714,"amount":1473688.08,"id":"a6i1xuza1bik","geo_precision":"zip"},"type":"Feature","geometry":{"type":"Point","coordinates":[-122.411361,37.638546]}},{"properties":{"zip":"94607","dq":"N","geo_score":0.714,"amount":1477568.59,"id":"a6i1xutukif1","geo_precision":"zip"},"type":"Feature","geometry":{"type":"Point","coordinates":[-122.29878,37.807967]}},{"properties":{"zip":"94101","dq":"N","geo_score":0.714,"amount":1481079.8,"id":"a6i1xush3x3t","geo_precision":"zip"},"type":"Feature","geometry":{"type":"Point","coordinates":[-122.727802,37.784827]}},{"properties":{"zip":"94110","dq":"N","geo_score":0.714,"amount":1502888.84,"id":"a6i1xumou6p9","geo_precision":"zip"},"type":"Feature","geometry":{"type":"Point","coordinates":[-122.416281,37.748932]}},{"properties":{"zip":"92707","dq":"N","geo_score":0.714,"amount":1530264.65,"id":"a6i1xuosausq","geo_precision":"zip"},"type":"Feature","geometry":{"type":"Point","coordinates":[-117.895613,33.65252]}},{"properties":{"zip":"94116","dq":"N","geo_score":0.714,"amount":154643.54,"id":"a6i1xv16y0id","geo_precision":"zip"},"type":"Feature","geometry":{"type":"Point","coordinates":[-122.483232,37.743857]}},{"properties":{"zip":"94114","dq":"N","geo_score":0.714,"amount":1565377.02,"id":"a6i1xuw15q71","geo_precision":"zip"},"type":"Feature","geometry":{"type":"Point","coordinates":[-122.439332,37.758279]}},{"properties":{"zip":"94041","dq":"N","geo_score":0.714,"amount":1566860.0,"id":"a6i1xuz1oeb5","geo_precision":"zip"},"type":"Feature","geometry":{"type":"Point","coordinates":[-121.705327,37.189396]}},{"properties":{"zip":"94107","dq":"N","geo_score":0.714,"amount":158102.24,"id":"a6i1xv0vkpn9","geo_precision":"zip"},"type":"Feature","geometry":{"type":"Point","coordinates":[-122.393681,37.769029]}},{"properties":{"zip":"90280","dq":"N","geo_score":0.714,"amount":1598374.13,"id":"a6i1xuyzhye5","geo_precision":"zip"},"type":"Feature","geometry":{"type":"Point","coordinates":[-118.163681,33.953626]}},{"properties":{"zip":"94122","dq":"N","geo_score":0.714,"amount":1607823.39,"id":"a6i1xutrv7ii","geo_precision":"zip"},"type":"Feature","geometry":{"type":"Point","coordinates":[-122.475732,37.761179]}},{"properties":{"zip":"91776","dq":"N","geo_score":0.714,"amount":1609615.7,"id":"a6i1xuuvnfli","geo_precision":"zip"},"type":"Feature","geometry":{"type":"Point","coordinates":[-118.298662,33.786594]}},{"properties":{"zip":"95608","dq":"N","geo_score":0.714,"amount":160990.72,"id":"a6i1xutq0o5x","geo_precision":"zip"},"type":"Feature","geometry":{"type":"Point","coordinates":[-121.332191,38.62136]}},{"properties":{"zip":"92683","dq":"N","geo_score":0.714,"amount":1610555.72,"id":"a6i1xumxbn96","geo_precision":"zip"},"type":"Feature","geometry":{"type":"Point","coordinates":[-118.024228,33.758905]}},{"properties":{"zip":"95113","dq":"N","geo_score":0.714,"amount":1615164.76,"id":"a6i1xun0wb0j","geo_precision":"zip"},"type":"Feature","geometry":{"type":"Point","coordinates":[-121.705327,37.189396]}},{"properties":{"zip":"94704","dq":"N","geo_score":0.714,"amount":1615933.28,"id":"a6i1xux8ufc0","geo_precision":"zip"},"type":"Feature","geometry":{"type":"Point","coordinates":[-122.256729,37.866975]}},{"properties":{"zip":"94114","dq":"N","geo_score":0.714,"amount":1631784.45,"id":"a6i1xuro8vjq","geo_precision":"zip"},"type":"Feature","geometry":{"type":"Point","coordinates":[-122.439332,37.758279]}},{"properties":{"zip":"91101","dq":"N","geo_score":0.714,"amount":1634507.69,"id":"a6i1xus98uqd","geo_precision":"zip"},"type":"Feature","geometry":{"type":"Point","coordinates":[-118.298662,33.786594]}},{"properties":{"zip":"90023","dq":"N","geo_score":0.714,"amount":1642027.85,"id":"a6i1xuqsb8k7","geo_precision":"zip"},"type":"Feature","geometry":{"type":"Point","coordinates":[-118.196055,34.008262]}},{"properties":{"zip":"94704","dq":"N","geo_score":0.714,"amount":1642545.94,"id":"a6i1xut67tbq","geo_precision":"zip"},"type":"Feature","geometry":{"type":"Point","coordinates":[-122.256729,37.866975]}},{"properties":{"zip":"94597","dq":"N","geo_score":0.714,"amount":1642689.76,"id":"a6i1xulsxflo","geo_precision":"zip"},"type":"Feature","geometry":{"type":"Point","coordinates":[-121.955399,37.777208]}},{"properties":{"zip":"91748","dq":"N","geo_score":0.714,"amount":1654915.72,"id":"a6i1xur0y96s","geo_precision":"zip"},"type":"Feature","geometry":{"type":"Point","coordinates":[-117.884784,33.987513]}},{"properties":{"zip":"90250","dq":"N","geo_score":0.714,"amount":1664627.24,"id":"a6i1xur2q2mq","geo_precision":"zip"},"type":"Feature","geometry":{"type":"Point","coordinates":[-118.298662,33.786594]}},{"properties":{"zip":"90006","dq":"N","geo_score":0.714,"amount":1673015.75,"id":"a6i1xuponc4k","geo_precision":"zip"},"type":"Feature","geometry":{"type":"Point","coordinates":[-118.298662,33.786594]}},{"properties":{"zip":"94114","dq":"N","geo_score":0.714,"amount":173829.44,"id":"a6i1xuxy54r9","geo_precision":"zip"},"type":"Feature","geometry":{"type":"Point","coordinates":[-122.439332,37.758279]}},{"properties":{"zip":"95823","dq":"N","geo_score":0.714,"amount":1746730.29,"id":"a6i1xuslqyod","geo_precision":"zip"},"type":"Feature","geometry":{"type":"Point","coordinates":[-121.442071,38.481354]}},{"properties":{"zip":"94577","dq":"N","geo_score":0.714,"amount":1759318.94,"id":"a6i1xuxhw4qa","geo_precision":"zip"},"type":"Feature","geometry":{"type":"Point","coordinates":[-122.158621,37.715629]}},{"properties":{"zip":"91101","dq":"N","geo_score":0.714,"amount":176656.21,"id":"a6i1xurc748t","geo_precision":"zip"},"type":"Feature","geometry":{"type":"Point","coordinates":[-118.298662,33.786594]}},{"properties":{"zip":"94134","dq":"N","geo_score":0.714,"amount":176717.96,"id":"a6i1xuztfpkf","geo_precision":"zip"},"type":"Feature","geometry":{"type":"Point","coordinates":[-122.410832,37.72168]}},{"properties":{"zip":"91766","dq":"N","geo_score":0.714,"amount":1780109.66,"id":"a6i1xuwimulq","geo_precision":"zip"},"type":"Feature","geometry":{"type":"Point","coordinates":[-119.382338,35.888009]}},{"properties":{"zip":"91106","dq":"N","geo_score":0.714,"amount":1800799.46,"id":"a6i1xusqcjvr","geo_precision":"zip"},"type":"Feature","geometry":{"type":"Point","coordinates":[-118.298662,33.786594]}},{"properties":{"zip":"94550","dq":"N","geo_score":0.714,"amount":182375.64,"id":"a6i1xumn1k14","geo_precision":"zip"},"type":"Feature","geometry":{"type":"Point","coordinates":[-121.91605,37.676781]}},{"properties":{"zip":"94607","dq":"N","geo_score":0.714,"amount":182405.89,"id":"a6i1xumrkteo","geo_precision":"zip"},"type":"Feature","geometry":{"type":"Point","coordinates":[-122.29878,37.807967]}},{"properties":{"zip":"95121","dq":"N","geo_score":0.714,"amount":1852399.98,"id":"a6i1xunuk4xm","geo_precision":"zip"},"type":"Feature","geometry":{"type":"Point","coordinates":[-121.797977,37.298592]}},{"properties":{"zip":"94133","dq":"N","geo_score":0.714,"amount":1863876.05,"id":"a6i1xuq2j2ge","geo_precision":"zip"},"type":"Feature","geometry":{"type":"Point","coordinates":[-122.412193,37.805762]}},{"properties":{"zip":"94110","dq":"N","geo_score":0.714,"amount":1905576.14,"id":"a6i1xus3p1bd","geo_precision":"zip"},"type":"Feature","geometry":{"type":"Point","coordinates":[-122.416281,37.748932]}},{"properties":{"zip":"91006","dq":"N","geo_score":0.714,"amount":1911264.25,"id":"a6i1xuxrfvqg","geo_precision":"zip"},"type":"Feature","geometry":{"type":"Point","coordinates":[-118.017567,34.105564]}},{"properties":{"zip":"93215","dq":"N","geo_score":0.714,"amount":192129.88,"id":"a6i1xux9dya9","geo_precision":"zip"},"type":"Feature","geometry":{"type":"Point","coordinates":[-118.905173,35.294405]}},{"properties":{"zip":"91010","dq":"N","geo_score":0.714,"amount":1986189.46,"id":"a6i1xux04ffb","geo_precision":"zip"},"type":"Feature","geometry":{"type":"Point","coordinates":[-118.298662,33.786594]}},{"properties":{"zip":"92618","dq":"N","geo_score":0.714,"amount":2024360.86,"id":"a6i1xumdrfrk","geo_precision":"zip"},"type":"Feature","geometry":{"type":"Point","coordinates":[-117.73269,33.641579]}},{"properties":{"zip":"94123","dq":"N","geo_score":0.714,"amount":202747.42,"id":"a6i1xuslm721","geo_precision":"zip"},"type":"Feature","geometry":{"type":"Point","coordinates":[-122.435732,37.79967]}},{"properties":{"zip":"96001","dq":"N","geo_score":0.714,"amount":2031821.11,"id":"a6i1xuv2txb7","geo_precision":"zip"},"type":"Feature","geometry":{"type":"Point","coordinates":[-122.331674,40.716261]}},{"properties":{"zip":"92553","dq":"N","geo_score":0.714,"amount":2038843.71,"id":"a6i1xur2vtdb","geo_precision":"zip"},"type":"Feature","geometry":{"type":"Point","coordinates":[-116.505017,32.679501]}},{"properties":{"zip":"95128","dq":"N","geo_score":0.714,"amount":207800.41,"id":"a6i1xuw63tuv","geo_precision":"zip"},"type":"Feature","geometry":{"type":"Point","coordinates":[-121.705327,37.189396]}},{"properties":{"zip":"92376","dq":"N","geo_score":0.714,"amount":2083531.87,"id":"a6i1xutj562z","geo_precision":"zip"},"type":"Feature","geometry":{"type":"Point","coordinates":[-115.567483,34.202339]}},{"properties":{"zip":"91606","dq":"N","geo_score":0.714,"amount":2089216.28,"id":"a6i1xuz7s3ba","geo_precision":"zip"},"type":"Feature","geometry":{"type":"Point","coordinates":[-118.298662,33.786594]}},{"properties":{"zip":"95128","dq":"N","geo_score":0.714,"amount":2117583.33,"id":"a6i1xuvm3v1l","geo_precision":"zip"},"type":"Feature","geometry":{"type":"Point","coordinates":[-121.705327,37.189396]}},{"properties":{"zip":"94607","dq":"N","geo_score":0.714,"amount":211956.95,"id":"a6i1xuzbzxm7","geo_precision":"zip"},"type":"Feature","geometry":{"type":"Point","coordinates":[-122.29878,37.807967]}},{"properties":{"zip":"92374","dq":"N","geo_score":0.714,"amount":2128690.35,"id":"a6i1xupm3d95","geo_precision":"zip"},"type":"Feature","geometry":{"type":"Point","coordinates":[-116.898232,34.153575]}},{"properties":{"zip":"95814","dq":"N","geo_score":0.714,"amount":2129629.7,"id":"a6i1xuozued5","geo_precision":"zip"},"type":"Feature","geometry":{"type":"Point","coordinates":[-121.480905,38.579055]}},{"properties":{"zip":"91411","dq":"N","geo_score":0.714,"amount":2148529.84,"id":"a6i1xuu51fuf","geo_precision":"zip"},"type":"Feature","geometry":{"type":"Point","coordinates":[-118.298662,33.786594]}},{"properties":{"zip":"94565","dq":"N","geo_score":0.714,"amount":2198291.91,"id":"a6i1xv1fhs3w","geo_precision":"zip"},"type":"Feature","geometry":{"type":"Point","coordinates":[-121.917219,38.00307]}},{"properties":{"zip":"91755","dq":"N","geo_score":0.714,"amount":2233226.09,"id":"a6i1xv1n7muk","geo_precision":"zip"},"type":"Feature","geometry":{"type":"Point","coordinates":[-118.298662,33.786594]}},{"properties":{"zip":"94509","dq":"N","geo_score":0.714,"amount":225411.34,"id":"a6i1xulf9dwp","geo_precision":"zip"},"type":"Feature","geometry":{"type":"Point","coordinates":[-121.75551,38.004922]}},{"properties":{"zip":"92708","dq":"N","geo_score":0.714,"amount":2276769.48,"id":"a6i1xupbwz7d","geo_precision":"zip"},"type":"Feature","geometry":{"type":"Point","coordinates":[-117.769442,33.640302]}},{"properties":{"zip":"91733","dq":"N","geo_score":0.714,"amount":229243.95,"id":"a6i1xupwre7v","geo_precision":"zip"},"type":"Feature","geometry":{"type":"Point","coordinates":[-118.298662,33.786594]}},{"properties":{"zip":"94122","dq":"N","geo_score":0.714,"amount":238582.37,"id":"a6i1xuzblbm3","geo_precision":"zip"},"type":"Feature","geometry":{"type":"Point","coordinates":[-122.475732,37.761179]}},{"properties":{"zip":"92324","dq":"N","geo_score":0.714,"amount":2409878.66,"id":"a6i1xuwc75xk","geo_precision":"zip"},"type":"Feature","geometry":{"type":"Point","coordinates":[-117.313654,34.033903]}},{"properties":{"zip":"94607","dq":"N","geo_score":0.714,"amount":2414182.06,"id":"a6i1xv0uyo0r","geo_precision":"zip"},"type":"Feature","geometry":{"type":"Point","coordinates":[-122.29878,37.807967]}},{"properties":{"zip":"94122","dq":"N","geo_score":0.714,"amount":242626.64,"id":"a6i1xupev0oq","geo_precision":"zip"},"type":"Feature","geometry":{"type":"Point","coordinates":[-122.475732,37.761179]}},{"properties":{"zip":"94112","dq":"N","geo_score":0.714,"amount":2455032.41,"id":"a6i1xv0yvfy1","geo_precision":"zip"},"type":"Feature","geometry":{"type":"Point","coordinates":[-122.439382,37.721981]}},{"properties":{"zip":"90810","dq":"N","geo_score":0.714,"amount":2505876.04,"id":"a6i1xur5snzy","geo_precision":"zip"},"type":"Feature","geometry":{"type":"Point","coordinates":[-118.232453,33.819266]}},{"properties":{"zip":"94019","dq":"N","geo_score":0.714,"amount":2528794.59,"id":"a6i1xux46cfo","geo_precision":"zip"},"type":"Feature","geometry":{"type":"Point","coordinates":[-122.400252,37.382998]}},{"properties":{"zip":"94133","dq":"N","geo_score":0.714,"amount":2539759.5,"id":"a6i1xuumxkh4","geo_precision":"zip"},"type":"Feature","geometry":{"type":"Point","coordinates":[-122.412193,37.805762]}},{"properties":{"zip":"94122","dq":"N","geo_score":0.714,"amount":257959.94,"id":"a6i1xuuaaj5v","geo_precision":"zip"},"type":"Feature","geometry":{"type":"Point","coordinates":[-122.475732,37.761179]}},{"properties":{"zip":"95122","dq":"N","geo_score":0.714,"amount":2616482.06,"id":"a6i1xuyma95m","geo_precision":"zip"},"type":"Feature","geometry":{"type":"Point","coordinates":[-121.828333,37.33074]}},{"properties":{"zip":"94044","dq":"N","geo_score":0.714,"amount":263872.6,"id":"a6i1xuqc56a0","geo_precision":"zip"},"type":"Feature","geometry":{"type":"Point","coordinates":[-122.490807,37.653824]}},{"properties":{"zip":"91732","dq":"N","geo_score":0.714,"amount":265787.88,"id":"a6i1xur3p49b","geo_precision":"zip"},"type":"Feature","geometry":{"type":"Point","coordinates":[-118.298662,33.786594]}},{"properties":{"zip":"94116","dq":"N","geo_score":0.714,"amount":266386.13,"id":"a6i1xumfma5n","geo_precision":"zip"},"type":"Feature","geometry":{"type":"Point","coordinates":[-122.483232,37.743857]}},{"properties":{"zip":"91042","dq":"N","geo_score":0.714,"amount":266427.73,"id":"a6i1xumdf18f","geo_precision":"zip"},"type":"Feature","geometry":{"type":"Point","coordinates":[-118.298662,33.786594]}},{"properties":{"zip":"94110","dq":"N","geo_score":0.714,"amount":269185.06,"id":"a6i1xv0cmx38","geo_precision":"zip"},"type":"Feature","geometry":{"type":"Point","coordinates":[-122.416281,37.748932]}},{"properties":{"zip":"94122","dq":"N","geo_score":0.714,"amount":269685.07,"id":"a6i1xv089uvn","geo_precision":"zip"},"type":"Feature","geometry":{"type":"Point","coordinates":[-122.475732,37.761179]}},{"properties":{"zip":"95132","dq":"N","geo_score":0.714,"amount":2778469.82,"id":"a6i1xv0s0wr7","geo_precision":"zip"},"type":"Feature","geometry":{"type":"Point","coordinates":[-121.86051,37.386329]}},{"properties":{"zip":"95014","dq":"N","geo_score":0.714,"amount":2788014.71,"id":"a6i1xuyhtkm7","geo_precision":"zip"},"type":"Feature","geometry":{"type":"Point","coordinates":[-121.705327,37.189396]}},{"properties":{"zip":"95132","dq":"N","geo_score":0.714,"amount":2901188.48,"id":"a6i1xv1pexmx","geo_precision":"zip"},"type":"Feature","geometry":{"type":"Point","coordinates":[-121.86051,37.386329]}},{"properties":{"zip":"95112","dq":"N","geo_score":0.714,"amount":291067.59,"id":"a6i1xuqs8b91","geo_precision":"zip"},"type":"Feature","geometry":{"type":"Point","coordinates":[-121.892093,37.37004]}},{"properties":{"zip":"91744","dq":"N","geo_score":0.714,"amount":292046.49,"id":"a6i1xumuxnpg","geo_precision":"zip"},"type":"Feature","geometry":{"type":"Point","coordinates":[-117.968398,34.051677]}},{"properties":{"zip":"93210","dq":"N","geo_score":0.714,"amount":2967444.27,"id":"a6i1xuy4c0xi","geo_precision":"zip"},"type":"Feature","geometry":{"type":"Point","coordinates":[-120.381432,36.247025]}},{"properties":{"zip":"90040","dq":"N","geo_score":0.714,"amount":3041209.8,"id":"a6i1xusx2vfz","geo_precision":"zip"},"type":"Feature","geometry":{"type":"Point","coordinates":[-118.153153,33.990863]}},{"properties":{"zip":"95409","dq":"N","geo_score":0.714,"amount":307262.48,"id":"a6i1xuyqnz0s","geo_precision":"zip"},"type":"Feature","geometry":{"type":"Point","coordinates":[-122.626545,38.462575]}},{"properties":{"zip":"94564","dq":"N","geo_score":0.714,"amount":3088687.9,"id":"a6i1xuw3vew3","geo_precision":"zip"},"type":"Feature","geometry":{"type":"Point","coordinates":[-122.243294,37.990772]}},{"properties":{"zip":"90028","dq":"N","geo_score":0.714,"amount":310027.79,"id":"a6i1xuzs25at","geo_precision":"zip"},"type":"Feature","geometry":{"type":"Point","coordinates":[-118.326743,34.098343]}},{"properties":{"zip":"90014","dq":"N","geo_score":0.714,"amount":3214878.17,"id":"a6i1xuy5pd6e","geo_precision":"zip"},"type":"Feature","geometry":{"type":"Point","coordinates":[-118.298662,33.786594]}},{"properties":{"zip":"91762","dq":"N","geo_score":0.714,"amount":3215129.02,"id":"a6i1xuv6cg1b","geo_precision":"zip"},"type":"Feature","geometry":{"type":"Point","coordinates":[-115.967051,34.839964]}},{"properties":{"zip":"90023","dq":"N","geo_score":0.714,"amount":3219648.82,"id":"a6i1xuqmd76j","geo_precision":"zip"},"type":"Feature","geometry":{"type":"Point","coordinates":[-118.196055,34.008262]}},{"properties":{"zip":"94109","dq":"N","geo_score":0.714,"amount":3328379.82,"id":"a6i1xuyankeg","geo_precision":"zip"},"type":"Feature","geometry":{"type":"Point","coordinates":[-122.420782,37.795219]}},{"properties":{"zip":"91789","dq":"N","geo_score":0.714,"amount":334509.88,"id":"a6i1xurb7g6o","geo_precision":"zip"},"type":"Feature","geometry":{"type":"Point","coordinates":[-118.298662,33.786594]}},{"properties":{"zip":"95742","dq":"N","geo_score":0.714,"amount":342260.87,"id":"a6i1xuyz0jto","geo_precision":"zip"},"type":"Feature","geometry":{"type":"Point","coordinates":[-121.20253,38.579621]}},{"properties":{"zip":"94117","dq":"N","geo_score":0.714,"amount":348783.3,"id":"a6i1xuw1zjah","geo_precision":"zip"},"type":"Feature","geometry":{"type":"Point","coordinates":[-122.443882,37.769079]}},{"properties":{"zip":"94103","dq":"N","geo_score":0.714,"amount":353468.4,"id":"a6i1xuygo4nn","geo_precision":"zip"},"type":"Feature","geometry":{"type":"Point","coordinates":[-122.412131,37.775678]}},{"properties":{"zip":"95828","dq":"N","geo_score":0.714,"amount":356723.41,"id":"a6i1xv0p4k34","geo_precision":"zip"},"type":"Feature","geometry":{"type":"Point","coordinates":[-121.423245,38.488446]}},{"properties":{"zip":"94133","dq":"N","geo_score":0.714,"amount":361006.41,"id":"a6i1xuy2ioxs","geo_precision":"zip"},"type":"Feature","geometry":{"type":"Point","coordinates":[-122.412193,37.805762]}},{"properties":{"zip":"94403","dq":"N","geo_score":0.714,"amount":362063.59,"id":"a6i1xv0hh4g4","geo_precision":"zip"},"type":"Feature","geometry":{"type":"Point","coordinates":[-122.304079,37.541486]}},{"properties":{"zip":"90605","dq":"N","geo_score":0.714,"amount":362307.36,"id":"a6i1xuyulyby","geo_precision":"zip"},"type":"Feature","geometry":{"type":"Point","coordinates":[-118.041733,33.960846]}},{"properties":{"zip":"94133","dq":"N","geo_score":0.714,"amount":364290.23,"id":"a6i1xumaw25e","geo_precision":"zip"},"type":"Feature","geometry":{"type":"Point","coordinates":[-122.412193,37.805762]}},{"properties":{"zip":"94108","dq":"N","geo_score":0.714,"amount":3673678.67,"id":"a6i1xupr8esq","geo_precision":"zip"},"type":"Feature","geometry":{"type":"Point","coordinates":[-122.408582,37.796596]}},{"properties":{"zip":"90702","dq":"N","geo_score":0.714,"amount":368722.32,"id":"a6i1xuorsghv","geo_precision":"zip"},"type":"Feature","geometry":{"type":"Point","coordinates":[-118.298662,33.786594]}},{"properties":{"zip":"90232","dq":"N","geo_score":0.714,"amount":370095.09,"id":"a6i1xv09e91n","geo_precision":"zip"},"type":"Feature","geometry":{"type":"Point","coordinates":[-118.298662,33.786594]}},{"properties":{"zip":"90012","dq":"N","geo_score":0.714,"amount":3722774.29,"id":"a6i1xumf3aeb","geo_precision":"zip"},"type":"Feature","geometry":{"type":"Point","coordinates":[-118.298662,33.786594]}},{"properties":{"zip":"94010","dq":"N","geo_score":0.714,"amount":3837824.79,"id":"a6i1xuz0236n","geo_precision":"zip"},"type":"Feature","geometry":{"type":"Point","coordinates":[-122.379416,37.574103]}},{"properties":{"zip":"91776","dq":"N","geo_score":0.714,"amount":384754.35,"id":"a6i1xv18nhuj","geo_precision":"zip"},"type":"Feature","geometry":{"type":"Point","coordinates":[-118.298662,33.786594]}},{"properties":{"zip":"92345","dq":"N","geo_score":0.714,"amount":3865969.67,"id":"a6i1xuxrncx4","geo_precision":"zip"},"type":"Feature","geometry":{"type":"Point","coordinates":[-115.967051,34.839964]}},{"properties":{"zip":"94941","dq":"N","geo_score":0.714,"amount":398095.72,"id":"a6i1xut9dqlp","geo_precision":"zip"},"type":"Feature","geometry":{"type":"Point","coordinates":[-122.562937,37.886325]}},{"properties":{"zip":"95128","dq":"N","geo_score":0.714,"amount":400912.26,"id":"a6i1xutrprei","geo_precision":"zip"},"type":"Feature","geometry":{"type":"Point","coordinates":[-121.705327,37.189396]}},{"properties":{"zip":"94110","dq":"N","geo_score":0.714,"amount":404588.44,"id":"a6i1xv1f1qj7","geo_precision":"zip"},"type":"Feature","geometry":{"type":"Point","coordinates":[-122.416281,37.748932]}},{"properties":{"zip":"91311","dq":"N","geo_score":0.714,"amount":415731.16,"id":"a6i1xurpyggn","geo_precision":"zip"},"type":"Feature","geometry":{"type":"Point","coordinates":[-118.298662,33.786594]}},{"properties":{"zip":"94133","dq":"N","geo_score":0.714,"amount":420181.4,"id":"a6i1xulp9oqd","geo_precision":"zip"},"type":"Feature","geometry":{"type":"Point","coordinates":[-122.412193,37.805762]}},{"properties":{"zip":"90015","dq":"N","geo_score":0.714,"amount":4269054.64,"id":"a6i1xuplauop","geo_precision":"zip"},"type":"Feature","geometry":{"type":"Point","coordinates":[-118.298662,33.786594]}},{"properties":{"zip":"93955","dq":"N","geo_score":0.714,"amount":4295414.07,"id":"a6i1xv17483s","geo_precision":"zip"},"type":"Feature","geometry":{"type":"Point","coordinates":[-121.848286,36.617182]}},{"properties":{"zip":"94116","dq":"N","geo_score":0.714,"amount":448201.07,"id":"a6i1xuvutubh","geo_precision":"zip"},"type":"Feature","geometry":{"type":"Point","coordinates":[-122.483232,37.743857]}},{"properties":{"zip":"95822","dq":"N","geo_score":0.714,"amount":449971.63,"id":"a6i1xuorbgev","geo_precision":"zip"},"type":"Feature","geometry":{"type":"Point","coordinates":[-121.497716,38.511356]}},{"properties":{"zip":"94110","dq":"N","geo_score":0.714,"amount":4509294.25,"id":"a6i1xut6k5dp","geo_precision":"zip"},"type":"Feature","geometry":{"type":"Point","coordinates":[-122.416281,37.748932]}},{"properties":{"zip":"90230","dq":"N","geo_score":0.714,"amount":452687.59,"id":"a6i1xup2y0nz","geo_precision":"zip"},"type":"Feature","geometry":{"type":"Point","coordinates":[-118.298662,33.786594]}},{"properties":{"zip":"91706","dq":"N","geo_score":0.714,"amount":458518.06,"id":"a6i1xumheldz","geo_precision":"zip"},"type":"Feature","geometry":{"type":"Point","coordinates":[-118.298662,33.786594]}},{"properties":{"zip":"92683","dq":"N","geo_score":0.714,"amount":4623477.8,"id":"a6i1xup801qj","geo_precision":"zip"},"type":"Feature","geometry":{"type":"Point","coordinates":[-118.024228,33.758905]}},{"properties":{"zip":"94123","dq":"N","geo_score":0.714,"amount":464398.24,"id":"a6i1xupjzo9l","geo_precision":"zip"},"type":"Feature","geometry":{"type":"Point","coordinates":[-122.435732,37.79967]}},{"properties":{"zip":"92683","dq":"N","geo_score":0.714,"amount":465731.69,"id":"a6i1xuw56qzm","geo_precision":"zip"},"type":"Feature","geometry":{"type":"Point","coordinates":[-118.024228,33.758905]}},{"properties":{"zip":"95121","dq":"N","geo_score":0.714,"amount":472530.22,"id":"a6i1xuq8nsng","geo_precision":"zip"},"type":"Feature","geometry":{"type":"Point","coordinates":[-121.797977,37.298592]}},{"properties":{"zip":"94596","dq":"N","geo_score":0.714,"amount":4756346.29,"id":"a6i1xuwiexb7","geo_precision":"zip"},"type":"Feature","geometry":{"type":"Point","coordinates":[-122.076074,37.884925]}},{"properties":{"zip":"91768","dq":"N","geo_score":0.714,"amount":478074.29,"id":"a6i1xuq9ineh","geo_precision":"zip"},"type":"Feature","geometry":{"type":"Point","coordinates":[-118.298662,33.786594]}},{"properties":{"zip":"94702","dq":"N","geo_score":0.714,"amount":480932.04,"id":"a6i1xumzjebf","geo_precision":"zip"},"type":"Feature","geometry":{"type":"Point","coordinates":[-122.28713,37.864425]}},{"properties":{"zip":"91768","dq":"N","geo_score":0.714,"amount":481712.69,"id":"a6i1xuyx53z3","geo_precision":"zip"},"type":"Feature","geometry":{"type":"Point","coordinates":[-118.298662,33.786594]}},{"properties":{"zip":"95121","dq":"N","geo_score":0.714,"amount":486201.68,"id":"a6i1xuxootep","geo_precision":"zip"},"type":"Feature","geometry":{"type":"Point","coordinates":[-121.797977,37.298592]}},{"properties":{"zip":"94574","dq":"N","geo_score":0.714,"amount":489612.19,"id":"a6i1xuzleip0","geo_precision":"zip"},"type":"Feature","geometry":{"type":"Point","coordinates":[-122.481647,38.517964]}},{"properties":{"zip":"91786","dq":"N","geo_score":0.714,"amount":495696.39,"id":"a6i1xuyk807y","geo_precision":"zip"},"type":"Feature","geometry":{"type":"Point","coordinates":[-117.689222,34.106676]}},{"properties":{"zip":"94606","dq":"N","geo_score":0.714,"amount":498776.14,"id":"a6i1xuz3gr42","geo_precision":"zip"},"type":"Feature","geometry":{"type":"Point","coordinates":[-122.243979,37.789927]}},{"properties":{"zip":"91761","dq":"N","geo_score":0.714,"amount":502143.44,"id":"a6i1xuz06az6","geo_precision":"zip"},"type":"Feature","geometry":{"type":"Point","coordinates":[-115.967051,34.839964]}},{"properties":{"zip":"90660","dq":"N","geo_score":0.714,"amount":503872.3,"id":"a6i1xumm7kn2","geo_precision":"zip"},"type":"Feature","geometry":{"type":"Point","coordinates":[-118.612032,34.377498]}},{"properties":{"zip":"90047","dq":"N","geo_score":0.714,"amount":509106.01,"id":"a6i1xuqfm23t","geo_precision":"zip"},"type":"Feature","geometry":{"type":"Point","coordinates":[-118.281184,33.920015]}},{"properties":{"zip":"95818","dq":"N","geo_score":0.714,"amount":509855.5,"id":"a6i1xv1aiuve","geo_precision":"zip"},"type":"Feature","geometry":{"type":"Point","coordinates":[-121.495915,38.557255]}},{"properties":{"zip":"93703","dq":"N","geo_score":0.714,"amount":510713.14,"id":"a6i1xv0z1bur","geo_precision":"zip"},"type":"Feature","geometry":{"type":"Point","coordinates":[-119.761076,36.768449]}},{"properties":{"zip":"94550","dq":"N","geo_score":0.714,"amount":513783.44,"id":"a6i1xus9h24j","geo_precision":"zip"},"type":"Feature","geometry":{"type":"Point","coordinates":[-121.91605,37.676781]}},{"properties":{"zip":"90032","dq":"N","geo_score":0.714,"amount":515893.36,"id":"a6i1xuoosdf0","geo_precision":"zip"},"type":"Feature","geometry":{"type":"Point","coordinates":[-118.298662,33.786594]}},{"properties":{"zip":"90035","dq":"N","geo_score":0.714,"amount":524686.41,"id":"a6i1xutd6mcx","geo_precision":"zip"},"type":"Feature","geometry":{"type":"Point","coordinates":[-118.298662,33.786594]}},{"properties":{"zip":"93532","dq":"N","geo_score":0.714,"amount":525485.17,"id":"a6i1xv15c60x","geo_precision":"zip"},"type":"Feature","geometry":{"type":"Point","coordinates":[-118.298662,33.786594]}},{"properties":{"zip":"91606","dq":"N","geo_score":0.714,"amount":530604.47,"id":"a6i1xuxsjv7q","geo_precision":"zip"},"type":"Feature","geometry":{"type":"Point","coordinates":[-118.298662,33.786594]}},{"properties":{"zip":"92583","dq":"N","geo_score":0.714,"amount":532115.36,"id":"a6i1xurbsqeg","geo_precision":"zip"},"type":"Feature","geometry":{"type":"Point","coordinates":[-116.055617,33.752886]}},{"properties":{"zip":"94103","dq":"N","geo_score":0.714,"amount":534972.99,"id":"a6i1xuuxwz4c","geo_precision":"zip"},"type":"Feature","geometry":{"type":"Point","coordinates":[-122.412131,37.775678]}},{"properties":{"zip":"93245","dq":"N","geo_score":0.714,"amount":542886.39,"id":"a6i1xuukumhv","geo_precision":"zip"},"type":"Feature","geometry":{"type":"Point","coordinates":[-119.817274,36.268194]}},{"properties":{"zip":"90640","dq":"N","geo_score":0.714,"amount":544465.79,"id":"a6i1xup2b51u","geo_precision":"zip"},"type":"Feature","geometry":{"type":"Point","coordinates":[-118.298662,33.786594]}},{"properties":{"zip":"95123","dq":"N","geo_score":0.714,"amount":547543.84,"id":"a6i1xuo4e92a","geo_precision":"zip"},"type":"Feature","geometry":{"type":"Point","coordinates":[-121.705327,37.189396]}},{"properties":{"zip":"91401","dq":"N","geo_score":0.714,"amount":551169.65,"id":"a6i1xv15nff7","geo_precision":"zip"},"type":"Feature","geometry":{"type":"Point","coordinates":[-118.298662,33.786594]}},{"properties":{"zip":"94402","dq":"N","geo_score":0.714,"amount":558319.35,"id":"a6i1xv1am55t","geo_precision":"zip"},"type":"Feature","geometry":{"type":"Point","coordinates":[-122.33063,37.541886]}},{"properties":{"zip":"90004","dq":"N","geo_score":0.714,"amount":561338.46,"id":"a6i1xuzvt527","geo_precision":"zip"},"type":"Feature","geometry":{"type":"Point","coordinates":[-118.298662,33.786594]}},{"properties":{"zip":"91744","dq":"N","geo_score":0.714,"amount":562070.18,"id":"a6i1xuspp2fc","geo_precision":"zip"},"type":"Feature","geometry":{"type":"Point","coordinates":[-117.968398,34.051677]}},{"properties":{"zip":"94124","dq":"N","geo_score":0.714,"amount":5651956.62,"id":"a6i1xv1n7ejd","geo_precision":"zip"},"type":"Feature","geometry":{"type":"Point","coordinates":[-122.382857,37.73123]}},{"properties":{"zip":"95301","dq":"N","geo_score":0.714,"amount":5843075.52,"id":"a6i1xup74fge","geo_precision":"zip"},"type":"Feature","geometry":{"type":"Point","coordinates":[-120.676309,37.370772]}},{"properties":{"zip":"91405","dq":"N","geo_score":0.714,"amount":5847546.14,"id":"a6i1xulv3joq","geo_precision":"zip"},"type":"Feature","geometry":{"type":"Point","coordinates":[-118.298662,33.786594]}},{"properties":{"zip":"93063","dq":"N","geo_score":0.714,"amount":590269.18,"id":"a6i1xv099sa0","geo_precision":"zip"},"type":"Feature","geometry":{"type":"Point","coordinates":[-118.70898,34.271669]}},{"properties":{"zip":"91733","dq":"N","geo_score":0.714,"amount":600190.92,"id":"a6i1xumkgckx","geo_precision":"zip"},"type":"Feature","geometry":{"type":"Point","coordinates":[-118.298662,33.786594]}},{"properties":{"zip":"94110","dq":"N","geo_score":0.714,"amount":600820.97,"id":"a6i1xunb2vos","geo_precision":"zip"},"type":"Feature","geometry":{"type":"Point","coordinates":[-122.416281,37.748932]}},{"properties":{"zip":"90746","dq":"N","geo_score":0.714,"amount":6066437.91,"id":"a6i1xutbg0tj","geo_precision":"zip"},"type":"Feature","geometry":{"type":"Point","coordinates":[-118.255204,33.859716]}},{"properties":{"zip":"94589","dq":"N","geo_score":0.714,"amount":6120295.92,"id":"a6i1xuy3iiry","geo_precision":"zip"},"type":"Feature","geometry":{"type":"Point","coordinates":[-122.280383,38.158221]}},{"properties":{"zip":"90813","dq":"N","geo_score":0.714,"amount":613684.01,"id":"a6i1xutto7js","geo_precision":"zip"},"type":"Feature","geometry":{"type":"Point","coordinates":[-118.183701,33.780017]}},{"properties":{"zip":"94621","dq":"N","geo_score":0.714,"amount":615563.57,"id":"a6i1xuzbn8x4","geo_precision":"zip"},"type":"Feature","geometry":{"type":"Point","coordinates":[-122.196689,37.742529]}},{"properties":{"zip":"91768","dq":"N","geo_score":0.714,"amount":617102.89,"id":"a6i1xuvecsgr","geo_precision":"zip"},"type":"Feature","geometry":{"type":"Point","coordinates":[-118.298662,33.786594]}},{"properties":{"zip":"94565","dq":"N","geo_score":0.714,"amount":618902.56,"id":"a6i1xus6cjvh","geo_precision":"zip"},"type":"Feature","geometry":{"type":"Point","coordinates":[-121.917219,38.00307]}},{"properties":{"zip":"94108","dq":"N","geo_score":0.714,"amount":623053.24,"id":"a6i1xv17smle","geo_precision":"zip"},"type":"Feature","geometry":{"type":"Point","coordinates":[-122.408582,37.796596]}},{"properties":{"zip":"92804","dq":"N","geo_score":0.714,"amount":623852.25,"id":"a6i1xuyxprps","geo_precision":"zip"},"type":"Feature","geometry":{"type":"Point","coordinates":[-117.769442,33.640302]}},{"properties":{"zip":"94601","dq":"N","geo_score":0.714,"amount":627041.49,"id":"a6i1xuvhrgqp","geo_precision":"zip"},"type":"Feature","geometry":{"type":"Point","coordinates":[-122.223779,37.786027]}},{"properties":{"zip":"94019","dq":"N","geo_score":0.714,"amount":645788.46,"id":"a6i1xulotc7v","geo_precision":"zip"},"type":"Feature","geometry":{"type":"Point","coordinates":[-122.400252,37.382998]}},{"properties":{"zip":"94109","dq":"N","geo_score":0.714,"amount":646508.75,"id":"a6i1xuythu4m","geo_precision":"zip"},"type":"Feature","geometry":{"type":"Point","coordinates":[-122.420782,37.795219]}},{"properties":{"zip":"95817","dq":"N","geo_score":0.714,"amount":649371.83,"id":"a6i1xuugsh9f","geo_precision":"zip"},"type":"Feature","geometry":{"type":"Point","coordinates":[-121.452264,38.549232]}},{"properties":{"zip":"90270","dq":"N","geo_score":0.714,"amount":657143.02,"id":"a6i1xuynbcum","geo_precision":"zip"},"type":"Feature","geometry":{"type":"Point","coordinates":[-118.187376,33.988463]}},{"properties":{"zip":"95210","dq":"N","geo_score":0.714,"amount":659389.14,"id":"a6i1xurymoxz","geo_precision":"zip"},"type":"Feature","geometry":{"type":"Point","coordinates":[-121.291628,38.025472]}},{"properties":{"zip":"93309","dq":"N","geo_score":0.714,"amount":662399.67,"id":"a6i1xv03p2ht","geo_precision":"zip"},"type":"Feature","geometry":{"type":"Point","coordinates":[-118.905173,35.294405]}},{"properties":{"zip":"94103","dq":"N","geo_score":0.714,"amount":672576.45,"id":"a6i1xur2xsl6","geo_precision":"zip"},"type":"Feature","geometry":{"type":"Point","coordinates":[-122.412131,37.775678]}},{"properties":{"zip":"94550","dq":"N","geo_score":0.714,"amount":672591.08,"id":"a6i1xuo3fhw6","geo_precision":"zip"},"type":"Feature","geometry":{"type":"Point","coordinates":[-121.91605,37.676781]}},{"properties":{"zip":"91710","dq":"N","geo_score":0.714,"amount":673734.14,"id":"a6i1xuy2a07v","geo_precision":"zip"},"type":"Feature","geometry":{"type":"Point","coordinates":[-117.778668,33.947792]}},{"properties":{"zip":"95112","dq":"N","geo_score":0.714,"amount":674945.26,"id":"a6i1xurm5ykl","geo_precision":"zip"},"type":"Feature","geometry":{"type":"Point","coordinates":[-121.892093,37.37004]}},{"properties":{"zip":"91732","dq":"N","geo_score":0.714,"amount":676214.33,"id":"a6i1xulr9n9q","geo_precision":"zip"},"type":"Feature","geometry":{"type":"Point","coordinates":[-118.298662,33.786594]}},{"properties":{"zip":"92105","dq":"N","geo_score":0.714,"amount":684318.92,"id":"a6i1xuth3qfr","geo_precision":"zip"},"type":"Feature","geometry":{"type":"Point","coordinates":[-117.110032,32.749495]}},{"properties":{"zip":"94110","dq":"N","geo_score":0.714,"amount":69182.32,"id":"a6i1xup5y0qr","geo_precision":"zip"},"type":"Feature","geometry":{"type":"Point","coordinates":[-122.416281,37.748932]}},{"properties":{"zip":"95116","dq":"N","geo_score":0.714,"amount":741537.28,"id":"a6i1xv0jyvpk","geo_precision":"zip"},"type":"Feature","geometry":{"type":"Point","coordinates":[-121.835344,37.35504]}},{"properties":{"zip":"91030","dq":"N","geo_score":0.714,"amount":753203.78,"id":"a6i1xuwmysdt","geo_precision":"zip"},"type":"Feature","geometry":{"type":"Point","coordinates":[-118.298662,33.786594]}},{"properties":{"zip":"92614","dq":"N","geo_score":0.714,"amount":771930.42,"id":"a6i1xummaydv","geo_precision":"zip"},"type":"Feature","geometry":{"type":"Point","coordinates":[-117.827913,33.685319]}},{"properties":{"zip":"95126","dq":"N","geo_score":0.714,"amount":778783.13,"id":"a6i1xuwg5qdp","geo_precision":"zip"},"type":"Feature","geometry":{"type":"Point","coordinates":[-121.705327,37.189396]}},{"properties":{"zip":"94520","dq":"N","geo_score":0.714,"amount":788107.15,"id":"a6i1xuysn6bp","geo_precision":"zip"},"type":"Feature","geometry":{"type":"Point","coordinates":[-122.013355,37.988871]}},{"properties":{"zip":"94601","dq":"N","geo_score":0.714,"amount":800111.9,"id":"a6i1xuxu4mrp","geo_precision":"zip"},"type":"Feature","geometry":{"type":"Point","coordinates":[-122.223779,37.786027]}},{"properties":{"zip":"94010","dq":"N","geo_score":0.714,"amount":808524.39,"id":"a6i1xuxc74xj","geo_precision":"zip"},"type":"Feature","geometry":{"type":"Point","coordinates":[-122.379416,37.574103]}},{"properties":{"zip":"91801","dq":"N","geo_score":0.714,"amount":816675.99,"id":"a6i1xulm51mc","geo_precision":"zip"},"type":"Feature","geometry":{"type":"Point","coordinates":[-118.298662,33.786594]}},{"properties":{"zip":"91768","dq":"N","geo_score":0.714,"amount":817153.07,"id":"a6i1xus1m074","geo_precision":"zip"},"type":"Feature","geometry":{"type":"Point","coordinates":[-118.298662,33.786594]}},{"properties":{"zip":"95605","dq":"N","geo_score":0.714,"amount":822095.66,"id":"a6i1xuqv7mfp","geo_precision":"zip"},"type":"Feature","geometry":{"type":"Point","coordinates":[-121.53829,38.587405]}},{"properties":{"zip":"92399","dq":"N","geo_score":0.714,"amount":830828.46,"id":"a6i1xuxwh058","geo_precision":"zip"},"type":"Feature","geometry":{"type":"Point","coordinates":[-116.947805,34.049457]}},{"properties":{"zip":"95110","dq":"N","geo_score":0.714,"amount":836746.15,"id":"a6i1xv1b3nao","geo_precision":"zip"},"type":"Feature","geometry":{"type":"Point","coordinates":[-121.705327,37.189396]}},{"properties":{"zip":"91733","dq":"N","geo_score":0.714,"amount":845197.66,"id":"a6i1xuz3eo5h","geo_precision":"zip"},"type":"Feature","geometry":{"type":"Point","coordinates":[-118.298662,33.786594]}},{"properties":{"zip":"94103","dq":"N","geo_score":0.714,"amount":865097.68,"id":"a6i1xuv7ivtu","geo_precision":"zip"},"type":"Feature","geometry":{"type":"Point","coordinates":[-122.412131,37.775678]}},{"properties":{"zip":"94122","dq":"N","geo_score":0.714,"amount":870944.54,"id":"a6i1xutgeoac","geo_precision":"zip"},"type":"Feature","geometry":{"type":"Point","coordinates":[-122.475732,37.761179]}},{"properties":{"zip":"90028","dq":"N","geo_score":0.714,"amount":889173.16,"id":"a6i1xut8afry","geo_precision":"zip"},"type":"Feature","geometry":{"type":"Point","coordinates":[-118.326743,34.098343]}},{"properties":{"zip":"91776","dq":"N","geo_score":0.714,"amount":900821.9,"id":"a6i1xuuebsdn","geo_precision":"zip"},"type":"Feature","geometry":{"type":"Point","coordinates":[-118.298662,33.786594]}},{"properties":{"zip":"90016","dq":"N","geo_score":0.714,"amount":902439.98,"id":"a6i1xuyod395","geo_precision":"zip"},"type":"Feature","geometry":{"type":"Point","coordinates":[-118.298662,33.786594]}},{"properties":{"zip":"91710","dq":"N","geo_score":0.714,"amount":907202.57,"id":"a6i1xunw5on8","geo_precision":"zip"},"type":"Feature","geometry":{"type":"Point","coordinates":[-117.778668,33.947792]}},{"properties":{"zip":"94523","dq":"N","geo_score":0.714,"amount":912112.57,"id":"a6i1xuzof0yi","geo_precision":"zip"},"type":"Feature","geometry":{"type":"Point","coordinates":[-122.052741,37.941312]}},{"properties":{"zip":"94606","dq":"N","geo_score":0.714,"amount":913884.94,"id":"a6i1xuuk3dan","geo_precision":"zip"},"type":"Feature","geometry":{"type":"Point","coordinates":[-122.243979,37.789927]}},{"properties":{"zip":"94544","dq":"N","geo_score":0.714,"amount":916081.06,"id":"a6i1xuysk1pf","geo_precision":"zip"},"type":"Feature","geometry":{"type":"Point","coordinates":[-122.061673,37.613883]}},{"properties":{"zip":"95129","dq":"N","geo_score":0.714,"amount":920303.18,"id":"a6i1xup9aqju","geo_precision":"zip"},"type":"Feature","geometry":{"type":"Point","coordinates":[-121.705327,37.189396]}},{"properties":{"zip":"94607","dq":"N","geo_score":0.714,"amount":920811.57,"id":"a6i1xv1of3vp","geo_precision":"zip"},"type":"Feature","geometry":{"type":"Point","coordinates":[-122.29878,37.807967]}},{"properties":{"zip":"94015","dq":"N","geo_score":0.714,"amount":921592.44,"id":"a6i1xulv093u","geo_precision":"zip"},"type":"Feature","geometry":{"type":"Point","coordinates":[-122.475234,37.676864]}},{"properties":{"zip":"90638","dq":"N","geo_score":0.714,"amount":934700.39,"id":"a6i1xuvli596","geo_precision":"zip"},"type":"Feature","geometry":{"type":"Point","coordinates":[-118.007297,33.900863]}},{"properties":{"zip":"91104","dq":"N","geo_score":0.714,"amount":934870.01,"id":"a6i1xuqb5m0c","geo_precision":"zip"},"type":"Feature","geometry":{"type":"Point","coordinates":[-118.298662,33.786594]}},{"properties":{"zip":"94501","dq":"N","geo_score":0.714,"amount":960250.09,"id":"a6i1xus3c6if","geo_precision":"zip"},"type":"Feature","geometry":{"type":"Point","coordinates":[-122.264779,37.770563]}},{"properties":{"zip":"94550","dq":"N","geo_score":0.714,"amount":96875.97,"id":"a6i1xum69cfj","geo_precision":"zip"},"type":"Feature","geometry":{"type":"Point","coordinates":[-121.91605,37.676781]}},{"properties":{"zip":"90037","dq":"N","geo_score":0.714,"amount":971188.76,"id":"a6i1xute7egf","geo_precision":"zip"},"type":"Feature","geometry":{"type":"Point","coordinates":[-118.298662,33.786594]}},{"properties":{"zip":"93611","dq":"N","geo_score":0.714,"amount":974916.83,"id":"a6i1xv1789zx","geo_precision":"zip"},"type":"Feature","geometry":{"type":"Point","coordinates":[-119.592146,36.832583]}},{"properties":{"zip":"94105","dq":"N","geo_score":0.714,"amount":976699.21,"id":"a6i1xv1p8x0g","geo_precision":"zip"},"type":"Feature","geometry":{"type":"Point","coordinates":[-122.395631,37.789595]}},{"properties":{"zip":"91732","dq":"N","geo_score":0.714,"amount":977880.36,"id":"a6i1xupdyg0x","geo_precision":"zip"},"type":"Feature","geometry":{"type":"Point","coordinates":[-118.298662,33.786594]}},{"properties":{"zip":"94133","dq":"N","geo_score":0.714,"amount":986393.64,"id":"a6i1xuq5fct5","geo_precision":"zip"},"type":"Feature","geometry":{"type":"Point","coordinates":[-122.412193,37.805762]}}],"is_temporal":false,"author":{"url":"","metadata":"","contact_name":"","contact_address":"","source":"","contact_phone":""},"source":"","pagination":{"sort":null,"start":0,"total":245,"limit":1000000},"state":"complete","tags":"","published":"2014-08-10T23:00:04-04:00","id":17698}