{"type":"FeatureCollection","data_type":"Dataset","url_type":null,"permissions":[{"permissions":{"download":true,"view":true},"group_id":"everyone"}],"classification":null,"title":"ZayoCNIcounties","count":245,"stream_id":178498,"contributor":{"url":"http://geocommons.com/users/12008","name":"pantheon"},"data_attributes":null,"calculation_params":null,"icon_link":null,"link":"http://geocommons.com/overlays/178498.json","extent":[-84.7967,39.2894,-82.1538,41.6751],"geometry_types":["point"],"unique_name":null,"name":"ZayoCNIcounties","feature_count":245,"description":"","next_feature":null,"is_raster":false,"short_classification":"Y","stats":{},"features":[{"properties":{"city":"BLUFFTON","lon":"-83 52 50","zip":"45817","county":"Allen","geo_score":1.0,"cni partner":null,"msc":"OH MAUMEE MTSO","id":"a633on9h8pir","geo_precision":"range","address":"210 LAKE ST","lat":"40 53 41","state":"OH"},"type":"Feature","geometry":{"type":"Point","coordinates":[-83.883224,40.896699]}},{"properties":{"city":"LIMA","lon":"-84 05 52","zip":"45801","county":"Allen","geo_score":0.915,"cni partner":null,"msc":"OH MAUMEE MTSO","id":"a633on4hids9","geo_precision":"range","address":"356 N PARK AVE","lat":"40 44 36","state":"OH"},"type":"Feature","geometry":{"type":"Point","coordinates":[-84.097569,40.743347]}},{"properties":{"city":"LIMA","lon":"-84 07 06.19","zip":"45801","county":"Allen","geo_score":0.768,"cni partner":null,"msc":"OH MAUMEE MTSO","id":"a633on0h4met","geo_precision":"range","address":"730 WEST MARKET ST  SUITE 1001","lat":"40-44-29.96","state":"OH"},"type":"Feature","geometry":{"type":"Point","coordinates":[-84.117306,40.740028]}},{"properties":{"city":"LIMA","lon":"-84 04 09.55","zip":"45801","county":"Allen","geo_score":0.915,"cni partner":null,"msc":"OH MAUMEE MTSO","id":"a633on9e7b9b","geo_precision":"range","address":"2732 STEWART ROAD","lat":"40 46 40.98","state":"OH"},"type":"Feature","geometry":{"type":"Point","coordinates":[-84.070556,40.777892]}},{"properties":{"city":"LIMA","lon":"-84 06 25","zip":"45804","county":"Allen","geo_score":0.74,"cni partner":null,"msc":"OH MAUMEE MTSO","id":"a633on5nkbjz","geo_precision":"street","address":"2589 MCCLAIN (205 WEST HANTHORN ROAD??)","lat":"40 42 07","state":"OH"},"type":"Feature","geometry":{"type":"Point","coordinates":[-84.108031,40.716773]}},{"properties":{"city":"LIMA","lon":"-84 04 36.9","zip":"45804","county":"Allen","geo_score":0.902,"cni partner":null,"msc":"OH MAUMEE MTSO","id":"a633oned9o74","geo_precision":"range","address":"1812 EAST FOURTH ST","lat":"40 42 58.5","state":"OH"},"type":"Feature","geometry":{"type":"Point","coordinates":[-84.073042,40.716995]}},{"properties":{"city":"LIMA","lon":"-84 07 47","zip":"45805","county":"Allen","geo_score":0.592,"cni partner":null,"msc":"OH MAUMEE MTSO","id":"a633on4rjlzm","geo_precision":"street","address":"14660 N ROSEDALE AVE\nCERTIFIED ADDRESS IS 1460 N RIVERSIDE","lat":"40 45 24","state":"OH"},"type":"Feature","geometry":{"type":"Point","coordinates":[-84.130656,40.754828]}},{"properties":{"city":"LIMA","lon":"-84 08 33.1","zip":"45805","county":"Allen","geo_score":1.0,"cni partner":null,"msc":"OH MAUMEE MTSO","id":"a633oncbwjhb","geo_precision":"zip","address":"2341 SPENCERVILLE ROAD (OH-117)","lat":"40 43 44.5","state":"OH"},"type":"Feature","geometry":{"type":"Point","coordinates":[-84.169749,40.733043]}},{"properties":{"city":"LIMA","lon":"-84 11 03","zip":"45806","county":"Allen","geo_score":0.805,"cni partner":null,"msc":"OH MAUMEE MTSO","id":"a633on7zz0vs","geo_precision":"range","address":"771 S COPUS RD","lat":"40 43 43","state":"OH"},"type":"Feature","geometry":{"type":"Point","coordinates":[-84.18687,40.728936]}},{"properties":{"city":"LIMA","lon":"-84 00 12","zip":"45807","county":"Allen","geo_score":0.913,"cni partner":null,"msc":"OH MAUMEE MTSO","id":"a633on0g0eqn","geo_precision":"range","address":"5415 E STATE RD","lat":"40 49 06","state":"OH"},"type":"Feature","geometry":{"type":"Point","coordinates":[-84.005061,40.819275]}},{"properties":{"city":"LIMA","lon":"-84 04 55","zip":"45807","county":"Allen","geo_score":0.913,"cni partner":null,"msc":"OH MAUMEE MTSO","id":"a633on75f3dv","geo_precision":"range","address":"7680 OTTAWA RD","lat":"40 50 58","state":"OH"},"type":"Feature","geometry":{"type":"Point","coordinates":[-84.083167,40.849121]}},{"properties":{"city":"LIMA","lon":"-84 10 42.31","zip":"45807","county":"Allen","geo_score":0.873,"cni partner":null,"msc":"OH MAUMEE MTSO","id":"a633omzk10dj","geo_precision":"street","address":"4152 ELIDA ROAD (CERTIFIED)","lat":"40 46 41.89","state":"OH"},"type":"Feature","geometry":{"type":"Point","coordinates":[-84.165211,40.770396]}},{"properties":{"city":"SPENCERVILLE","lon":"-84 20 17","zip":"45887","county":"Allen","geo_score":0.927,"cni partner":null,"msc":"OH MAUMEE MTSO","id":"a633onb27uj3","geo_precision":"range","address":"12300 ALLENTOWN RD","lat":"40 44 13","state":"OH"},"type":"Feature","geometry":{"type":"Point","coordinates":[-84.339799,40.736018]}},{"properties":{"city":"CRIDERSVILLE","lon":"-84 12 29","zip":"45806","county":"Auglaize","geo_score":0.715,"cni partner":null,"msc":"OH MAUMEE MTSO","id":"a633on0y12fs","geo_precision":"street","address":"19507 STATE ROUTE 501","lat":"40 38 03","state":"OH"},"type":"Feature","geometry":{"type":"Point","coordinates":[-84.203511,40.657047]}},{"properties":{"city":"MINSTER","lon":"-84 21 03","zip":"45865","county":"Auglaize","geo_score":0.883,"cni partner":null,"msc":"OH MAUMEE MTSO","id":"a633on3554jr","geo_precision":"range","address":"5363 NORTH CORPORATION RD 36","lat":"40 24 10","state":"OH"},"type":"Feature","geometry":{"type":"Point","coordinates":[-84.351023,40.400629]}},{"properties":{"city":"SAINT MARYS","lon":"-84 22 38","zip":"45885","county":"Auglaize","geo_score":0.912,"cni partner":null,"msc":"OH MAUMEE MTSO","id":"a633onbb76np","geo_precision":"range","address":"903 MCKINLEY RD","lat":"40 32 59","state":"OH"},"type":"Feature","geometry":{"type":"Point","coordinates":[-84.373879,40.553599]}},{"properties":{"city":"WAPAKONETA","lon":"-80 10 56","zip":"45895","county":"Auglaize","geo_score":0.802,"cni partner":null,"msc":"OH MAUMEE MTSO","id":"a633on2ofvq5","geo_precision":"street","address":"900 N INDUSTRIAL DRIVE","lat":"40 33 34","state":"OH"},"type":"Feature","geometry":{"type":"Point","coordinates":[-84.182564,40.557427]}},{"properties":{"city":"WAYNESFIELD","lon":"-83 57 46","zip":"45895","county":"Auglaize","geo_score":0.743,"cni partner":null,"msc":"OH MAUMEE MTSO","id":"a633on288y18","geo_precision":"street","address":"25702 STATE ROUTE 67","lat":"40 35 57","state":"OH"},"type":"Feature","geometry":{"type":"Point","coordinates":[-83.983989,40.600591]}},{"properties":{"city":"WAYNESVILLE","lon":"-84 09 55","zip":"45068","county":"Auglaize","geo_score":0.894,"cni partner":null,"msc":"OH DUFF MTSO","id":"a633on3fi2wz","geo_precision":"range","address":"7560 NORTH STATE ROUTE 48","lat":"39 32 48","state":"OH"},"type":"Feature","geometry":{"type":"Point","coordinates":[-84.16602,39.546227]}},{"properties":{"city":"WAYNESVILLE","lon":"-84 06 36","zip":"45068","county":"Auglaize","geo_score":0.894,"cni partner":null,"msc":"OH DUFF MTSO","id":"a633on3a3ncq","geo_precision":"range","address":"4336 E STATE ROUTE 73","lat":"39 32 45","state":"OH"},"type":"Feature","geometry":{"type":"Point","coordinates":[-84.111857,39.542984]}},{"properties":{"city":"WAYNESVILLE","lon":"-84 03 58","zip":"45068","county":"Auglaize","geo_score":0.726,"cni partner":null,"msc":"OH DUFF MTSO","id":"a633on4gua6a","geo_precision":"street","address":"5638 NORTH CLARKSVILLE ROAD","lat":"39 30 49","state":"OH"},"type":"Feature","geometry":{"type":"Point","coordinates":[-84.072733,39.51871]}},{"properties":{"city":"FAIRFIELD","lon":"-84 32 09","zip":"45014","county":"Butler","geo_score":0.902,"cni partner":null,"msc":"OH DUFF MTSO","id":"a633on8uoqj5","geo_precision":"range","address":"5330 WINTON RD","lat":"39 19 53","state":"OH"},"type":"Feature","geometry":{"type":"Point","coordinates":[-84.540106,39.332797]}},{"properties":{"city":"FAIRFIELD","lon":"-84 29 37.4","zip":"45014","county":"Butler","geo_score":0.902,"cni partner":null,"msc":"OH DUFF MTSO","id":"a633onabiort","geo_precision":"range","address":"9243 SEWARD RD","lat":"39 19 43","state":"OH"},"type":"Feature","geometry":{"type":"Point","coordinates":[-84.492347,39.328646]}},{"properties":{"city":"FAIRFIELD","lon":"-84 34 01.55","zip":"45014","county":"Butler","geo_score":0.705,"cni partner":null,"msc":"OH DUFF MTSO","id":"a633onbudpvh","geo_precision":"range","address":"439 PATTERSON BLVD\n441 PATTERSON BLVD IS WHAT CB HAS","lat":"39 20 26.45","state":"OH"},"type":"Feature","geometry":{"type":"Point","coordinates":[-84.566753,39.341008]}},{"properties":{"city":"HAMILTON","lon":"-84 28 15","zip":"45011","county":"Butler","geo_score":0.919,"cni partner":null,"msc":"OH DUFF MTSO","id":"a633on6dyox3","geo_precision":"range","address":"4543 PORT UNION RD -","lat":"39 20 02","state":"OH"},"type":"Feature","geometry":{"type":"Point","coordinates":[-84.471069,39.331961]}},{"properties":{"city":"HAMILTON","lon":"-84 28 45","zip":"45011","county":"Butler","geo_score":0.919,"cni partner":null,"msc":"OH DUFF MTSO","id":"a633one0qbn8","geo_precision":"range","address":"4078 TONYA TRAIL","lat":"39 25 04","state":"OH"},"type":"Feature","geometry":{"type":"Point","coordinates":[-84.478218,39.417602]}},{"properties":{"city":"HAMILTON","lon":"-84 32 52","zip":"45011","county":"Butler","geo_score":0.919,"cni partner":null,"msc":"OH DUFF MTSO","id":"a633on5pbl14","geo_precision":"range","address":"1535 SINGER AVE","lat":"39 23 05","state":"OH"},"type":"Feature","geometry":{"type":"Point","coordinates":[-84.548187,39.385382]}},{"properties":{"city":"HAMILTON","lon":"-84 26 26","zip":"45011","county":"Butler","geo_score":0.919,"cni partner":null,"msc":"OH DUFF MTSO","id":"a633on8hepqm","geo_precision":"range","address":"6871 VAN GORDON RD","lat":"39 22 53","state":"OH"},"type":"Feature","geometry":{"type":"Point","coordinates":[-84.440227,39.380628]}},{"properties":{"city":"HAMILTON","lon":"-84 31 30","zip":"45011","county":"Butler","geo_score":0.724,"cni partner":null,"msc":"OH DUFF MTSO","id":"a633onb0vz47","geo_precision":"street","address":"3862 N RIVERSIDE DRIVE","lat":"39 26 30","state":"OH"},"type":"Feature","geometry":{"type":"Point","coordinates":[-84.535485,39.442586]}},{"properties":{"city":"HAMILTON","lon":"-84 30 17.77","zip":"45011","county":"Butler","geo_score":0.74,"cni partner":null,"msc":"OH DUFF MTSO","id":"a633on0q1vv9","geo_precision":"street","address":"6889 LOGSDON ROAD","lat":"39 23 04.81","state":"OH"},"type":"Feature","geometry":{"type":"Point","coordinates":[-84.505167,39.383699]}},{"properties":{"city":"HAMILTON","lon":"-84 33 42.29","zip":"45011","county":"Butler","geo_score":0.821,"cni partner":null,"msc":"OH DUFF MTSO","id":"a633on680mqx","geo_precision":"range","address":"6 SOUTH 2ND ST (CERTIFIED) 8/15/07","lat":"39 23 57.92","state":"OH"},"type":"Feature","geometry":{"type":"Point","coordinates":[-84.561921,39.399756]}},{"properties":{"city":"HAMILTON","lon":"-84 37 45","zip":"45013","county":"Butler","geo_score":0.913,"cni partner":null,"msc":"OH DUFF MTSO","id":"a633onejjsjb","geo_precision":"range","address":"1505 BOYLE RD","lat":"39 25 41","state":"OH"},"type":"Feature","geometry":{"type":"Point","coordinates":[-84.628033,39.428122]}},{"properties":{"city":"HAMILTON","lon":"-84 40 40","zip":"45013","county":"Butler","geo_score":0.791,"cni partner":null,"msc":"OH DUFF MTSO","id":"a633onavv1mx","geo_precision":"range","address":"4088 CHRISTIAN RD","lat":"39 19 00","state":"OH"},"type":"Feature","geometry":{"type":"Point","coordinates":[-84.67842,39.311898]}},{"properties":{"city":"MIDDLETOWN","lon":"-84 21 16.76","zip":"45042","county":"Butler","geo_score":0.586,"cni partner":null,"msc":"OH DUFF MTSO","id":"a633on7cvbz4","geo_precision":"street","address":"4325 WALTON COURT \nTELCO READY DATE 03/27/07","lat":"39 30 56.78","state":"OH"},"type":"Feature","geometry":{"type":"Point","coordinates":[-84.35683,39.515485]}},{"properties":{"city":"MIDDLETOWN","lon":"-84 20 27","zip":"45044","county":"Butler","geo_score":0.824,"cni partner":null,"msc":"OH DUFF MTSO","id":"a633on7lxjko","geo_precision":"range","address":"2318 BUTLER-WARREN RD","lat":"39 24 26","state":"OH"},"type":"Feature","geometry":{"type":"Point","coordinates":[-84.342299,39.404266]}},{"properties":{"city":"MIDDLETOWN","lon":"-84 19 37","zip":"45044","county":"Butler","geo_score":0.8,"cni partner":null,"msc":"OH DUFF MTSO","id":"a633on2slaaa","geo_precision":"range","address":"1501 GREENTREE RD","lat":"39 28 06","state":"OH"},"type":"Feature","geometry":{"type":"Point","coordinates":[-84.32632,39.468654]}},{"properties":{"city":"MIDDLETOWN","lon":"-84 22 30.32","zip":"45044","county":"Butler","geo_score":0.457,"cni partner":null,"msc":"OH DUFF MTSO","id":"a633onermt75","geo_precision":"street","address":"107 MCKNIGHT DR (E911)","lat":"39 30 35.19","state":"OH"},"type":"Feature","geometry":{"type":"Point","coordinates":[-84.376719,39.511896]}},{"properties":{"city":"MIDDLETOWN","lon":"-84 21 55.24","zip":"45044","county":"Butler","geo_score":0.732,"cni partner":null,"msc":"OH DUFF MTSO","id":"a633on2exbl2","geo_precision":"street","address":"6738 LIBERTY COURT","lat":"39 22 49.20","state":"OH"},"type":"Feature","geometry":{"type":"Point","coordinates":[-84.369602,39.38039]}},{"properties":{"city":"MIDDLETOWN (SBC: MONROE)","lon":"-84 25 05","zip":"45044","county":"Butler","geo_score":0.448,"cni partner":null,"msc":"OH DUFF MTSO","id":"a633on9vgsgm","geo_precision":"street","address":"6250 HAMILTON MIDDLETOWN RD\n(SBC: 6262 HAMILTON MIDDLETOWN RD)","lat":"39 27 07","state":"OH"},"type":"Feature","geometry":{"type":"Point","coordinates":[-84.412142,39.445672]}},{"properties":{"city":"OXFORD","lon":"-84 44 12","zip":"45056","county":"Butler","geo_score":0.833,"cni partner":null,"msc":"OH DUFF MTSO","id":"a633onakjovs","geo_precision":"range","address":"306 S OAK ST","lat":"39 30 21","state":"OH"},"type":"Feature","geometry":{"type":"Point","coordinates":[-84.73616,39.507193]}},{"properties":{"city":"OXFORD","lon":"-84 44 33.76","zip":"45056","county":"Butler","geo_score":0.833,"cni partner":null,"msc":"OH DUFF MTSO","id":"a633oncn6c4e","geo_precision":"range","address":"5217 MORNING SUN ROAD","lat":"39 31 05.50","state":"OH"},"type":"Feature","geometry":{"type":"Point","coordinates":[-84.741505,39.517352]}},{"properties":{"city":"OXFORD","lon":"-84 38 13.19","zip":"45056","county":"Butler","geo_score":0.521,"cni partner":null,"msc":"OH DUFF MTSO","id":"a633onedrobf","geo_precision":"street","address":"2230 TRENTON OXFORD RD","lat":"39 30 39.91","state":"OH"},"type":"Feature","geometry":{"type":"Point","coordinates":[-84.702837,39.517531]}},{"properties":{"city":"TRENTON","lon":"-84 29 13","zip":"45067","county":"Butler","geo_score":0.482,"cni partner":null,"msc":"OH DUFF MTSO","id":"a633on95i9mf","geo_precision":"street","address":"5106 THOMAS RD\n(SBC: WAYNE TWP.)","lat":"39 31 02","state":"OH"},"type":"Feature","geometry":{"type":"Point","coordinates":[-84.504792,39.516656]}},{"properties":{"city":"WEST CHESTER","lon":"-84 25 09.52","zip":"45069","county":"Butler","geo_score":0.878,"cni partner":null,"msc":"OH DUFF MTSO","id":"a633on0tc7w6","geo_precision":"range","address":"7648 LESOURDSVILLE-WEST CHESTER ROAD","lat":"39 21 42.24","state":"OH"},"type":"Feature","geometry":{"type":"Point","coordinates":[-84.422012,39.361576]}},{"properties":{"city":"WEST CHESTER","lon":"-84 23 20","zip":"45069","county":"Butler","geo_score":0.677,"cni partner":null,"msc":"OH DUFF MTSO","id":"a633on08ixz8","geo_precision":"range","address":"8139 LAWRENCE DR  (8165 PER CBT)","lat":"39 20 53","state":"OH"},"type":"Feature","geometry":{"type":"Point","coordinates":[-84.386915,39.348374]}},{"properties":{"city":"WEST CHESTER","lon":"-84 26 08","zip":"45069","county":"Butler","geo_score":0.911,"cni partner":null,"msc":"OH DUFF MTSO","id":"a633on62vogy","geo_precision":"range","address":"10070 WINDISCH RD","lat":"39 18 09","state":"OH"},"type":"Feature","geometry":{"type":"Point","coordinates":[-84.436331,39.302817]}},{"properties":{"city":"WEST CHESTER","lon":"-84 22 14","zip":"45069","county":"Butler","geo_score":0.911,"cni partner":null,"msc":"OH DUFF MTSO","id":"a633on230a97","geo_precision":"range","address":"7738 WEST CHESTER RD","lat":"39 19 08","state":"OH"},"type":"Feature","geometry":{"type":"Point","coordinates":[-84.37084,39.318422]}},{"properties":{"city":"MECHANICSBURG","lon":"-83 32 40","zip":"43044","county":"Champaign","geo_score":0.917,"cni partner":null,"msc":"OH DUFF MTSO","id":"a633on1sdam9","geo_precision":"range","address":"10618 STATE ROUTE 4","lat":"40 05 02","state":"OH"},"type":"Feature","geometry":{"type":"Point","coordinates":[-83.547119,40.079011]}},{"properties":{"city":"SAINT PARIS","lon":"-83 57 50","zip":"43072","county":"Champaign","geo_score":0.902,"cni partner":null,"msc":"OH DUFF MTSO","id":"a633onf4x1cg","geo_precision":"range","address":"731 APPLE RD","lat":"40 08 21","state":"OH"},"type":"Feature","geometry":{"type":"Point","coordinates":[-83.965175,40.138893]}},{"properties":{"city":"URBANA","lon":"-83 42 47","zip":"43078","county":"Champaign","geo_score":0.902,"cni partner":null,"msc":"OH DUFF MTSO","id":"a633onbeg8ip","geo_precision":"range","address":"1830 JACKSON HILL RD","lat":"40 08 27","state":"OH"},"type":"Feature","geometry":{"type":"Point","coordinates":[-83.710935,40.141046]}},{"properties":{"city":"URBANA","lon":"-83 45 29.53","zip":"43078","county":"Champaign","geo_score":0.732,"cni partner":null,"msc":"OH DUFF MTSO","id":"a633onelvb1g","geo_precision":"street","address":"83 UNION ALLEY","lat":"40 06 42.19","state":"OH"},"type":"Feature","geometry":{"type":"Point","coordinates":[-83.758929,40.112211]}},{"properties":{"city":"URBANA","lon":"-83 46 11.03","zip":"43078","county":"Champaign","geo_score":0.902,"cni partner":null,"msc":"OH DUFF MTSO","id":"a633on7fd8y1","geo_precision":"range","address":"462 EAST DALLAS ROAD","lat":"40 03 04.09","state":"OH"},"type":"Feature","geometry":{"type":"Point","coordinates":[-83.769185,40.046866]}},{"properties":{"city":"LEWIS CENTER","lon":"-82 57 41","zip":"43035","county":"Clark","geo_score":0.643,"cni partner":null,"msc":"OH LEWIS CENTER MTSO","id":"a633onarekme","geo_precision":"street","address":"7000 BALE KENYON RD\n(AKA: ORANGE TWP EAST - RF SITE NAME)","lat":"40 10 05","state":"OH"},"type":"Feature","geometry":{"type":"Point","coordinates":[-82.964159,40.18304]}},{"properties":{"city":"LEWIS CENTER","lon":"-83 00 29","zip":"43035","county":"Clark","geo_score":0.633,"cni partner":null,"msc":"OH LEWIS CENTER MTSO","id":"a633ond8ahai","geo_precision":"street","address":"8303 GREEN MEADOWS DR N\n(GTE)","lat":"40 09 51","state":"OH"},"type":"Feature","geometry":{"type":"Point","coordinates":[-83.010613,40.176894]}},{"properties":{"city":"LEWIS CENTER","lon":"-83 02 04","zip":"43035","county":"Clark","geo_score":0.643,"cni partner":null,"msc":"OH LEWIS CENTER MTSO","id":"a633on5dz7ml","geo_precision":"street","address":"5828 COLUMBUS PIKE (US-23)","lat":"40 12 37","state":"OH"},"type":"Feature","geometry":{"type":"Point","coordinates":[-83.03502,40.221573]}},{"properties":{"city":"LEWIS CENTER","lon":"-82 57 22.21","zip":"43035","county":"Clark","geo_score":0.935,"cni partner":null,"msc":"OH LEWIS CENTER MTSO","id":"a633on0yuwhp","geo_precision":"range","address":"3784 EAST POWELL RD","lat":"40 09 00.14","state":"OH"},"type":"Feature","geometry":{"type":"Point","coordinates":[-82.95651,40.151582]}},{"properties":{"city":"MEDWAY","lon":"-84 02 48","zip":"45341","county":"Clark","geo_score":0.911,"cni partner":null,"msc":"OH DUFF MTSO","id":"a633oncazyw8","geo_precision":"range","address":"12250 LOWER VALLEY PIKE","lat":"39 51 51","state":"OH"},"type":"Feature","geometry":{"type":"Point","coordinates":[-84.047259,39.85942]}},{"properties":{"city":"NEW CARLISLE","lon":"-83 57 55","zip":"45344","county":"Clark","geo_score":0.515,"cni partner":null,"msc":"OH DUFF MTSO","id":"a633onada4ag","geo_precision":"street","address":"3030 SNIDER ROAD\n\nSBC ADDR: BETHEL TWP.","lat":"39 52 40","state":"OH"},"type":"Feature","geometry":{"type":"Point","coordinates":[-83.968418,39.91538]}},{"properties":{"city":"NEW CARLISLE","lon":"-84 01 19.11","zip":"45344","county":"Clark","geo_score":0.929,"cni partner":null,"msc":"OH DUFF MTSO","id":"a633onats9t9","geo_precision":"range","address":"440 N MAIN ST","lat":"39 56 43.76","state":"OH"},"type":"Feature","geometry":{"type":"Point","coordinates":[-84.02444,39.943562]}},{"properties":{"city":"NEW CARLISLE","lon":"-84 00 05","zip":"45344","county":"Clark","geo_score":0.493,"cni partner":null,"msc":"OH DUFF MTSO","id":"a633onaebxtg","geo_precision":"street","address":"4015 DAYTON-LAKEVIEW ROAD (SR-235)","lat":"39 59 38","state":"OH"},"type":"Feature","geometry":{"type":"Point","coordinates":[-84.047422,39.898134]}},{"properties":{"city":"SOUTH CHARLESTON","lon":"-83 37 12.17","zip":"45368","county":"Clark","geo_score":0.759,"cni partner":null,"msc":"OH DUFF MTSO","id":"a633onefi6wg","geo_precision":"street","address":"10374 COLUMBUS - CINCINNATI ROAD","lat":"39 50 07.44","state":"OH"},"type":"Feature","geometry":{"type":"Point","coordinates":[-83.633322,39.828185]}},{"properties":{"city":"SOUTH VIENNA","lon":"-83 38 13","zip":"45369","county":"Clark","geo_score":0.699,"cni partner":null,"msc":"OH DUFF MTSO","id":"a633ondceu09","geo_precision":"street","address":"8932 EAST NATIONAL ROAD (RT 40)","lat":"39 55 37","state":"OH"},"type":"Feature","geometry":{"type":"Point","coordinates":[-83.613098,39.927746]}},{"properties":{"city":"SPRINGFIELD","lon":"-83 52 38","zip":"45502","county":"Clark","geo_score":0.896,"cni partner":null,"msc":"OH DUFF MTSO","id":"a633on4wrigs","geo_precision":"street","address":"3436 CRIST ROAD (SBC CITY: MAD RIVER TWP)","lat":"39 53 24","state":"OH"},"type":"Feature","geometry":{"type":"Point","coordinates":[-83.872918,39.88858]}},{"properties":{"city":"SPRINGFIELD","lon":"-83 48 31.85","zip":"45502","county":"Clark","geo_score":0.805,"cni partner":null,"msc":"OH DUFF MTSO","id":"a633omzo3zxe","geo_precision":"range","address":"1 SOUTH LIMESTONE ST","lat":"39 55 27.43","state":"OH"},"type":"Feature","geometry":{"type":"Point","coordinates":[-83.808463,39.924484]}},{"properties":{"city":"SPRINGFIELD","lon":"-83 48 05","zip":"45504","county":"Clark","geo_score":0.805,"cni partner":null,"msc":"OH DUFF MTSO","id":"a633on2lp3fy","geo_precision":"range","address":"2122 NORTH LIMESTONE ST","lat":"39 57 02","state":"OH"},"type":"Feature","geometry":{"type":"Point","coordinates":[-83.80413,39.951077]}},{"properties":{"city":"SPRINGFIELD","lon":"-83 51 24","zip":"45504","county":"Clark","geo_score":0.87,"cni partner":null,"msc":"OH DUFF MTSO","id":"a633on6smsog","geo_precision":"street","address":"1115 UPPER VALLEY PIKE\nSBC - 1110 HOLLY DR, GERMAN TWP","lat":"39 56 33","state":"OH"},"type":"Feature","geometry":{"type":"Point","coordinates":[-83.856237,39.94367]}},{"properties":{"city":"SPRINGFIELD (SPRINGFIELD TOWNSHIP)","lon":"-83 43 26","zip":"45502","county":"Clark","geo_score":0.919,"cni partner":null,"msc":"OH DUFF MTSO","id":"a633on77fcl7","geo_precision":"range","address":"1839 RIDGE RD","lat":"39 53 39","state":"OH"},"type":"Feature","geometry":{"type":"Point","coordinates":[-83.720976,39.893375]}},{"properties":{"city":"BLANCHESTER","lon":"-84 00 15","zip":"45107","county":"Clinton","geo_score":0.766,"cni partner":null,"msc":"OH DUFF MTSO","id":"a633on524or1","geo_precision":"street","address":"10990 STATE ROUTE 28","lat":"39 17 25","state":"OH"},"type":"Feature","geometry":{"type":"Point","coordinates":[-84.004022,39.289412]}},{"properties":{"city":"BLANCHESTER","lon":"-83.88153056","zip":"45107","county":"Clinton","geo_score":0.453,"cni partner":null,"msc":"OH DUFF MTSO","id":"a633onbufc95","geo_precision":"street","address":"893 SR 350","lat":"39.36575","state":"OH"},"type":"Feature","geometry":{"type":"Point","coordinates":[-83.863693,39.361241]}},{"properties":{"city":"CLARKSVILLE","lon":"-83 58 45","zip":"45113","county":"Clinton","geo_score":1.0,"cni partner":null,"msc":"OH DUFF MTSO","id":"a633on0jg25j","geo_precision":"range","address":"775 S GEORGE ROAD","lat":"39 24 52","state":"OH"},"type":"Feature","geometry":{"type":"Point","coordinates":[-83.979134,39.412504]}},{"properties":{"city":"NEW VIENNA","lon":"-83 43 00","zip":"45159","county":"Clinton","geo_score":0.767,"cni partner":null,"msc":"OH DUFF MTSO","id":"a633on1tia7w","geo_precision":"range","address":"3500 CLARK RD\nGREEN TWP.","lat":"39 19 50","state":"OH"},"type":"Feature","geometry":{"type":"Point","coordinates":[-83.711958,39.326974]}},{"properties":{"city":"SABINA","lon":"-83 39 24","zip":"45169","county":"Clinton","geo_score":0.884,"cni partner":null,"msc":"OH DUFF MTSO","id":"a633on7m2db7","geo_precision":"range","address":"10143 US ROUTE 22 E","lat":"39 28 59","state":"OH"},"type":"Feature","geometry":{"type":"Point","coordinates":[-83.657611,39.482339]}},{"properties":{"city":"WILMINGTON","lon":"-83 52 28","zip":"45117","county":"Clinton","geo_score":0.873,"cni partner":null,"msc":"OH DUFF MTSO","id":"a633onbofo8f","geo_precision":"range","address":"2667 STATE ROUTE 3 WEST","lat":"39 26 35","state":"OH"},"type":"Feature","geometry":{"type":"Point","coordinates":[-83.782002,39.454187]}},{"properties":{"city":"WILMINGTON","lon":"-83 53 39","zip":"45177","county":"Clinton","geo_score":0.941,"cni partner":null,"msc":"OH DUFF MTSO","id":"a633on5jqlek","geo_precision":"range","address":"3400 CENTER RD","lat":"39 30 05","state":"OH"},"type":"Feature","geometry":{"type":"Point","coordinates":[-83.892446,39.499318]}},{"properties":{"city":"WILMINGTON","lon":"-83 49 41","zip":"45177","county":"Clinton","geo_score":0.593,"cni partner":null,"msc":"OH DUFF MTSO","id":"a633onbnxa0g","geo_precision":"street","address":"712A  NORTH SOUTH ST (PER TELCO 712 S SOUTH ST, WILLIMINGTON, OH)","lat":"39 26 08","state":"OH"},"type":"Feature","geometry":{"type":"Point","coordinates":[-83.828584,39.445366]}},{"properties":{"city":"ARCANUM","lon":"-84 30 43","zip":"45304","county":"Darke","geo_score":0.927,"cni partner":null,"msc":"OH DUFF MTSO","id":"a633onbfvrf0","geo_precision":"range","address":"7849 HOLLANSBURG-SAMPSON ROAD","lat":"40 00 16","state":"OH"},"type":"Feature","geometry":{"type":"Point","coordinates":[-84.514252,40.005851]}},{"properties":{"city":"ARCANUM","lon":"-84 37 54.12","zip":"45304","county":"Darke","geo_score":0.737,"cni partner":null,"msc":"OH DUFF MTSO","id":"a633on8bg3bs","geo_precision":"street","address":"4562 OTTERBEIN-ITHACA  RD","lat":"39 56 45.87","state":"OH"},"type":"Feature","geometry":{"type":"Point","coordinates":[-84.632022,39.945816]}},{"properties":{"city":"GREENVILLE","lon":"-84 35 29","zip":"45331","county":"Darke","geo_score":0.902,"cni partner":null,"msc":"OH DUFF MTSO","id":"a633on46v3bk","geo_precision":"range","address":"5768 REQUARTH RD","lat":"40 06 44","state":"OH"},"type":"Feature","geometry":{"type":"Point","coordinates":[-84.589142,40.111776]}},{"properties":{"city":"GREENVILLE","lon":"-84 44 11.54","zip":"45331","county":"Darke","geo_score":0.716,"cni partner":null,"msc":"OH DUFF MTSO","id":"a633onfcw5mf","geo_precision":"range","address":"1868 SR 571 WEST","lat":"40 09 11.45","state":"OH"},"type":"Feature","geometry":{"type":"Point","coordinates":[-84.737826,40.152872]}},{"properties":{"city":"UNION CITY","lon":"-84 47 51.30","zip":"45390","county":"Darke","geo_score":0.462,"cni partner":null,"msc":"OH DUFF MTSO","id":"a633omzi841k","geo_precision":"street","address":"117 S. DEERFIELD RD","lat":"40 11 59.97","state":"OH"},"type":"Feature","geometry":{"type":"Point","coordinates":[-84.796683,40.200038]}},{"properties":{"city":"VERSAILLES","lon":"-84 28 56","zip":"45380","county":"Darke","geo_score":0.902,"cni partner":null,"msc":"OH DUFF MTSO","id":"a633oneo7wdf","geo_precision":"range","address":"10709 REED RD","lat":"40 13 53","state":"OH"},"type":"Feature","geometry":{"type":"Point","coordinates":[-84.48417,40.231366]}},{"properties":{"city":"DEFIANCE","lon":"-84 21 53","zip":"43512","county":"Defiance","geo_score":0.72,"cni partner":null,"msc":"OH CLEVELAND MTSO","id":"a633on3skhly","geo_precision":"street","address":"160 ELLIOTT RD","lat":"41 18 42","state":"OH"},"type":"Feature","geometry":{"type":"Point","coordinates":[-84.380097,41.31182]}},{"properties":{"city":"DEFIANCE","lon":"-84 21 50","zip":"43512","county":"Defiance","geo_score":0.915,"cni partner":null,"msc":"OH CLEVELAND MTSO","id":"a633on9r6hig","geo_precision":"range","address":"602 CLINTON ST","lat":"41 17 2","state":"OH"},"type":"Feature","geometry":{"type":"Point","coordinates":[-84.363872,41.283918]}},{"properties":{"city":"DEFIANCE","lon":"-84 21 33","zip":"43512","county":"Defiance","geo_score":0.915,"cni partner":null,"msc":"OH CLEVELAND MTSO","id":"a633on8yn97a","geo_precision":"range","address":"1789 PALMER DR","lat":"41 15 43","state":"OH"},"type":"Feature","geometry":{"type":"Point","coordinates":[-84.361067,41.262642]}},{"properties":{"city":"NEY","lon":"-84 32 03","zip":"43549","county":"Defiance","geo_score":1.0,"cni partner":null,"msc":"OH CLEVELAND MTSO","id":"a633on5l2nbj","geo_precision":"range","address":"15054 MUD CREEK RD","lat":"41 19 55","state":"OH"},"type":"Feature","geometry":{"type":"Point","coordinates":[-84.534115,41.332543]}},{"properties":{"city":"ARCHBOLD","lon":"-84 17 51.80","zip":"43502","county":"Fulton","geo_score":0.463,"cni partner":null,"msc":"OH CLEVELAND MTSO","id":"a633omz9fpu7","geo_precision":"street","address":"22511 COUNTY ROAD H (CERTIFIED) \nT1 READY DATE 7/02/07","lat":"41 35 11.85","state":"OH"},"type":"Feature","geometry":{"type":"Point","coordinates":[-84.315119,41.572326]}},{"properties":{"city":"ARCHBOLD","lon":"-84 18 05","zip":"43502","county":"Fulton","geo_score":0.805,"cni partner":null,"msc":"OH CLEVELAND MTSO","id":"a633omzdt6e9","geo_precision":"range","address":"760 STATE ROUTE 66","lat":"41 28 56","state":"OH"},"type":"Feature","geometry":{"type":"Point","coordinates":[-84.306012,41.482243]}},{"properties":{"city":"DELTA","lon":"-84 02 13","zip":"43515","county":"Fulton","geo_score":0.902,"cni partner":null,"msc":"OH CLEVELAND MTSO","id":"a633onekjj1z","geo_precision":"range","address":"8300 STATE ROUTE 109","lat":"41 35 33","state":"OH"},"type":"Feature","geometry":{"type":"Point","coordinates":[-84.030193,41.573592]}},{"properties":{"city":"DELTA","lon":"-83 59 22","zip":"43515","county":"Fulton","geo_score":0.861,"cni partner":null,"msc":"OH CLEVELAND MTSO","id":"a633on1cwgnk","geo_precision":"range","address":"4567-A COUNTY ROAD 6-1","lat":"41 32 19","state":"OH"},"type":"Feature","geometry":{"type":"Point","coordinates":[-83.988493,41.539065]}},{"properties":{"city":"DELTA","lon":"-84 04 25","zip":"43515","county":"Fulton","geo_score":0.6,"cni partner":null,"msc":"OH CLEVELAND MTSO","id":"a633on3f5xzk","geo_precision":"street","address":"11151 CO. RD  11","lat":"41 37 47","state":"OH"},"type":"Feature","geometry":{"type":"Point","coordinates":[-83.975394,41.574087]}},{"properties":{"city":"FAYETTE","lon":"-84 19 39","zip":"43521","county":"Fulton","geo_score":0.578,"cni partner":null,"msc":"OH CLEVELAND MTSO","id":"a633on3tnrkm","geo_precision":"street","address":"13755 STATE HWY 66 (PER VERIZON/GTE TELCO)","lat":"41 39 46.03","state":"OH"},"type":"Feature","geometry":{"type":"Point","coordinates":[-84.327319,41.671718]}},{"properties":{"city":"METAMORA","lon":"-83 57 05","zip":"43540","county":"Fulton","geo_score":0.787,"cni partner":null,"msc":"OH CLEVELAND MTSO","id":"a633onc7w19v","geo_precision":"range","address":"14250 COUNTY ROAD 4-3","lat":"41 40 31","state":"OH"},"type":"Feature","geometry":{"type":"Point","coordinates":[-83.951443,41.67509]}},{"properties":{"city":"SWANTON","lon":"-83 52 11","zip":"43558","county":"Fulton","geo_score":0.916,"cni partner":null,"msc":"OH CLEVELAND MTSO","id":"a633onegnkml","geo_precision":"range","address":"14105 SHAFFER RD","lat":"41 36 06","state":"OH"},"type":"Feature","geometry":{"type":"Point","coordinates":[-83.878431,41.603316]}},{"properties":{"city":"SWANTON","lon":"-83 56 16.7","zip":"43558","county":"Fulton","geo_score":0.916,"cni partner":null,"msc":"OH CLEVELAND MTSO","id":"a633on3th9ul","geo_precision":"range","address":"3686 COUNTY ROAD H","lat":"41 35 21.1","state":"OH"},"type":"Feature","geometry":{"type":"Point","coordinates":[-83.932021,41.588711]}},{"properties":{"city":"SWANTON","lon":"-83 49 34","zip":"43558","county":"Fulton","geo_score":0.476,"cni partner":null,"msc":"OH CLEVELAND MTSO","id":"a633omzs68ie","geo_precision":"street","address":"3460 S. BERKEY SOUTHERN","lat":"41 34 36","state":"OH"},"type":"Feature","geometry":{"type":"Point","coordinates":[-83.827254,41.617329]}},{"properties":{"city":"SWANTON","lon":"-83 52 07","zip":"43558","county":"Fulton","geo_score":0.865,"cni partner":null,"msc":"OH CLEVELAND MTSO","id":"a633on3oq6ac","geo_precision":"range","address":"5611 WATERVILLE-SWANTON RD SR 64","lat":"41 32 17","state":"OH"},"type":"Feature","geometry":{"type":"Point","coordinates":[-83.873262,41.534626]}},{"properties":{"city":"WAUSEON","lon":"-84 11 36","zip":"43567","county":"Fulton","geo_score":0.916,"cni partner":null,"msc":"OH CLEVELAND MTSO","id":"a633ona8cto1","geo_precision":"range","address":"6789 COUNTY ROAD 17","lat":"41 34 10","state":"OH"},"type":"Feature","geometry":{"type":"Point","coordinates":[-84.192177,41.569648]}},{"properties":{"city":"WAUSEON","lon":"-84 06 52","zip":"43567","county":"Fulton","geo_score":0.62,"cni partner":null,"msc":"OH CLEVELAND MTSO","id":"a633on3sjfx2","geo_precision":"street","address":"5570 CO. RD 13","lat":"41 33 07","state":"OH"},"type":"Feature","geometry":{"type":"Point","coordinates":[-84.063594,41.515257]}},{"properties":{"city":"BEAVERCREEK","lon":"-84 01 32","zip":"45385","county":"Greene","geo_score":0.742,"cni partner":null,"msc":"OH DUFF MTSO","id":"a633on81kdt8","geo_precision":"street","address":"591 SOUTH ORCHARD LANE \n(SOME LISTING HAVE ADDRESS AS 622 ALPHA ROAD)","lat":"39 42 18","state":"OH"},"type":"Feature","geometry":{"type":"Point","coordinates":[-83.918936,39.690298]}},{"properties":{"city":"BEAVERCREEK","lon":"-84 05 11","zip":"45431","county":"Greene","geo_score":0.92,"cni partner":null,"msc":"OH DUFF MTSO","id":"a633on9as368","geo_precision":"range","address":"4086 KEMP RD","lat":"39 45 46","state":"OH"},"type":"Feature","geometry":{"type":"Point","coordinates":[-84.083627,39.757125]}},{"properties":{"city":"BEAVERCREEK","lon":"-84 04 49","zip":"45432","county":"Greene","geo_score":0.805,"cni partner":null,"msc":"OH DUFF MTSO","id":"a633onel33ed","geo_precision":"range","address":"3878 INDIAN RIPPLE RD","lat":"39 41 44","state":"OH"},"type":"Feature","geometry":{"type":"Point","coordinates":[-84.079716,39.694918]}},{"properties":{"city":"BEAVERCREEK","lon":"-84 02 17.38","zip":"45434","county":"Greene","geo_score":0.863,"cni partner":null,"msc":"OH DUFF MTSO","id":"a633on9ul4pd","geo_precision":"range","address":"1807 DEERBROOK TRAIL","lat":"39 44 29.39","state":"OH"},"type":"Feature","geometry":{"type":"Point","coordinates":[-84.037118,39.741564]}},{"properties":{"city":"BOWERSVILLE","lon":"-83 42 24","zip":"45307","county":"Greene","geo_score":0.902,"cni partner":null,"msc":"OH DUFF MTSO","id":"a633once0y06","geo_precision":"range","address":"3541 ORCHARD GROVE ROAD","lat":"39 34 05","state":"OH"},"type":"Feature","geometry":{"type":"Point","coordinates":[-83.704976,39.566376]}},{"properties":{"city":"CEDARVILLE","lon":"-83 49 04","zip":"45314","county":"Greene","geo_score":0.755,"cni partner":null,"msc":"OH DUFF MTSO","id":"a633on71eih2","geo_precision":"range","address":"2941 US 42 E","lat":"39 44 11","state":"OH"},"type":"Feature","geometry":{"type":"Point","coordinates":[-83.787619,39.762993]}},{"properties":{"city":"FAIRBORN","lon":"-84 00 29","zip":"45324","county":"Greene","geo_score":0.776,"cni partner":null,"msc":"OH DUFF MTSO","id":"a633on1lus50","geo_precision":"range","address":"565 YELLOW SPRINGS-FAIRFIELD RD","lat":"39 49 13","state":"OH"},"type":"Feature","geometry":{"type":"Point","coordinates":[-84.007853,39.820604]}},{"properties":{"city":"FAIRBORN","lon":"-84 03 05","zip":"45324","county":"Greene","geo_score":0.91,"cni partner":null,"msc":"OH DUFF MTSO","id":"a633on0wbc7h","geo_precision":"range","address":"2993 WARNER DR","lat":"39 46 33","state":"OH"},"type":"Feature","geometry":{"type":"Point","coordinates":[-84.047386,39.777059]}},{"properties":{"city":"FAIRBORN","lon":"-84 02 31.37","zip":"45324","county":"Greene","geo_score":0.75,"cni partner":null,"msc":"OH DUFF MTSO","id":"a633on2k84rh","geo_precision":"range","address":"3664 SR 444","lat":"39 47 50.25","state":"OH"},"type":"Feature","geometry":{"type":"Point","coordinates":[-84.043455,39.796337]}},{"properties":{"city":"FAIRBORN","lon":"-84 01 02.06","zip":"45324","county":"Greene","geo_score":0.91,"cni partner":null,"msc":"OH DUFF MTSO","id":"a633onc2fvwp","geo_precision":"range","address":"2088 BEAVER VALLEY RD","lat":"39 47 04.51","state":"OH"},"type":"Feature","geometry":{"type":"Point","coordinates":[-84.021421,39.784905]}},{"properties":{"city":"SPRING VALLEY","lon":"-84 00 21","zip":"45370","county":"Greene","geo_score":0.61,"cni partner":null,"msc":"OH DUFF MTSO","id":"a633onddanus","geo_precision":"street","address":"3285 HOUSTON RD","lat":"39 35 45","state":"OH"},"type":"Feature","geometry":{"type":"Point","coordinates":[-84.335051,40.245619]}},{"properties":{"city":"XENIA","lon":"-83 48 53","zip":"45385","county":"Greene","geo_score":0.927,"cni partner":null,"msc":"OH DUFF MTSO","id":"a633omzgfk7w","geo_precision":"range","address":"1262 PAINTERSVILLE NEW JASPER RD","lat":"39 38 25","state":"OH"},"type":"Feature","geometry":{"type":"Point","coordinates":[-83.81891,39.640464]}},{"properties":{"city":"XENIA","lon":"-84 00 28","zip":"45385","county":"Greene","geo_score":0.927,"cni partner":null,"msc":"OH DUFF MTSO","id":"a633on896ov5","geo_precision":"range","address":"1104 SPRING VALLEY-ALPHA RD","lat":"39 39 12","state":"OH"},"type":"Feature","geometry":{"type":"Point","coordinates":[-84.006077,39.657037]}},{"properties":{"city":"XENIA","lon":"-83 54 42","zip":"45385","county":"Greene","geo_score":0.78,"cni partner":null,"msc":"OH DUFF MTSO","id":"a633on1pjsk3","geo_precision":"range","address":"590 US  ROUTE 42 E","lat":"39 41 53","state":"OH"},"type":"Feature","geometry":{"type":"Point","coordinates":[-83.938659,39.677469]}},{"properties":{"city":"YELLOW SPRINGS","lon":"-83 53 34","zip":"45387","county":"Greene","geo_score":0.917,"cni partner":null,"msc":"OH DUFF MTSO","id":"a633on3szkur","geo_precision":"range","address":"777 EAST HYDE RD","lat":"39 46 49","state":"OH"},"type":"Feature","geometry":{"type":"Point","coordinates":[-83.896871,39.782451]}},{"properties":{"city":"FINDLAY","lon":"-83 32 4","zip":"45840","county":"Hancock","geo_score":0.508,"cni partner":null,"msc":"OH MAUMEE MTSO","id":"a633on6rxg68","geo_precision":"street","address":"6717 COUNTY ROAD 248\n\n(PER TELCO - 6717 CO RD 248, BIGLICK TWP, OH  45840)","lat":"41 04 4","state":"OH"},"type":"Feature","geometry":{"type":"Point","coordinates":[-83.535494,41.079491]}},{"properties":{"city":"FINDLAY","lon":"-83 37 52.4","zip":"45840","county":"Hancock","geo_score":0.915,"cni partner":null,"msc":"OH MAUMEE MTSO","id":"a633onat979z","geo_precision":"range","address":"13004 TOWNSHIP ROAD 204","lat":"41 00 30.8","state":"OH"},"type":"Feature","geometry":{"type":"Point","coordinates":[-83.6361,41.007886]}},{"properties":{"city":"FINDLAY","lon":"-83 38 33","zip":"45840","county":"Hancock","geo_score":0.915,"cni partner":null,"msc":"OH MAUMEE MTSO","id":"a633on1ekfzp","geo_precision":"range","address":"431 PROSPECT AVE","lat":"40 02 57","state":"OH"},"type":"Feature","geometry":{"type":"Point","coordinates":[-83.641956,41.049529]}},{"properties":{"city":"FINDLAY","lon":"-83 39 38.76","zip":"45840","county":"Hancock","geo_score":0.915,"cni partner":null,"msc":"OH MAUMEE MTSO","id":"a633on2jiect","geo_precision":"range","address":"11362 TOWNSHIP ROAD 100","lat":"41 05 44.82","state":"OH"},"type":"Feature","geometry":{"type":"Point","coordinates":[-83.664712,41.095149]}},{"properties":{"city":"FINDLAY","lon":"-83 35 22.66","zip":"45840","county":"Hancock","geo_score":0.72,"cni partner":null,"msc":"OH MAUMEE MTSO","id":"a633onexkcjf","geo_precision":"street","address":"6481 COUNTY ROAD 236","lat":"41-04-26.36","state":"OH"},"type":"Feature","geometry":{"type":"Point","coordinates":[-83.592833,41.070433]}},{"properties":{"city":"FINDLAY","lon":"-83 40 43.4","zip":"45840","county":"Hancock","geo_score":0.866,"cni partner":null,"msc":"OH MAUMEE MTSO","id":"a633omzv8rtm","geo_precision":"range","address":"1783 WEST MAIN CROSS","lat":"41-02-35.9","state":"OH"},"type":"Feature","geometry":{"type":"Point","coordinates":[-83.679379,41.042459]}},{"properties":{"city":"JACKSON TWP","lon":"-83.56611111","zip":"45814","county":"Hancock","geo_score":0.81,"cni partner":null,"msc":"OH MAUMEE MTSO","id":"a633onbmbqn0","geo_precision":"range","address":"16645 TOWNSHIP RD 25","lat":"40.92036111","state":"OH"},"type":"Feature","geometry":{"type":"Point","coordinates":[-83.557757,40.921198]}},{"properties":{"city":"RAWSON","lon":"-83 48 16.00","zip":"45881","county":"Hancock","geo_score":0.625,"cni partner":null,"msc":"OH MAUMEE MTSO","id":"a633on5nkvfl","geo_precision":"street","address":"13358 COUNTY ROAD 57 (PER TELCO 12552 TWP RD 57, RAWSON, OH)","lat":"40 58 25.10","state":"OH"},"type":"Feature","geometry":{"type":"Point","coordinates":[-83.804172,40.980847]}},{"properties":{"city":"ADA","lon":"-83 49 26.4","zip":"45810","county":"Hardin","geo_score":0.913,"cni partner":null,"msc":"OH MAUMEE MTSO","id":"a633on5v3563","geo_precision":"range","address":"4503 STATE ROUTE 235","lat":"40-45-16.4","state":"OH"},"type":"Feature","geometry":{"type":"Point","coordinates":[-83.823194,40.754213]}},{"properties":{"city":"ADA","lon":"-83 52 49.7","zip":"45810","county":"Hardin","geo_score":0.913,"cni partner":null,"msc":"OH MAUMEE MTSO","id":"a633onb785dz","geo_precision":"range","address":"2241 N HARDIN RD","lat":"40 46 21.4","state":"OH"},"type":"Feature","geometry":{"type":"Point","coordinates":[-83.879905,40.772978]}},{"properties":{"city":"DUNKIRK","lon":"-83 39 39","zip":"45836","county":"Hardin","geo_score":0.924,"cni partner":null,"msc":"OH MAUMEE MTSO","id":"a633oncqqahb","geo_precision":"range","address":"11520 TOWNSHIP ROAD 20","lat":"40-48-18","state":"OH"},"type":"Feature","geometry":{"type":"Point","coordinates":[-83.660911,40.805012]}},{"properties":{"city":"KENTON","lon":"-83 36 32","zip":"43326","county":"Hardin","geo_score":0.618,"cni partner":null,"msc":"OH MAUMEE MTSO","id":"a633on5k0l7i","geo_precision":"zip","address":"14262 TOWNSHIP RD #110","lat":"40 40 25","state":"OH"},"type":"Feature","geometry":{"type":"Point","coordinates":[-83.107134,40.498949]}},{"properties":{"city":"MCGUFFEY","lon":"-83 46 38.26","zip":"45859","county":"Hardin","geo_score":0.61,"cni partner":null,"msc":"OH MAUMEE MTSO","id":"a633ondbmj4p","geo_precision":"street","address":"605 MARSH RD","lat":"40 41 24.34","state":"OH"},"type":"Feature","geometry":{"type":"Point","coordinates":[-84.571973,40.900442]}},{"properties":{"city":"DESHLER","lon":"-83 56 10","zip":"43516","county":"Henry","geo_score":0.939,"cni partner":null,"msc":"OH CLEVELAND MTSO","id":"a633on346lab","geo_precision":"range","address":"3840 CO RD D","lat":"41 12 41","state":"OH"},"type":"Feature","geometry":{"type":"Point","coordinates":[-83.936429,41.211124]}},{"properties":{"city":"FLORIDA","lon":"-84 12 17.2","zip":"43545","county":"Henry","geo_score":0.663,"cni partner":null,"msc":"OH CLEVELAND MTSO","id":"a633oncl18bj","geo_precision":"street","address":"17706 TWP. RD J","lat":"41 17 49.3","state":"OH"},"type":"Feature","geometry":{"type":"Point","coordinates":[-84.193846,41.296583]}},{"properties":{"city":"HOLGATE","lon":"-84 06 43","zip":"43527","county":"Henry","geo_score":0.72,"cni partner":null,"msc":"OH CLEVELAND MTSO","id":"a633on46wlra","geo_precision":"range","address":"876 CR 13","lat":"41 14 15","state":"OH"},"type":"Feature","geometry":{"type":"Point","coordinates":[-84.113113,41.2241]}},{"properties":{"city":"LIBERTY CENTER","lon":"-83 58 29","zip":"43532","county":"Henry","geo_score":0.513,"cni partner":null,"msc":"OH CLEVELAND MTSO","id":"a633onacjfvp","geo_precision":"street","address":"5796 COUNTY ROAD S","lat":"41 25 44.2","state":"OH"},"type":"Feature","geometry":{"type":"Point","coordinates":[-83.926671,41.407965]}},{"properties":{"city":"MCCLURE","lon":"-83 57 36","zip":"43534","county":"Henry","geo_score":0.667,"cni partner":null,"msc":"OH CLEVELAND MTSO","id":"a633oncnikpd","geo_precision":"street","address":"K-630 COUNTY ROAD 5","lat":"41 19 19","state":"OH"},"type":"Feature","geometry":{"type":"Point","coordinates":[-83.960824,41.342332]}},{"properties":{"city":"NAPOLEON","lon":"-84 07 13","zip":"43545","county":"Henry","geo_score":0.915,"cni partner":null,"msc":"OH CLEVELAND MTSO","id":"a633onamonpu","geo_precision":"range","address":"850 VOCKE ST","lat":"41 23 43","state":"OH"},"type":"Feature","geometry":{"type":"Point","coordinates":[-84.120747,41.39566]}},{"properties":{"city":"NAPOLEON","lon":"-84 8 10","zip":"43545","county":"Henry","geo_score":0.446,"cni partner":null,"msc":"OH CLEVELAND MTSO","id":"a633omyvc4az","geo_precision":"street","address":"1515 N. SCOTT ST","lat":"41 24 15","state":"OH"},"type":"Feature","geometry":{"type":"Point","coordinates":[-84.125103,41.389033]}},{"properties":{"city":"EAST LIBERTY","lon":"-83 35 50.71","zip":"43319","county":"Logan","geo_score":0.916,"cni partner":null,"msc":"OH LEWIS CENTER MTSO","id":"a633on7easvp","geo_precision":"range","address":"8744 CR 144","lat":"40 19 1.25","state":"OH"},"type":"Feature","geometry":{"type":"Point","coordinates":[-83.601501,40.319174]}},{"properties":{"city":"HUNTSVILLE","lon":"-187.01","zip":"43324","county":"Logan","geo_score":1.0,"cni partner":null,"msc":"OH LEWIS CENTER MTSO","id":"a633on4gcp71","geo_precision":"range","address":"6009 TWP RD 99","lat":"40-27-08.83","state":"OH"},"type":"Feature","geometry":{"type":"Point","coordinates":[-83.831072,40.449195]}},{"properties":{"city":"QUINCY","lon":"-83 56 30","zip":"43343","county":"Logan","geo_score":0.875,"cni partner":null,"msc":"OH DUFF MTSO","id":"a633oncfw5uu","geo_precision":"range","address":"10060 COUNTY ROAD 75","lat":"40 19 12","state":"OH"},"type":"Feature","geometry":{"type":"Point","coordinates":[-83.941868,40.322952]}},{"properties":{"city":"LONDON","lon":"-83 23 12","zip":"43140","county":"Madison","geo_score":0.502,"cni partner":null,"msc":"OH LEWIS CENTER MTSO","id":"a633on0j3b1d","geo_precision":"street","address":"501 US 42 NE\n\nDEER CREEK TWP  (SBC)","lat":"39 56 44","state":"OH"},"type":"Feature","geometry":{"type":"Point","coordinates":[-83.448578,39.886348]}},{"properties":{"city":"LONDON","lon":"-83 27 51","zip":"43140","county":"Madison","geo_score":0.764,"cni partner":null,"msc":"OH LEWIS CENTER MTSO","id":"a633on2wrp7o","geo_precision":"range","address":"731 STATE ROUTE 42","lat":"39 52 38","state":"OH"},"type":"Feature","geometry":{"type":"Point","coordinates":[-83.442384,39.893665]}},{"properties":{"city":"LONDON","lon":"-83 24 44.89","zip":"43140","county":"Madison","geo_score":0.911,"cni partner":null,"msc":"OH LEWIS CENTER MTSO","id":"a633on3t7ws9","geo_precision":"range","address":"6864 STATE ROUTE 38 NW","lat":"40 02 12.95","state":"OH"},"type":"Feature","geometry":{"type":"Point","coordinates":[-83.411985,40.037973]}},{"properties":{"city":"MOUNT STERLING","lon":"-83 22 09","zip":"43143","county":"Madison","geo_score":0.736,"cni partner":null,"msc":"OH LEWIS CENTER MTSO","id":"a633on2ehv1v","geo_precision":"street","address":"6000 STATE ROUTE 323 (SBC SR 323 SE)","lat":"39 43 44","state":"OH"},"type":"Feature","geometry":{"type":"Point","coordinates":[-83.425522,39.732006]}},{"properties":{"city":"MOUNT STERLING","lon":"-83 17 35.27","zip":"43143","county":"Madison","geo_score":0.628,"cni partner":null,"msc":"OH LEWIS CENTER MTSO","id":"a633on4r4xku","geo_precision":"street","address":"13624 US 62 NE","lat":"39 41 19.66","state":"OH"},"type":"Feature","geometry":{"type":"Point","coordinates":[-83.240681,39.745444]}},{"properties":{"city":"MOUNT VERNON","lon":"-82 28 19","zip":"43050","county":"Madison","geo_score":0.97,"cni partner":null,"msc":"OH LEWIS CENTER MTSO","id":"a633on3jh1zl","geo_precision":"range","address":"15514 MCKENZIE RD","lat":"40 25 15","state":"OH"},"type":"Feature","geometry":{"type":"Point","coordinates":[-82.472566,40.424565]}},{"properties":{"city":"MOUNT VERNON","lon":"-82 29 14.47","zip":"43050","county":"Madison","geo_score":0.97,"cni partner":null,"msc":"OH LEWIS CENTER MTSO","id":"a633on6uw6jk","geo_precision":"range","address":"9 HARRISON AVE","lat":"40 23 02.95","state":"OH"},"type":"Feature","geometry":{"type":"Point","coordinates":[-82.489352,40.380573]}},{"properties":{"city":"MOUNT VERNON","lon":"-82 33 42.40","zip":"43050","county":"Madison","geo_score":0.97,"cni partner":null,"msc":"OH LEWIS CENTER MTSO","id":"a633one04toq","geo_precision":"range","address":"8162 COLUMBUS RD","lat":"40 20 57.01","state":"OH"},"type":"Feature","geometry":{"type":"Point","coordinates":[-82.56112,40.349647]}},{"properties":{"city":"PLAIN CITY","lon":"-83 16 46","zip":"43064","county":"Madison","geo_score":0.567,"cni partner":null,"msc":"OH LEWIS CENTER MTSO","id":"a633oncvfxp8","geo_precision":"street","address":"258 S JEFFERSON AVENUE (SR-42)","lat":"40 06 28","state":"OH"},"type":"Feature","geometry":{"type":"Point","coordinates":[-83.269752,40.100757]}},{"properties":{"city":"PLAIN CITY","lon":"-83 18 18.25","zip":"43064","county":"Madison","geo_score":0.572,"cni partner":null,"msc":"OH LEWIS CENTER MTSO","id":"a633on6r3zib","geo_precision":"street","address":"5205 US 42 NE","lat":"40 00 59.23","state":"OH"},"type":"Feature","geometry":{"type":"Point","coordinates":[-83.271831,40.125063]}},{"properties":{"city":"PLAIN CITY","lon":"-83 10 47","zip":"43064","county":"Madison","geo_score":0.913,"cni partner":null,"msc":"OH LEWIS CENTER MTSO","id":"a633on6o2ofg","geo_precision":"range","address":"7528B BROCK RD","lat":"40 09 46","state":"OH"},"type":"Feature","geometry":{"type":"Point","coordinates":[-83.181746,40.162523]}},{"properties":{"city":"SOUTH SOLON","lon":"-83 32 27","zip":"43153","county":"Madison","geo_score":0.955,"cni partner":null,"msc":"OH LEWIS CENTER MTSO","id":"a633on9tz5mo","geo_precision":"range","address":"3315 STATE ROUTE 323-SW","lat":"39 43 51","state":"OH"},"type":"Feature","geometry":{"type":"Point","coordinates":[-83.539452,39.731779]}},{"properties":{"city":"WEST JEFFERSON","lon":"-83 16 14.05","zip":"43162","county":"Madison","geo_score":0.902,"cni partner":null,"msc":"OH LEWIS CENTER MTSO","id":"a633on18zibb","geo_precision":"range","address":"751 MIDDLE PIKE","lat":"39 57 28.91","state":"OH"},"type":"Feature","geometry":{"type":"Point","coordinates":[-83.271735,39.955338]}},{"properties":{"city":"CELINA","lon":"-84 31 37","zip":"45822","county":"Mercer","geo_score":0.873,"cni partner":null,"msc":"OH MAUMEE MTSO","id":"a633omzptn6o","geo_precision":"range","address":"7141 HAVEMAN RD","lat":"40 33 28","state":"OH"},"type":"Feature","geometry":{"type":"Point","coordinates":[-84.526611,40.556755]}},{"properties":{"city":"CELINA","lon":"-84 34 52.3","zip":"45822","county":"Mercer","geo_score":0.902,"cni partner":null,"msc":"OH MAUMEE MTSO","id":"a633one3svet","geo_precision":"range","address":"1025 ELM ST","lat":"40 32 15.2","state":"OH"},"type":"Feature","geometry":{"type":"Point","coordinates":[-84.5801,40.537819]}},{"properties":{"city":"MENDON","lon":"-84 34 47.32","zip":"45862","county":"Mercer","geo_score":0.514,"cni partner":null,"msc":"OH MAUMEE MTSO","id":"a633onf40db7","geo_precision":"street","address":"10926 US ROUTE 127","lat":"40 40 03.33","state":"OH"},"type":"Feature","geometry":{"type":"Point","coordinates":[-84.580454,40.665343]}},{"properties":{"city":"SAINT HENRY","lon":"-84 36 58.81","zip":"45883","county":"Mercer","geo_score":0.721,"cni partner":null,"msc":"OH MAUMEE MTSO","id":"a633on8zw5gq","geo_precision":"street","address":"954 COOPER AVE","lat":"40 25 44.15","state":"OH"},"type":"Feature","geometry":{"type":"Point","coordinates":[-84.619228,40.428927]}},{"properties":{"city":"COVINGTON","lon":"-84 23 57","zip":"45308","county":"Miami","geo_score":0.816,"cni partner":null,"msc":"OH DUFF MTSO","id":"a633on0m056o","geo_precision":"range","address":"10387 WEST US ROUTE 36","lat":"40 07 22","state":"OH"},"type":"Feature","geometry":{"type":"Point","coordinates":[-84.400062,40.119637]}},{"properties":{"city":"PIQUA","lon":"-84 12 47","zip":"45356","county":"Miami","geo_score":0.78,"cni partner":null,"msc":"OH DUFF MTSO","id":"a633omzhmoch","geo_precision":"street","address":"901 WEST STATLER ROAD\n\nSBC ADDR: SPRINGCREEK TWP.","lat":"40 08 05","state":"OH"},"type":"Feature","geometry":{"type":"Point","coordinates":[-84.203753,40.184441]}},{"properties":{"city":"PIQUA","lon":"-84 14 52.85","zip":"45356","county":"Miami","geo_score":0.486,"cni partner":null,"msc":"OH DUFF MTSO","id":"a633one82dpd","geo_precision":"street","address":"441 S. COLLEGE ST","lat":"40 08 33.06","state":"OH"},"type":"Feature","geometry":{"type":"Point","coordinates":[-84.249101,40.146612]}},{"properties":{"city":"TIPP CITY","lon":"-84 05 15","zip":"45371","county":"Miami","geo_score":0.916,"cni partner":null,"msc":"OH DUFF MTSO","id":"a633on6z8pal","geo_precision":"range","address":"8975 SOUTH STATE ROUTE 201","lat":"39 53 48","state":"OH"},"type":"Feature","geometry":{"type":"Point","coordinates":[-84.088225,39.898507]}},{"properties":{"city":"TIPP CITY","lon":"-84 11 48","zip":"45371","county":"Miami","geo_score":0.527,"cni partner":null,"msc":"OH DUFF MTSO","id":"a633on6h6kod","geo_precision":"street","address":"300 TOWER DR","lat":"39 57 56","state":"OH"},"type":"Feature","geometry":{"type":"Point","coordinates":[-83.897627,39.80068]}},{"properties":{"city":"TIPP CITY","lon":"-84 14 35","zip":"45371","county":"Miami","geo_score":0.714,"cni partner":null,"msc":"OH DUFF MTSO","id":"a633on5kn1ll","geo_precision":"street","address":"11744 DOG LEG RD\n(SBC- 11710 DOG LEG RD)","lat":"39 55 05","state":"OH"},"type":"Feature","geometry":{"type":"Point","coordinates":[-84.254666,39.886156]}},{"properties":{"city":"TROY","lon":"-84 14 45","zip":"45373","county":"Miami","geo_score":0.927,"cni partner":null,"msc":"OH DUFF MTSO","id":"a633on72ek0p","geo_precision":"range","address":"2310 WEST STATE ROUTE 55","lat":"40 01 01","state":"OH"},"type":"Feature","geometry":{"type":"Point","coordinates":[-84.236389,40.022909]}},{"properties":{"city":"TROY","lon":"-84 11 52","zip":"45373","county":"Miami","geo_score":0.927,"cni partner":null,"msc":"OH DUFF MTSO","id":"a633on5q1t5b","geo_precision":"range","address":"202 EAST STAUNTON RD","lat":"40 02 32","state":"OH"},"type":"Feature","geometry":{"type":"Point","coordinates":[-84.198,40.043369]}},{"properties":{"city":"WEST MILTON","lon":"-84 18 46.60","zip":"45383","county":"Miami","geo_score":0.907,"cni partner":null,"msc":"OH DUFF MTSO","id":"a633on3m2zao","geo_precision":"range","address":"5970 STATE ROUTE 571","lat":"39 57 48.44","state":"OH"},"type":"Feature","geometry":{"type":"Point","coordinates":[-84.310671,39.964922]}},{"properties":{"city":"GROVER HILL","lon":"-84 28 54","zip":"45849","county":"Paulding","geo_score":0.471,"cni partner":null,"msc":"OH CLEVELAND MTSO","id":"a633onaxee71","geo_precision":"street","address":"17737 TWP. RD 48","lat":"41 02 02","state":"OH"},"type":"Feature","geometry":{"type":"Point","coordinates":[-84.504278,41.033673]}},{"properties":{"city":"OAKWOOD","lon":"-84 20 33","zip":"45873","county":"Paulding","geo_score":0.878,"cni partner":null,"msc":"OH CLEVELAND MTSO","id":"a633onewe4ai","geo_precision":"street","address":"RD 263","lat":"41 10 09","state":"OH"},"type":"Feature","geometry":{"type":"Point","coordinates":[-84.342067,41.048843]}},{"properties":{"city":"PAULDING","lon":"-84.571663","zip":"45879","county":"Paulding","geo_score":0.446,"cni partner":null,"msc":"OH CLEVELAND MTSO","id":"a633on4kt3ef","geo_precision":"street","address":"TWP. RD 208","lat":"41.212776","state":"OH"},"type":"Feature","geometry":{"type":"Point","coordinates":[-83.559457,41.027454]}},{"properties":{"city":"CAMDEN","lon":"-84 40 14","zip":"45311","county":"Preble","geo_score":0.912,"cni partner":null,"msc":"OH DUFF MTSO","id":"a633on4z99ts","geo_precision":"range","address":"1570 CAMDEN COLLEGE CORNER RD","lat":"39 36 18","state":"OH"},"type":"Feature","geometry":{"type":"Point","coordinates":[-84.67463,39.603875]}},{"properties":{"city":"CAMDEN","lon":"-84 34 36","zip":"45381","county":"Preble","geo_score":0.604,"cni partner":null,"msc":"OH DUFF MTSO","id":"a633onfar55c","geo_precision":"street","address":"6401 QUAKER TRACE RD","lat":"39 39 10","state":"OH"},"type":"Feature","geometry":{"type":"Point","coordinates":[-84.575096,39.672821]}},{"properties":{"city":"EATON","lon":"-84 38 21","zip":"45320","county":"Preble","geo_score":0.935,"cni partner":null,"msc":"OH DUFF MTSO","id":"a633on1648ts","geo_precision":"range","address":"201 W LEXINGTON RD","lat":"39 45 29","state":"OH"},"type":"Feature","geometry":{"type":"Point","coordinates":[-84.638221,39.758522]}},{"properties":{"city":"LEWISBURG","lon":"-84 36 48","zip":"45320","county":"Preble","geo_score":0.628,"cni partner":null,"msc":"OH DUFF MTSO","id":"a633on7ssjcu","geo_precision":"street","address":"891 SCHEYING RD","lat":"39 49 45","state":"OH"},"type":"Feature","geometry":{"type":"Point","coordinates":[-84.611541,39.828899]}},{"properties":{"city":"NEW PARIS","lon":"-84 47 20","zip":"45347","county":"Preble","geo_score":0.813,"cni partner":null,"msc":"OH DUFF MTSO","id":"a633onbyu8cb","geo_precision":"range","address":"5320 STATE ROUTE 320","lat":"39 49 37","state":"OH"},"type":"Feature","geometry":{"type":"Point","coordinates":[-84.793399,39.827531]}},{"properties":{"city":"WEST ALEXANDRIA","lon":"-84 27 52","zip":"45381","county":"Preble","geo_score":0.882,"cni partner":null,"msc":"OH DUFF MTSO","id":"a633on1pk77a","geo_precision":"range","address":"599 NORTH SULPHUR SPRINGS","lat":"39 45 11","state":"OH"},"type":"Feature","geometry":{"type":"Point","coordinates":[-84.460531,39.753625]}},{"properties":{"city":"FORT JENNINGS","lon":"-84 17 33","zip":"45844","county":"Putnam","geo_score":0.886,"cni partner":null,"msc":"OH MAUMEE MTSO","id":"a633onek293w","geo_precision":"range","address":"18200-A STATE ROUTE 634","lat":"40-54-55","state":"OH"},"type":"Feature","geometry":{"type":"Point","coordinates":[-84.292104,40.914556]}},{"properties":{"city":"LEIPSIC","lon":"-83 56 02","zip":"45856","county":"Putnam","geo_score":0.623,"cni partner":null,"msc":"OH MAUMEE MTSO","id":"a633on273r7o","geo_precision":"street","address":"3766-A ROAD E","lat":"41-06-35","state":"OH"},"type":"Feature","geometry":{"type":"Point","coordinates":[-84.054566,41.16676]}},{"properties":{"city":"OTTAWA","lon":"-84 05 29","zip":"45875","county":"Putnam","geo_score":0.911,"cni partner":null,"msc":"OH MAUMEE MTSO","id":"a633on09n9h5","geo_precision":"range","address":"11969 ROAD TWELVE","lat":"41 00 26","state":"OH"},"type":"Feature","geometry":{"type":"Point","coordinates":[-84.092209,41.009021]}},{"properties":{"city":"ALVADA","lon":"-83 24 12.27","zip":"44802","county":"Seneca","geo_score":0.833,"cni partner":null,"msc":"OH CLEVELAND MTSO","id":"a633ona0vdvw","geo_precision":"range","address":"2610 SOUTH US 23","lat":"41 05 06.96","state":"OH"},"type":"Feature","geometry":{"type":"Point","coordinates":[-83.40123,41.085294]}},{"properties":{"city":"ATTICA","lon":"-82 51 38","zip":"44807","county":"Seneca","geo_score":0.697,"cni partner":null,"msc":"OH CLEVELAND MTSO","id":"a633on35gceb","geo_precision":"street","address":"16048 EAST US ROUTE 224","lat":"41 03 16","state":"OH"},"type":"Feature","geometry":{"type":"Point","coordinates":[-82.831246,41.045322]}},{"properties":{"city":"BLOOMVILLE","lon":"-82 56 58.2612","zip":"44818","county":"Seneca","geo_score":0.719,"cni partner":null,"msc":"OH LEWIS CENTER MTSO","id":"a633one0ndkp","geo_precision":"street","address":"3398 ORR ROAD","lat":"40 56 10.6404","state":"OH"},"type":"Feature","geometry":{"type":"Point","coordinates":[-82.948415,40.935725]}},{"properties":{"city":"FOSTORIA","lon":"-83 25 26","zip":"44830","county":"Seneca","geo_score":0.915,"cni partner":null,"msc":"OH CLEVELAND MTSO","id":"a633on67jyj4","geo_precision":"range","address":"1239 PERRYSBURG RD","lat":"41 10 25","state":"OH"},"type":"Feature","geometry":{"type":"Point","coordinates":[-83.421343,41.171729]}},{"properties":{"city":"GREEN SPRINGS","lon":"-83 03 51","zip":"44836","county":"Seneca","geo_score":1.0,"cni partner":null,"msc":"OH CLEVELAND MTSO","id":"a633on7r6cji","geo_precision":"range","address":"5498 COUNTY ROAD 34","lat":"41 14 31","state":"OH"},"type":"Feature","geometry":{"type":"Point","coordinates":[-83.064143,41.242351]}},{"properties":{"city":"REDHAW","lon":"-82 08 34","zip":"44866","county":"Seneca","geo_score":0.722,"cni partner":null,"msc":"OH AKRON MTSO","id":"a633on84hiv9","geo_precision":"street","address":"69 STATE ROUTE 604","lat":"40 54 42","state":"OH"},"type":"Feature","geometry":{"type":"Point","coordinates":[-82.153759,40.915098]}},{"properties":{"city":"REPUBLIC","lon":"-83 01 33","zip":"44867","county":"Seneca","geo_score":0.708,"cni partner":null,"msc":"OH CLEVELAND MTSO","id":"a633on3t16ct","geo_precision":"street","address":"7450 EAST TOWNSHIP ROAD 8","lat":"41 06 33","state":"OH"},"type":"Feature","geometry":{"type":"Point","coordinates":[-83.0299,41.110029]}},{"properties":{"city":"TIFFIN","lon":"-83 11 22","zip":"44883","county":"Seneca","geo_score":0.59,"cni partner":null,"msc":"OH CLEVELAND MTSO","id":"a633on9smsir","geo_precision":"street","address":"3136 N COUNTY ROAD #135 (3136 N TOWNSHIP ROAD 135 ??)","lat":"41 09 20","state":"OH"},"type":"Feature","geometry":{"type":"Point","coordinates":[-83.073675,41.095138]}},{"properties":{"city":"TIFFIN","lon":"-83 10 47.5","zip":"44883","county":"Seneca","geo_score":0.561,"cni partner":null,"msc":"OH CLEVELAND MTSO","id":"a633on5usvi7","geo_precision":"street","address":"260 WEST US 224","lat":"41 05 16.9","state":"OH"},"type":"Feature","geometry":{"type":"Point","coordinates":[-83.159743,41.080466]}},{"properties":{"city":"TIFFIN","lon":"-83 10 35.1","zip":"44883","county":"Seneca","geo_score":0.514,"cni partner":null,"msc":"OH CLEVELAND MTSO","id":"a633on8jmvmx","geo_precision":"street","address":"28 HARRISON ST (CERTIFIED)","lat":"41 07 11.9","state":"OH"},"type":"Feature","geometry":{"type":"Point","coordinates":[-83.177472,41.120343]}},{"properties":{"city":"BOTKINS","lon":"-84 10 23.98","zip":"45306","county":"Shelby","geo_score":0.732,"cni partner":null,"msc":"OH DUFF MTSO","id":"a633onay0b14","geo_precision":"street","address":"13500 STATE ROUTE 274, STE C","lat":"40 26 07.19","state":"OH"},"type":"Feature","geometry":{"type":"Point","coordinates":[-84.182066,40.467765]}},{"properties":{"city":"SIDNEY","lon":"-84 07 50","zip":"45365","county":"Shelby","geo_score":0.884,"cni partner":null,"msc":"OH DUFF MTSO","id":"a633onavx44j","geo_precision":"range","address":"9380 SIDNEY-FRYBURG RD","lat":"40 20 13","state":"OH"},"type":"Feature","geometry":{"type":"Point","coordinates":[-84.131846,40.332697]}},{"properties":{"city":"SIDNEY","lon":"-84 11 31","zip":"45365","county":"Shelby","geo_score":0.902,"cni partner":null,"msc":"OH DUFF MTSO","id":"a633on78lawk","geo_precision":"range","address":"2388 W MILLCREEK RD","lat":"40 16 01","state":"OH"},"type":"Feature","geometry":{"type":"Point","coordinates":[-84.191064,40.265819]}},{"properties":{"city":"SIDNEY","lon":"-84 09 39.2394","zip":"45365","county":"Shelby","geo_score":0.876,"cni partner":null,"msc":"OH DUFF MTSO","id":"a633oncl4pvo","geo_precision":"range","address":"223-V S WALNUT AVE","lat":"40-16-58.584","state":"OH"},"type":"Feature","geometry":{"type":"Point","coordinates":[-84.160191,40.284055]}},{"properties":{"city":"MARYSVILLE","lon":"-83 30 38.88","zip":"43040","county":"Union","geo_score":0.922,"cni partner":null,"msc":"OH LEWIS CENTER MTSO","id":"a633onehp66z","geo_precision":"range","address":"24155 HONDA PARKWAY","lat":"40-16-23.70","state":"OH"},"type":"Feature","geometry":{"type":"Point","coordinates":[-83.508875,40.274799]}},{"properties":{"city":"MARYSVILLE","lon":"-83 27 54","zip":"43040","county":"Union","geo_score":0.922,"cni partner":null,"msc":"OH LEWIS CENTER MTSO","id":"a633onahiuuq","geo_precision":"range","address":"18700 POLING RD","lat":"40 16 06","state":"OH"},"type":"Feature","geometry":{"type":"Point","coordinates":[-83.466335,40.268323]}},{"properties":{"city":"MARYSVILLE","lon":"-83 22 30","zip":"43040","county":"Union","geo_score":0.922,"cni partner":null,"msc":"OH LEWIS CENTER MTSO","id":"a633on6s0pnm","geo_precision":"range","address":"17823 STATE ROUTE 31","lat":"40 15 35","state":"OH"},"type":"Feature","geometry":{"type":"Point","coordinates":[-83.373708,40.258912]}},{"properties":{"city":"MARYSVILLE","lon":"-83 16 37","zip":"43040","county":"Union","geo_score":0.922,"cni partner":null,"msc":"OH LEWIS CENTER MTSO","id":"a633on3lev29","geo_precision":"range","address":"12741 ADELSBERGER RD","lat":"40 11 48","state":"OH"},"type":"Feature","geometry":{"type":"Point","coordinates":[-83.279191,40.197016]}},{"properties":{"city":"MARYSVILLE","lon":"-83 22 51","zip":"43040","county":"Union","geo_score":0.671,"cni partner":null,"msc":"OH LEWIS CENTER MTSO","id":"a633on4abaom","geo_precision":"street","address":"9871 STATE ROUTE 38\n9870 ST. RTE  38, MILFORD CENTER   UTO","lat":"40 08 39","state":"OH"},"type":"Feature","geometry":{"type":"Point","coordinates":[-83.36831,40.235392]}},{"properties":{"city":"MARYSVILLE","lon":"-83.39889722","zip":"43040","county":"Union","geo_score":0.922,"cni partner":null,"msc":"OH LEWIS CENTER MTSO","id":"a633on3z3je3","geo_precision":"range","address":"18743 COLLINS ROAD","lat":"40.22768889","state":"OH"},"type":"Feature","geometry":{"type":"Point","coordinates":[-83.39852,40.227979]}},{"properties":{"city":"MARYSVILLE","lon":"-83 20 58.44","zip":"43040","county":"Union","geo_score":0.922,"cni partner":null,"msc":"OH LEWIS CENTER MTSO","id":"a633on9px3nz","geo_precision":"range","address":"1011 DELAWARE AVE","lat":"40 14 10.92","state":"OH"},"type":"Feature","geometry":{"type":"Point","coordinates":[-83.352183,40.237124]}},{"properties":{"city":"RICHWOOD","lon":"-83 17 45","zip":"43344","county":"Union","geo_score":0.911,"cni partner":null,"msc":"OH LEWIS CENTER MTSO","id":"a633on7jtq47","geo_precision":"range","address":"252 NORTH FRANKLIN ST","lat":"40 25 53","state":"OH"},"type":"Feature","geometry":{"type":"Point","coordinates":[-83.296881,40.431312]}},{"properties":{"city":"RICHWOOD","lon":"-83 27 12","zip":"43344","county":"Union","geo_score":0.911,"cni partner":null,"msc":"OH LEWIS CENTER MTSO","id":"a633on33cwqy","geo_precision":"range","address":"30725 STATE ROUTE 739","lat":"40 26 40","state":"OH"},"type":"Feature","geometry":{"type":"Point","coordinates":[-83.450111,40.443554]}},{"properties":{"city":"CONVOY","lon":"-84 42 52.91","zip":"45832","county":"Van Wert","geo_score":0.912,"cni partner":null,"msc":"OH MAUMEE MTSO","id":"a633onbp6154","geo_precision":"range","address":"5617 MENTZER RD","lat":"40 55 54.04","state":"OH"},"type":"Feature","geometry":{"type":"Point","coordinates":[-84.714846,40.931441]}},{"properties":{"city":"DELPHOS","lon":"-84 17 02","zip":"45833","county":"Van Wert","geo_score":0.922,"cni partner":null,"msc":"OH MAUMEE MTSO","id":"a633on7d1t5z","geo_precision":"range","address":"7147 BUETTNER RD","lat":"40 50 27","state":"OH"},"type":"Feature","geometry":{"type":"Point","coordinates":[-84.281755,40.839395]}},{"properties":{"city":"MIDDLE POINT","lon":"-84 27 08","zip":"45863","county":"Van Wert","geo_score":0.911,"cni partner":null,"msc":"OH MAUMEE MTSO","id":"a633omyvbbda","geo_precision":"range","address":"19184 LINCOLN HWY","lat":"40 52 18","state":"OH"},"type":"Feature","geometry":{"type":"Point","coordinates":[-84.453872,40.872653]}},{"properties":{"city":"OHIO CITY","lon":"-84 37 42","zip":"45874","county":"Van Wert","geo_score":0.883,"cni partner":null,"msc":"OH MAUMEE MTSO","id":"a633ond7b82m","geo_precision":"range","address":"15633-A LIBERTY UNION RD","lat":"40 46 36","state":"OH"},"type":"Feature","geometry":{"type":"Point","coordinates":[-84.628899,40.776543]}},{"properties":{"city":"VAN WERT","lon":"-84 36 36","zip":"45891","county":"Van Wert","geo_score":0.944,"cni partner":null,"msc":"OH MAUMEE MTSO","id":"a633oncuhe4d","geo_precision":"range","address":"1198 JOHN BROWN RD\n(7998 JOHN BROWN ROAD??)","lat":"40 53 16","state":"OH"},"type":"Feature","geometry":{"type":"Point","coordinates":[-84.610397,40.887903]}},{"properties":{"city":"VAN WERT","lon":"-84 32 53.3","zip":"45891","county":"Van Wert","geo_score":0.944,"cni partner":null,"msc":"OH MAUMEE MTSO","id":"a633on34voo7","geo_precision":"range","address":"14235 STATE ROUTE 116","lat":"40 50 58.8","state":"OH"},"type":"Feature","geometry":{"type":"Point","coordinates":[-84.547932,40.848764]}},{"properties":{"city":"WILLSHIRE","lon":"-84 45 38.16","zip":"45898","county":"Van Wert","geo_score":0.767,"cni partner":null,"msc":"OH MAUMEE MTSO","id":"a633on3fqba0","geo_precision":"range","address":"3275 ROUTE 81","lat":"40 44 44.46","state":"OH"},"type":"Feature","geometry":{"type":"Point","coordinates":[-84.759049,40.744775]}},{"properties":{"city":"FRANKLIN","lon":"-84 18 21.82","zip":"45005","county":"Warren","geo_score":0.939,"cni partner":null,"msc":"OH DUFF MTSO","id":"a633on2egfa2","geo_precision":"range","address":"7445 MENTZ ROAD","lat":"39-33-04.08","state":"OH"},"type":"Feature","geometry":{"type":"Point","coordinates":[-84.305723,39.550772]}},{"properties":{"city":"LEBANON","lon":"-84 10 29","zip":"45036","county":"Warren","geo_score":0.912,"cni partner":null,"msc":"OH DUFF MTSO","id":"a633on55n1c2","geo_precision":"range","address":"1790 WOOD RD","lat":"39 24 09","state":"OH"},"type":"Feature","geometry":{"type":"Point","coordinates":[-84.175487,39.402079]}},{"properties":{"city":"LEBANON","lon":"-84 12 41","zip":"45036","county":"Warren","geo_score":0.859,"cni partner":null,"msc":"OH DUFF MTSO","id":"a633on31lo1g","geo_precision":"range","address":"665 NORTH BROADWAY","lat":"39 26 38","state":"OH"},"type":"Feature","geometry":{"type":"Point","coordinates":[-84.205224,39.445023]}},{"properties":{"city":"LEBANON","lon":"-84 14 52.96","zip":"45036","county":"Warren","geo_score":0.912,"cni partner":null,"msc":"OH DUFF MTSO","id":"a633onbi2w69","geo_precision":"range","address":"2425 STATE ROUTE 122","lat":"39-29-22.61","state":"OH"},"type":"Feature","geometry":{"type":"Point","coordinates":[-84.247513,39.491154]}},{"properties":{"city":"MAINEVILLE","lon":"-84 13 10","zip":"45039","county":"Warren","geo_score":0.959,"cni partner":null,"msc":"OH DUFF MTSO","id":"a633ondz9qqd","geo_precision":"range","address":"7796 SOUTH STATE ROUTE 48","lat":"39 19 15","state":"OH"},"type":"Feature","geometry":{"type":"Point","coordinates":[-84.220836,39.320898]}},{"properties":{"city":"MASON","lon":"-84 16 20","zip":"45040","county":"Warren","geo_score":0.805,"cni partner":null,"msc":"OH DUFF MTSO","id":"a633on3j63ea","geo_precision":"street","address":"2501 WESTERN ROW RD","lat":"39 19 33","state":"OH"},"type":"Feature","geometry":{"type":"Point","coordinates":[-84.282381,39.336497]}},{"properties":{"city":"MASON","lon":"-84 19 36","zip":"45040","county":"Warren","geo_score":1.0,"cni partner":null,"msc":"OH DUFF MTSO","id":"a633onezn3zx","geo_precision":"range","address":"753 READING RD","lat":"39 20 57","state":"OH"},"type":"Feature","geometry":{"type":"Point","coordinates":[-84.32368,39.350379]}},{"properties":{"city":"MASON","lon":"-84 16 10","zip":"45040","county":"Warren","geo_score":0.766,"cni partner":null,"msc":"OH DUFF MTSO","id":"a633on2bygan","geo_precision":"street","address":"3074 BUNNELL ROAD (UNOFFICIAL)","lat":"39 23 38","state":"OH"},"type":"Feature","geometry":{"type":"Point","coordinates":[-84.333811,39.296344]}},{"properties":{"city":"MASON (CINCINNATI)","lon":"-84 19 09","zip":"45040","county":"Warren","geo_score":0.935,"cni partner":null,"msc":"OH DUFF MTSO","id":"a633onduru6a","geo_precision":"range","address":"5352 MERTEN DR","lat":"39 17 49","state":"OH"},"type":"Feature","geometry":{"type":"Point","coordinates":[-84.319287,39.298242]}},{"properties":{"city":"SPRINGBORO","lon":"-84 15 42","zip":"45066","county":"Warren","geo_score":1.0,"cni partner":null,"msc":"OH DUFF MTSO","id":"a633onebmsi9","geo_precision":"range","address":"96 GREENWOOD LN","lat":"39 34 06","state":"OH"},"type":"Feature","geometry":{"type":"Point","coordinates":[-84.264647,39.565661]}},{"properties":{"city":"BRYAN","lon":"-84 33 14.4","zip":"43506","county":"Williams","geo_score":0.799,"cni partner":null,"msc":"OH CLEVELAND MTSO","id":"a633on4ulcu6","geo_precision":"range","address":"8686 ST RT 15","lat":"41 32 17.6","state":"OH"},"type":"Feature","geometry":{"type":"Point","coordinates":[-84.555624,41.53841]}},{"properties":{"city":"BRYAN","lon":"-84 33 16","zip":"43506","county":"Williams","geo_score":0.916,"cni partner":null,"msc":"OH CLEVELAND MTSO","id":"a633on7x7ynt","geo_precision":"range","address":"320 PAIGE ST","lat":"41 28 49","state":"OH"},"type":"Feature","geometry":{"type":"Point","coordinates":[-84.552437,41.480471]}},{"properties":{"city":"EDGERTON","lon":"-84 42 52","zip":"43517","county":"Williams","geo_score":0.688,"cni partner":null,"msc":"OH CLEVELAND MTSO","id":"a633on6nkyje","geo_precision":"street","address":"1803 CR 6 (PER TELCO - 5761 COUNTY ROAD B)","lat":"41 26 31","state":"OH"},"type":"Feature","geometry":{"type":"Point","coordinates":[-84.710456,41.465665]}},{"properties":{"city":"MONTPELIER","lon":"-84 37 58","zip":"43543","county":"Williams","geo_score":0.932,"cni partner":null,"msc":"OH CLEVELAND MTSO","id":"a633on0e9fuy","geo_precision":"range","address":"13843 CO RD 10","lat":"41 36 51","state":"OH"},"type":"Feature","geometry":{"type":"Point","coordinates":[-84.632488,41.61408]}},{"properties":{"city":"PIONEER","lon":"-84 33 18.09","zip":"43554","county":"Williams","geo_score":1.0,"cni partner":null,"msc":"OH CLEVELAND MTSO","id":"a633on3xy0bm","geo_precision":"range","address":"508 SOUTH STATE ST","lat":"41 40 20.8806","state":"OH"},"type":"Feature","geometry":{"type":"Point","coordinates":[-84.553516,41.674319]}},{"properties":{"city":"STRYKER","lon":"-84 25 6","zip":"43557","county":"Williams","geo_score":0.683,"cni partner":null,"msc":"OH CLEVELAND MTSO","id":"a633onbsbvx3","geo_precision":"zip","address":"204 ELLIS ST","lat":"41 30 42","state":"OH"},"type":"Feature","geometry":{"type":"Point","coordinates":[-84.409876,41.488708]}},{"properties":{"city":"WEST UNITY","lon":"-84 24 22","zip":"43570","county":"Williams","geo_score":0.743,"cni partner":null,"msc":"OH CLEVELAND MTSO","id":"a633on7mrhpm","geo_precision":"street","address":"21625 CO. RD M","lat":"41 36 8","state":"OH"},"type":"Feature","geometry":{"type":"Point","coordinates":[-84.512816,41.572025]}},{"properties":{"city":"BOWLING GREEN","lon":"-83 38 39","zip":"43402","county":"Wood","geo_score":0.911,"cni partner":null,"msc":"OH CLEVELAND MTSO","id":"a633omzgcv4j","geo_precision":"range","address":"515 RIDGE ST","lat":"41 22 43","state":"OH"},"type":"Feature","geometry":{"type":"Point","coordinates":[-83.643819,41.378295]}},{"properties":{"city":"BOWLING GREEN","lon":"-83 38 29","zip":"43402","county":"Wood","geo_score":0.789,"cni partner":null,"msc":"OH CLEVELAND MTSO","id":"a633onea64ia","geo_precision":"range","address":"245 TROUP AVE","lat":"41 22 18","state":"OH"},"type":"Feature","geometry":{"type":"Point","coordinates":[-83.641959,41.371665]}},{"properties":{"city":"BOWLING GREEN","lon":"-83 48 15","zip":"43402","county":"Wood","geo_score":0.716,"cni partner":null,"msc":"OH CLEVELAND MTSO","id":"a633on9b4fw1","geo_precision":"street","address":"20892 BOWLING GREEN RD W","lat":"41 22 24","state":"OH"},"type":"Feature","geometry":{"type":"Point","coordinates":[-83.747164,41.372242]}},{"properties":{"city":"BOWLING GREEN","lon":"-83 38 09","zip":"43402","county":"Wood","geo_score":0.911,"cni partner":null,"msc":"OH CLEVELAND MTSO","id":"a633on56lg17","geo_precision":"range","address":"12400 CROSS CREEK RD","lat":"41 26 16","state":"OH"},"type":"Feature","geometry":{"type":"Point","coordinates":[-83.637939,41.436528]}},{"properties":{"city":"BOWLING GREEN","lon":"-83 41 02.35","zip":"43402","county":"Wood","geo_score":0.911,"cni partner":null,"msc":"OH CLEVELAND MTSO","id":"a633on3gv8ur","geo_precision":"range","address":"14720 BOWLING GREEN RD W","lat":"41 22 20.39","state":"OH"},"type":"Feature","geometry":{"type":"Point","coordinates":[-83.683768,41.371693]}},{"properties":{"city":"BOWLING GREEN","lon":"-83 36 14.7","zip":"43402","county":"Wood","geo_score":0.789,"cni partner":null,"msc":"OH CLEVELAND MTSO","id":"a633on31s9mt","geo_precision":"range","address":"10653 LINWOOD RD","lat":"41 20 58.1","state":"OH"},"type":"Feature","geometry":{"type":"Point","coordinates":[-83.60753,41.349006]}},{"properties":{"city":"BOWLING GREEN","lon":"-83 41 20","zip":"43402","county":"Wood","geo_score":0.911,"cni partner":null,"msc":"OH CLEVELAND MTSO","id":"a633on5j2rrw","geo_precision":"range","address":"17008 MITCHELL RD","lat":"41 24 03","state":"OH"},"type":"Feature","geometry":{"type":"Point","coordinates":[-83.689087,41.401377]}},{"properties":{"city":"BOWLING GREEN","lon":"-83.74278056","zip":"43402","county":"Wood","geo_score":0.473,"cni partner":null,"msc":"OH CLEVELAND MTSO","id":"a633on66e9h9","geo_precision":"street","address":"17748 MIDDLETON PIKE (PER TELCO)","lat":"41.45961111","state":"OH"},"type":"Feature","geometry":{"type":"Point","coordinates":[-83.521469,41.456905]}},{"properties":{"city":"BRADNER","lon":"-83 26 07","zip":"43406","county":"Wood","geo_score":0.72,"cni partner":null,"msc":"OH CLEVELAND MTSO","id":"a633on2kuodq","geo_precision":"street","address":"236A CALDWELL RD","lat":"41 19 37","state":"OH"},"type":"Feature","geometry":{"type":"Point","coordinates":[-83.417648,41.326896]}},{"properties":{"city":"CYGNET","lon":"-83 39 33","zip":"43413","county":"Wood","geo_score":0.489,"cni partner":null,"msc":"OH CLEVELAND MTSO","id":"a633on6uot0z","geo_precision":"street","address":"6489 S. DIXIE HWY.","lat":"41 14 54","state":"OH"},"type":"Feature","geometry":{"type":"Point","coordinates":[-83.650095,41.253968]}},{"properties":{"city":"GRAND RAPIDS","lon":"-83.51.41","zip":"43522","county":"Wood","geo_score":1.0,"cni partner":null,"msc":"OH CLEVELAND MTSO","id":"a633on0n9yee","geo_precision":"range","address":"13385 LUDWIG RD","lat":"41.25.08","state":"OH"},"type":"Feature","geometry":{"type":"Point","coordinates":[-83.860593,41.420137]}},{"properties":{"city":"NORTH BALTIMORE","lon":"-83 38 56","zip":"44839","county":"Wood","geo_score":0.464,"cni partner":null,"msc":"OH CLEVELAND MTSO","id":"a633on5l4gl8","geo_precision":"street","address":"1188 S DIXIE RD","lat":"41 10 04","state":"OH"},"type":"Feature","geometry":{"type":"Point","coordinates":[-82.700415,41.428746]}},{"properties":{"city":"NORTHWOOD","lon":"-83 27 23","zip":"43619","county":"Wood","geo_score":0.824,"cni partner":null,"msc":"OH CLEVELAND MTSO","id":"a633on9tcybs","geo_precision":"range","address":"3035 EAST PLAZA DR","lat":"41 36 10","state":"OH"},"type":"Feature","geometry":{"type":"Point","coordinates":[-83.456992,41.607243]}},{"properties":{"city":"NORTHWOOD","lon":"-134","zip":"43619","county":"Wood","geo_score":0.805,"cni partner":null,"msc":"OH CLEVELAND MTSO","id":"a633on1ununf","geo_precision":"street","address":"6425 WALBRIDGE RD","lat":"41-35-15","state":"OH"},"type":"Feature","geometry":{"type":"Point","coordinates":[-83.425251,41.587697]}},{"properties":{"city":"PEMBERVILLE","lon":"-83 31 06","zip":"43450","county":"Wood","geo_score":0.92,"cni partner":null,"msc":"OH CLEVELAND MTSO","id":"a633on1xq4b2","geo_precision":"range","address":"6160 LINWOOD RD","lat":"41 21 24","state":"OH"},"type":"Feature","geometry":{"type":"Point","coordinates":[-83.516609,41.358051]}},{"properties":{"city":"PERRYSBURG","lon":"-83 27 52","zip":"43551","county":"Wood","geo_score":0.902,"cni partner":null,"msc":"OH CLEVELAND MTSO","id":"a633onc1zlk9","geo_precision":"range","address":"3652 TRUMAN RD","lat":"41 30 34","state":"OH"},"type":"Feature","geometry":{"type":"Point","coordinates":[-83.466244,41.504853]}},{"properties":{"city":"PERRYSBURG","lon":"-83 36 03","zip":"43551","county":"Wood","geo_score":0.902,"cni partner":null,"msc":"OH CLEVELAND MTSO","id":"a633on31v4dj","geo_precision":"range","address":"10701 ECKEL JUNCTION RD","lat":"41 32 10","state":"OH"},"type":"Feature","geometry":{"type":"Point","coordinates":[-83.60041,41.536631]}},{"properties":{"city":"PERRYSBURG","lon":"-84 08 33.1","zip":"43551","county":"Wood","geo_score":0.902,"cni partner":null,"msc":"OH CLEVELAND MTSO","id":"a633oneideyp","geo_precision":"range","address":"25851 FORT MEIGS RD","lat":"40 43 44.5","state":"OH"},"type":"Feature","geometry":{"type":"Point","coordinates":[-83.65549,41.529484]}},{"properties":{"city":"PERRYSBURG","lon":"-83 28 40.03","zip":"43551","county":"Wood","geo_score":0.709,"cni partner":null,"msc":"OH CLEVELAND MTSO","id":"a633oncab9rp","geo_precision":"street","address":"22339 LEMOYNE RD","lat":"41 28 34.08","state":"OH"},"type":"Feature","geometry":{"type":"Point","coordinates":[-83.473238,41.479246]}},{"properties":{"city":"ROSSFORD","lon":"-83 33 30","zip":"43460","county":"Wood","geo_score":0.915,"cni partner":null,"msc":"OH CLEVELAND MTSO","id":"a633ondcyyao","geo_precision":"range","address":"910 GLENWOOD RD","lat":"41 35 09","state":"OH"},"type":"Feature","geometry":{"type":"Point","coordinates":[-83.557747,41.58695]}},{"properties":{"city":"RUDOLPH","lon":"-83 41 24","zip":"43462","county":"Wood","geo_score":0.72,"cni partner":null,"msc":"OH CLEVELAND MTSO","id":"a633on6hwfva","geo_precision":"street","address":"10130 MITCHELL RD","lat":"41 18 17","state":"OH"},"type":"Feature","geometry":{"type":"Point","coordinates":[-83.689404,41.311567]}},{"properties":{"city":"WALBRIDGE","lon":"-83 28 55","zip":"43465","county":"Wood","geo_score":0.805,"cni partner":null,"msc":"OH CLEVELAND MTSO","id":"a633onap8upo","geo_precision":"range","address":"26174 CUMMINGS RD","lat":"41 31 58","state":"OH"},"type":"Feature","geometry":{"type":"Point","coordinates":[-83.48135,41.531689]}},{"properties":{"city":"CAREY","lon":"-83 22 58","zip":"43316","county":"Wyandot","geo_score":0.62,"cni partner":null,"msc":"OH MAUMEE MTSO","id":"a633on847az8","geo_precision":"street","address":"3842A PATTERSON ST (CR-97)","lat":"40 56 05","state":"OH"},"type":"Feature","geometry":{"type":"Point","coordinates":[-83.42058,41.006713]}},{"properties":{"city":"UPPER SANDUSKY","lon":"-83 16 33","zip":"43351","county":"Wyandot","geo_score":0.717,"cni partner":null,"msc":"OH MAUMEE MTSO","id":"a633on59n81e","geo_precision":"street","address":"280 INDIAN MILL DR","lat":"40 50 44","state":"OH"},"type":"Feature","geometry":{"type":"Point","coordinates":[-83.270997,40.851292]}}],"is_temporal":false,"author":{"url":"","metadata":"","contact_name":"","contact_address":"","source":"","contact_phone":""},"source":"","pagination":{"sort":null,"start":0,"total":245,"limit":1000000},"state":"complete","tags":"","published":"2014-08-13T10:19:37-04:00","id":178498}