{"type":"FeatureCollection","data_type":"Dataset","url_type":null,"permissions":[{"permissions":{"download":true,"view":true},"group_id":"everyone"}],"classification":null,"title":"test","count":58,"stream_id":17862,"contributor":{"url":"http://geocommons.com/users/9503","name":"kimbui"},"data_attributes":null,"calculation_params":null,"icon_link":null,"link":"http://geocommons.com/overlays/17862.json","extent":[-123.734,32.7211,-115.641,40.6013],"geometry_types":["point"],"unique_name":null,"name":"test","feature_count":58,"description":"","next_feature":null,"is_raster":false,"short_classification":"Y","stats":{"geo_score":{"max":0.857,"mean":0.591465517241379,"variance":0.138342744404114,"stdev":0.37194454479682,"min":0.0,"median":0.857},"total":{"max":150377.0,"mean":9460.34482758621,"variance":467277145.352692,"stdev":21616.5942126111,"min":15.0,"median":2453.0},"under 37 weeks":{"max":17186.0,"mean":1021.12068965517,"variance":5918388.07289776,"stdev":2432.77374058866,"min":0.0,"median":257.0},"late to no prenatal care":{"max":2555.0,"mean":252.327586206897,"variance":176223.031155475,"stdev":419.789269938471,"min":1.0,"median":94.0}},"features":[{"properties":{"city":"ALAMEDA CA","county":"ALAMEDA","geo_score":0.857,"under 37 weeks":1919.0,"total":20902.0,"id":"a6oi2kjiwk91","geo_precision":"city","late to no prenatal care":377.0},"type":"Feature","geometry":{"type":"Point","coordinates":[-122.264779,37.770563]}},{"properties":{"city":"ALPINE CA","county":"ALPINE","geo_score":0.857,"under 37 weeks":0.0,"total":15.0,"id":"a6oi2kfx44qn","geo_precision":"city","late to no prenatal care":1.0},"type":"Feature","geometry":{"type":"Point","coordinates":[-116.976341,32.74081]}},{"properties":{"city":"AMADOR CA","county":"AMADOR","geo_score":0.0,"under 37 weeks":25.0,"total":288.0,"id":"a6oi2kgnxat6","geo_precision":"unmatched","late to no prenatal care":6.0},"type":"Feature","geometry":null},{"properties":{"city":"BUTTE CA","county":"BUTTE","geo_score":0.0,"under 37 weeks":257.0,"total":2451.0,"id":"a6oi2ksngn31","geo_precision":"unmatched","late to no prenatal care":117.0},"type":"Feature","geometry":null},{"properties":{"city":"CALAVERAS CA","county":"CALAVERAS","geo_score":0.496,"under 37 weeks":50.0,"total":371.0,"id":"a6oi2kqrsx1o","geo_precision":"street","late to no prenatal care":16.0},"type":"Feature","geometry":{"type":"Point","coordinates":[-118.408086,34.017877]}},{"properties":{"city":"COLUSA CA","county":"COLUSA","geo_score":0.857,"under 37 weeks":35.0,"total":381.0,"id":"a6oi2knaq7q3","geo_precision":"city","late to no prenatal care":28.0},"type":"Feature","geometry":{"type":"Point","coordinates":[-122.221269,39.203958]}},{"properties":{"city":"CONTRA COSTA CA","county":"CONTRA COSTA","geo_score":0.648,"under 37 weeks":1329.0,"total":13143.0,"id":"a6oi2klanjs8","geo_precision":"street","late to no prenatal care":373.0},"type":"Feature","geometry":{"type":"Point","coordinates":[-117.922563,33.976284]}},{"properties":{"city":"DEL NORTE CA","county":"DEL NORTE","geo_score":0.339,"under 37 weeks":31.0,"total":327.0,"id":"a6oi2kig5jq5","geo_precision":"street","late to no prenatal care":4.0},"type":"Feature","geometry":{"type":"Point","coordinates":[-120.102171,40.021561]}},{"properties":{"city":"EL DORADO CA","county":"EL DORADO","geo_score":0.857,"under 37 weeks":205.0,"total":1930.0,"id":"a6oi2keo3xlp","geo_precision":"city","late to no prenatal care":49.0},"type":"Feature","geometry":{"type":"Point","coordinates":[-120.84598,38.676272]}},{"properties":{"city":"FRESNO CA","county":"FRESNO","geo_score":0.857,"under 37 weeks":2429.0,"total":15936.0,"id":"a6oi2kogtzmi","geo_precision":"city","late to no prenatal care":380.0},"type":"Feature","geometry":{"type":"Point","coordinates":[-119.801015,36.8411]}},{"properties":{"city":"GLENN CA","county":"GLENN","geo_score":0.857,"under 37 weeks":51.0,"total":431.0,"id":"a6oi2kdorzpm","geo_precision":"city","late to no prenatal care":11.0},"type":"Feature","geometry":{"type":"Point","coordinates":[-122.032181,39.596546]}},{"properties":{"city":"HUMBOLDT CA","county":"HUMBOLDT","geo_score":0.0,"under 37 weeks":163.0,"total":1598.0,"id":"a6oi2kfk4mh2","geo_precision":"unmatched","late to no prenatal care":62.0},"type":"Feature","geometry":null},{"properties":{"city":"IMPERIAL CA","county":"IMPERIAL","geo_score":0.857,"under 37 weeks":372.0,"total":3058.0,"id":"a6oi2ke675pi","geo_precision":"city","late to no prenatal care":237.0},"type":"Feature","geometry":{"type":"Point","coordinates":[-115.640538,33.008903]}},{"properties":{"city":"INYO CA","county":"INYO","geo_score":0.0,"under 37 weeks":32.0,"total":205.0,"id":"a6oi2krhyj6t","geo_precision":"unmatched","late to no prenatal care":18.0},"type":"Feature","geometry":null},{"properties":{"city":"KERN CA","county":"KERN","geo_score":0.44,"under 37 weeks":1655.0,"total":14022.0,"id":"a6oi2km0dd1s","geo_precision":"street","late to no prenatal care":592.0},"type":"Feature","geometry":{"type":"Point","coordinates":[-117.526727,33.829276]}},{"properties":{"city":"KINGS CA","county":"KINGS","geo_score":0.0,"under 37 weeks":299.0,"total":2554.0,"id":"a6oi2kpxquqk","geo_precision":"unmatched","late to no prenatal care":172.0},"type":"Feature","geometry":null},{"properties":{"city":"LAKE CA","county":"LAKE","geo_score":0.0,"under 37 weeks":75.0,"total":728.0,"id":"a6oi2khrwhcd","geo_precision":"unmatched","late to no prenatal care":48.0},"type":"Feature","geometry":null},{"properties":{"city":"LASSEN CA","county":"LASSEN","geo_score":0.0,"under 37 weeks":14.0,"total":289.0,"id":"a6oi2kschb3x","geo_precision":"unmatched","late to no prenatal care":5.0},"type":"Feature","geometry":null},{"properties":{"city":"LOS ANGELES CA","county":"LOS ANGELES","geo_score":0.857,"under 37 weeks":17186.0,"total":150377.0,"id":"a6oi2kf0f9bz","geo_precision":"city","late to no prenatal care":2555.0},"type":"Feature","geometry":{"type":"Point","coordinates":[-118.248405,33.973951]}},{"properties":{"city":"MADERA CA","county":"MADERA","geo_score":0.857,"under 37 weeks":278.0,"total":2349.0,"id":"a6oi2kmtgo5c","geo_precision":"city","late to no prenatal care":100.0},"type":"Feature","geometry":{"type":"Point","coordinates":[-120.182423,36.928286]}},{"properties":{"city":"MARIN CA","county":"MARIN","geo_score":0.673,"under 37 weeks":279.0,"total":2785.0,"id":"a6oi2knjon17","geo_precision":"street","late to no prenatal care":24.0},"type":"Feature","geometry":{"type":"Point","coordinates":[-121.806577,36.680918]}},{"properties":{"city":"MARIPOSA CA","county":"MARIPOSA","geo_score":0.857,"under 37 weeks":9.0,"total":122.0,"id":"a6oi2kjh8ihd","geo_precision":"city","late to no prenatal care":4.0},"type":"Feature","geometry":{"type":"Point","coordinates":[-120.018973,37.572907]}},{"properties":{"city":"MENDOCINO CA","county":"MENDOCINO","geo_score":0.857,"under 37 weeks":138.0,"total":1121.0,"id":"a6oi2kmk42pt","geo_precision":"city","late to no prenatal care":94.0},"type":"Feature","geometry":{"type":"Point","coordinates":[-123.734377,39.319949]}},{"properties":{"city":"MERCED CA","county":"MERCED","geo_score":0.857,"under 37 weeks":438.0,"total":4470.0,"id":"a6oi2khibrqj","geo_precision":"city","late to no prenatal care":325.0},"type":"Feature","geometry":{"type":"Point","coordinates":[-120.475427,37.338191]}},{"properties":{"city":"MODOC CA","county":"MODOC","geo_score":0.776,"under 37 weeks":11.0,"total":81.0,"id":"a6oi2khzaejy","geo_precision":"city","late to no prenatal care":2.0},"type":"Feature","geometry":{"type":"Point","coordinates":[-120.462665,34.936367]}},{"properties":{"city":"MONO CA","county":"MONO","geo_score":0.0,"under 37 weeks":19.0,"total":153.0,"id":"a6oi2kmp2zh9","geo_precision":"unmatched","late to no prenatal care":7.0},"type":"Feature","geometry":null},{"properties":{"city":"MONTEREY CA","county":"MONTEREY","geo_score":0.857,"under 37 weeks":785.0,"total":7501.0,"id":"a6oi2kh1ku1x","geo_precision":"city","late to no prenatal care":297.0},"type":"Feature","geometry":{"type":"Point","coordinates":[-121.688623,36.521811]}},{"properties":{"city":"NAPA CA","county":"NAPA","geo_score":0.857,"under 37 weeks":138.0,"total":1658.0,"id":"a6oi2klnxua8","geo_precision":"city","late to no prenatal care":40.0},"type":"Feature","geometry":{"type":"Point","coordinates":[-122.311921,38.516158]}},{"properties":{"city":"NEVADA CA","county":"NEVADA","geo_score":0.486,"under 37 weeks":76.0,"total":819.0,"id":"a6oi2koke0t4","geo_precision":"street","late to no prenatal care":28.0},"type":"Feature","geometry":{"type":"Point","coordinates":[-122.552092,38.07747]}},{"properties":{"city":"ORANGE CA","county":"ORANGE","geo_score":0.857,"under 37 weeks":4182.0,"total":44065.0,"id":"a6oi2kipqnzn","geo_precision":"city","late to no prenatal care":590.0},"type":"Feature","geometry":{"type":"Point","coordinates":[-117.853112,33.787795]}},{"properties":{"city":"PLACER CA","county":"PLACER","geo_score":0.0,"under 37 weeks":346.0,"total":3823.0,"id":"a6oi2kei5ef4","geo_precision":"unmatched","late to no prenatal care":77.0},"type":"Feature","geometry":null},{"properties":{"city":"PLUMAS CA","county":"PLUMAS","geo_score":0.452,"under 37 weeks":20.0,"total":176.0,"id":"a6oi2kj1nmx8","geo_precision":"street","late to no prenatal care":5.0},"type":"Feature","geometry":{"type":"Point","coordinates":[-118.403594,34.029064]}},{"properties":{"city":"RIVERSIDE CA","county":"RIVERSIDE","geo_score":0.857,"under 37 weeks":3387.0,"total":31509.0,"id":"a6oi2kfmldmg","geo_precision":"city","late to no prenatal care":939.0},"type":"Feature","geometry":{"type":"Point","coordinates":[-116.055617,33.752886]}},{"properties":{"city":"SACRAMENTO CA","county":"SACRAMENTO","geo_score":0.857,"under 37 weeks":2214.0,"total":21184.0,"id":"a6oi2kj4gejj","geo_precision":"city","late to no prenatal care":728.0},"type":"Feature","geometry":{"type":"Point","coordinates":[-121.555406,38.380456]}},{"properties":{"city":"SAN BENITO CA","county":"SAN BENITO","geo_score":0.857,"under 37 weeks":108.0,"total":892.0,"id":"a6oi2koangxl","geo_precision":"city","late to no prenatal care":25.0},"type":"Feature","geometry":{"type":"Point","coordinates":[-121.08186,36.509685]}},{"properties":{"city":"SAN BERNARDINO CA","county":"SAN BERNARDINO","geo_score":0.857,"under 37 weeks":3623.0,"total":33075.0,"id":"a6oi2kdl9pbf","geo_precision":"city","late to no prenatal care":1037.0},"type":"Feature","geometry":{"type":"Point","coordinates":[-117.289765,34.108345]}},{"properties":{"city":"SAN DIEGO CA","county":"SAN DIEGO","geo_score":0.857,"under 37 weeks":5024.0,"total":45897.0,"id":"a6oi2kg0xtf3","geo_precision":"city","late to no prenatal care":1213.0},"type":"Feature","geometry":{"type":"Point","coordinates":[-117.174366,32.7211]}},{"properties":{"city":"SAN FRANCISCO CA","county":"SAN FRANCISCO","geo_score":0.857,"under 37 weeks":900.0,"total":8403.0,"id":"a6oi2kpao0q4","geo_precision":"city","late to no prenatal care":183.0},"type":"Feature","geometry":{"type":"Point","coordinates":[-122.727802,37.784827]}},{"properties":{"city":"SAN JOAQUIN ca","county":"SAN JOAQUIN","geo_score":0.857,"under 37 weeks":1256.0,"total":11495.0,"id":"a6oi2kcoiznl","geo_precision":"city","late to no prenatal care":890.0},"type":"Feature","geometry":{"type":"Point","coordinates":[-120.202084,36.458421]}},{"properties":{"city":"SAN LUIS OBISPO cA","county":"SAN LUIS OBISPO","geo_score":0.857,"under 37 weeks":237.0,"total":2664.0,"id":"a6oi2ko033gt","geo_precision":"city","late to no prenatal care":66.0},"type":"Feature","geometry":{"type":"Point","coordinates":[-120.62122,35.265573]}},{"properties":{"city":"SAN MATEO CA","county":"SAN MATEO","geo_score":0.857,"under 37 weeks":956.0,"total":9938.0,"id":"a6oi2kpfijzy","geo_precision":"city","late to no prenatal care":169.0},"type":"Feature","geometry":{"type":"Point","coordinates":[-122.32253,37.573485]}},{"properties":{"city":"SANTA BARBARA CA","county":"SANTA BARBARA","geo_score":0.857,"under 37 weeks":652.0,"total":6192.0,"id":"a6oi2khdthar","geo_precision":"city","late to no prenatal care":212.0},"type":"Feature","geometry":{"type":"Point","coordinates":[-119.707135,34.421897]}},{"properties":{"city":"SANTA CLARA CA","county":"SANTA CLARA","geo_score":0.857,"under 37 weeks":2558.0,"total":26553.0,"id":"a6oi2kpfeuzf","geo_precision":"city","late to no prenatal care":651.0},"type":"Feature","geometry":{"type":"Point","coordinates":[-121.967965,37.36462]}},{"properties":{"city":"SANTA CRUZ CA","county":"SANTA CRUZ","geo_score":0.857,"under 37 weeks":326.0,"total":3385.0,"id":"a6oi2khb4hmt","geo_precision":"city","late to no prenatal care":58.0},"type":"Feature","geometry":{"type":"Point","coordinates":[-122.111126,37.052748]}},{"properties":{"city":"SHASTA CA","county":"SHASTA","geo_score":0.857,"under 37 weeks":200.0,"total":2123.0,"id":"a6oi2kn5kov6","geo_precision":"city","late to no prenatal care":53.0},"type":"Feature","geometry":{"type":"Point","coordinates":[-122.494455,40.601263]}},{"properties":{"city":"SIERRA CA","county":"SIERRA","geo_score":0.0,"under 37 weeks":3.0,"total":35.0,"id":"a6oi2knust9u","geo_precision":"unmatched","late to no prenatal care":1.0},"type":"Feature","geometry":null},{"properties":{"city":"SISKIYOU CA","county":"SISKIYOU","geo_score":0.0,"under 37 weeks":36.0,"total":470.0,"id":"a6oi2khkz7b0","geo_precision":"unmatched","late to no prenatal care":19.0},"type":"Feature","geometry":null},{"properties":{"city":"SOLANO CA","county":"SOLANO","geo_score":0.0,"under 37 weeks":628.0,"total":5737.0,"id":"a6oi2krj6z79","geo_precision":"unmatched","late to no prenatal care":265.0},"type":"Feature","geometry":null},{"properties":{"city":"SONOMA CA","county":"SONOMA","geo_score":0.857,"under 37 weeks":438.0,"total":5613.0,"id":"a6oi2kr0z4xb","geo_precision":"city","late to no prenatal care":188.0},"type":"Feature","geometry":{"type":"Point","coordinates":[-122.476819,38.255943]}},{"properties":{"city":"STANISLAUS CA","county":"STANISLAUS","geo_score":0.0,"under 37 weeks":972.0,"total":8445.0,"id":"a6oi2ki9q5eo","geo_precision":"unmatched","late to no prenatal care":202.0},"type":"Feature","geometry":null},{"properties":{"city":"SUTTER CA","county":"SUTTER","geo_score":0.857,"under 37 weeks":147.0,"total":1484.0,"id":"a6oi2kcpcyub","geo_precision":"city","late to no prenatal care":73.0},"type":"Feature","geometry":{"type":"Point","coordinates":[-121.80251,39.172636]}},{"properties":{"city":"TEHAMA CA","county":"TEHAMA","geo_score":0.857,"under 37 weeks":85.0,"total":872.0,"id":"a6oi2kq8tzrq","geo_precision":"city","late to no prenatal care":24.0},"type":"Feature","geometry":{"type":"Point","coordinates":[-122.118643,40.021383]}},{"properties":{"city":"TRINITY CA","county":"TRINITY","geo_score":0.0,"under 37 weeks":9.0,"total":120.0,"id":"a6oi2kdy2mb4","geo_precision":"unmatched","late to no prenatal care":6.0},"type":"Feature","geometry":null},{"properties":{"city":"TULARE CA","county":"TULARE","geo_score":0.857,"under 37 weeks":963.0,"total":8168.0,"id":"a6oi2khcnmtr","geo_precision":"city","late to no prenatal care":332.0},"type":"Feature","geometry":{"type":"Point","coordinates":[-119.299856,36.133527]}},{"properties":{"city":"TUOLUMNE CA","county":"TUOLUMNE","geo_score":0.857,"under 37 weeks":47.0,"total":446.0,"id":"a6oi2kkmrj2n","geo_precision":"city","late to no prenatal care":8.0},"type":"Feature","geometry":{"type":"Point","coordinates":[-120.267887,37.921694]}},{"properties":{"city":"VENTURA CA","county":"VENTURA","geo_score":0.857,"under 37 weeks":1268.0,"total":12160.0,"id":"a6oi2kkovry7","geo_precision":"city","late to no prenatal care":413.0},"type":"Feature","geometry":{"type":"Point","coordinates":[-119.358352,34.330829]}},{"properties":{"city":"YOLO CA","county":"YOLO","geo_score":0.857,"under 37 weeks":203.0,"total":2453.0,"id":"a6oi2kktbkph","geo_precision":"city","late to no prenatal care":128.0},"type":"Feature","geometry":{"type":"Point","coordinates":[-121.832156,38.751038]}},{"properties":{"city":"YUBA CA","county":"YUBA","geo_score":0.0,"under 37 weeks":139.0,"total":1258.0,"id":"a6oi2keaoz27","geo_precision":"unmatched","late to no prenatal care":108.0},"type":"Feature","geometry":null}],"is_temporal":false,"author":{"url":"","metadata":"","contact_name":"","contact_address":"","source":"","contact_phone":""},"source":"","pagination":{"sort":null,"start":0,"total":58,"limit":1000000},"state":"complete","tags":"","published":"2014-08-10T23:06:19-04:00","id":17862}