{"type":"FeatureCollection","data_type":"Dataset","url_type":null,"permissions":[{"permissions":{"download":true,"view":true},"group_id":"everyone"}],"classification":null,"title":"map_test1","count":50,"stream_id":178732,"contributor":{"url":"http://geocommons.com/users/36085","name":"joemckelvey1@hotmail.com"},"data_attributes":null,"calculation_params":null,"icon_link":null,"link":"http://geocommons.com/overlays/178732.json","extent":[-116.602,-1.68333,9.86667,51.05],"geometry_types":["point"],"unique_name":null,"name":"map_test1","feature_count":50,"description":"","next_feature":null,"is_raster":false,"short_classification":"Y","stats":{},"features":[{"properties":{"city":"Boston","geo_score":0.929,"id":"a68011ccqxpd","geo_precision":"zip","state":"MA"},"type":"Feature","geometry":{"type":"Point","coordinates":[-7.15,31.96]}},{"properties":{"city":"Temperance","geo_score":0.0,"id":"a68011k43nlq","geo_precision":"unmatched","state":"MI"},"type":"Feature","geometry":null},{"properties":{"city":"Marquette","geo_score":0.0,"id":"a68011qcahli","geo_precision":"unmatched","state":"MI"},"type":"Feature","geometry":null},{"properties":{"city":"Worcester","geo_score":0.0,"id":"a68011gq7acc","geo_precision":"unmatched","state":"MA"},"type":"Feature","geometry":null},{"properties":{"city":"Kansas City","geo_score":0.0,"id":"a68011qfg6zg","geo_precision":"unmatched","state":"KS"},"type":"Feature","geometry":null},{"properties":{"city":"San Diego","geo_score":0.893,"id":"a68011oum2c8","geo_precision":"zip","state":"CA"},"type":"Feature","geometry":{"type":"Point","coordinates":[-116.602093777,51.049964127]}},{"properties":{"city":"Clearwater","geo_score":0.0,"id":"a68011iyrk81","geo_precision":"unmatched","state":"SC"},"type":"Feature","geometry":null},{"properties":{"city":"San Juan","geo_score":1.0,"id":"a68011got8yf","geo_precision":"zip","state":"PR"},"type":"Feature","geometry":{"type":"Point","coordinates":[-66.0621103,18.3910596]}},{"properties":{"city":"St. Paul","geo_score":0.0,"id":"a68011d898vx","geo_precision":"unmatched","state":"MN"},"type":"Feature","geometry":null},{"properties":{"city":"New York","geo_score":0.0,"id":"a68011kxug2f","geo_precision":"unmatched","state":"NY"},"type":"Feature","geometry":null},{"properties":{"city":"New York","geo_score":0.0,"id":"a68011ezucov","geo_precision":"unmatched","state":"NY"},"type":"Feature","geometry":null},{"properties":{"city":"Harrisburg","geo_score":0.0,"id":"a68011rkbc1u","geo_precision":"unmatched","state":"PA"},"type":"Feature","geometry":null},{"properties":{"city":"Harrisburg","geo_score":0.0,"id":"a68011dqi3h7","geo_precision":"unmatched","state":"PA"},"type":"Feature","geometry":null},{"properties":{"city":"Skokie","geo_score":0.0,"id":"a68011fqb0ef","geo_precision":"unmatched","state":"IL"},"type":"Feature","geometry":null},{"properties":{"city":"Worthington","geo_score":0.0,"id":"a68011es5lsg","geo_precision":"unmatched","state":"MA"},"type":"Feature","geometry":null},{"properties":{"city":"Hyannis","geo_score":0.0,"id":"a68011hq98l1","geo_precision":"unmatched","state":"MA"},"type":"Feature","geometry":null},{"properties":{"city":"Boston","geo_score":0.929,"id":"a68011ldjmzo","geo_precision":"zip","state":"MA"},"type":"Feature","geometry":{"type":"Point","coordinates":[-7.15,31.96]}},{"properties":{"city":"Arcata","geo_score":0.959,"id":"a68011pvzu27","geo_precision":"zip","state":"CA"},"type":"Feature","geometry":{"type":"Point","coordinates":[-66.06556597,43.833452821]}},{"properties":{"city":"Arcata","geo_score":0.959,"id":"a68011klk2td","geo_precision":"zip","state":"CA"},"type":"Feature","geometry":{"type":"Point","coordinates":[-66.06556597,43.833452821]}},{"properties":{"city":"Davis","geo_score":0.976,"id":"a68011knkpsr","geo_precision":"zip","state":"CA"},"type":"Feature","geometry":{"type":"Point","coordinates":[-86.049885389,49.183398935]}},{"properties":{"city":"San Francisco","geo_score":0.901,"id":"a68011ijssla","geo_precision":"zip","state":"CA"},"type":"Feature","geometry":{"type":"Point","coordinates":[-76.432700044,44.800114145]}},{"properties":{"city":"Mount Vernon","geo_score":0.0,"id":"a68011gicx0l","geo_precision":"unmatched","state":"NY"},"type":"Feature","geometry":null},{"properties":{"city":"Oakland","geo_score":1.0,"id":"a68011crosbm","geo_precision":"zip","state":"CA"},"type":"Feature","geometry":{"type":"Point","coordinates":[-64.365452081,44.450153375]}},{"properties":{"city":"Fellsmere","geo_score":0.0,"id":"a68011mtb60a","geo_precision":"unmatched","state":"FL"},"type":"Feature","geometry":null},{"properties":{"city":"Clearwater","geo_score":0.0,"id":"a68011mqxgdo","geo_precision":"unmatched","state":"SC"},"type":"Feature","geometry":null},{"properties":{"city":"Opleousas","geo_score":0.0,"id":"a68011gjw3o6","geo_precision":"unmatched","state":"LA"},"type":"Feature","geometry":null},{"properties":{"city":"wormleysburg","geo_score":0.0,"id":"a68011ofczpe","geo_precision":"unmatched","state":"PA"},"type":"Feature","geometry":null},{"properties":{"city":"Lynn","geo_score":0.898,"id":"a68011hgb91b","geo_precision":"zip","state":"MA"},"type":"Feature","geometry":{"type":"Point","coordinates":[-8.61,31.21]}},{"properties":{"city":"Arleta","geo_score":0.0,"id":"a68011d6e58i","geo_precision":"unmatched","state":"CA"},"type":"Feature","geometry":null},{"properties":{"city":"Milwaukee","geo_score":0.0,"id":"a68011kcg4z8","geo_precision":"unmatched","state":"WI"},"type":"Feature","geometry":null},{"properties":{"city":"Hood River","geo_score":0.0,"id":"a68011ow21mm","geo_precision":"unmatched","state":"OR"},"type":"Feature","geometry":null},{"properties":{"city":"Costa Mesa","geo_score":0.889,"id":"a68011q2zer5","geo_precision":"zip","state":"CA"},"type":"Feature","geometry":{"type":"Point","coordinates":[-83.266515362,47.283407298]}},{"properties":{"city":"Harrisburg","geo_score":0.0,"id":"a68011hu12au","geo_precision":"unmatched","state":"PA"},"type":"Feature","geometry":null},{"properties":{"city":"San Diego","geo_score":0.893,"id":"a68011csb01y","geo_precision":"zip","state":"CA"},"type":"Feature","geometry":{"type":"Point","coordinates":[-116.602093777,51.049964127]}},{"properties":{"city":"Tishomingo","geo_score":0.0,"id":"a68011o3nmv2","geo_precision":"unmatched","state":"OK"},"type":"Feature","geometry":null},{"properties":{"city":"Portland","geo_score":0.0,"id":"a68011l6116s","geo_precision":"unmatched","state":"OR"},"type":"Feature","geometry":null},{"properties":{"city":"Silver City","geo_score":0.0,"id":"a68011lg08n2","geo_precision":"unmatched","state":"NM"},"type":"Feature","geometry":null},{"properties":{"city":"Raleigh","geo_score":0.0,"id":"a68011gnngcu","geo_precision":"unmatched","state":"NC"},"type":"Feature","geometry":null},{"properties":{"city":"Sedalia","geo_score":0.0,"id":"a68011ea4861","geo_precision":"unmatched","state":"MO"},"type":"Feature","geometry":null},{"properties":{"city":"Boston","geo_score":0.929,"id":"a68011nx1ked","geo_precision":"zip","state":"MA"},"type":"Feature","geometry":{"type":"Point","coordinates":[-7.15,31.96]}},{"properties":{"city":"Monterey","geo_score":0.0,"id":"a68011gnkjbu","geo_precision":"unmatched","state":"VA"},"type":"Feature","geometry":null},{"properties":{"city":"North Port","geo_score":0.0,"id":"a68011je1jxl","geo_precision":"unmatched","state":"FL"},"type":"Feature","geometry":null},{"properties":{"city":"St. Petersburg","geo_score":0.0,"id":"a68011eu7pao","geo_precision":"unmatched","state":"FL"},"type":"Feature","geometry":null},{"properties":{"city":"Waimanalo","geo_score":0.0,"id":"a68011dfvgan","geo_precision":"unmatched","state":"HI"},"type":"Feature","geometry":null},{"properties":{"city":"Great Bend","geo_score":0.0,"id":"a68011s8lzok","geo_precision":"unmatched","state":"KS"},"type":"Feature","geometry":null},{"properties":{"city":"Greensboro","geo_score":0.0,"id":"a68011pdeh8w","geo_precision":"unmatched","state":"GA"},"type":"Feature","geometry":null},{"properties":{"city":"Arrington","geo_score":0.0,"id":"a68011jrase2","geo_precision":"unmatched","state":"VA"},"type":"Feature","geometry":null},{"properties":{"city":"Macon","geo_score":0.911,"id":"a68011esc6k2","geo_precision":"zip","state":"GA"},"type":"Feature","geometry":{"type":"Point","coordinates":[9.8666667,-1.6833333]}},{"properties":{"city":"Holyoke","geo_score":0.0,"id":"a68011nqrknk","geo_precision":"unmatched","state":"MA"},"type":"Feature","geometry":null},{"properties":{"city":"Lansing","geo_score":0.0,"id":"a68011duiibq","geo_precision":"unmatched","state":"MI"},"type":"Feature","geometry":null}],"is_temporal":false,"author":{"url":"","metadata":null,"contact_name":null,"contact_address":null,"source":null,"contact_phone":null},"source":"","pagination":{"sort":null,"start":0,"total":50,"limit":1000000},"state":"complete","tags":"","published":"2014-08-13T10:38:34-04:00","id":178732}