{"type":"FeatureCollection","data_type":"Dataset","url_type":null,"permissions":[{"permissions":{"download":true,"view":true},"group_id":"everyone"}],"classification":null,"title":"NEW-Divorced","count":785,"stream_id":17897,"contributor":{"url":"http://geocommons.com/users/4048","name":"cskelton"},"data_attributes":null,"calculation_params":null,"icon_link":null,"link":"http://geocommons.com/overlays/17897.json","extent":[-135.053,42.0379,-52.7122,68.3611],"geometry_types":["point"],"unique_name":null,"name":"NEW-Divorced","feature_count":785,"description":"","next_feature":null,"is_raster":false,"short_classification":"Y","stats":{"divorced":{"max":16.4,"mean":8.29490445859872,"variance":5.55400461458469,"stdev":2.35669357672666,"min":1.7,"median":7.9},"lat":{"max":68.361057,"mean":47.1385371617834,"variance":12.235040120224,"stdev":3.49786222144669,"min":42.037885,"median":45.930645},"long":{"max":-52.71217,"mean":-85.1790947821657,"variance":394.527675742805,"stdev":19.8627207537841,"min":-135.053169,"median":-78.942547}},"features":[{"properties":{"divorced":6.9,"municipality":"Abbotsford","id":"a68ekclm2fv0","lat":49.051575,"province":"British Columbia","long":-122.328849},"type":"Feature","geometry":{"type":"Point","coordinates":[-122.328849,49.051575]}},{"properties":{"divorced":9.7,"municipality":"Abitibi","id":"a68ekch345f7","lat":48.620659,"province":"Quebec","long":-77.853348},"type":"Feature","geometry":{"type":"Point","coordinates":[-77.853348,48.620659]}},{"properties":{"divorced":8.8,"municipality":"Abitibi-Ouest","id":"a68ekch9ql0m","lat":48.720139,"province":"Quebec","long":-79.076424},"type":"Feature","geometry":{"type":"Point","coordinates":[-79.076424,48.720139]}},{"properties":{"divorced":12.5,"municipality":"Acton","id":"a68ekc7sgtlq","lat":45.621269,"province":"Quebec","long":-72.522751},"type":"Feature","geometry":{"type":"Point","coordinates":[-72.522751,45.621269]}},{"properties":{"divorced":13.1,"municipality":"Acton Vale","id":"a68ekcalni3w","lat":45.646995,"province":"Quebec","long":-72.565854},"type":"Feature","geometry":{"type":"Point","coordinates":[-72.565854,45.646995]}},{"properties":{"divorced":6.3,"municipality":"Adjala-Tosorontio","id":"a68ekcexszhb","lat":44.132907,"province":"Ontario","long":-79.903567},"type":"Feature","geometry":{"type":"Point","coordinates":[-79.903567,44.132907]}},{"properties":{"divorced":7.7,"municipality":"Airdrie","id":"a68ekc8g2ay3","lat":51.288055,"province":"Alberta","long":-114.013429},"type":"Feature","geometry":{"type":"Point","coordinates":[-114.013429,51.288055]}},{"properties":{"divorced":6.1,"municipality":"Ajax","id":"a68ekc7z7p3p","lat":43.85075,"province":"Ontario","long":-79.021094},"type":"Feature","geometry":{"type":"Point","coordinates":[-79.021094,43.85075]}},{"properties":{"divorced":9.9,"municipality":"Alberni-Clayoquot","id":"a68ekcax8zx5","lat":49.26392,"province":"British Columbia","long":-124.759139},"type":"Feature","geometry":{"type":"Point","coordinates":[-124.759139,49.26392]}},{"properties":{"divorced":6.9,"municipality":"Albert","id":"a68ekciqibum","lat":45.764759,"province":"New Brunswick","long":-64.882477},"type":"Feature","geometry":{"type":"Point","coordinates":[-64.882477,45.764759]}},{"properties":{"divorced":7.9,"municipality":"Alfred and Plantagenet","id":"a68ekcktyeuj","lat":45.540365,"province":"Ontario","long":-74.989839},"type":"Feature","geometry":{"type":"Point","coordinates":[-74.989839,45.540365]}},{"properties":{"divorced":8.0,"municipality":"Algoma","id":"a68ekcc1868z","lat":47.853512,"province":"Ontario","long":-84.63208},"type":"Feature","geometry":{"type":"Point","coordinates":[-84.63208,47.853512]}},{"properties":{"divorced":11.5,"municipality":"Alma","id":"a68ekccc036k","lat":48.54972,"province":"Quebec","long":-71.652624},"type":"Feature","geometry":{"type":"Point","coordinates":[-71.652624,48.54972]}},{"properties":{"divorced":3.7,"municipality":"Alnwick","id":"a68ekcht92u7","lat":47.227109,"province":"New Brunswick","long":-65.138545},"type":"Feature","geometry":{"type":"Point","coordinates":[-65.138545,47.227109]}},{"properties":{"divorced":7.0,"municipality":"Alnwick/Haldimand","id":"a68ekc6fx6hb","lat":43.99211,"province":"Ontario","long":-78.025679},"type":"Feature","geometry":{"type":"Point","coordinates":[-78.025679,43.99211]}},{"properties":{"divorced":9.7,"municipality":"Amherst","id":"a68ekc7h6ici","lat":45.83204,"province":"Nova Scotia","long":-64.209934},"type":"Feature","geometry":{"type":"Point","coordinates":[-64.209934,45.83204]}},{"properties":{"divorced":6.5,"municipality":"Amherstburg","id":"a68ekcbp9ave","lat":42.101875,"province":"Ontario","long":-83.108925},"type":"Feature","geometry":{"type":"Point","coordinates":[-83.108925,42.101875]}},{"properties":{"divorced":10.3,"municipality":"Amos","id":"a68ekc8e0gal","lat":48.56377,"province":"Quebec","long":-78.106484},"type":"Feature","geometry":{"type":"Point","coordinates":[-78.106484,48.56377]}},{"properties":{"divorced":9.6,"municipality":"Amqui","id":"a68ekc7sugqv","lat":48.46468,"province":"Quebec","long":-67.425874},"type":"Feature","geometry":{"type":"Point","coordinates":[-67.425874,48.46468]}},{"properties":{"divorced":8.4,"municipality":"Annapolis","id":"a68ekcfzb2r4","lat":44.742385,"province":"Nova Scotia","long":-65.515569},"type":"Feature","geometry":{"type":"Point","coordinates":[-65.515569,44.742385]}},{"properties":{"divorced":8.7,"municipality":"Annapolis, Subd. A","id":"a68ekc88r92d","lat":44.876259,"province":"Nova Scotia","long":-65.338242},"type":"Feature","geometry":{"type":"Point","coordinates":[-65.338242,44.876259]}},{"properties":{"divorced":5.2,"municipality":"Antigonish","id":"a68ekc8f7puy","lat":45.62219,"province":"Nova Scotia","long":-61.99427},"type":"Feature","geometry":{"type":"Point","coordinates":[-61.99427,45.62219]}},{"properties":{"divorced":5.3,"municipality":"Antigonish, Subd. A","id":"a68ekci8qq4z","lat":45.779221,"province":"Nova Scotia","long":-62.015881},"type":"Feature","geometry":{"type":"Point","coordinates":[-62.015881,45.779221]}},{"properties":{"divorced":4.8,"municipality":"Antigonish, Subd. B","id":"a68ekch0b2h6","lat":45.779221,"province":"Nova Scotia","long":-62.015881},"type":"Feature","geometry":{"type":"Point","coordinates":[-62.015881,45.779221]}},{"properties":{"divorced":12.3,"municipality":"Antoine-Labelle","id":"a68ekcaa8rme","lat":46.279845,"province":"Quebec","long":-74.734924},"type":"Feature","geometry":{"type":"Point","coordinates":[-74.734924,46.279845]}},{"properties":{"divorced":12.4,"municipality":"Argenteuil","id":"a68ekccoopwf","lat":45.717152,"province":"Quebec","long":-74.455368},"type":"Feature","geometry":{"type":"Point","coordinates":[-74.455368,45.717152]}},{"properties":{"divorced":4.8,"municipality":"Argyle","id":"a68ekcdgls4t","lat":43.79376,"province":"Nova Scotia","long":-65.857984},"type":"Feature","geometry":{"type":"Point","coordinates":[-65.857984,43.79376]}},{"properties":{"divorced":8.9,"municipality":"Arnprior","id":"a68ekcan5wud","lat":45.435635,"province":"Ontario","long":-76.358369},"type":"Feature","geometry":{"type":"Point","coordinates":[-76.358369,45.435635]}},{"properties":{"divorced":6.6,"municipality":"Arran-Elderslie","id":"a68ekc9qij3w","lat":44.401136,"province":"Ontario","long":-81.124806},"type":"Feature","geometry":{"type":"Point","coordinates":[-81.124806,44.401136]}},{"properties":{"divorced":11.6,"municipality":"Arthabaska","id":"a68ekcjo0sdv","lat":46.05698,"province":"Quebec","long":-71.891144},"type":"Feature","geometry":{"type":"Point","coordinates":[-71.891144,46.05698]}},{"properties":{"divorced":12.9,"municipality":"Asbestos","id":"a68ekchjwbav","lat":45.781372,"province":"Quebec","long":-71.925677},"type":"Feature","geometry":{"type":"Point","coordinates":[-71.925677,45.781372]}},{"properties":{"divorced":11.7,"municipality":"Asbestos","id":"a68ekcdbjyet","lat":45.781372,"province":"Quebec","long":-71.925677},"type":"Feature","geometry":{"type":"Point","coordinates":[-71.925677,45.781372]}},{"properties":{"divorced":7.0,"municipality":"Athabasca County No. 12","id":"a68ekcg1k87n","lat":54.598109,"province":"Alberta","long":-113.328801},"type":"Feature","geometry":{"type":"Point","coordinates":[-113.328801,54.598109]}},{"properties":{"divorced":7.1,"municipality":"Augusta","id":"a68ekcbjqdi8","lat":44.722805,"province":"Ontario","long":-75.577674},"type":"Feature","geometry":{"type":"Point","coordinates":[-75.577674,44.722805]}},{"properties":{"divorced":6.2,"municipality":"Aurora","id":"a68ekciiwa40","lat":44.007043,"province":"Ontario","long":-79.451205},"type":"Feature","geometry":{"type":"Point","coordinates":[-79.451205,44.007043]}},{"properties":{"divorced":9.7,"municipality":"Avignon","id":"a68ekc6qctmw","lat":48.163769,"province":"Quebec","long":-66.789528},"type":"Feature","geometry":{"type":"Point","coordinates":[-66.789528,48.163769]}},{"properties":{"divorced":6.1,"municipality":"Aylmer","id":"a68ekckul9lw","lat":42.773005,"province":"Ontario","long":-80.983624},"type":"Feature","geometry":{"type":"Point","coordinates":[-80.983624,42.773005]}},{"properties":{"divorced":2.9,"municipality":"Baffin","id":"a68ekc9td5ti","lat":65.99897,"province":"Nunavut","long":-101.124062},"type":"Feature","geometry":{"type":"Point","coordinates":[-101.124062,65.99897]}},{"properties":{"divorced":10.3,"municipality":"Baie-Comeau","id":"a68ekcceea8k","lat":49.22104,"province":"Quebec","long":-68.152479},"type":"Feature","geometry":{"type":"Point","coordinates":[-68.152479,49.22104]}},{"properties":{"divorced":9.9,"municipality":"Baie-Saint-Paul","id":"a68ekcio8wen","lat":47.447683,"province":"Quebec","long":-70.517674},"type":"Feature","geometry":{"type":"Point","coordinates":[-70.517674,47.447683]}},{"properties":{"divorced":5.9,"municipality":"Banff","id":"a68ekcfl86dx","lat":51.175176,"province":"Alberta","long":-115.572571},"type":"Feature","geometry":{"type":"Point","coordinates":[-115.572571,51.175176]}},{"properties":{"divorced":8.1,"municipality":"Barrie","id":"a68ekclfnkno","lat":44.3893,"province":"Ontario","long":-79.686324},"type":"Feature","geometry":{"type":"Point","coordinates":[-79.686324,44.3893]}},{"properties":{"divorced":7.4,"municipality":"Barrington","id":"a68ekc7kuvdw","lat":43.563826,"province":"Nova Scotia","long":-65.563227},"type":"Feature","geometry":{"type":"Point","coordinates":[-65.563227,43.563826]}},{"properties":{"divorced":7.3,"municipality":"Bathurst","id":"a68ekc6x68e4","lat":47.616787,"province":"New Brunswick","long":-65.648895},"type":"Feature","geometry":{"type":"Point","coordinates":[-65.648895,47.616787]}},{"properties":{"divorced":5.3,"municipality":"Bayham","id":"a68ekcllmi1i","lat":42.75056,"province":"Ontario","long":-80.776314},"type":"Feature","geometry":{"type":"Point","coordinates":[-80.776314,42.75056]}},{"properties":{"divorced":6.4,"municipality":"Beaconsfield","id":"a68ekc7j3wsr","lat":45.42476,"province":"Quebec","long":-73.864619},"type":"Feature","geometry":{"type":"Point","coordinates":[-73.864619,45.42476]}},{"properties":{"divorced":5.4,"municipality":"Beaubassin East / Beaubassin-est","id":"a68ekc87nsr8","lat":46.174424,"province":"New Brunswick","long":-64.310868},"type":"Feature","geometry":{"type":"Point","coordinates":[-64.310868,46.174424]}},{"properties":{"divorced":10.1,"municipality":"Beauce-Sartigan","id":"a68ekccjfwat","lat":46.020802,"province":"Quebec","long":-70.673027},"type":"Feature","geometry":{"type":"Point","coordinates":[-70.673027,46.020802]}},{"properties":{"divorced":9.7,"municipality":"Beauceville","id":"a68ekcawxrhq","lat":46.2111,"province":"Quebec","long":-70.774594},"type":"Feature","geometry":{"type":"Point","coordinates":[-70.774594,46.2111]}},{"properties":{"divorced":12.1,"municipality":"Beauharnois","id":"a68ekcdecyhd","lat":45.313706,"province":"Quebec","long":-73.877319},"type":"Feature","geometry":{"type":"Point","coordinates":[-73.877319,45.313706]}},{"properties":{"divorced":12.2,"municipality":"Beauharnois-Salaberry","id":"a68ekc7hl38u","lat":45.249809,"province":"Quebec","long":-73.941261},"type":"Feature","geometry":{"type":"Point","coordinates":[-73.941261,45.249809]}},{"properties":{"divorced":5.1,"municipality":"Beaumont","id":"a68ekccrtspy","lat":53.357698,"province":"Alberta","long":-113.412797},"type":"Feature","geometry":{"type":"Point","coordinates":[-113.412797,53.357698]}},{"properties":{"divorced":9.8,"municipality":"Becancour","id":"a68ekckbfyux","lat":46.355047,"province":"Quebec","long":-72.441796},"type":"Feature","geometry":{"type":"Point","coordinates":[-72.441796,46.355047]}},{"properties":{"divorced":10.2,"municipality":"Becancour","id":"a68ekc7yssxe","lat":46.355047,"province":"Quebec","long":-72.441796},"type":"Feature","geometry":{"type":"Point","coordinates":[-72.441796,46.355047]}},{"properties":{"divorced":7.6,"municipality":"Beckwith","id":"a68ekcer46i8","lat":45.107215,"province":"Ontario","long":-76.105249},"type":"Feature","geometry":{"type":"Point","coordinates":[-76.105249,45.107215]}},{"properties":{"divorced":7.7,"municipality":"Bellechasse","id":"a68ekclr3jvi","lat":46.66819,"province":"Quebec","long":-70.737846},"type":"Feature","geometry":{"type":"Point","coordinates":[-70.737846,46.66819]}},{"properties":{"divorced":8.9,"municipality":"Belleville","id":"a68ekc7c7do8","lat":44.161045,"province":"Ontario","long":-77.381899},"type":"Feature","geometry":{"type":"Point","coordinates":[-77.381899,44.161045]}},{"properties":{"divorced":11.4,"municipality":"Beloeil","id":"a68ekci9rjxi","lat":45.56713,"province":"Quebec","long":-73.203049},"type":"Feature","geometry":{"type":"Point","coordinates":[-73.203049,45.56713]}},{"properties":{"divorced":5.1,"municipality":"Beresford","id":"a68ekc6n5b3j","lat":47.6992,"province":"New Brunswick","long":-65.703574},"type":"Feature","geometry":{"type":"Point","coordinates":[-65.703574,47.6992]}},{"properties":{"divorced":10.4,"municipality":"Blainville","id":"a68ekcc49qyx","lat":45.681,"province":"Quebec","long":-73.873009},"type":"Feature","geometry":{"type":"Point","coordinates":[-73.873009,45.681]}},{"properties":{"divorced":6.3,"municipality":"Blandford-Blenheim","id":"a68ekcks9j2h","lat":43.23451,"province":"Ontario","long":-80.551199},"type":"Feature","geometry":{"type":"Point","coordinates":[-80.551199,43.23451]}},{"properties":{"divorced":7.9,"municipality":"Blue Mountains","id":"a68ekcgabddk","lat":44.561565,"province":"Ontario","long":-80.450696},"type":"Feature","geometry":{"type":"Point","coordinates":[-80.450696,44.561565]}},{"properties":{"divorced":6.1,"municipality":"Bluewater","id":"a68ekc7itkyh","lat":43.415215,"province":"Ontario","long":-81.681115},"type":"Feature","geometry":{"type":"Point","coordinates":[-81.681115,43.415215]}},{"properties":{"divorced":12.1,"municipality":"Bois-des-Filion","id":"a68ekclv2qyp","lat":45.666755,"province":"Quebec","long":-73.756234},"type":"Feature","geometry":{"type":"Point","coordinates":[-73.756234,45.666755]}},{"properties":{"divorced":11.5,"municipality":"Boisbriand","id":"a68ekc9g77fj","lat":45.61204,"province":"Quebec","long":-73.838882},"type":"Feature","geometry":{"type":"Point","coordinates":[-73.838882,45.61204]}},{"properties":{"divorced":8.9,"municipality":"Bonaventure","id":"a68ekcflgssz","lat":48.045423,"province":"Quebec","long":-65.494449},"type":"Feature","geometry":{"type":"Point","coordinates":[-65.494449,48.045423]}},{"properties":{"divorced":6.3,"municipality":"Bonnyville No. 87","id":"a68ekcd1grwf","lat":54.29421,"province":"Alberta","long":-110.676454},"type":"Feature","geometry":{"type":"Point","coordinates":[-110.676454,54.29421]}},{"properties":{"divorced":10.7,"municipality":"Boucherville","id":"a68ekcbkoaw8","lat":45.60404,"province":"Quebec","long":-73.452034},"type":"Feature","geometry":{"type":"Point","coordinates":[-73.452034,45.60404]}},{"properties":{"divorced":7.9,"municipality":"Bracebridge","id":"a68ekc62cjg1","lat":45.05558,"province":"Ontario","long":-79.288634},"type":"Feature","geometry":{"type":"Point","coordinates":[-79.288634,45.05558]}},{"properties":{"divorced":5.9,"municipality":"Bradford West Gwillimbury","id":"a68ekc71yqx7","lat":44.14791,"province":"Ontario","long":-79.645717},"type":"Feature","geometry":{"type":"Point","coordinates":[-79.645717,44.14791]}},{"properties":{"divorced":5.3,"municipality":"Brampton","id":"a68ekcj34bhf","lat":43.684305,"province":"Ontario","long":-79.758729},"type":"Feature","geometry":{"type":"Point","coordinates":[-79.758729,43.684305]}},{"properties":{"divorced":8.2,"municipality":"Brandon","id":"a68ekclhpt51","lat":49.84769,"province":"Manitoba","long":-99.962014},"type":"Feature","geometry":{"type":"Point","coordinates":[-99.962014,49.84769]}},{"properties":{"divorced":7.6,"municipality":"Brant","id":"a68ekcjrkjcf","lat":43.10247,"province":"Ontario","long":-80.426659},"type":"Feature","geometry":{"type":"Point","coordinates":[-80.426659,43.10247]}},{"properties":{"divorced":5.4,"municipality":"Brant","id":"a68ekcicos7p","lat":43.10247,"province":"Ontario","long":-80.426659},"type":"Feature","geometry":{"type":"Point","coordinates":[-80.426659,43.10247]}},{"properties":{"divorced":8.4,"municipality":"Brantford","id":"a68ekchfa5x3","lat":43.14136,"province":"Ontario","long":-80.261739},"type":"Feature","geometry":{"type":"Point","coordinates":[-80.261739,43.14136]}},{"properties":{"divorced":6.8,"municipality":"Brazeau County","id":"a68ekcbhwzxl","lat":53.244049,"province":"Alberta","long":-114.97654},"type":"Feature","geometry":{"type":"Point","coordinates":[-114.97654,53.244049]}},{"properties":{"divorced":9.5,"municipality":"Bridgewater","id":"a68ekcktc053","lat":44.380498,"province":"Nova Scotia","long":-64.523035},"type":"Feature","geometry":{"type":"Point","coordinates":[-64.523035,44.380498]}},{"properties":{"divorced":7.1,"municipality":"Brighton","id":"a68ekc5wkcqd","lat":44.04247,"province":"Ontario","long":-77.735619},"type":"Feature","geometry":{"type":"Point","coordinates":[-77.735619,44.04247]}},{"properties":{"divorced":7.5,"municipality":"Brock","id":"a68ekcaq11ee","lat":44.35037,"province":"Ontario","long":-79.037899},"type":"Feature","geometry":{"type":"Point","coordinates":[-79.037899,44.35037]}},{"properties":{"divorced":5.7,"municipality":"Brockton","id":"a68ekcitcvzd","lat":44.190259,"province":"Ontario","long":-81.220959},"type":"Feature","geometry":{"type":"Point","coordinates":[-81.220959,44.190259]}},{"properties":{"divorced":10.5,"municipality":"Brockville","id":"a68ekck9j3sy","lat":44.59039,"province":"Ontario","long":-75.683014},"type":"Feature","geometry":{"type":"Point","coordinates":[-75.683014,44.59039]}},{"properties":{"divorced":12.6,"municipality":"Brome-Missisquoi","id":"a68ekc7n38wr","lat":45.174671,"province":"Quebec","long":-72.779823},"type":"Feature","geometry":{"type":"Point","coordinates":[-72.779823,45.174671]}},{"properties":{"divorced":6.7,"municipality":"Brooks","id":"a68ekcbiz3f1","lat":50.565855,"province":"Alberta","long":-111.898489},"type":"Feature","geometry":{"type":"Point","coordinates":[-111.898489,50.565855]}},{"properties":{"divorced":8.9,"municipality":"Brossard","id":"a68ekcjhi1xv","lat":45.455738,"province":"Quebec","long":-73.466918},"type":"Feature","geometry":{"type":"Point","coordinates":[-73.466918,45.455738]}},{"properties":{"divorced":12.0,"municipality":"Brownsburg-Chatham","id":"a68ekcihv5w8","lat":45.676335,"province":"Quebec","long":-74.403789},"type":"Feature","geometry":{"type":"Point","coordinates":[-74.403789,45.676335]}},{"properties":{"divorced":6.5,"municipality":"Bruce","id":"a68ekcm4p81j","lat":44.587761,"province":"Ontario","long":-81.222488},"type":"Feature","geometry":{"type":"Point","coordinates":[-81.222488,44.587761]}},{"properties":{"divorced":7.0,"municipality":"Bulkley-Nechako","id":"a68ekc6a3se5","lat":54.496201,"province":"British Columbia","long":-125.882248},"type":"Feature","geometry":{"type":"Point","coordinates":[-125.882248,54.496201]}},{"properties":{"divorced":7.1,"municipality":"Burlington","id":"a68ekce69bg2","lat":43.32618,"province":"Ontario","long":-79.798539},"type":"Feature","geometry":{"type":"Point","coordinates":[-79.798539,43.32618]}},{"properties":{"divorced":6.6,"municipality":"Burnaby","id":"a68ekcgbntku","lat":49.244535,"province":"British Columbia","long":-122.972989},"type":"Feature","geometry":{"type":"Point","coordinates":[-122.972989,49.244535]}},{"properties":{"divorced":5.4,"municipality":"Caledon","id":"a68ekca8eq7s","lat":43.875268,"province":"Ontario","long":-79.859945},"type":"Feature","geometry":{"type":"Point","coordinates":[-79.859945,43.875268]}},{"properties":{"divorced":8.0,"municipality":"Calgary","id":"a68ekcf4h7e5","lat":51.04522,"province":"Alberta","long":-114.063014},"type":"Feature","geometry":{"type":"Point","coordinates":[-114.063014,51.04522]}},{"properties":{"divorced":7.0,"municipality":"Cambridge","id":"a68ekcenmfwe","lat":43.36141,"province":"Ontario","long":-80.315334},"type":"Feature","geometry":{"type":"Point","coordinates":[-80.315334,43.36141]}},{"properties":{"divorced":10.6,"municipality":"Campbell River","id":"a68ekcf9rczx","lat":50.02461,"province":"British Columbia","long":-125.24817},"type":"Feature","geometry":{"type":"Point","coordinates":[-125.24817,50.02461]}},{"properties":{"divorced":7.8,"municipality":"Campbellton","id":"a68ekca4nfen","lat":47.99549,"province":"New Brunswick","long":-66.667219},"type":"Feature","geometry":{"type":"Point","coordinates":[-66.667219,47.99549]}},{"properties":{"divorced":8.7,"municipality":"Camrose","id":"a68ekc6dnfbr","lat":53.024235,"province":"Alberta","long":-112.829784},"type":"Feature","geometry":{"type":"Point","coordinates":[-112.829784,53.024235]}},{"properties":{"divorced":5.6,"municipality":"Camrose County No. 22","id":"a68ekcab3u76","lat":53.017925,"province":"Alberta","long":-112.893104},"type":"Feature","geometry":{"type":"Point","coordinates":[-112.893104,53.017925]}},{"properties":{"divorced":10.9,"municipality":"Candiac","id":"a68ekchlvjbh","lat":45.395582,"province":"Quebec","long":-73.519081},"type":"Feature","geometry":{"type":"Point","coordinates":[-73.519081,45.395582]}},{"properties":{"divorced":7.6,"municipality":"Canmore","id":"a68ekca5g7c0","lat":51.089565,"province":"Alberta","long":-115.360839},"type":"Feature","geometry":{"type":"Point","coordinates":[-115.360839,51.089565]}},{"properties":{"divorced":8.3,"municipality":"Cantley","id":"a68ekcetsjoa","lat":45.54984,"province":"Quebec","long":-75.783484},"type":"Feature","geometry":{"type":"Point","coordinates":[-75.783484,45.54984]}},{"properties":{"divorced":7.0,"municipality":"Cape Breton","id":"a68ekcag69uv","lat":46.13734,"province":"Nova Scotia","long":-60.195569},"type":"Feature","geometry":{"type":"Point","coordinates":[-60.195569,46.13734]}},{"properties":{"divorced":7.0,"municipality":"Cape Breton","id":"a68ekc8gvoz4","lat":46.13734,"province":"Nova Scotia","long":-60.195569},"type":"Feature","geometry":{"type":"Point","coordinates":[-60.195569,46.13734]}},{"properties":{"divorced":10.4,"municipality":"Capital","id":"a68ekc7yvj1j","lat":48.51506,"province":"British Columbia","long":-123.882912},"type":"Feature","geometry":{"type":"Point","coordinates":[-123.882912,48.51506]}},{"properties":{"divorced":12.9,"municipality":"Capital F","id":"a68ekc6in0r4","lat":54.485668,"province":"British Columbia","long":-126.555511},"type":"Feature","geometry":{"type":"Point","coordinates":[-126.555511,54.485668]}},{"properties":{"divorced":9.0,"municipality":"Cariboo","id":"a68ekcltllgc","lat":52.20409,"province":"British Columbia","long":-123.394112},"type":"Feature","geometry":{"type":"Point","coordinates":[-123.394112,52.20409]}},{"properties":{"divorced":10.1,"municipality":"Carignan","id":"a68ekce9y6ec","lat":45.466125,"province":"Quebec","long":-73.290924},"type":"Feature","geometry":{"type":"Point","coordinates":[-73.290924,45.466125]}},{"properties":{"divorced":6.5,"municipality":"Carleton","id":"a68ekcif1xl1","lat":46.915131,"province":"New Brunswick","long":-64.92427},"type":"Feature","geometry":{"type":"Point","coordinates":[-64.92427,46.915131]}},{"properties":{"divorced":9.4,"municipality":"Carleton Place","id":"a68ekc6usjo9","lat":45.14045,"province":"Ontario","long":-76.146809},"type":"Feature","geometry":{"type":"Point","coordinates":[-76.146809,45.14045]}},{"properties":{"divorced":8.6,"municipality":"Castlegar","id":"a68ekc7w4c2r","lat":49.296255,"province":"British Columbia","long":-117.654184},"type":"Feature","geometry":{"type":"Point","coordinates":[-117.654184,49.296255]}},{"properties":{"divorced":5.7,"municipality":"Cavan-Millbrook-North Monaghan","id":"a68ekchwpxcc","lat":44.196898,"province":"Ontario","long":-78.467678},"type":"Feature","geometry":{"type":"Point","coordinates":[-78.467678,44.196898]}},{"properties":{"divorced":6.9,"municipality":"Central Elgin","id":"a68ekciha7a1","lat":42.736559,"province":"Ontario","long":-81.192318},"type":"Feature","geometry":{"type":"Point","coordinates":[-81.192318,42.736559]}},{"properties":{"divorced":6.4,"municipality":"Central Huron","id":"a68ekcdkyj9o","lat":43.646207,"province":"Ontario","long":-81.602119},"type":"Feature","geometry":{"type":"Point","coordinates":[-81.602119,43.646207]}},{"properties":{"divorced":10.1,"municipality":"Central Kootenay","id":"a68ekc6mye6c","lat":49.678,"province":"British Columbia","long":-116.870939},"type":"Feature","geometry":{"type":"Point","coordinates":[-116.870939,49.678]}},{"properties":{"divorced":9.2,"municipality":"Central Okanagan","id":"a68ekc73bo1u","lat":49.344385,"province":"British Columbia","long":-119.571519},"type":"Feature","geometry":{"type":"Point","coordinates":[-119.571519,49.344385]}},{"properties":{"divorced":7.2,"municipality":"Central Okanagan J","id":"a68ekcbcs93g","lat":49.954971,"province":"British Columbia","long":-119.429031},"type":"Feature","geometry":{"type":"Point","coordinates":[-119.429031,49.954971]}},{"properties":{"divorced":8.4,"municipality":"Central Saanich","id":"a68ekcdmukdy","lat":48.594149,"province":"British Columbia","long":-123.414219},"type":"Feature","geometry":{"type":"Point","coordinates":[-123.414219,48.594149]}},{"properties":{"divorced":6.4,"municipality":"Centre Wellington","id":"a68ekcetrtwk","lat":43.68314,"province":"Ontario","long":-80.430679},"type":"Feature","geometry":{"type":"Point","coordinates":[-80.430679,43.68314]}},{"properties":{"divorced":11.7,"municipality":"Chambly","id":"a68ekcev6m1d","lat":45.45032,"province":"Quebec","long":-73.290717},"type":"Feature","geometry":{"type":"Point","coordinates":[-73.290717,45.45032]}},{"properties":{"divorced":8.4,"municipality":"Champlain","id":"a68ekcl1hkmr","lat":45.545299,"province":"Ontario","long":-74.612546},"type":"Feature","geometry":{"type":"Point","coordinates":[-74.612546,45.545299]}},{"properties":{"divorced":7.7,"municipality":"Chandler","id":"a68ekcjd35nc","lat":48.349012,"province":"Quebec","long":-64.680179},"type":"Feature","geometry":{"type":"Point","coordinates":[-64.680179,48.349012]}},{"properties":{"divorced":8.9,"municipality":"Charlevoix","id":"a68ekcb8g8he","lat":47.602459,"province":"Quebec","long":-70.768707},"type":"Feature","geometry":{"type":"Point","coordinates":[-70.768707,47.602459]}},{"properties":{"divorced":10.0,"municipality":"Charlevoix-Est","id":"a68ekc7m57d5","lat":47.822319,"province":"Quebec","long":-70.032913},"type":"Feature","geometry":{"type":"Point","coordinates":[-70.032913,47.822319]}},{"properties":{"divorced":7.5,"municipality":"Charlotte","id":"a68ekc8tonwm","lat":45.274239,"province":"New Brunswick","long":-66.981323},"type":"Feature","geometry":{"type":"Point","coordinates":[-66.981323,45.274239]}},{"properties":{"divorced":7.8,"municipality":"Charlottetown","id":"a68ekc5qazwd","lat":46.23659,"province":"Prince Edward Island","long":-63.128169},"type":"Feature","geometry":{"type":"Point","coordinates":[-63.128169,46.23659]}},{"properties":{"divorced":7.6,"municipality":"Chatham-Kent","id":"a68ekc6tj07d","lat":42.404445,"province":"Ontario","long":-82.189584},"type":"Feature","geometry":{"type":"Point","coordinates":[-82.189584,42.404445]}},{"properties":{"divorced":7.6,"municipality":"Chatham-Kent","id":"a68ekc7j0uos","lat":42.404445,"province":"Ontario","long":-82.189584},"type":"Feature","geometry":{"type":"Point","coordinates":[-82.189584,42.404445]}},{"properties":{"divorced":7.2,"municipality":"Chatsworth","id":"a68ekch1apmb","lat":44.453655,"province":"Ontario","long":-80.897409},"type":"Feature","geometry":{"type":"Point","coordinates":[-80.897409,44.453655]}},{"properties":{"divorced":9.3,"municipality":"Chelsea","id":"a68ekc9fof8s","lat":45.526975,"province":"Quebec","long":-75.804379},"type":"Feature","geometry":{"type":"Point","coordinates":[-75.804379,45.526975]}},{"properties":{"divorced":9.0,"municipality":"Chester","id":"a68ekccbaqqv","lat":44.546277,"province":"Nova Scotia","long":-64.241784},"type":"Feature","geometry":{"type":"Point","coordinates":[-64.241784,44.546277]}},{"properties":{"divorced":6.2,"municipality":"Chestermere","id":"a68ekcbwkim1","lat":51.051812,"province":"Alberta","long":-113.815785},"type":"Feature","geometry":{"type":"Point","coordinates":[-113.815785,51.051812]}},{"properties":{"divorced":10.2,"municipality":"Chibougamau","id":"a68ekcbvda62","lat":49.913645,"province":"Quebec","long":-74.368784},"type":"Feature","geometry":{"type":"Point","coordinates":[-74.368784,49.913645]}},{"properties":{"divorced":8.2,"municipality":"Chilliwack","id":"a68ekcdvf7h8","lat":49.156318,"province":"British Columbia","long":-121.951498},"type":"Feature","geometry":{"type":"Point","coordinates":[-121.951498,49.156318]}},{"properties":{"divorced":6.7,"municipality":"Clare","id":"a68ekcdb82la","lat":44.405029,"province":"Nova Scotia","long":-66.037236},"type":"Feature","geometry":{"type":"Point","coordinates":[-66.037236,44.405029]}},{"properties":{"divorced":7.1,"municipality":"Clarence-Rockland","id":"a68ekcel8sos","lat":45.551689,"province":"Ontario","long":-75.28779},"type":"Feature","geometry":{"type":"Point","coordinates":[-75.28779,45.551689]}},{"properties":{"divorced":6.6,"municipality":"Clarington","id":"a68ekc94pwlw","lat":43.91281,"province":"Ontario","long":-78.688979},"type":"Feature","geometry":{"type":"Point","coordinates":[-78.688979,43.91281]}},{"properties":{"divorced":6.7,"municipality":"Clearview","id":"a68ekccd5lo4","lat":44.41906,"province":"Ontario","long":-80.088339},"type":"Feature","geometry":{"type":"Point","coordinates":[-80.088339,44.41906]}},{"properties":{"divorced":7.8,"municipality":"Clearwater County","id":"a68ekc7p8p6e","lat":52.352111,"province":"Alberta","long":-114.902015},"type":"Feature","geometry":{"type":"Point","coordinates":[-114.902015,52.352111]}},{"properties":{"divorced":10.4,"municipality":"Coaticook","id":"a68ekccasnu7","lat":45.13253,"province":"Quebec","long":-71.803769},"type":"Feature","geometry":{"type":"Point","coordinates":[-71.803769,45.13253]}},{"properties":{"divorced":10.4,"municipality":"Coaticook","id":"a68ekc9v3tzw","lat":45.13253,"province":"Quebec","long":-71.803769},"type":"Feature","geometry":{"type":"Point","coordinates":[-71.803769,45.13253]}},{"properties":{"divorced":8.4,"municipality":"Cobourg","id":"a68ekcaf55uz","lat":43.959605,"province":"Ontario","long":-78.167779},"type":"Feature","geometry":{"type":"Point","coordinates":[-78.167779,43.959605]}},{"properties":{"divorced":6.6,"municipality":"Cochrane","id":"a68ekcfzlus8","lat":49.06522,"province":"Ontario","long":-81.028954},"type":"Feature","geometry":{"type":"Point","coordinates":[-81.028954,49.06522]}},{"properties":{"divorced":6.7,"municipality":"Cochrane","id":"a68ekc9rcj11","lat":51.190825,"province":"Alberta","long":-114.468004},"type":"Feature","geometry":{"type":"Point","coordinates":[-114.468004,51.190825]}},{"properties":{"divorced":8.2,"municipality":"Colchester","id":"a68ekcevawe4","lat":45.390098,"province":"Nova Scotia","long":-63.265556},"type":"Feature","geometry":{"type":"Point","coordinates":[-63.265556,45.390098]}},{"properties":{"divorced":7.9,"municipality":"Colchester, Subd. B","id":"a68ekcckarhq","lat":45.414982,"province":"Nova Scotia","long":-63.423111},"type":"Feature","geometry":{"type":"Point","coordinates":[-63.423111,45.414982]}},{"properties":{"divorced":7.3,"municipality":"Colchester, Subd. C","id":"a68ekck8v0b4","lat":45.414982,"province":"Nova Scotia","long":-63.423111},"type":"Feature","geometry":{"type":"Point","coordinates":[-63.423111,45.414982]}},{"properties":{"divorced":7.7,"municipality":"Cold Lake","id":"a68ekcieupoq","lat":54.465025,"province":"Alberta","long":-110.173789},"type":"Feature","geometry":{"type":"Point","coordinates":[-110.173789,54.465025]}},{"properties":{"divorced":7.1,"municipality":"Coldstream","id":"a68ekc6s58db","lat":50.244037,"province":"British Columbia","long":-119.235945},"type":"Feature","geometry":{"type":"Point","coordinates":[-119.235945,50.244037]}},{"properties":{"divorced":9.6,"municipality":"Collingwood","id":"a68ekca1nn1c","lat":44.49989,"province":"Ontario","long":-80.216824},"type":"Feature","geometry":{"type":"Point","coordinates":[-80.216824,44.49989]}},{"properties":{"divorced":9.3,"municipality":"Columbia-Shuswap","id":"a68ekci0thg1","lat":50.968139,"province":"British Columbia","long":-119.173365},"type":"Feature","geometry":{"type":"Point","coordinates":[-119.173365,50.968139]}},{"properties":{"divorced":8.9,"municipality":"Columbia-Shuswap C","id":"a68ekcj9rbhc","lat":51.450489,"province":"British Columbia","long":-117.977913},"type":"Feature","geometry":{"type":"Point","coordinates":[-117.977913,51.450489]}},{"properties":{"divorced":8.3,"municipality":"Colwood","id":"a68ekcdx8i2n","lat":48.42361,"province":"British Columbia","long":-123.492089},"type":"Feature","geometry":{"type":"Point","coordinates":[-123.492089,48.42361]}},{"properties":{"divorced":9.8,"municipality":"Comox","id":"a68ekcga6e7r","lat":49.67354,"province":"British Columbia","long":-124.926819},"type":"Feature","geometry":{"type":"Point","coordinates":[-124.926819,49.67354]}},{"properties":{"divorced":11.0,"municipality":"Comox-Strathcona","id":"a68ekc9632da","lat":49.67824,"province":"British Columbia","long":-124.959814},"type":"Feature","geometry":{"type":"Point","coordinates":[-124.959814,49.67824]}},{"properties":{"divorced":10.1,"municipality":"Comox-Strathcona B","id":"a68ekckw3djw","lat":49.67824,"province":"British Columbia","long":-124.959814},"type":"Feature","geometry":{"type":"Point","coordinates":[-124.959814,49.67824]}},{"properties":{"divorced":9.6,"municipality":"Comox-Strathcona C","id":"a68ekcdeo3z3","lat":49.67824,"province":"British Columbia","long":-124.959814},"type":"Feature","geometry":{"type":"Point","coordinates":[-124.959814,49.67824]}},{"properties":{"divorced":6.1,"municipality":"Conception Bay South","id":"a68ekc5uzg12","lat":47.51262,"province":"Newfoundland","long":-52.968874},"type":"Feature","geometry":{"type":"Point","coordinates":[-52.968874,47.51262]}},{"properties":{"divorced":6.6,"municipality":"Coquitlam","id":"a68ekc8b69v1","lat":49.284895,"province":"British Columbia","long":-122.793954},"type":"Feature","geometry":{"type":"Point","coordinates":[-122.793954,49.284895]}},{"properties":{"divorced":4.4,"municipality":"Corman Park No. 344","id":"a68ekck6uvic","lat":52.01392,"province":"Saskatchewan","long":-106.670439},"type":"Feature","geometry":{"type":"Point","coordinates":[-106.670439,52.01392]}},{"properties":{"divorced":7.7,"municipality":"Corner Brook","id":"a68ekcku5ufd","lat":48.950198,"province":"Newfoundland","long":-57.949469},"type":"Feature","geometry":{"type":"Point","coordinates":[-57.949469,48.950198]}},{"properties":{"divorced":8.8,"municipality":"Cornwall","id":"a68ekciu6dpz","lat":45.028435,"province":"Ontario","long":-74.735694},"type":"Feature","geometry":{"type":"Point","coordinates":[-74.735694,45.028435]}},{"properties":{"divorced":7.3,"municipality":"Cote-Saint-Luc","id":"a68ekcg7sdri","lat":45.47653,"province":"Quebec","long":-73.662509},"type":"Feature","geometry":{"type":"Point","coordinates":[-73.662509,45.47653]}},{"properties":{"divorced":12.2,"municipality":"Courtenay","id":"a68ekcads64h","lat":49.68672,"province":"British Columbia","long":-124.993141},"type":"Feature","geometry":{"type":"Point","coordinates":[-124.993141,49.68672]}},{"properties":{"divorced":12.4,"municipality":"Cowansville","id":"a68ekcgq1p52","lat":45.207801,"province":"Quebec","long":-72.745973},"type":"Feature","geometry":{"type":"Point","coordinates":[-72.745973,45.207801]}},{"properties":{"divorced":10.0,"municipality":"Cowichan Valley","id":"a68ekc7ohnh1","lat":48.73554,"province":"British Columbia","long":-123.611274},"type":"Feature","geometry":{"type":"Point","coordinates":[-123.611274,48.73554]}},{"properties":{"divorced":9.5,"municipality":"Cowichan Valley B","id":"a68ekcbe1ten","lat":48.790661,"province":"British Columbia","long":-124.086662},"type":"Feature","geometry":{"type":"Point","coordinates":[-124.086662,48.790661]}},{"properties":{"divorced":9.0,"municipality":"Cranbrook","id":"a68ekca3ayu6","lat":49.513502,"province":"British Columbia","long":-115.768701},"type":"Feature","geometry":{"type":"Point","coordinates":[-115.768701,49.513502]}},{"properties":{"divorced":8.5,"municipality":"Cumberland","id":"a68ekcetfjw7","lat":45.595348,"province":"Nova Scotia","long":-64.114479},"type":"Feature","geometry":{"type":"Point","coordinates":[-64.114479,45.595348]}},{"properties":{"divorced":6.4,"municipality":"Cypress County","id":"a68ekcl8i8rr","lat":49.993183,"province":"Alberta","long":-110.739196},"type":"Feature","geometry":{"type":"Point","coordinates":[-110.739196,49.993183]}},{"properties":{"divorced":11.8,"municipality":"D'Autray","id":"a68ekccml3p5","lat":46.17289,"province":"Quebec","long":-73.215591},"type":"Feature","geometry":{"type":"Point","coordinates":[-73.215591,46.17289]}},{"properties":{"divorced":7.1,"municipality":"Dauphin","id":"a68ekcliokki","lat":51.150045,"province":"Manitoba","long":-100.049449},"type":"Feature","geometry":{"type":"Point","coordinates":[-100.049449,51.150045]}},{"properties":{"divorced":9.1,"municipality":"Dawson Creek","id":"a68ekcfl2g89","lat":55.761725,"province":"British Columbia","long":-120.237059},"type":"Feature","geometry":{"type":"Point","coordinates":[-120.237059,55.761725]}},{"properties":{"divorced":10.5,"municipality":"Delson","id":"a68ekcgc9hxv","lat":45.37544,"province":"Quebec","long":-73.542244},"type":"Feature","geometry":{"type":"Point","coordinates":[-73.542244,45.37544]}},{"properties":{"divorced":6.6,"municipality":"Delta","id":"a68ekcd42rej","lat":49.0848,"province":"British Columbia","long":-123.059619},"type":"Feature","geometry":{"type":"Point","coordinates":[-123.059619,49.0848]}},{"properties":{"divorced":11.9,"municipality":"Deux-Montagnes","id":"a68ekc7nloz2","lat":45.541494,"province":"Quebec","long":-73.892867},"type":"Feature","geometry":{"type":"Point","coordinates":[-73.892867,45.541494]}},{"properties":{"divorced":11.7,"municipality":"Deux-Montagnes","id":"a68ekcetwr6p","lat":45.541494,"province":"Quebec","long":-73.892867},"type":"Feature","geometry":{"type":"Point","coordinates":[-73.892867,45.541494]}},{"properties":{"divorced":6.3,"municipality":"Dieppe","id":"a68ekc8g6sqe","lat":46.09504,"province":"New Brunswick","long":-64.750854},"type":"Feature","geometry":{"type":"Point","coordinates":[-64.750854,46.09504]}},{"properties":{"divorced":8.1,"municipality":"Digby","id":"a68ekc66k2ea","lat":44.617295,"province":"Nova Scotia","long":-65.765109},"type":"Feature","geometry":{"type":"Point","coordinates":[-65.765109,44.617295]}},{"properties":{"divorced":8.8,"municipality":"Digby","id":"a68ekchslsu3","lat":44.617295,"province":"Nova Scotia","long":-65.765109},"type":"Feature","geometry":{"type":"Point","coordinates":[-65.765109,44.617295]}},{"properties":{"divorced":3.7,"municipality":"Division No. 18","id":"a68ekccfl5je","lat":54.499401,"province":"Saskatchewan","long":-105.684319},"type":"Feature","geometry":{"type":"Point","coordinates":[-105.684319,54.499401]}},{"properties":{"divorced":11.2,"municipality":"Dolbeau-Mistassini","id":"a68ekclavxwn","lat":48.881957,"province":"Quebec","long":-72.231567},"type":"Feature","geometry":{"type":"Point","coordinates":[-72.231567,48.881957]}},{"properties":{"divorced":6.6,"municipality":"Dollard-Des Ormeaux","id":"a68ekch7h0be","lat":45.483308,"province":"Quebec","long":-73.807993},"type":"Feature","geometry":{"type":"Point","coordinates":[-73.807993,45.483308]}},{"properties":{"divorced":9.8,"municipality":"Dorval","id":"a68ekcehl3e7","lat":45.438915,"province":"Quebec","long":-73.730179},"type":"Feature","geometry":{"type":"Point","coordinates":[-73.730179,45.438915]}},{"properties":{"divorced":6.1,"municipality":"Douro-Dummer","id":"a68ekceneoc6","lat":44.381116,"province":"Ontario","long":-78.181183},"type":"Feature","geometry":{"type":"Point","coordinates":[-78.181183,44.381116]}},{"properties":{"divorced":7.0,"municipality":"Drayton Valley","id":"a68ekcbkhjvz","lat":53.227995,"province":"Alberta","long":-114.986894},"type":"Feature","geometry":{"type":"Point","coordinates":[-114.986894,53.227995]}},{"properties":{"divorced":8.7,"municipality":"Drumheller","id":"a68ekcgwp9og","lat":51.46101,"province":"Alberta","long":-112.706922},"type":"Feature","geometry":{"type":"Point","coordinates":[-112.706922,51.46101]}},{"properties":{"divorced":12.1,"municipality":"Drummond","id":"a68ekc842hb2","lat":45.88082,"province":"Quebec","long":-72.484109},"type":"Feature","geometry":{"type":"Point","coordinates":[-72.484109,45.88082]}},{"properties":{"divorced":7.0,"municipality":"Drummond/North Elmsley","id":"a68ekccz69yl","lat":44.885964,"province":"Ontario","long":-76.135244},"type":"Feature","geometry":{"type":"Point","coordinates":[-76.135244,44.885964]}},{"properties":{"divorced":12.7,"municipality":"Drummondville","id":"a68ekcb7lk2a","lat":45.88082,"province":"Quebec","long":-72.484109},"type":"Feature","geometry":{"type":"Point","coordinates":[-72.484109,45.88082]}},{"properties":{"divorced":6.8,"municipality":"Dryden","id":"a68ekch6b5sx","lat":49.78205,"province":"Ontario","long":-92.837589},"type":"Feature","geometry":{"type":"Point","coordinates":[-92.837589,49.78205]}},{"properties":{"divorced":7.2,"municipality":"Dufferin","id":"a68ekcktau1c","lat":44.02816,"province":"Ontario","long":-80.194817},"type":"Feature","geometry":{"type":"Point","coordinates":[-80.194817,44.02816]}},{"properties":{"divorced":6.4,"municipality":"Dundas","id":"a68ekccwugh5","lat":46.274808,"province":"New Brunswick","long":-64.862991},"type":"Feature","geometry":{"type":"Point","coordinates":[-64.862991,46.274808]}},{"properties":{"divorced":7.0,"municipality":"Durham","id":"a68ekckldt5j","lat":44.148908,"province":"Ontario","long":-80.740648},"type":"Feature","geometry":{"type":"Point","coordinates":[-80.740648,44.148908]}},{"properties":{"divorced":6.0,"municipality":"East Gwillimbury","id":"a68ekc62vumc","lat":44.104183,"province":"Ontario","long":-79.441688},"type":"Feature","geometry":{"type":"Point","coordinates":[-79.441688,44.104183]}},{"properties":{"divorced":6.6,"municipality":"East Hants","id":"a68ekcgn4f4k","lat":45.054739,"province":"Nova Scotia","long":-63.763556},"type":"Feature","geometry":{"type":"Point","coordinates":[-63.763556,45.054739]}},{"properties":{"divorced":8.8,"municipality":"East Kootenay","id":"a68ekc7vwvbo","lat":49.678,"province":"British Columbia","long":-116.870939},"type":"Feature","geometry":{"type":"Point","coordinates":[-116.870939,49.678]}},{"properties":{"divorced":3.3,"municipality":"East St. Paul","id":"a68ekcjec6h7","lat":49.970985,"province":"Manitoba","long":-97.010589},"type":"Feature","geometry":{"type":"Point","coordinates":[-97.010589,49.970985]}},{"properties":{"divorced":4.4,"municipality":"East Zorra-Tavistock","id":"a68ekcgad969","lat":43.237674,"province":"Ontario","long":-80.80778},"type":"Feature","geometry":{"type":"Point","coordinates":[-80.80778,43.237674]}},{"properties":{"divorced":8.4,"municipality":"Edmonton","id":"a68ekci68yzp","lat":53.54622,"province":"Alberta","long":-113.490374},"type":"Feature","geometry":{"type":"Point","coordinates":[-113.490374,53.54622]}},{"properties":{"divorced":7.1,"municipality":"Edmundston","id":"a68ekcjtgciz","lat":47.373714,"province":"New Brunswick","long":-68.325105},"type":"Feature","geometry":{"type":"Point","coordinates":[-68.325105,47.373714]}},{"properties":{"divorced":8.4,"municipality":"Edson","id":"a68ekcig1q0t","lat":53.58213,"province":"Alberta","long":-116.434099},"type":"Feature","geometry":{"type":"Point","coordinates":[-116.434099,53.58213]}},{"properties":{"divorced":7.9,"municipality":"Edwardsburgh/Cardinal","id":"a68ekclt72l4","lat":44.842515,"province":"Ontario","long":-75.547494},"type":"Feature","geometry":{"type":"Point","coordinates":[-75.547494,44.842515]}},{"properties":{"divorced":7.3,"municipality":"Elgin","id":"a68ekcbtsbrs","lat":44.608901,"province":"Ontario","long":-76.220425},"type":"Feature","geometry":{"type":"Point","coordinates":[-76.220425,44.608901]}},{"properties":{"divorced":5.9,"municipality":"Elizabethtown-Kitley","id":"a68ekcanuld3","lat":44.657164,"province":"Ontario","long":-75.798198},"type":"Feature","geometry":{"type":"Point","coordinates":[-75.798198,44.657164]}},{"properties":{"divorced":10.2,"municipality":"Elliot Lake","id":"a68ekcab2hyp","lat":46.379863,"province":"Ontario","long":-82.651975},"type":"Feature","geometry":{"type":"Point","coordinates":[-82.651975,46.379863]}},{"properties":{"divorced":6.9,"municipality":"Erin","id":"a68ekc5rjksi","lat":43.77048,"province":"Ontario","long":-80.064204},"type":"Feature","geometry":{"type":"Point","coordinates":[-80.064204,43.77048]}},{"properties":{"divorced":13.9,"municipality":"Esquimalt","id":"a68ekcee3vsz","lat":48.430095,"province":"British Columbia","long":-123.414639},"type":"Feature","geometry":{"type":"Point","coordinates":[-123.414639,48.430095]}},{"properties":{"divorced":7.8,"municipality":"Essa","id":"a68ekch9dq7z","lat":44.252388,"province":"Ontario","long":-79.808471},"type":"Feature","geometry":{"type":"Point","coordinates":[-79.808471,44.252388]}},{"properties":{"divorced":7.5,"municipality":"Essex","id":"a68ekckvgrtk","lat":42.172825,"province":"Ontario","long":-82.819674},"type":"Feature","geometry":{"type":"Point","coordinates":[-82.819674,42.172825]}},{"properties":{"divorced":7.2,"municipality":"Essex","id":"a68ekc6ihooh","lat":42.172825,"province":"Ontario","long":-82.819674},"type":"Feature","geometry":{"type":"Point","coordinates":[-82.819674,42.172825]}},{"properties":{"divorced":6.1,"municipality":"Estevan","id":"a68ekci1nfbg","lat":49.14005,"province":"Saskatchewan","long":-102.993899},"type":"Feature","geometry":{"type":"Point","coordinates":[-102.993899,49.14005]}},{"properties":{"divorced":13.5,"municipality":"Farnham","id":"a68ekc5y3ij1","lat":45.28335,"province":"Quebec","long":-72.975264},"type":"Feature","geometry":{"type":"Point","coordinates":[-72.975264,45.28335]}},{"properties":{"divorced":6.7,"municipality":"Foothills No. 31","id":"a68ekce8n9kb","lat":50.685232,"province":"Alberta","long":-113.882395},"type":"Feature","geometry":{"type":"Point","coordinates":[-113.882395,50.685232]}},{"properties":{"divorced":8.9,"municipality":"Fort Erie","id":"a68ekcbs2362","lat":42.901974,"province":"Ontario","long":-78.974204},"type":"Feature","geometry":{"type":"Point","coordinates":[-78.974204,42.901974]}},{"properties":{"divorced":8.1,"municipality":"Fort Frances","id":"a68ekcivhdjb","lat":48.610015,"province":"Ontario","long":-93.391109},"type":"Feature","geometry":{"type":"Point","coordinates":[-93.391109,48.610015]}},{"properties":{"divorced":7.6,"municipality":"Fort Saskatchewan","id":"a68ekcbv1ov0","lat":53.712885,"province":"Alberta","long":-113.214174},"type":"Feature","geometry":{"type":"Point","coordinates":[-113.214174,53.712885]}},{"properties":{"divorced":6.1,"municipality":"Fort Smith","id":"a68ekc8s8ww1","lat":60.000094,"province":"Northwest Territories","long":-111.902636},"type":"Feature","geometry":{"type":"Point","coordinates":[-111.902636,60.000094]}},{"properties":{"divorced":7.2,"municipality":"Fort St. John","id":"a68ekckeugsj","lat":56.252465,"province":"British Columbia","long":-120.847459},"type":"Feature","geometry":{"type":"Point","coordinates":[-120.847459,56.252465]}},{"properties":{"divorced":12.3,"municipality":"Francheville","id":"a68ekckuwtuo","lat":53.890121,"province":"Quebec","long":-68.429291},"type":"Feature","geometry":{"type":"Point","coordinates":[-68.429291,53.890121]}},{"properties":{"divorced":7.8,"municipality":"Fraser Valley","id":"a68ekcb6o1b3","lat":49.575611,"province":"British Columbia","long":-121.906883},"type":"Feature","geometry":{"type":"Point","coordinates":[-121.906883,49.575611]}},{"properties":{"divorced":8.3,"municipality":"Fraser-Fort George","id":"a68ekc9gptwl","lat":53.858515,"province":"British Columbia","long":-122.679944},"type":"Feature","geometry":{"type":"Point","coordinates":[-122.679944,53.858515]}},{"properties":{"divorced":7.9,"municipality":"Fredericton","id":"a68ekcktoo1k","lat":45.96064,"province":"New Brunswick","long":-66.639124},"type":"Feature","geometry":{"type":"Point","coordinates":[-66.639124,45.96064]}},{"properties":{"divorced":8.1,"municipality":"Frontenac","id":"a68ekc6pehxs","lat":44.192971,"province":"Ontario","long":-76.441686},"type":"Feature","geometry":{"type":"Point","coordinates":[-76.441686,44.192971]}},{"properties":{"divorced":5.5,"municipality":"Gander","id":"a68ekcgtt7o6","lat":48.95683,"province":"Newfoundland","long":-54.609179},"type":"Feature","geometry":{"type":"Point","coordinates":[-54.609179,48.95683]}},{"properties":{"divorced":7.2,"municipality":"Gaspe","id":"a68ekci3vh0c","lat":48.83145,"province":"Quebec","long":-64.480669},"type":"Feature","geometry":{"type":"Point","coordinates":[-64.480669,48.83145]}},{"properties":{"divorced":10.9,"municipality":"Gatineau","id":"a68ekchuxz23","lat":45.427854,"province":"Quebec","long":-75.710486},"type":"Feature","geometry":{"type":"Point","coordinates":[-75.710486,45.427854]}},{"properties":{"divorced":10.9,"municipality":"Gatineau","id":"a68ekcb07wmh","lat":45.427854,"province":"Quebec","long":-75.710486},"type":"Feature","geometry":{"type":"Point","coordinates":[-75.710486,45.427854]}},{"properties":{"divorced":6.0,"municipality":"Georgian Bluffs","id":"a68ekc8hthrj","lat":44.545125,"province":"Ontario","long":-80.98784},"type":"Feature","geometry":{"type":"Point","coordinates":[-80.98784,44.545125]}},{"properties":{"divorced":8.4,"municipality":"Georgina","id":"a68ekc6n0ugn","lat":44.301135,"province":"Ontario","long":-79.439594},"type":"Feature","geometry":{"type":"Point","coordinates":[-79.439594,44.301135]}},{"properties":{"divorced":6.9,"municipality":"Gimli","id":"a68ekclwjs4h","lat":50.636865,"province":"Manitoba","long":-96.994189},"type":"Feature","geometry":{"type":"Point","coordinates":[-96.994189,50.636865]}},{"properties":{"divorced":5.8,"municipality":"Gloucester","id":"a68ekcidu57p","lat":47.551851,"province":"New Brunswick","long":-65.653072},"type":"Feature","geometry":{"type":"Point","coordinates":[-65.653072,47.551851]}},{"properties":{"divorced":7.4,"municipality":"Goderich","id":"a68ekceo3agm","lat":43.74264,"province":"Ontario","long":-81.707764},"type":"Feature","geometry":{"type":"Point","coordinates":[-81.707764,43.74264]}},{"properties":{"divorced":11.1,"municipality":"Granby","id":"a68ekckjge8l","lat":45.397995,"province":"Quebec","long":-72.72177},"type":"Feature","geometry":{"type":"Point","coordinates":[-72.72177,45.397995]}},{"properties":{"divorced":15.0,"municipality":"Granby","id":"a68ekcjfbe7d","lat":45.397995,"province":"Quebec","long":-72.72177},"type":"Feature","geometry":{"type":"Point","coordinates":[-72.72177,45.397995]}},{"properties":{"divorced":5.7,"municipality":"Grand Falls-Windsor","id":"a68ekc9w88bk","lat":48.927794,"province":"Newfoundland","long":-55.659016},"type":"Feature","geometry":{"type":"Point","coordinates":[-55.659016,48.927794]}},{"properties":{"divorced":7.3,"municipality":"Grande Prairie","id":"a68ekcjbr7qx","lat":55.17116,"province":"Alberta","long":-118.794894},"type":"Feature","geometry":{"type":"Point","coordinates":[-118.794894,55.17116]}},{"properties":{"divorced":6.2,"municipality":"Grande Prairie County No. 1","id":"a68ekcf1z19o","lat":55.17069,"province":"Alberta","long":-118.936044},"type":"Feature","geometry":{"type":"Point","coordinates":[-118.936044,55.17069]}},{"properties":{"divorced":9.1,"municipality":"Gravenhurst","id":"a68ekcfuuf9a","lat":44.92084,"province":"Ontario","long":-79.373699},"type":"Feature","geometry":{"type":"Point","coordinates":[-79.373699,44.92084]}},{"properties":{"divorced":7.8,"municipality":"Greater Napanee","id":"a68ekcllueqa","lat":44.301704,"province":"Ontario","long":-76.985516},"type":"Feature","geometry":{"type":"Point","coordinates":[-76.985516,44.301704]}},{"properties":{"divorced":7.3,"municipality":"Greater Sudbury / Grand Sudbury","id":"a68ekcktai6g","lat":46.489593,"province":"Ontario","long":-80.989664},"type":"Feature","geometry":{"type":"Point","coordinates":[-80.989664,46.489593]}},{"properties":{"divorced":7.4,"municipality":"Grey","id":"a68ekcf6tks1","lat":44.470699,"province":"Ontario","long":-80.684723},"type":"Feature","geometry":{"type":"Point","coordinates":[-80.684723,44.470699]}},{"properties":{"divorced":6.9,"municipality":"Grey Highlands","id":"a68ekcipjbwt","lat":44.315255,"province":"Ontario","long":-80.642419},"type":"Feature","geometry":{"type":"Point","coordinates":[-80.642419,44.315255]}},{"properties":{"divorced":6.1,"municipality":"Grimsby","id":"a68ekclaimb3","lat":43.199025,"province":"Ontario","long":-79.585524},"type":"Feature","geometry":{"type":"Point","coordinates":[-79.585524,43.199025]}},{"properties":{"divorced":7.2,"municipality":"Guelph","id":"a68ekclzy542","lat":43.544565,"province":"Ontario","long":-80.247874},"type":"Feature","geometry":{"type":"Point","coordinates":[-80.247874,43.544565]}},{"properties":{"divorced":5.1,"municipality":"Guelph/Eramosa","id":"a68ekc9nzoem","lat":43.643634,"province":"Ontario","long":-80.191448},"type":"Feature","geometry":{"type":"Point","coordinates":[-80.191448,43.643634]}},{"properties":{"divorced":6.2,"municipality":"Guysborough","id":"a68ekcc13gml","lat":45.384321,"province":"Nova Scotia","long":-61.505238},"type":"Feature","geometry":{"type":"Point","coordinates":[-61.505238,45.384321]}},{"properties":{"divorced":6.4,"municipality":"Haldimand County","id":"a68ekchdwsa0","lat":42.95472,"province":"Ontario","long":-79.85775},"type":"Feature","geometry":{"type":"Point","coordinates":[-79.85775,42.95472]}},{"properties":{"divorced":7.0,"municipality":"Haldimand-Norfolk","id":"a68ekckawi7z","lat":42.87221,"province":"Ontario","long":-80.316619},"type":"Feature","geometry":{"type":"Point","coordinates":[-80.316619,42.87221]}},{"properties":{"divorced":8.5,"municipality":"Haliburton","id":"a68ekc6an1nn","lat":45.0467,"province":"Ontario","long":-78.508804},"type":"Feature","geometry":{"type":"Point","coordinates":[-78.508804,45.0467]}},{"properties":{"divorced":7.7,"municipality":"Halifax","id":"a68ekcjvek3z","lat":44.64616,"province":"Nova Scotia","long":-63.573919},"type":"Feature","geometry":{"type":"Point","coordinates":[-63.573919,44.64616]}},{"properties":{"divorced":7.7,"municipality":"Halifax","id":"a68ekc90w5st","lat":44.64616,"province":"Nova Scotia","long":-63.573919},"type":"Feature","geometry":{"type":"Point","coordinates":[-63.573919,44.64616]}},{"properties":{"divorced":6.2,"municipality":"Halton","id":"a68ekcji20g8","lat":43.85847,"province":"Ontario","long":-80.065304},"type":"Feature","geometry":{"type":"Point","coordinates":[-80.065304,43.85847]}},{"properties":{"divorced":6.1,"municipality":"Halton Hills","id":"a68ekchlenac","lat":43.63929,"province":"Ontario","long":-79.931366},"type":"Feature","geometry":{"type":"Point","coordinates":[-79.931366,43.63929]}},{"properties":{"divorced":7.5,"municipality":"Hamilton","id":"a68ekc7jw6cl","lat":43.26099,"province":"Ontario","long":-79.888454},"type":"Feature","geometry":{"type":"Point","coordinates":[-79.888454,43.26099]}},{"properties":{"divorced":7.1,"municipality":"Hamilton","id":"a68ekc9m4sny","lat":43.26099,"province":"Ontario","long":-79.888454},"type":"Feature","geometry":{"type":"Point","coordinates":[-79.888454,43.26099]}},{"properties":{"divorced":7.5,"municipality":"Hamilton","id":"a68ekc681ctw","lat":43.26099,"province":"Ontario","long":-79.888454},"type":"Feature","geometry":{"type":"Point","coordinates":[-79.888454,43.26099]}},{"properties":{"divorced":5.5,"municipality":"Hampstead","id":"a68ekcbb8ldj","lat":45.478735,"province":"Quebec","long":-73.633644},"type":"Feature","geometry":{"type":"Point","coordinates":[-73.633644,45.478735]}},{"properties":{"divorced":7.5,"municipality":"Hanover","id":"a68ekchba20h","lat":44.152375,"province":"Ontario","long":-81.025824},"type":"Feature","geometry":{"type":"Point","coordinates":[-81.025824,44.152375]}},{"properties":{"divorced":1.7,"municipality":"Hanover","id":"a68ekchnrd4f","lat":49.53205,"province":"Manitoba","long":-96.849244},"type":"Feature","geometry":{"type":"Point","coordinates":[-96.849244,49.53205]}},{"properties":{"divorced":7.3,"municipality":"Hants","id":"a68ekcbknnvy","lat":45.064922,"province":"Nova Scotia","long":-64.183892},"type":"Feature","geometry":{"type":"Point","coordinates":[-64.183892,45.064922]}},{"properties":{"divorced":7.0,"municipality":"Happy Valley-Goose Bay","id":"a68ekcaxqs0e","lat":53.295818,"province":"Newfoundland","long":-60.29594},"type":"Feature","geometry":{"type":"Point","coordinates":[-60.29594,53.295818]}},{"properties":{"divorced":8.3,"municipality":"Hastings","id":"a68ekc9c31cn","lat":44.309281,"province":"Ontario","long":-77.956612},"type":"Feature","geometry":{"type":"Point","coordinates":[-77.956612,44.309281]}},{"properties":{"divorced":9.2,"municipality":"Hawkesbury","id":"a68ekchurxnt","lat":45.607896,"province":"Ontario","long":-74.614144},"type":"Feature","geometry":{"type":"Point","coordinates":[-74.614144,45.607896]}},{"properties":{"divorced":8.2,"municipality":"High River","id":"a68ekci06yrj","lat":50.578,"province":"Alberta","long":-113.859122},"type":"Feature","geometry":{"type":"Point","coordinates":[-113.859122,50.578]}},{"properties":{"divorced":7.7,"municipality":"Hinton","id":"a68ekci7jarz","lat":53.400947,"province":"Alberta","long":-117.576966},"type":"Feature","geometry":{"type":"Point","coordinates":[-117.576966,53.400947]}},{"properties":{"divorced":10.5,"municipality":"Hope","id":"a68ekcm0g618","lat":49.378935,"province":"British Columbia","long":-121.444524},"type":"Feature","geometry":{"type":"Point","coordinates":[-121.444524,49.378935]}},{"properties":{"divorced":8.1,"municipality":"Huntsville","id":"a68ekcajv0i9","lat":45.326565,"province":"Ontario","long":-79.218004},"type":"Feature","geometry":{"type":"Point","coordinates":[-79.218004,45.326565]}},{"properties":{"divorced":6.0,"municipality":"Huron","id":"a68ekcktoxlo","lat":43.75029,"province":"Ontario","long":-81.613159},"type":"Feature","geometry":{"type":"Point","coordinates":[-81.613159,43.75029]}},{"properties":{"divorced":5.8,"municipality":"Huron East","id":"a68ekclqxx35","lat":43.61683,"province":"Ontario","long":-81.341979},"type":"Feature","geometry":{"type":"Point","coordinates":[-81.341979,43.61683]}},{"properties":{"divorced":5.2,"municipality":"Huron-Kinloss","id":"a68ekcind7ji","lat":44.04898,"province":"Ontario","long":-81.522609},"type":"Feature","geometry":{"type":"Point","coordinates":[-81.522609,44.04898]}},{"properties":{"divorced":8.4,"municipality":"Ingersoll","id":"a68ekcbz500w","lat":43.038115,"province":"Ontario","long":-80.883849},"type":"Feature","geometry":{"type":"Point","coordinates":[-80.883849,43.038115]}},{"properties":{"divorced":8.8,"municipality":"Innisfail","id":"a68ekc8ucusy","lat":52.02741,"province":"Alberta","long":-113.948624},"type":"Feature","geometry":{"type":"Point","coordinates":[-113.948624,52.02741]}},{"properties":{"divorced":8.3,"municipality":"Innisfil","id":"a68ekce612z8","lat":44.30402,"province":"Ontario","long":-79.595709},"type":"Feature","geometry":{"type":"Point","coordinates":[-79.595709,44.30402]}},{"properties":{"divorced":4.4,"municipality":"Inuvik","id":"a68ekck8q1cg","lat":68.361057,"province":"Northwest Territories","long":-133.734937},"type":"Feature","geometry":{"type":"Point","coordinates":[-133.734937,68.361057]}},{"properties":{"divorced":5.2,"municipality":"Inverness","id":"a68ekcdq1p33","lat":46.231205,"province":"Nova Scotia","long":-61.304524},"type":"Feature","geometry":{"type":"Point","coordinates":[-61.304524,46.231205]}},{"properties":{"divorced":5.3,"municipality":"Inverness, Subd. A","id":"a68ekc8g5g9g","lat":46.321789,"province":"Nova Scotia","long":-61.05394},"type":"Feature","geometry":{"type":"Point","coordinates":[-61.05394,46.321789]}},{"properties":{"divorced":13.7,"municipality":"Joliette","id":"a68ekcf35u3v","lat":46.02357,"province":"Quebec","long":-73.441954},"type":"Feature","geometry":{"type":"Point","coordinates":[-73.441954,46.02357]}},{"properties":{"divorced":12.5,"municipality":"Joliette","id":"a68ekcd64op7","lat":46.02357,"province":"Quebec","long":-73.441954},"type":"Feature","geometry":{"type":"Point","coordinates":[-73.441954,46.02357]}},{"properties":{"divorced":9.6,"municipality":"Kamloops","id":"a68ekc6bcj4e","lat":50.676125,"province":"British Columbia","long":-120.337889},"type":"Feature","geometry":{"type":"Point","coordinates":[-120.337889,50.676125]}},{"properties":{"divorced":8.1,"municipality":"Kamouraska","id":"a68ekchuri0k","lat":47.563975,"province":"Quebec","long":-69.862647},"type":"Feature","geometry":{"type":"Point","coordinates":[-69.862647,47.563975]}},{"properties":{"divorced":6.0,"municipality":"Kapuskasing","id":"a68ekc6xoefy","lat":49.417808,"province":"Ontario","long":-82.425195},"type":"Feature","geometry":{"type":"Point","coordinates":[-82.425195,49.417808]}},{"properties":{"divorced":7.7,"municipality":"Kawartha Lakes","id":"a68ekc953ol6","lat":44.354285,"province":"Ontario","long":-78.740069},"type":"Feature","geometry":{"type":"Point","coordinates":[-78.740069,44.354285]}},{"properties":{"divorced":7.7,"municipality":"Kawartha Lakes","id":"a68ekcbi7mds","lat":44.354285,"province":"Ontario","long":-78.740069},"type":"Feature","geometry":{"type":"Point","coordinates":[-78.740069,44.354285]}},{"properties":{"divorced":2.0,"municipality":"Keewatin","id":"a68ekcccw24e","lat":65.99897,"province":"Nunavut","long":-101.124062},"type":"Feature","geometry":{"type":"Point","coordinates":[-101.124062,65.99897]}},{"properties":{"divorced":9.5,"municipality":"Kelowna","id":"a68ekcjquac6","lat":49.886815,"province":"British Columbia","long":-119.496599},"type":"Feature","geometry":{"type":"Point","coordinates":[-119.496599,49.886815]}},{"properties":{"divorced":6.0,"municipality":"Kenora","id":"a68ekc7fvdcm","lat":49.770643,"province":"Ontario","long":-94.489306},"type":"Feature","geometry":{"type":"Point","coordinates":[-94.489306,49.770643]}},{"properties":{"divorced":8.1,"municipality":"Kenora","id":"a68ekc7fg026","lat":49.770643,"province":"Ontario","long":-94.489306},"type":"Feature","geometry":{"type":"Point","coordinates":[-94.489306,49.770643]}},{"properties":{"divorced":7.2,"municipality":"Kenora, Unorganized","id":"a68ekceb40sb","lat":49.770641,"province":"Ontario","long":-94.489304},"type":"Feature","geometry":{"type":"Point","coordinates":[-94.489304,49.770641]}},{"properties":{"divorced":6.0,"municipality":"Kent","id":"a68ekc8j7nqy","lat":46.530418,"province":"New Brunswick","long":-67.626247},"type":"Feature","geometry":{"type":"Point","coordinates":[-67.626247,46.530418]}},{"properties":{"divorced":9.6,"municipality":"Kimberley","id":"a68ekcbwwx6p","lat":49.67003,"province":"British Columbia","long":-115.978099},"type":"Feature","geometry":{"type":"Point","coordinates":[-115.978099,49.67003]}},{"properties":{"divorced":6.8,"municipality":"Kincardine","id":"a68ekcduh921","lat":44.181615,"province":"Ontario","long":-81.631734},"type":"Feature","geometry":{"type":"Point","coordinates":[-81.631734,44.181615]}},{"properties":{"divorced":5.1,"municipality":"King","id":"a68ekc7un6hq","lat":43.930395,"province":"Ontario","long":-79.520499},"type":"Feature","geometry":{"type":"Point","coordinates":[-79.520499,43.930395]}},{"properties":{"divorced":8.4,"municipality":"Kings","id":"a68ekce42mo2","lat":44.98744,"province":"Nova Scotia","long":-64.949359},"type":"Feature","geometry":{"type":"Point","coordinates":[-64.949359,44.98744]}},{"properties":{"divorced":5.3,"municipality":"Kings","id":"a68ekcfhczm4","lat":46.406479,"province":"Prince Edward Island","long":-62.195759},"type":"Feature","geometry":{"type":"Point","coordinates":[-62.195759,46.406479]}},{"properties":{"divorced":5.9,"municipality":"Kings","id":"a68ekche4zvl","lat":45.501081,"province":"New Brunswick","long":-65.979347},"type":"Feature","geometry":{"type":"Point","coordinates":[-65.979347,45.501081]}},{"properties":{"divorced":8.0,"municipality":"Kings, Subd. A","id":"a68ekci4hrdm","lat":45.004829,"province":"Nova Scotia","long":-64.603081},"type":"Feature","geometry":{"type":"Point","coordinates":[-64.603081,45.004829]}},{"properties":{"divorced":8.1,"municipality":"Kings, Subd. B","id":"a68ekcdm499h","lat":45.004829,"province":"Nova Scotia","long":-64.603081},"type":"Feature","geometry":{"type":"Point","coordinates":[-64.603081,45.004829]}},{"properties":{"divorced":9.3,"municipality":"Kings, Subd. C","id":"a68ekcg1fer6","lat":45.004829,"province":"Nova Scotia","long":-64.603081},"type":"Feature","geometry":{"type":"Point","coordinates":[-64.603081,45.004829]}},{"properties":{"divorced":5.8,"municipality":"Kingsclear","id":"a68ekc8a4t7f","lat":45.85293,"province":"New Brunswick","long":-66.928464},"type":"Feature","geometry":{"type":"Point","coordinates":[-66.928464,45.85293]}},{"properties":{"divorced":8.4,"municipality":"Kingston","id":"a68ekckau8bk","lat":44.231535,"province":"Ontario","long":-76.479334},"type":"Feature","geometry":{"type":"Point","coordinates":[-76.479334,44.231535]}},{"properties":{"divorced":5.8,"municipality":"Kingsville","id":"a68ekcdy5yvz","lat":42.037885,"province":"Ontario","long":-82.740309},"type":"Feature","geometry":{"type":"Point","coordinates":[-82.740309,42.037885]}},{"properties":{"divorced":5.5,"municipality":"Kirkland","id":"a68ekcjbhxf1","lat":45.448703,"province":"Quebec","long":-73.857393},"type":"Feature","geometry":{"type":"Point","coordinates":[-73.857393,45.448703]}},{"properties":{"divorced":8.5,"municipality":"Kirkland Lake","id":"a68ekceo9ij6","lat":48.150288,"province":"Ontario","long":-80.035391},"type":"Feature","geometry":{"type":"Point","coordinates":[-80.035391,48.150288]}},{"properties":{"divorced":7.6,"municipality":"Kitchener","id":"a68ekcfnyha9","lat":43.45123,"province":"Ontario","long":-80.493049},"type":"Feature","geometry":{"type":"Point","coordinates":[-80.493049,43.45123]}},{"properties":{"divorced":6.7,"municipality":"Kitimat","id":"a68ekcj29ve1","lat":54.05515,"province":"British Columbia","long":-128.655066},"type":"Feature","geometry":{"type":"Point","coordinates":[-128.655066,54.05515]}},{"properties":{"divorced":6.8,"municipality":"Kitimat-Stikine","id":"a68ekckgwgme","lat":54.775372,"province":"British Columbia","long":-129.860077},"type":"Feature","geometry":{"type":"Point","coordinates":[-129.860077,54.775372]}},{"properties":{"divorced":9.6,"municipality":"Kootenay Boundary","id":"a68ekchbi9pn","lat":49.11122,"province":"British Columbia","long":-117.540564},"type":"Feature","geometry":{"type":"Point","coordinates":[-117.540564,49.11122]}},{"properties":{"divorced":9.9,"municipality":"L'Amiante","id":"a68ekcb9ac8z","lat":46.059502,"province":"Quebec","long":-71.327507},"type":"Feature","geometry":{"type":"Point","coordinates":[-71.327507,46.059502]}},{"properties":{"divorced":10.6,"municipality":"L'Ancienne-Lorette","id":"a68ekclc9dmz","lat":46.798978,"province":"Quebec","long":-71.36153},"type":"Feature","geometry":{"type":"Point","coordinates":[-71.36153,46.798978]}},{"properties":{"divorced":11.4,"municipality":"L'Assomption","id":"a68ekc6n9i9t","lat":45.831215,"province":"Quebec","long":-73.423529},"type":"Feature","geometry":{"type":"Point","coordinates":[-73.423529,45.831215]}},{"properties":{"divorced":11.5,"municipality":"L'Assomption","id":"a68ekcdfycns","lat":45.831215,"province":"Quebec","long":-73.423529},"type":"Feature","geometry":{"type":"Point","coordinates":[-73.423529,45.831215]}},{"properties":{"divorced":12.6,"municipality":"L'Ile-Perrot","id":"a68ekc9x8zdc","lat":45.393865,"province":"Quebec","long":-73.955247},"type":"Feature","geometry":{"type":"Point","coordinates":[-73.955247,45.393865]}},{"properties":{"divorced":10.2,"municipality":"L'Ile-d'Orleans","id":"a68ekcd3627k","lat":53.890121,"province":"Quebec","long":-68.429291},"type":"Feature","geometry":{"type":"Point","coordinates":[-68.429291,53.890121]}},{"properties":{"divorced":7.9,"municipality":"L'Islet","id":"a68ekceipljg","lat":47.071621,"province":"Quebec","long":-70.048119},"type":"Feature","geometry":{"type":"Point","coordinates":[-70.048119,47.071621]}},{"properties":{"divorced":8.8,"municipality":"L'erable","id":"a68ekcfq0sy3","lat":46.238419,"province":"Quebec","long":-71.679237},"type":"Feature","geometry":{"type":"Point","coordinates":[-71.679237,46.238419]}},{"properties":{"divorced":9.4,"municipality":"La Cote-de-Beaupre","id":"a68ekcaayfrd","lat":47.0464,"province":"Quebec","long":-70.894029},"type":"Feature","geometry":{"type":"Point","coordinates":[-70.894029,47.0464]}},{"properties":{"divorced":7.2,"municipality":"La Cote-de-Gaspe","id":"a68ekckcub8a","lat":48.83145,"province":"Quebec","long":-64.480669},"type":"Feature","geometry":{"type":"Point","coordinates":[-64.480669,48.83145]}},{"properties":{"divorced":8.8,"municipality":"La Haute-Cote-Nord","id":"a68ekcks39w6","lat":49.02808,"province":"Quebec","long":-69.204308},"type":"Feature","geometry":{"type":"Point","coordinates":[-69.204308,49.02808]}},{"properties":{"divorced":10.5,"municipality":"La Haute-Gaspesie","id":"a68ekcbol2nl","lat":49.128899,"province":"Quebec","long":-66.122368},"type":"Feature","geometry":{"type":"Point","coordinates":[-66.122368,49.128899]}},{"properties":{"divorced":13.6,"municipality":"La Haute-Yamaska","id":"a68ekci250bl","lat":46.004325,"province":"Quebec","long":-72.915124},"type":"Feature","geometry":{"type":"Point","coordinates":[-72.915124,46.004325]}},{"properties":{"divorced":10.0,"municipality":"La Jacques-Cartier","id":"a68ekccg9jzi","lat":46.671555,"province":"Quebec","long":-71.759484},"type":"Feature","geometry":{"type":"Point","coordinates":[-71.759484,46.671555]}},{"properties":{"divorced":9.7,"municipality":"La Malbaie","id":"a68ekcdj6w5g","lat":47.65837,"province":"Quebec","long":-70.154524},"type":"Feature","geometry":{"type":"Point","coordinates":[-70.154524,47.65837]}},{"properties":{"divorced":8.9,"municipality":"La Matapedia","id":"a68ekckijd26","lat":48.005437,"province":"Quebec","long":-66.952799},"type":"Feature","geometry":{"type":"Point","coordinates":[-66.952799,48.005437]}},{"properties":{"divorced":10.5,"municipality":"La Mitis","id":"a68ekcd4o3s3","lat":48.434952,"province":"Quebec","long":-68.116043},"type":"Feature","geometry":{"type":"Point","coordinates":[-68.116043,48.434952]}},{"properties":{"divorced":7.2,"municipality":"La Nouvelle-Beauce","id":"a68ekcfgqv9v","lat":46.2111,"province":"Quebec","long":-70.774594},"type":"Feature","geometry":{"type":"Point","coordinates":[-70.774594,46.2111]}},{"properties":{"divorced":11.2,"municipality":"La Prairie","id":"a68ekckuryeh","lat":45.417454,"province":"Quebec","long":-73.488076},"type":"Feature","geometry":{"type":"Point","coordinates":[-73.488076,45.417454]}},{"properties":{"divorced":13.4,"municipality":"La Riviere-du-Nord","id":"a68ekcdnk70t","lat":45.83437,"province":"Quebec","long":-74.009361},"type":"Feature","geometry":{"type":"Point","coordinates":[-74.009361,45.83437]}},{"properties":{"divorced":10.3,"municipality":"La Sarre","id":"a68ekc86ocee","lat":48.79756,"province":"Quebec","long":-79.200314},"type":"Feature","geometry":{"type":"Point","coordinates":[-79.200314,48.79756]}},{"properties":{"divorced":11.2,"municipality":"La Tuque","id":"a68ekc8d88me","lat":47.43777,"province":"Quebec","long":-72.784409},"type":"Feature","geometry":{"type":"Point","coordinates":[-72.784409,47.43777]}},{"properties":{"divorced":12.0,"municipality":"La Tuque","id":"a68ekcaxd9z7","lat":47.43777,"province":"Quebec","long":-72.784409},"type":"Feature","geometry":{"type":"Point","coordinates":[-72.784409,47.43777]}},{"properties":{"divorced":10.6,"municipality":"La Vallee-de-l'Or","id":"a68ekcb4t2dl","lat":53.890121,"province":"Quebec","long":-68.429291},"type":"Feature","geometry":{"type":"Point","coordinates":[-68.429291,53.890121]}},{"properties":{"divorced":10.6,"municipality":"La Vallee-de-la-Gatineau","id":"a68ekc9d3vo4","lat":45.427854,"province":"Quebec","long":-75.710486},"type":"Feature","geometry":{"type":"Point","coordinates":[-75.710486,45.427854]}},{"properties":{"divorced":11.3,"municipality":"La Vallee-du-Richelieu","id":"a68ekcfltday","lat":45.43996,"province":"Quebec","long":-73.245754},"type":"Feature","geometry":{"type":"Point","coordinates":[-73.245754,45.43996]}},{"properties":{"divorced":5.2,"municipality":"LaSalle","id":"a68ekc8q6csu","lat":42.245555,"province":"Ontario","long":-83.060874},"type":"Feature","geometry":{"type":"Point","coordinates":[-83.060874,42.245555]}},{"properties":{"divorced":6.8,"municipality":"Labrador City","id":"a68ekciap9yy","lat":52.950039,"province":"Newfoundland","long":-66.914519},"type":"Feature","geometry":{"type":"Point","coordinates":[-66.914519,52.950039]}},{"properties":{"divorced":8.5,"municipality":"Lac Ste. Anne County","id":"a68ekc9ww6k6","lat":53.701995,"province":"Alberta","long":-114.222144},"type":"Feature","geometry":{"type":"Point","coordinates":[-114.222144,53.701995]}},{"properties":{"divorced":10.9,"municipality":"Lac-Megantic","id":"a68ekc7deusr","lat":45.57257,"province":"Quebec","long":-70.880169},"type":"Feature","geometry":{"type":"Point","coordinates":[-70.880169,45.57257]}},{"properties":{"divorced":10.5,"municipality":"Lac-Saint-Jean-Est","id":"a68ekcfcj1om","lat":53.890121,"province":"Quebec","long":-68.429291},"type":"Feature","geometry":{"type":"Point","coordinates":[-68.429291,53.890121]}},{"properties":{"divorced":12.8,"municipality":"Lachute","id":"a68ekclx6li5","lat":45.655845,"province":"Quebec","long":-74.340554},"type":"Feature","geometry":{"type":"Point","coordinates":[-74.340554,45.655845]}},{"properties":{"divorced":6.5,"municipality":"Lacombe","id":"a68ekcjvjo8a","lat":52.46311,"province":"Alberta","long":-113.736704},"type":"Feature","geometry":{"type":"Point","coordinates":[-113.736704,52.46311]}},{"properties":{"divorced":6.2,"municipality":"Lacombe County","id":"a68ekcae1001","lat":52.463185,"province":"Alberta","long":-113.787604},"type":"Feature","geometry":{"type":"Point","coordinates":[-113.787604,52.463185]}},{"properties":{"divorced":11.0,"municipality":"Ladysmith","id":"a68ekc71thva","lat":48.997356,"province":"British Columbia","long":-123.820544},"type":"Feature","geometry":{"type":"Point","coordinates":[-123.820544,48.997356]}},{"properties":{"divorced":9.8,"municipality":"Lajemmerais","id":"a68ekcdo4prk","lat":45.760262,"province":"Quebec","long":-73.330559},"type":"Feature","geometry":{"type":"Point","coordinates":[-73.330559,45.760262]}},{"properties":{"divorced":8.7,"municipality":"Lake Country","id":"a68ekc6x8vyj","lat":50.050716,"province":"British Columbia","long":-119.411731},"type":"Feature","geometry":{"type":"Point","coordinates":[-119.411731,50.050716]}},{"properties":{"divorced":5.6,"municipality":"Lakeshore","id":"a68ekcm5ayvr","lat":42.292945,"province":"Ontario","long":-82.702819},"type":"Feature","geometry":{"type":"Point","coordinates":[-82.702819,42.292945]}},{"properties":{"divorced":7.1,"municipality":"Lambton","id":"a68ekcevogag","lat":42.845188,"province":"Ontario","long":-82.286369},"type":"Feature","geometry":{"type":"Point","coordinates":[-82.286369,42.845188]}},{"properties":{"divorced":6.6,"municipality":"Lambton Shores","id":"a68ekc6kyyym","lat":43.097555,"province":"Ontario","long":-82.003474},"type":"Feature","geometry":{"type":"Point","coordinates":[-82.003474,43.097555]}},{"properties":{"divorced":8.1,"municipality":"Lanark","id":"a68ekc87vbbl","lat":45.01737,"province":"Ontario","long":-76.364319},"type":"Feature","geometry":{"type":"Point","coordinates":[-76.364319,45.01737]}},{"properties":{"divorced":10.4,"municipality":"Langford","id":"a68ekc7nfr20","lat":48.448701,"province":"British Columbia","long":-123.513511},"type":"Feature","geometry":{"type":"Point","coordinates":[-123.513511,48.448701]}},{"properties":{"divorced":11.2,"municipality":"Langley","id":"a68ekc9xrdi6","lat":49.104114,"province":"British Columbia","long":-122.656549},"type":"Feature","geometry":{"type":"Point","coordinates":[-122.656549,49.104114]}},{"properties":{"divorced":7.4,"municipality":"Langley","id":"a68ekcbcjhn4","lat":49.104114,"province":"British Columbia","long":-122.656549},"type":"Feature","geometry":{"type":"Point","coordinates":[-122.656549,49.104114]}},{"properties":{"divorced":5.6,"municipality":"Laurentian Valley","id":"a68ekced4e19","lat":45.781465,"province":"Ontario","long":-77.232294},"type":"Feature","geometry":{"type":"Point","coordinates":[-77.232294,45.781465]}},{"properties":{"divorced":10.0,"municipality":"Laval","id":"a68ekcdrv1ws","lat":45.551566,"province":"Quebec","long":-73.744638},"type":"Feature","geometry":{"type":"Point","coordinates":[-73.744638,45.551566]}},{"properties":{"divorced":10.0,"municipality":"Laval","id":"a68ekcdbv4cu","lat":45.551566,"province":"Quebec","long":-73.744638},"type":"Feature","geometry":{"type":"Point","coordinates":[-73.744638,45.551566]}},{"properties":{"divorced":10.9,"municipality":"Lavaltrie","id":"a68ekckyl6kv","lat":45.885205,"province":"Quebec","long":-73.277449},"type":"Feature","geometry":{"type":"Point","coordinates":[-73.277449,45.885205]}},{"properties":{"divorced":11.8,"municipality":"Le Bas-Richelieu","id":"a68ekcizgolu","lat":45.43718,"province":"Quebec","long":-73.247119},"type":"Feature","geometry":{"type":"Point","coordinates":[-73.247119,45.43718]}},{"properties":{"divorced":9.0,"municipality":"Le Domaine-du-Roy","id":"a68ekckt6eue","lat":49.012348,"province":"Quebec","long":-73.16407},"type":"Feature","geometry":{"type":"Point","coordinates":[-73.16407,49.012348]}},{"properties":{"divorced":9.4,"municipality":"Le Granit","id":"a68ekccqkjn5","lat":45.593182,"province":"Quebec","long":-70.888977},"type":"Feature","geometry":{"type":"Point","coordinates":[-70.888977,45.593182]}},{"properties":{"divorced":11.9,"municipality":"Le Haut-Richelieu","id":"a68ekcjcidmi","lat":45.43996,"province":"Quebec","long":-73.245754},"type":"Feature","geometry":{"type":"Point","coordinates":[-73.245754,45.43996]}},{"properties":{"divorced":10.3,"municipality":"Le Haut-Saint-Laurent","id":"a68ekciwsp7a","lat":45.50696,"province":"Quebec","long":-73.682929},"type":"Feature","geometry":{"type":"Point","coordinates":[-73.682929,45.50696]}},{"properties":{"divorced":7.6,"municipality":"Le Rocher-Perce","id":"a68ekcd35siw","lat":48.52467,"province":"Quebec","long":-64.213869},"type":"Feature","geometry":{"type":"Point","coordinates":[-64.213869,48.52467]}},{"properties":{"divorced":10.7,"municipality":"Le Saguenay-et-son-Fjord","id":"a68ekcl63utv","lat":53.890121,"province":"Quebec","long":-68.429291},"type":"Feature","geometry":{"type":"Point","coordinates":[-68.429291,53.890121]}},{"properties":{"divorced":5.5,"municipality":"Leamington","id":"a68ekclloyjb","lat":42.054155,"province":"Ontario","long":-82.599714},"type":"Feature","geometry":{"type":"Point","coordinates":[-82.599714,42.054155]}},{"properties":{"divorced":7.7,"municipality":"Leduc","id":"a68ekckvp44w","lat":53.259375,"province":"Alberta","long":-113.548566},"type":"Feature","geometry":{"type":"Point","coordinates":[-113.548566,53.259375]}},{"properties":{"divorced":6.1,"municipality":"Leduc County","id":"a68ekc77hnyf","lat":53.31124,"province":"Alberta","long":-113.532964},"type":"Feature","geometry":{"type":"Point","coordinates":[-113.532964,53.31124]}},{"properties":{"divorced":8.3,"municipality":"Leeds and Grenville","id":"a68ekcl63kzx","lat":44.698799,"province":"Ontario","long":-75.933937},"type":"Feature","geometry":{"type":"Point","coordinates":[-75.933937,44.698799]}},{"properties":{"divorced":8.1,"municipality":"Leeds and the Thousand Islands","id":"a68ekciyzhqt","lat":44.407305,"province":"Ontario","long":-76.022144},"type":"Feature","geometry":{"type":"Point","coordinates":[-76.022144,44.407305]}},{"properties":{"divorced":7.5,"municipality":"Lennox and Addington","id":"a68ekcfcsl89","lat":44.58514,"province":"Ontario","long":-77.008949},"type":"Feature","geometry":{"type":"Point","coordinates":[-77.008949,44.58514]}},{"properties":{"divorced":8.5,"municipality":"Les Basques","id":"a68ekc9d6a8i","lat":48.11272,"province":"Quebec","long":-69.024048},"type":"Feature","geometry":{"type":"Point","coordinates":[-69.024048,48.11272]}},{"properties":{"divorced":9.6,"municipality":"Les Collines-de-l'Outaouais","id":"a68ekckb0jzk","lat":53.890121,"province":"Quebec","long":-68.429291},"type":"Feature","geometry":{"type":"Point","coordinates":[-68.429291,53.890121]}},{"properties":{"divorced":7.1,"municipality":"Les Etchemins","id":"a68ekcfqiiho","lat":46.352612,"province":"Quebec","long":-70.359787},"type":"Feature","geometry":{"type":"Point","coordinates":[-70.359787,46.352612]}},{"properties":{"divorced":5.9,"municipality":"Les Iles-de-la-Madeleine","id":"a68ekclsdvon","lat":49.248385,"province":"Quebec","long":-65.348116},"type":"Feature","geometry":{"type":"Point","coordinates":[-65.348116,49.248385]}},{"properties":{"divorced":9.3,"municipality":"Les Jardins-de-Napierville","id":"a68ekc6dxu6l","lat":45.188925,"province":"Quebec","long":-73.403619},"type":"Feature","geometry":{"type":"Point","coordinates":[-73.403619,45.188925]}},{"properties":{"divorced":13.1,"municipality":"Les Laurentides","id":"a68ekcm2cvl1","lat":45.85242,"province":"Quebec","long":-73.757094},"type":"Feature","geometry":{"type":"Point","coordinates":[-73.757094,45.85242]}},{"properties":{"divorced":12.0,"municipality":"Les Maskoutains","id":"a68ekckj7ue4","lat":45.68026,"province":"Quebec","long":-72.877823},"type":"Feature","geometry":{"type":"Point","coordinates":[-72.877823,45.68026]}},{"properties":{"divorced":10.5,"municipality":"Les Moulins","id":"a68ekc75wkla","lat":45.747589,"province":"Quebec","long":-73.66655},"type":"Feature","geometry":{"type":"Point","coordinates":[-73.66655,45.747589]}},{"properties":{"divorced":15.6,"municipality":"Les Pays-d'en-Haut","id":"a68ekcdj47o9","lat":53.890121,"province":"Quebec","long":-68.429291},"type":"Feature","geometry":{"type":"Point","coordinates":[-68.429291,53.890121]}},{"properties":{"divorced":8.8,"municipality":"Lethbridge","id":"a68ekclg3f57","lat":49.693835,"province":"Alberta","long":-112.833744},"type":"Feature","geometry":{"type":"Point","coordinates":[-112.833744,49.693835]}},{"properties":{"divorced":4.9,"municipality":"Lethbridge County","id":"a68ekc9cbi65","lat":49.590348,"province":"Alberta","long":-112.77612},"type":"Feature","geometry":{"type":"Point","coordinates":[-112.77612,49.590348]}},{"properties":{"divorced":10.3,"municipality":"Levis","id":"a68ekckyrus9","lat":46.802862,"province":"Quebec","long":-71.176947},"type":"Feature","geometry":{"type":"Point","coordinates":[-71.176947,46.802862]}},{"properties":{"divorced":10.3,"municipality":"Levis","id":"a68ekc5pwcll","lat":46.802862,"province":"Quebec","long":-71.176947},"type":"Feature","geometry":{"type":"Point","coordinates":[-71.176947,46.802862]}},{"properties":{"divorced":5.6,"municipality":"Lincoln","id":"a68ekcdp4175","lat":43.188552,"province":"Ontario","long":-79.472607},"type":"Feature","geometry":{"type":"Point","coordinates":[-79.472607,43.188552]}},{"properties":{"divorced":6.3,"municipality":"Lloydminster","id":"a68ekclspv07","lat":54.499401,"province":"Saskatchewan","long":-105.684319},"type":"Feature","geometry":{"type":"Point","coordinates":[-105.684319,54.499401]}},{"properties":{"divorced":6.5,"municipality":"Lloydminster","id":"a68ekcf411w2","lat":53.278005,"province":"Alberta","long":-110.007809},"type":"Feature","geometry":{"type":"Point","coordinates":[-110.007809,53.278005]}},{"properties":{"divorced":8.0,"municipality":"London","id":"a68ekc7k4xc2","lat":42.986895,"province":"Ontario","long":-81.246214},"type":"Feature","geometry":{"type":"Point","coordinates":[-81.246214,42.986895]}},{"properties":{"divorced":12.1,"municipality":"Longueuil","id":"a68ekc96zz78","lat":45.54188,"province":"Quebec","long":-73.494134},"type":"Feature","geometry":{"type":"Point","coordinates":[-73.494134,45.54188]}},{"properties":{"divorced":11.2,"municipality":"Longueuil","id":"a68ekca1azsq","lat":45.54188,"province":"Quebec","long":-73.494134},"type":"Feature","geometry":{"type":"Point","coordinates":[-73.494134,45.54188]}},{"properties":{"divorced":9.4,"municipality":"Lorraine","id":"a68ekcjxr54p","lat":45.65951,"province":"Quebec","long":-73.776874},"type":"Feature","geometry":{"type":"Point","coordinates":[-73.776874,45.65951]}},{"properties":{"divorced":8.2,"municipality":"Lotbiniere","id":"a68ekcd528f1","lat":46.613825,"province":"Quebec","long":-71.945425},"type":"Feature","geometry":{"type":"Point","coordinates":[-71.945425,46.613825]}},{"properties":{"divorced":12.5,"municipality":"Louiseville","id":"a68ekcg5lkxm","lat":46.255635,"province":"Quebec","long":-72.947374},"type":"Feature","geometry":{"type":"Point","coordinates":[-72.947374,46.255635]}},{"properties":{"divorced":7.4,"municipality":"Loyalist","id":"a68ekcjda8lg","lat":44.276955,"province":"Ontario","long":-76.710189},"type":"Feature","geometry":{"type":"Point","coordinates":[-76.710189,44.276955]}},{"properties":{"divorced":8.1,"municipality":"Lunenburg","id":"a68ekcc6xp95","lat":44.377213,"province":"Nova Scotia","long":-64.318444},"type":"Feature","geometry":{"type":"Point","coordinates":[-64.318444,44.377213]}},{"properties":{"divorced":7.3,"municipality":"Lunenburg","id":"a68ekcdtt9k6","lat":44.377213,"province":"Nova Scotia","long":-64.318444},"type":"Feature","geometry":{"type":"Point","coordinates":[-64.318444,44.377213]}},{"properties":{"divorced":1.9,"municipality":"Mackenzie No. 23","id":"a68ekc862qyz","lat":58.623835,"province":"Alberta","long":-117.160779},"type":"Feature","geometry":{"type":"Point","coordinates":[-117.160779,58.623835]}},{"properties":{"divorced":6.2,"municipality":"Madawaska","id":"a68ekca7og6c","lat":47.634756,"province":"New Brunswick","long":-68.153703},"type":"Feature","geometry":{"type":"Point","coordinates":[-68.153703,47.634756]}},{"properties":{"divorced":14.4,"municipality":"Magog","id":"a68ekcj7ppzg","lat":45.264865,"province":"Quebec","long":-72.147704},"type":"Feature","geometry":{"type":"Point","coordinates":[-72.147704,45.264865]}},{"properties":{"divorced":4.6,"municipality":"Malahide","id":"a68ekcdwf2v6","lat":42.752265,"province":"Ontario","long":-80.983653},"type":"Feature","geometry":{"type":"Point","coordinates":[-80.983653,42.752265]}},{"properties":{"divorced":9.6,"municipality":"Manicouagan","id":"a68ekc6zkh0v","lat":50.19141,"province":"Quebec","long":-68.296089},"type":"Feature","geometry":{"type":"Point","coordinates":[-68.296089,50.19141]}},{"properties":{"divorced":5.8,"municipality":"Manitoulin","id":"a68ekckyibfk","lat":45.724312,"province":"Ontario","long":-82.333847},"type":"Feature","geometry":{"type":"Point","coordinates":[-82.333847,45.724312]}},{"properties":{"divorced":8.5,"municipality":"Maple Ridge","id":"a68ekcj0d564","lat":49.216845,"province":"British Columbia","long":-122.605829},"type":"Feature","geometry":{"type":"Point","coordinates":[-122.605829,49.216845]}},{"properties":{"divorced":2.8,"municipality":"Mapleton","id":"a68ekcjkssnt","lat":43.757413,"province":"Ontario","long":-80.642964},"type":"Feature","geometry":{"type":"Point","coordinates":[-80.642964,43.757413]}},{"properties":{"divorced":9.9,"municipality":"Maria-Chapdelaine","id":"a68ekcca3ppk","lat":50.478901,"province":"Quebec","long":-72.336632},"type":"Feature","geometry":{"type":"Point","coordinates":[-72.336632,50.478901]}},{"properties":{"divorced":11.7,"municipality":"Marieville","id":"a68ekccrh6w6","lat":45.43118,"province":"Quebec","long":-73.159449},"type":"Feature","geometry":{"type":"Point","coordinates":[-73.159449,45.43118]}},{"properties":{"divorced":3.9,"municipality":"Markham","id":"a68ekccomkwo","lat":43.856034,"province":"Ontario","long":-79.339942},"type":"Feature","geometry":{"type":"Point","coordinates":[-79.339942,43.856034]}},{"properties":{"divorced":10.2,"municipality":"Mascouche","id":"a68ekc90i70p","lat":45.746275,"province":"Quebec","long":-73.601103},"type":"Feature","geometry":{"type":"Point","coordinates":[-73.601103,45.746275]}},{"properties":{"divorced":10.9,"municipality":"Maskinonge","id":"a68ekc8gqmm5","lat":46.2282,"province":"Quebec","long":-73.016839},"type":"Feature","geometry":{"type":"Point","coordinates":[-73.016839,46.2282]}},{"properties":{"divorced":11.2,"municipality":"Matane","id":"a68ekclzn8r8","lat":48.845026,"province":"Quebec","long":-67.529427},"type":"Feature","geometry":{"type":"Point","coordinates":[-67.529427,48.845026]}},{"properties":{"divorced":11.0,"municipality":"Matane","id":"a68ekcdmhzc1","lat":48.845026,"province":"Quebec","long":-67.529427},"type":"Feature","geometry":{"type":"Point","coordinates":[-67.529427,48.845026]}},{"properties":{"divorced":13.4,"municipality":"Matawinie","id":"a68ekcl3qc5b","lat":46.869671,"province":"Quebec","long":-74.085907},"type":"Feature","geometry":{"type":"Point","coordinates":[-74.085907,46.869671]}},{"properties":{"divorced":5.9,"municipality":"McNab/Braeside","id":"a68ekccgqktj","lat":45.43973,"province":"Ontario","long":-76.506869},"type":"Feature","geometry":{"type":"Point","coordinates":[-76.506869,45.43973]}},{"properties":{"divorced":7.3,"municipality":"Meaford","id":"a68ekc75o5wi","lat":44.606655,"province":"Ontario","long":-80.592854},"type":"Feature","geometry":{"type":"Point","coordinates":[-80.592854,44.606655]}},{"properties":{"divorced":8.6,"municipality":"Medicine Hat","id":"a68ekcasvycm","lat":50.04107,"province":"Alberta","long":-110.678094},"type":"Feature","geometry":{"type":"Point","coordinates":[-110.678094,50.04107]}},{"properties":{"divorced":10.4,"municipality":"Mekinac","id":"a68ekc675y33","lat":47.051498,"province":"Quebec","long":-73.098679},"type":"Feature","geometry":{"type":"Point","coordinates":[-73.098679,47.051498]}},{"properties":{"divorced":13.8,"municipality":"Memphremagog","id":"a68ekc90lin6","lat":45.22678,"province":"Quebec","long":-72.175369},"type":"Feature","geometry":{"type":"Point","coordinates":[-72.175369,45.22678]}},{"properties":{"divorced":9.7,"municipality":"Mercier","id":"a68ekc823lmw","lat":45.311585,"province":"Quebec","long":-73.744819},"type":"Feature","geometry":{"type":"Point","coordinates":[-73.744819,45.311585]}},{"properties":{"divorced":10.6,"municipality":"Merritt","id":"a68ekc7ggz9m","lat":50.111565,"province":"British Columbia","long":-120.787364},"type":"Feature","geometry":{"type":"Point","coordinates":[-120.787364,50.111565]}},{"properties":{"divorced":7.5,"municipality":"Middlesex","id":"a68ekcforeut","lat":43.014687,"province":"Ontario","long":-81.50239},"type":"Feature","geometry":{"type":"Point","coordinates":[-81.50239,43.014687]}},{"properties":{"divorced":4.3,"municipality":"Middlesex Centre","id":"a68ekc83qg3w","lat":43.014687,"province":"Ontario","long":-81.50239},"type":"Feature","geometry":{"type":"Point","coordinates":[-81.50239,43.014687]}},{"properties":{"divorced":9.6,"municipality":"Midland","id":"a68ekcf5ggu3","lat":44.749905,"province":"Ontario","long":-79.888509},"type":"Feature","geometry":{"type":"Point","coordinates":[-79.888509,44.749905]}},{"properties":{"divorced":5.6,"municipality":"Milton","id":"a68ekcdio7r7","lat":43.511035,"province":"Ontario","long":-79.883889},"type":"Feature","geometry":{"type":"Point","coordinates":[-79.883889,43.511035]}},{"properties":{"divorced":3.7,"municipality":"Minganie--Basse-Cote-Nord","id":"a68ekcb2ldku","lat":50.365582,"province":"Quebec","long":-59.818642},"type":"Feature","geometry":{"type":"Point","coordinates":[-59.818642,50.365582]}},{"properties":{"divorced":4.9,"municipality":"Minto","id":"a68ekc9vbe2c","lat":43.935155,"province":"Ontario","long":-80.866179},"type":"Feature","geometry":{"type":"Point","coordinates":[-80.866179,43.935155]}},{"properties":{"divorced":10.6,"municipality":"Mirabel","id":"a68ekcglshqd","lat":45.663495,"province":"Quebec","long":-74.010459},"type":"Feature","geometry":{"type":"Point","coordinates":[-74.010459,45.663495]}},{"properties":{"divorced":10.6,"municipality":"Mirabel","id":"a68ekc68gd0v","lat":45.663495,"province":"Quebec","long":-74.010459},"type":"Feature","geometry":{"type":"Point","coordinates":[-74.010459,45.663495]}},{"properties":{"divorced":6.4,"municipality":"Miramichi","id":"a68ekcksn4rp","lat":47.001898,"province":"New Brunswick","long":-65.568245},"type":"Feature","geometry":{"type":"Point","coordinates":[-65.568245,47.001898]}},{"properties":{"divorced":8.4,"municipality":"Mission","id":"a68ekcblplrv","lat":49.159995,"province":"British Columbia","long":-122.282804},"type":"Feature","geometry":{"type":"Point","coordinates":[-122.282804,49.159995]}},{"properties":{"divorced":5.4,"municipality":"Mississauga","id":"a68ekcgth5fa","lat":43.588285,"province":"Ontario","long":-79.643724},"type":"Feature","geometry":{"type":"Point","coordinates":[-79.643724,43.588285]}},{"properties":{"divorced":7.0,"municipality":"Mississippi Mills","id":"a68ekcl5k78b","lat":45.21203,"province":"Ontario","long":-76.20593},"type":"Feature","geometry":{"type":"Point","coordinates":[-76.20593,45.21203]}},{"properties":{"divorced":6.3,"municipality":"Moncton","id":"a68ekckpofkf","lat":46.088365,"province":"New Brunswick","long":-64.778264},"type":"Feature","geometry":{"type":"Point","coordinates":[-64.778264,46.088365]}},{"properties":{"divorced":8.1,"municipality":"Moncton","id":"a68ekc7pv5gc","lat":46.088365,"province":"New Brunswick","long":-64.778264},"type":"Feature","geometry":{"type":"Point","coordinates":[-64.778264,46.088365]}},{"properties":{"divorced":6.1,"municipality":"Mono","id":"a68ekccga5vo","lat":44.008222,"province":"Ontario","long":-80.076628},"type":"Feature","geometry":{"type":"Point","coordinates":[-80.076628,44.008222]}},{"properties":{"divorced":11.1,"municipality":"Mont-Joli","id":"a68ekcja9nzw","lat":48.587945,"province":"Quebec","long":-68.191069},"type":"Feature","geometry":{"type":"Point","coordinates":[-68.191069,48.587945]}},{"properties":{"divorced":11.8,"municipality":"Mont-Laurier","id":"a68ekcftrrad","lat":46.552155,"province":"Quebec","long":-75.496484},"type":"Feature","geometry":{"type":"Point","coordinates":[-75.496484,46.552155]}},{"properties":{"divorced":6.7,"municipality":"Mont-Royal","id":"a68ekcf49m0n","lat":45.51333,"province":"Quebec","long":-73.642294},"type":"Feature","geometry":{"type":"Point","coordinates":[-73.642294,45.51333]}},{"properties":{"divorced":12.0,"municipality":"Mont-Saint-Hilaire","id":"a68ekcjixbc2","lat":45.564325,"province":"Quebec","long":-73.191109},"type":"Feature","geometry":{"type":"Point","coordinates":[-73.191109,45.564325]}},{"properties":{"divorced":12.0,"municipality":"Mont-Tremblant","id":"a68ekcich96m","lat":46.118338,"province":"Quebec","long":-74.601684},"type":"Feature","geometry":{"type":"Point","coordinates":[-74.601684,46.118338]}},{"properties":{"divorced":11.7,"municipality":"Montcalm","id":"a68ekc8dghos","lat":45.94476,"province":"Quebec","long":-74.547454},"type":"Feature","geometry":{"type":"Point","coordinates":[-74.547454,45.94476]}},{"properties":{"divorced":8.2,"municipality":"Montmagny","id":"a68ekcbmbyp5","lat":46.984965,"province":"Quebec","long":-70.553784},"type":"Feature","geometry":{"type":"Point","coordinates":[-70.553784,46.984965]}},{"properties":{"divorced":8.7,"municipality":"Montmagny","id":"a68ekckpz08w","lat":46.984965,"province":"Quebec","long":-70.553784},"type":"Feature","geometry":{"type":"Point","coordinates":[-70.553784,46.984965]}},{"properties":{"divorced":10.0,"municipality":"Montreal","id":"a68ekc9jrb4o","lat":45.512288,"province":"Quebec","long":-73.554392},"type":"Feature","geometry":{"type":"Point","coordinates":[-73.554392,45.512288]}},{"properties":{"divorced":8.8,"municipality":"Moose Jaw","id":"a68ekccrv9e7","lat":50.396885,"province":"Saskatchewan","long":-105.536084},"type":"Feature","geometry":{"type":"Point","coordinates":[-105.536084,50.396885]}},{"properties":{"divorced":5.0,"municipality":"Morden","id":"a68ekcbdp0bw","lat":49.192285,"province":"Manitoba","long":-98.113019},"type":"Feature","geometry":{"type":"Point","coordinates":[-98.113019,49.192285]}},{"properties":{"divorced":7.5,"municipality":"Morinville","id":"a68ekchbosbs","lat":53.80002,"province":"Alberta","long":-113.648209},"type":"Feature","geometry":{"type":"Point","coordinates":[-113.648209,53.80002]}},{"properties":{"divorced":6.9,"municipality":"Mount Pearl","id":"a68ekcczoaaz","lat":47.516405,"province":"Newfoundland","long":-52.819724},"type":"Feature","geometry":{"type":"Point","coordinates":[-52.819724,47.516405]}},{"properties":{"divorced":10.2,"municipality":"Mount Waddington","id":"a68ekceogwgf","lat":54.485668,"province":"British Columbia","long":-126.555511},"type":"Feature","geometry":{"type":"Point","coordinates":[-126.555511,54.485668]}},{"properties":{"divorced":7.2,"municipality":"Mountain View County","id":"a68ekce9i7ue","lat":51.56202,"province":"Alberta","long":-114.031944},"type":"Feature","geometry":{"type":"Point","coordinates":[-114.031944,51.56202]}},{"properties":{"divorced":8.2,"municipality":"Muskoka","id":"a68ekcfv2jtw","lat":45.116055,"province":"Ontario","long":-79.576724},"type":"Feature","geometry":{"type":"Point","coordinates":[-79.576724,45.116055]}},{"properties":{"divorced":8.2,"municipality":"Muskoka Lakes","id":"a68ekc9zg2xk","lat":45.116055,"province":"Ontario","long":-79.576724},"type":"Feature","geometry":{"type":"Point","coordinates":[-79.576724,45.116055]}},{"properties":{"divorced":10.4,"municipality":"Nanaimo","id":"a68ekcb51ag8","lat":49.164275,"province":"British Columbia","long":-123.936184},"type":"Feature","geometry":{"type":"Point","coordinates":[-123.936184,49.164275]}},{"properties":{"divorced":10.5,"municipality":"Nanaimo","id":"a68ekc6leo5t","lat":49.164275,"province":"British Columbia","long":-123.936184},"type":"Feature","geometry":{"type":"Point","coordinates":[-123.936184,49.164275]}},{"properties":{"divorced":10.5,"municipality":"Nanaimo A","id":"a68ekc6h57re","lat":49.164275,"province":"British Columbia","long":-123.936184},"type":"Feature","geometry":{"type":"Point","coordinates":[-123.936184,49.164275]}},{"properties":{"divorced":12.8,"municipality":"Nanaimo F","id":"a68ekcj88946","lat":49.164275,"province":"British Columbia","long":-123.936184},"type":"Feature","geometry":{"type":"Point","coordinates":[-123.936184,49.164275]}},{"properties":{"divorced":7.6,"municipality":"Nanaimo G","id":"a68ekc6wb635","lat":49.164275,"province":"British Columbia","long":-123.936184},"type":"Feature","geometry":{"type":"Point","coordinates":[-123.936184,49.164275]}},{"properties":{"divorced":10.8,"municipality":"Nelson","id":"a68ekcjumoxd","lat":49.49754,"province":"British Columbia","long":-117.288814},"type":"Feature","geometry":{"type":"Point","coordinates":[-117.288814,49.49754]}},{"properties":{"divorced":9.4,"municipality":"New Glasgow","id":"a68ekc5pq5zb","lat":45.591839,"province":"Nova Scotia","long":-62.643415},"type":"Feature","geometry":{"type":"Point","coordinates":[-62.643415,45.591839]}},{"properties":{"divorced":6.9,"municipality":"New Tecumseth","id":"a68ekc5ygtni","lat":44.15317,"province":"Ontario","long":-79.867704},"type":"Feature","geometry":{"type":"Point","coordinates":[-79.867704,44.15317]}},{"properties":{"divorced":10.6,"municipality":"New Westminster","id":"a68ekchb9wla","lat":49.206395,"province":"British Columbia","long":-122.909634},"type":"Feature","geometry":{"type":"Point","coordinates":[-122.909634,49.206395]}},{"properties":{"divorced":4.5,"municipality":"Newell County No. 4","id":"a68ekcgnvlvy","lat":50.572297,"province":"Alberta","long":-111.856663},"type":"Feature","geometry":{"type":"Point","coordinates":[-111.856663,50.572297]}},{"properties":{"divorced":6.5,"municipality":"Newmarket","id":"a68ekcaj850q","lat":44.04018,"province":"Ontario","long":-79.458574},"type":"Feature","geometry":{"type":"Point","coordinates":[-79.458574,44.04018]}},{"properties":{"divorced":7.6,"municipality":"Niagara","id":"a68ekcl5lo44","lat":43.10663,"province":"Ontario","long":-79.064239},"type":"Feature","geometry":{"type":"Point","coordinates":[-79.064239,43.10663]}},{"properties":{"divorced":8.5,"municipality":"Niagara Falls","id":"a68ekc9elt30","lat":43.10663,"province":"Ontario","long":-79.064239},"type":"Feature","geometry":{"type":"Point","coordinates":[-79.064239,43.10663]}},{"properties":{"divorced":5.1,"municipality":"Niagara-on-the-Lake","id":"a68ekc84j875","lat":43.255395,"province":"Ontario","long":-79.072124},"type":"Feature","geometry":{"type":"Point","coordinates":[-79.072124,43.255395]}},{"properties":{"divorced":10.8,"municipality":"Nicolet","id":"a68ekcdsn71a","lat":46.22855,"province":"Quebec","long":-72.616029},"type":"Feature","geometry":{"type":"Point","coordinates":[-72.616029,46.22855]}},{"properties":{"divorced":9.9,"municipality":"Nicolet-Yamaska","id":"a68ekc7l4pw8","lat":46.004325,"province":"Quebec","long":-72.915124},"type":"Feature","geometry":{"type":"Point","coordinates":[-72.915124,46.004325]}},{"properties":{"divorced":7.7,"municipality":"Nipissing","id":"a68ekce88oth","lat":46.098616,"province":"Ontario","long":-79.51442},"type":"Feature","geometry":{"type":"Point","coordinates":[-79.51442,46.098616]}},{"properties":{"divorced":5.5,"municipality":"Nord-du-Quebec","id":"a68ekc9eg5p9","lat":46.862583,"province":"Quebec","long":-71.353303},"type":"Feature","geometry":{"type":"Point","coordinates":[-71.353303,46.862583]}},{"properties":{"divorced":7.4,"municipality":"Norfolk County","id":"a68ekccl1hfs","lat":49.37706,"province":"Ontario","long":-84.749336},"type":"Feature","geometry":{"type":"Point","coordinates":[-84.749336,49.37706]}},{"properties":{"divorced":8.2,"municipality":"North Battleford","id":"a68ekcejvm4z","lat":52.77574,"province":"Saskatchewan","long":-108.299064},"type":"Feature","geometry":{"type":"Point","coordinates":[-108.299064,52.77574]}},{"properties":{"divorced":8.1,"municipality":"North Bay","id":"a68ekccxqd91","lat":46.30663,"province":"Ontario","long":-79.459929},"type":"Feature","geometry":{"type":"Point","coordinates":[-79.459929,46.30663]}},{"properties":{"divorced":10.1,"municipality":"North Cowichan","id":"a68ekcerpbxp","lat":48.823413,"province":"British Columbia","long":-123.719687},"type":"Feature","geometry":{"type":"Point","coordinates":[-123.719687,48.823413]}},{"properties":{"divorced":5.6,"municipality":"North Dumfries","id":"a68ekciq4p2i","lat":43.31676,"province":"Ontario","long":-80.355779},"type":"Feature","geometry":{"type":"Point","coordinates":[-80.355779,43.31676]}},{"properties":{"divorced":6.9,"municipality":"North Dundas","id":"a68ekcbdwwll","lat":45.083685,"province":"Ontario","long":-75.346639},"type":"Feature","geometry":{"type":"Point","coordinates":[-75.346639,45.083685]}},{"properties":{"divorced":6.7,"municipality":"North Glengarry","id":"a68ekccqoyj3","lat":45.30792,"province":"Ontario","long":-74.633969},"type":"Feature","geometry":{"type":"Point","coordinates":[-74.633969,45.30792]}},{"properties":{"divorced":6.8,"municipality":"North Grenville","id":"a68ekc9l0isr","lat":45.023435,"province":"Ontario","long":-75.654849},"type":"Feature","geometry":{"type":"Point","coordinates":[-75.654849,45.023435]}},{"properties":{"divorced":4.3,"municipality":"North Middlesex","id":"a68ekcjolh5v","lat":43.16289,"province":"Ontario","long":-81.683989},"type":"Feature","geometry":{"type":"Point","coordinates":[-81.683989,43.16289]}},{"properties":{"divorced":10.2,"municipality":"North Okanagan","id":"a68ekclhodqd","lat":49.344385,"province":"British Columbia","long":-119.571519},"type":"Feature","geometry":{"type":"Point","coordinates":[-119.571519,49.344385]}},{"properties":{"divorced":4.4,"municipality":"North Perth","id":"a68ekcbpgw87","lat":43.733955,"province":"Ontario","long":-80.951269},"type":"Feature","geometry":{"type":"Point","coordinates":[-80.951269,43.733955]}},{"properties":{"divorced":6.6,"municipality":"North Saanich","id":"a68ekc9yha2o","lat":48.6554,"province":"British Columbia","long":-123.433089},"type":"Feature","geometry":{"type":"Point","coordinates":[-123.433089,48.6554]}},{"properties":{"divorced":5.8,"municipality":"North Stormont","id":"a68ekck5u99w","lat":45.17544,"province":"Ontario","long":-75.109614},"type":"Feature","geometry":{"type":"Point","coordinates":[-75.109614,45.17544]}},{"properties":{"divorced":6.8,"municipality":"North Vancouver","id":"a68ekc63k645","lat":49.321065,"province":"British Columbia","long":-123.074159},"type":"Feature","geometry":{"type":"Point","coordinates":[-123.074159,49.321065]}},{"properties":{"divorced":11.1,"municipality":"North Vancouver","id":"a68ekc71lqnk","lat":49.321065,"province":"British Columbia","long":-123.074159},"type":"Feature","geometry":{"type":"Point","coordinates":[-123.074159,49.321065]}},{"properties":{"divorced":5.6,"municipality":"Northumberland","id":"a68ekcf6elyu","lat":46.943569,"province":"New Brunswick","long":-65.714668},"type":"Feature","geometry":{"type":"Point","coordinates":[-65.714668,46.943569]}},{"properties":{"divorced":7.8,"municipality":"Northumberland","id":"a68ekcdkp61o","lat":44.023521,"province":"Ontario","long":-78.014603},"type":"Feature","geometry":{"type":"Point","coordinates":[-78.014603,44.023521]}},{"properties":{"divorced":5.0,"municipality":"Norwich","id":"a68ekc7v31gl","lat":42.987685,"province":"Ontario","long":-80.596944},"type":"Feature","geometry":{"type":"Point","coordinates":[-80.596944,42.987685]}},{"properties":{"divorced":9.8,"municipality":"Notre-Dame-de-l'Ile-Perrot","id":"a68ekcd0esn4","lat":45.349705,"province":"Quebec","long":-73.902282},"type":"Feature","geometry":{"type":"Point","coordinates":[-73.902282,45.349705]}},{"properties":{"divorced":13.5,"municipality":"Notre-Dame-des-Prairies","id":"a68ekca5fvna","lat":46.050815,"province":"Quebec","long":-73.430309},"type":"Feature","geometry":{"type":"Point","coordinates":[-73.430309,46.050815]}},{"properties":{"divorced":8.4,"municipality":"Oak Bay","id":"a68ekce7s2af","lat":48.426475,"province":"British Columbia","long":-123.317429},"type":"Feature","geometry":{"type":"Point","coordinates":[-123.317429,48.426475]}},{"properties":{"divorced":5.4,"municipality":"Oakville","id":"a68ekcm3b5zd","lat":43.466175,"province":"Ontario","long":-79.689584},"type":"Feature","geometry":{"type":"Point","coordinates":[-79.689584,43.466175]}},{"properties":{"divorced":10.2,"municipality":"Okanagan-Similkameen","id":"a68ekcdxkbwu","lat":49.891609,"province":"British Columbia","long":-120.331266},"type":"Feature","geometry":{"type":"Point","coordinates":[-120.331266,49.891609]}},{"properties":{"divorced":8.2,"municipality":"Okanagan-Similkameen D","id":"a68ekcetf45z","lat":49.455841,"province":"British Columbia","long":-120.138779},"type":"Feature","geometry":{"type":"Point","coordinates":[-120.138779,49.455841]}},{"properties":{"divorced":7.2,"municipality":"Okotoks","id":"a68ekcigiy9w","lat":50.72589,"province":"Alberta","long":-113.974939},"type":"Feature","geometry":{"type":"Point","coordinates":[-113.974939,50.72589]}},{"properties":{"divorced":7.3,"municipality":"Olds","id":"a68ekclyazzi","lat":51.791625,"province":"Alberta","long":-114.110609},"type":"Feature","geometry":{"type":"Point","coordinates":[-114.110609,51.791625]}},{"properties":{"divorced":7.8,"municipality":"Orangeville","id":"a68ekc71oh8j","lat":43.920115,"province":"Ontario","long":-80.093489},"type":"Feature","geometry":{"type":"Point","coordinates":[-80.093489,43.920115]}},{"properties":{"divorced":9.6,"municipality":"Orillia","id":"a68ekc8v7h0e","lat":44.60659,"province":"Ontario","long":-79.418229},"type":"Feature","geometry":{"type":"Point","coordinates":[-79.418229,44.60659]}},{"properties":{"divorced":6.7,"municipality":"Oro-Medonte","id":"a68ekcbdvlj1","lat":44.469118,"province":"Ontario","long":-79.525993},"type":"Feature","geometry":{"type":"Point","coordinates":[-79.525993,44.469118]}},{"properties":{"divorced":5.6,"municipality":"Oromocto","id":"a68ekcks7b6c","lat":45.842858,"province":"New Brunswick","long":-66.479944},"type":"Feature","geometry":{"type":"Point","coordinates":[-66.479944,45.842858]}},{"properties":{"divorced":9.1,"municipality":"Oshawa","id":"a68ekc9bec5a","lat":43.88868,"province":"Ontario","long":-78.859504},"type":"Feature","geometry":{"type":"Point","coordinates":[-78.859504,43.88868]}},{"properties":{"divorced":6.8,"municipality":"Otonabee-South Monaghan","id":"a68ekcbrhg5z","lat":44.238823,"province":"Ontario","long":-78.161118},"type":"Feature","geometry":{"type":"Point","coordinates":[-78.161118,44.238823]}},{"properties":{"divorced":7.3,"municipality":"Ottawa","id":"a68ekciexgz8","lat":45.4215,"province":"Ontario","long":-75.691894},"type":"Feature","geometry":{"type":"Point","coordinates":[-75.691894,45.4215]}},{"properties":{"divorced":7.3,"municipality":"Ottawa","id":"a68ekcgqoyha","lat":45.4215,"province":"Ontario","long":-75.691894},"type":"Feature","geometry":{"type":"Point","coordinates":[-75.691894,45.4215]}},{"properties":{"divorced":11.3,"municipality":"Otterburn Park","id":"a68ekcdzegeh","lat":45.54226,"province":"Quebec","long":-73.216039},"type":"Feature","geometry":{"type":"Point","coordinates":[-73.216039,45.54226]}},{"properties":{"divorced":9.0,"municipality":"Owen Sound","id":"a68ekcg4zuws","lat":44.564875,"province":"Ontario","long":-80.942604},"type":"Feature","geometry":{"type":"Point","coordinates":[-80.942604,44.564875]}},{"properties":{"divorced":7.0,"municipality":"Oxford","id":"a68ekcjudw8x","lat":43.088669,"province":"Ontario","long":-80.784332},"type":"Feature","geometry":{"type":"Point","coordinates":[-80.784332,43.088669]}},{"properties":{"divorced":12.1,"municipality":"Papineau","id":"a68ekcbzmpzs","lat":45.617235,"province":"Quebec","long":-75.017584},"type":"Feature","geometry":{"type":"Point","coordinates":[-75.017584,45.617235]}},{"properties":{"divorced":5.0,"municipality":"Paradise","id":"a68ekcl9cwk8","lat":47.526885,"province":"Newfoundland","long":-52.886473},"type":"Feature","geometry":{"type":"Point","coordinates":[-52.886473,47.526885]}},{"properties":{"divorced":6.9,"municipality":"Parkland County","id":"a68ekc9oosyc","lat":53.560398,"province":"Alberta","long":-114.00198},"type":"Feature","geometry":{"type":"Point","coordinates":[-114.00198,53.560398]}},{"properties":{"divorced":11.3,"municipality":"Parksville","id":"a68ekcbvhwmt","lat":49.31969,"province":"British Columbia","long":-124.313644},"type":"Feature","geometry":{"type":"Point","coordinates":[-124.313644,49.31969]}},{"properties":{"divorced":8.0,"municipality":"Parry Sound","id":"a68ekcjvgk7f","lat":45.343642,"province":"Ontario","long":-80.03576},"type":"Feature","geometry":{"type":"Point","coordinates":[-80.03576,45.343642]}},{"properties":{"divorced":7.4,"municipality":"Peace River","id":"a68ekclxod41","lat":55.90995,"province":"British Columbia","long":-121.833992},"type":"Feature","geometry":{"type":"Point","coordinates":[-121.833992,55.90995]}},{"properties":{"divorced":7.7,"municipality":"Peace River","id":"a68ekces8n27","lat":56.23297,"province":"Alberta","long":-117.290384},"type":"Feature","geometry":{"type":"Point","coordinates":[-117.290384,56.23297]}},{"properties":{"divorced":5.4,"municipality":"Peel","id":"a68ekcgibzt5","lat":43.677391,"province":"Ontario","long":-79.775146},"type":"Feature","geometry":{"type":"Point","coordinates":[-79.775146,43.677391]}},{"properties":{"divorced":4.8,"municipality":"Pelham","id":"a68ekc8qcjg3","lat":43.044096,"province":"Ontario","long":-79.28182},"type":"Feature","geometry":{"type":"Point","coordinates":[-79.28182,43.044096]}},{"properties":{"divorced":8.6,"municipality":"Pembroke","id":"a68ekcf6ndho","lat":45.826481,"province":"Ontario","long":-77.11221},"type":"Feature","geometry":{"type":"Point","coordinates":[-77.11221,45.826481]}},{"properties":{"divorced":8.0,"municipality":"Penetanguishene","id":"a68ekc9snxri","lat":44.76812,"province":"Ontario","long":-79.935359},"type":"Feature","geometry":{"type":"Point","coordinates":[-79.935359,44.76812]}},{"properties":{"divorced":11.6,"municipality":"Penticton","id":"a68ekcep9qi8","lat":49.50023,"province":"British Columbia","long":-119.593859},"type":"Feature","geometry":{"type":"Point","coordinates":[-119.593859,49.50023]}},{"properties":{"divorced":6.0,"municipality":"Perth","id":"a68ekcl4qr2s","lat":44.898945,"province":"Ontario","long":-76.248329},"type":"Feature","geometry":{"type":"Point","coordinates":[-76.248329,44.898945]}},{"properties":{"divorced":9.2,"municipality":"Perth","id":"a68ekc71lgiy","lat":44.898945,"province":"Ontario","long":-76.248329},"type":"Feature","geometry":{"type":"Point","coordinates":[-76.248329,44.898945]}},{"properties":{"divorced":3.5,"municipality":"Perth East","id":"a68ekcjlcoao","lat":43.5645,"province":"Ontario","long":-80.918819},"type":"Feature","geometry":{"type":"Point","coordinates":[-80.918819,43.5645]}},{"properties":{"divorced":6.7,"municipality":"Petawawa","id":"a68ekck6658y","lat":45.899235,"province":"Ontario","long":-77.283209},"type":"Feature","geometry":{"type":"Point","coordinates":[-77.283209,45.899235]}},{"properties":{"divorced":8.3,"municipality":"Peterborough","id":"a68ekcb4nv45","lat":44.30073,"province":"Ontario","long":-78.321309},"type":"Feature","geometry":{"type":"Point","coordinates":[-78.321309,44.30073]}},{"properties":{"divorced":7.7,"municipality":"Peterborough","id":"a68ekc78ycco","lat":44.30073,"province":"Ontario","long":-78.321309},"type":"Feature","geometry":{"type":"Point","coordinates":[-78.321309,44.30073]}},{"properties":{"divorced":6.4,"municipality":"Pickering","id":"a68ekclqegmc","lat":43.83762,"province":"Ontario","long":-79.082314},"type":"Feature","geometry":{"type":"Point","coordinates":[-79.082314,43.83762]}},{"properties":{"divorced":8.2,"municipality":"Pictou","id":"a68ekc97ytf3","lat":45.67818,"province":"Nova Scotia","long":-62.707074},"type":"Feature","geometry":{"type":"Point","coordinates":[-62.707074,45.67818]}},{"properties":{"divorced":10.1,"municipality":"Pincourt","id":"a68ekc97fjky","lat":45.357135,"province":"Quebec","long":-73.982789},"type":"Feature","geometry":{"type":"Point","coordinates":[-73.982789,45.357135]}},{"properties":{"divorced":7.8,"municipality":"Pitt Meadows","id":"a68ekcbad7bm","lat":49.22072,"province":"British Columbia","long":-122.689584},"type":"Feature","geometry":{"type":"Point","coordinates":[-122.689584,49.22072]}},{"properties":{"divorced":10.2,"municipality":"Plessisville","id":"a68ekcldsprh","lat":46.214895,"province":"Quebec","long":-71.765444},"type":"Feature","geometry":{"type":"Point","coordinates":[-71.765444,46.214895]}},{"properties":{"divorced":4.5,"municipality":"Plympton-Wyoming","id":"a68ekc5q148z","lat":42.949785,"province":"Ontario","long":-82.119689},"type":"Feature","geometry":{"type":"Point","coordinates":[-82.119689,42.949785]}},{"properties":{"divorced":11.8,"municipality":"Pointe-Calumet","id":"a68ekc87kz9x","lat":45.499995,"province":"Quebec","long":-73.967869},"type":"Feature","geometry":{"type":"Point","coordinates":[-73.967869,45.499995]}},{"properties":{"divorced":8.9,"municipality":"Pointe-Claire","id":"a68ekcbfs92i","lat":45.448025,"province":"Quebec","long":-73.817314},"type":"Feature","geometry":{"type":"Point","coordinates":[-73.817314,45.448025]}},{"properties":{"divorced":9.9,"municipality":"Ponoka","id":"a68ekci4lvxf","lat":52.6748,"province":"Alberta","long":-113.593253},"type":"Feature","geometry":{"type":"Point","coordinates":[-113.593253,52.6748]}},{"properties":{"divorced":6.2,"municipality":"Ponoka County","id":"a68ekc5yeja6","lat":52.67616,"province":"Alberta","long":-113.652824},"type":"Feature","geometry":{"type":"Point","coordinates":[-113.652824,52.67616]}},{"properties":{"divorced":9.5,"municipality":"Pont-Rouge","id":"a68ekcf72k5w","lat":46.75568,"province":"Quebec","long":-71.693904},"type":"Feature","geometry":{"type":"Point","coordinates":[-71.693904,46.75568]}},{"properties":{"divorced":8.2,"municipality":"Pontiac","id":"a68ekc8sxbgp","lat":45.556957,"province":"Quebec","long":-76.131329},"type":"Feature","geometry":{"type":"Point","coordinates":[-76.131329,45.556957]}},{"properties":{"divorced":10.7,"municipality":"Port Alberni","id":"a68ekc5qsnha","lat":49.233985,"province":"British Columbia","long":-124.807574},"type":"Feature","geometry":{"type":"Point","coordinates":[-124.807574,49.233985]}},{"properties":{"divorced":7.9,"municipality":"Port Colborne","id":"a68ekc9gf7ly","lat":42.88509,"province":"Ontario","long":-79.251984},"type":"Feature","geometry":{"type":"Point","coordinates":[-79.251984,42.88509]}},{"properties":{"divorced":7.6,"municipality":"Port Coquitlam","id":"a68ekcfvcnhp","lat":49.262435,"province":"British Columbia","long":-122.781529},"type":"Feature","geometry":{"type":"Point","coordinates":[-122.781529,49.262435]}},{"properties":{"divorced":7.7,"municipality":"Port Hope","id":"a68ekcipjwsz","lat":43.95012,"province":"Ontario","long":-78.291609},"type":"Feature","geometry":{"type":"Point","coordinates":[-78.291609,43.95012]}},{"properties":{"divorced":7.2,"municipality":"Port Moody","id":"a68ekca51nq4","lat":49.28242,"province":"British Columbia","long":-122.829343},"type":"Feature","geometry":{"type":"Point","coordinates":[-122.829343,49.28242]}},{"properties":{"divorced":8.5,"municipality":"Port-Cartier","id":"a68ekcakgsi8","lat":50.02713,"province":"Quebec","long":-66.889539},"type":"Feature","geometry":{"type":"Point","coordinates":[-66.889539,50.02713]}},{"properties":{"divorced":8.4,"municipality":"Portage la Prairie","id":"a68ekc9ph0be","lat":49.973085,"province":"Manitoba","long":-98.290564},"type":"Feature","geometry":{"type":"Point","coordinates":[-98.290564,49.973085]}},{"properties":{"divorced":4.2,"municipality":"Portage la Prairie","id":"a68ekckkjh25","lat":49.973085,"province":"Manitoba","long":-98.290564},"type":"Feature","geometry":{"type":"Point","coordinates":[-98.290564,49.973085]}},{"properties":{"divorced":10.0,"municipality":"Portneuf","id":"a68ekcjyurnt","lat":46.691831,"province":"Quebec","long":-71.891309},"type":"Feature","geometry":{"type":"Point","coordinates":[-71.891309,46.691831]}},{"properties":{"divorced":5.6,"municipality":"Portugal Cove-St. Philip's","id":"a68ekcgvaupf","lat":47.599208,"province":"Newfoundland","long":-52.879561},"type":"Feature","geometry":{"type":"Point","coordinates":[-52.879561,47.599208]}},{"properties":{"divorced":10.8,"municipality":"Powell River","id":"a68ekc8vrilo","lat":49.83589,"province":"British Columbia","long":-124.523809},"type":"Feature","geometry":{"type":"Point","coordinates":[-124.523809,49.83589]}},{"properties":{"divorced":9.9,"municipality":"Powell River","id":"a68ekci0tcwu","lat":49.83589,"province":"British Columbia","long":-124.523809},"type":"Feature","geometry":{"type":"Point","coordinates":[-124.523809,49.83589]}},{"properties":{"divorced":7.3,"municipality":"Prescott and Russell","id":"a68ekcccrznp","lat":45.258115,"province":"Ontario","long":-75.358794},"type":"Feature","geometry":{"type":"Point","coordinates":[-75.358794,45.258115]}},{"properties":{"divorced":13.1,"municipality":"Prevost","id":"a68ekc949o4f","lat":45.85729,"province":"Quebec","long":-74.069149},"type":"Feature","geometry":{"type":"Point","coordinates":[-74.069149,45.85729]}},{"properties":{"divorced":6.3,"municipality":"Prince","id":"a68ekciifaf9","lat":46.62991,"province":"Prince Edward Island","long":-63.955009},"type":"Feature","geometry":{"type":"Point","coordinates":[-63.955009,46.62991]}},{"properties":{"divorced":8.2,"municipality":"Prince Albert","id":"a68ekcan6qi0","lat":53.19945,"province":"Saskatchewan","long":-105.745819},"type":"Feature","geometry":{"type":"Point","coordinates":[-105.745819,53.19945]}},{"properties":{"divorced":7.6,"municipality":"Prince Edward","id":"a68ekcjievet","lat":43.981407,"province":"Ontario","long":-77.252383},"type":"Feature","geometry":{"type":"Point","coordinates":[-77.252383,43.981407]}},{"properties":{"divorced":7.6,"municipality":"Prince Edward","id":"a68ekc920qip","lat":43.981407,"province":"Ontario","long":-77.252383},"type":"Feature","geometry":{"type":"Point","coordinates":[-77.252383,43.981407]}},{"properties":{"divorced":8.5,"municipality":"Prince George","id":"a68ekcivsgn5","lat":53.91235,"province":"British Columbia","long":-122.745089},"type":"Feature","geometry":{"type":"Point","coordinates":[-122.745089,53.91235]}},{"properties":{"divorced":7.4,"municipality":"Prince Rupert","id":"a68ekc6wk35q","lat":54.31304,"province":"British Columbia","long":-130.326244},"type":"Feature","geometry":{"type":"Point","coordinates":[-130.326244,54.31304]}},{"properties":{"divorced":6.4,"municipality":"Puslinch","id":"a68ekcemykh9","lat":43.467278,"province":"Ontario","long":-80.162614},"type":"Feature","geometry":{"type":"Point","coordinates":[-80.162614,43.467278]}},{"properties":{"divorced":8.3,"municipality":"Qualicum Beach","id":"a68ekcivlllw","lat":49.346705,"province":"British Columbia","long":-124.441704},"type":"Feature","geometry":{"type":"Point","coordinates":[-124.441704,49.346705]}},{"properties":{"divorced":11.0,"municipality":"Quebec","id":"a68ekcclzwru","lat":46.812749,"province":"Quebec","long":-71.219359},"type":"Feature","geometry":{"type":"Point","coordinates":[-71.219359,46.812749]}},{"properties":{"divorced":11.2,"municipality":"Quebec","id":"a68ekc8bvpei","lat":46.812749,"province":"Quebec","long":-71.219359},"type":"Feature","geometry":{"type":"Point","coordinates":[-71.219359,46.812749]}},{"properties":{"divorced":7.0,"municipality":"Queens","id":"a68ekcbz4zt0","lat":44.050605,"province":"Nova Scotia","long":-64.735144},"type":"Feature","geometry":{"type":"Point","coordinates":[-64.735144,44.050605]}},{"properties":{"divorced":7.0,"municipality":"Queens","id":"a68ekckdzsl6","lat":44.050605,"province":"Nova Scotia","long":-64.735144},"type":"Feature","geometry":{"type":"Point","coordinates":[-64.735144,44.050605]}},{"properties":{"divorced":6.6,"municipality":"Queens","id":"a68ekcfm51e8","lat":46.254101,"province":"Prince Edward Island","long":-63.14463},"type":"Feature","geometry":{"type":"Point","coordinates":[-63.14463,46.254101]}},{"properties":{"divorced":6.9,"municipality":"Queens","id":"a68ekc8zcnjl","lat":46.08316,"province":"New Brunswick","long":-67.111044},"type":"Feature","geometry":{"type":"Point","coordinates":[-67.111044,46.08316]}},{"properties":{"divorced":10.0,"municipality":"Quesnel","id":"a68ekcahwjp0","lat":52.97812,"province":"British Columbia","long":-122.498244},"type":"Feature","geometry":{"type":"Point","coordinates":[-122.498244,52.97812]}},{"properties":{"divorced":8.1,"municipality":"Quinte West","id":"a68ekcevwcq8","lat":44.06873,"province":"Ontario","long":-77.601519},"type":"Feature","geometry":{"type":"Point","coordinates":[-77.601519,44.06873]}},{"properties":{"divorced":4.7,"municipality":"Quispamsis","id":"a68ekc9c5s9l","lat":45.41327,"province":"New Brunswick","long":-65.957819},"type":"Feature","geometry":{"type":"Point","coordinates":[-65.957819,45.41327]}},{"properties":{"divorced":6.5,"municipality":"Rainy River","id":"a68ekcetiwsn","lat":48.722195,"province":"Ontario","long":-94.561229},"type":"Feature","geometry":{"type":"Point","coordinates":[-94.561229,48.722195]}},{"properties":{"divorced":8.6,"municipality":"Ramara","id":"a68ekc740g3d","lat":44.547565,"province":"Ontario","long":-79.176774},"type":"Feature","geometry":{"type":"Point","coordinates":[-79.176774,44.547565]}},{"properties":{"divorced":13.3,"municipality":"Rawdon","id":"a68ekcjmjgwj","lat":46.04261,"province":"Quebec","long":-73.707369},"type":"Feature","geometry":{"type":"Point","coordinates":[-73.707369,46.04261]}},{"properties":{"divorced":8.8,"municipality":"Red Deer","id":"a68ekc64a7cn","lat":52.268535,"province":"Alberta","long":-113.809009},"type":"Feature","geometry":{"type":"Point","coordinates":[-113.809009,52.268535]}},{"properties":{"divorced":6.7,"municipality":"Red Deer County","id":"a68ekcdh4ht0","lat":52.285345,"province":"Alberta","long":-113.870484},"type":"Feature","geometry":{"type":"Point","coordinates":[-113.870484,52.285345]}},{"properties":{"divorced":7.9,"municipality":"Regina","id":"a68ekc648w48","lat":50.448015,"province":"Saskatchewan","long":-104.595179},"type":"Feature","geometry":{"type":"Point","coordinates":[-104.595179,50.448015]}},{"properties":{"divorced":7.0,"municipality":"Renfrew","id":"a68ekccyfqua","lat":45.47418,"province":"Ontario","long":-76.686949},"type":"Feature","geometry":{"type":"Point","coordinates":[-76.686949,45.47418]}},{"properties":{"divorced":9.2,"municipality":"Renfrew","id":"a68ekcjyndhl","lat":45.47418,"province":"Ontario","long":-76.686949},"type":"Feature","geometry":{"type":"Point","coordinates":[-76.686949,45.47418]}},{"properties":{"divorced":11.2,"municipality":"Repentigny","id":"a68ekcd74z2j","lat":45.74138,"province":"Quebec","long":-73.451054},"type":"Feature","geometry":{"type":"Point","coordinates":[-73.451054,45.74138]}},{"properties":{"divorced":6.4,"municipality":"Restigouche","id":"a68ekchmb85z","lat":47.726109,"province":"New Brunswick","long":-67.088509},"type":"Feature","geometry":{"type":"Point","coordinates":[-67.088509,47.726109]}},{"properties":{"divorced":9.2,"municipality":"Revelstoke","id":"a68ekccl7kqy","lat":51.010146,"province":"British Columbia","long":-118.214476},"type":"Feature","geometry":{"type":"Point","coordinates":[-118.214476,51.010146]}},{"properties":{"divorced":5.9,"municipality":"Richmond","id":"a68ekcisdrhb","lat":45.655934,"province":"Nova Scotia","long":-60.865602},"type":"Feature","geometry":{"type":"Point","coordinates":[-60.865602,45.655934]}},{"properties":{"divorced":6.2,"municipality":"Richmond","id":"a68ekclvphao","lat":49.16337,"province":"British Columbia","long":-123.136624},"type":"Feature","geometry":{"type":"Point","coordinates":[-123.136624,49.16337]}},{"properties":{"divorced":4.7,"municipality":"Richmond Hill","id":"a68ekcbmcjfg","lat":43.847274,"province":"Ontario","long":-79.378563},"type":"Feature","geometry":{"type":"Point","coordinates":[-79.378563,43.847274]}},{"properties":{"divorced":7.9,"municipality":"Rideau Lakes","id":"a68ekce2238z","lat":44.672315,"province":"Ontario","long":-76.107071},"type":"Feature","geometry":{"type":"Point","coordinates":[-76.107071,44.672315]}},{"properties":{"divorced":11.6,"municipality":"Rigaud","id":"a68ekchy4r1n","lat":45.479305,"province":"Quebec","long":-74.298219},"type":"Feature","geometry":{"type":"Point","coordinates":[-74.298219,45.479305]}},{"properties":{"divorced":10.7,"municipality":"Rimouski","id":"a68ekc68xc2y","lat":48.449295,"province":"Quebec","long":-68.524669},"type":"Feature","geometry":{"type":"Point","coordinates":[-68.524669,48.449295]}},{"properties":{"divorced":10.4,"municipality":"Rimouski-Neigette","id":"a68ekc8cw42m","lat":48.26305,"province":"Quebec","long":-68.532761},"type":"Feature","geometry":{"type":"Point","coordinates":[-68.532761,48.26305]}},{"properties":{"divorced":6.6,"municipality":"Riverview","id":"a68ekcei67ut","lat":46.057098,"province":"New Brunswick","long":-64.800097},"type":"Feature","geometry":{"type":"Point","coordinates":[-64.800097,46.057098]}},{"properties":{"divorced":9.7,"municipality":"Riviere-du-Loup","id":"a68ekc7rsje0","lat":47.835065,"province":"Quebec","long":-69.537017},"type":"Feature","geometry":{"type":"Point","coordinates":[-69.537017,47.835065]}},{"properties":{"divorced":8.9,"municipality":"Riviere-du-Loup","id":"a68ekcelm06s","lat":47.835065,"province":"Quebec","long":-69.537017},"type":"Feature","geometry":{"type":"Point","coordinates":[-69.537017,47.835065]}},{"properties":{"divorced":7.9,"municipality":"Robert-Cliche","id":"a68ekc7ale3u","lat":46.24366,"province":"Quebec","long":-70.85199},"type":"Feature","geometry":{"type":"Point","coordinates":[-70.85199,46.24366]}},{"properties":{"divorced":9.5,"municipality":"Roberval","id":"a68ekcj6vfng","lat":48.515261,"province":"Quebec","long":-72.224456},"type":"Feature","geometry":{"type":"Point","coordinates":[-72.224456,48.515261]}},{"properties":{"divorced":5.6,"municipality":"Rockwood","id":"a68ekccjqnov","lat":50.26353,"province":"Manitoba","long":-97.2526},"type":"Feature","geometry":{"type":"Point","coordinates":[-97.2526,50.26353]}},{"properties":{"divorced":8.5,"municipality":"Rocky Mountain House","id":"a68ekc8gj88u","lat":52.37759,"province":"Alberta","long":-114.931237},"type":"Feature","geometry":{"type":"Point","coordinates":[-114.931237,52.37759]}},{"properties":{"divorced":5.1,"municipality":"Rocky View No. 44","id":"a68ekclojdnb","lat":51.09379,"province":"Alberta","long":-114.301693},"type":"Feature","geometry":{"type":"Point","coordinates":[-114.301693,51.09379]}},{"properties":{"divorced":10.4,"municipality":"Rosemere","id":"a68ekchg0h4o","lat":45.636255,"province":"Quebec","long":-73.781754},"type":"Feature","geometry":{"type":"Point","coordinates":[-73.781754,45.636255]}},{"properties":{"divorced":5.9,"municipality":"Rothesay","id":"a68ekck58fgq","lat":45.39427,"province":"New Brunswick","long":-65.986159},"type":"Feature","geometry":{"type":"Point","coordinates":[-65.986159,45.39427]}},{"properties":{"divorced":10.4,"municipality":"Roussillon","id":"a68ekce5de0c","lat":45.33363,"province":"Quebec","long":-73.616371},"type":"Feature","geometry":{"type":"Point","coordinates":[-73.616371,45.33363]}},{"properties":{"divorced":11.6,"municipality":"Rouville","id":"a68ekcbc5xoo","lat":45.399212,"province":"Quebec","long":-73.050484},"type":"Feature","geometry":{"type":"Point","coordinates":[-73.050484,45.399212]}},{"properties":{"divorced":10.3,"municipality":"Rouyn-Noranda","id":"a68ekc9ig9oj","lat":48.237075,"province":"Quebec","long":-79.014509},"type":"Feature","geometry":{"type":"Point","coordinates":[-79.014509,48.237075]}},{"properties":{"divorced":10.3,"municipality":"Rouyn-Noranda","id":"a68ekc85s74v","lat":48.237075,"province":"Quebec","long":-79.014509},"type":"Feature","geometry":{"type":"Point","coordinates":[-79.014509,48.237075]}},{"properties":{"divorced":5.9,"municipality":"Russell","id":"a68ekch2y7ek","lat":45.258115,"province":"Ontario","long":-75.358794},"type":"Feature","geometry":{"type":"Point","coordinates":[-75.358794,45.258115]}},{"properties":{"divorced":8.3,"municipality":"Saanich","id":"a68ekc6djlcy","lat":48.458885,"province":"British Columbia","long":-123.376629},"type":"Feature","geometry":{"type":"Point","coordinates":[-123.376629,48.458885]}},{"properties":{"divorced":10.9,"municipality":"Saguenay","id":"a68ekcitakr5","lat":48.428944,"province":"Quebec","long":-71.061394},"type":"Feature","geometry":{"type":"Point","coordinates":[-71.061394,48.428944]}},{"properties":{"divorced":8.5,"municipality":"Saint John","id":"a68ekcewohai","lat":45.273429,"province":"New Brunswick","long":-66.064124},"type":"Feature","geometry":{"type":"Point","coordinates":[-66.064124,45.273429]}},{"properties":{"divorced":8.3,"municipality":"Saint John","id":"a68ekcjljx33","lat":45.273429,"province":"New Brunswick","long":-66.064124},"type":"Feature","geometry":{"type":"Point","coordinates":[-66.064124,45.273429]}},{"properties":{"divorced":8.6,"municipality":"Saint-Amable","id":"a68ekc9tfk3r","lat":45.65586,"province":"Quebec","long":-73.300179},"type":"Feature","geometry":{"type":"Point","coordinates":[-73.300179,45.65586]}},{"properties":{"divorced":8.3,"municipality":"Saint-Augustin-de-Desmaures","id":"a68ekcm5u4y5","lat":46.749175,"province":"Quebec","long":-71.384724},"type":"Feature","geometry":{"type":"Point","coordinates":[-71.384724,46.749175]}},{"properties":{"divorced":10.8,"municipality":"Saint-Basile-le-Grand","id":"a68ekcexdlp0","lat":45.52664,"province":"Quebec","long":-73.287374},"type":"Feature","geometry":{"type":"Point","coordinates":[-73.287374,45.52664]}},{"properties":{"divorced":10.1,"municipality":"Saint-Bruno-de-Montarville","id":"a68ekci3lls7","lat":45.52615,"province":"Quebec","long":-73.340299},"type":"Feature","geometry":{"type":"Point","coordinates":[-73.340299,45.52615]}},{"properties":{"divorced":12.2,"municipality":"Saint-Charles-Borromee","id":"a68ekcb74tzk","lat":46.050675,"province":"Quebec","long":-73.467074},"type":"Feature","geometry":{"type":"Point","coordinates":[-73.467074,46.050675]}},{"properties":{"divorced":12.7,"municipality":"Saint-Colomban","id":"a68ekcifszch","lat":45.738978,"province":"Quebec","long":-74.136829},"type":"Feature","geometry":{"type":"Point","coordinates":[-74.136829,45.738978]}},{"properties":{"divorced":9.5,"municipality":"Saint-Constant","id":"a68ekcbe1o23","lat":45.371036,"province":"Quebec","long":-73.570997},"type":"Feature","geometry":{"type":"Point","coordinates":[-73.570997,45.371036]}},{"properties":{"divorced":11.8,"municipality":"Saint-Eustache","id":"a68ekca31hpd","lat":45.55805,"province":"Quebec","long":-73.888899},"type":"Feature","geometry":{"type":"Point","coordinates":[-73.888899,45.55805]}},{"properties":{"divorced":10.0,"municipality":"Saint-Felicien","id":"a68ekcciuea7","lat":48.65755,"province":"Quebec","long":-72.450664},"type":"Feature","geometry":{"type":"Point","coordinates":[-72.450664,48.65755]}},{"properties":{"divorced":11.6,"municipality":"Saint-Georges","id":"a68ekcjwfo3l","lat":46.123815,"province":"Quebec","long":-70.671854},"type":"Feature","geometry":{"type":"Point","coordinates":[-70.671854,46.123815]}},{"properties":{"divorced":14.5,"municipality":"Saint-Hippolyte","id":"a68ekc8pkhob","lat":45.930645,"province":"Quebec","long":-74.025089},"type":"Feature","geometry":{"type":"Point","coordinates":[-74.025089,45.930645]}},{"properties":{"divorced":13.0,"municipality":"Saint-Hyacinthe","id":"a68ekc9muf4d","lat":45.626645,"province":"Quebec","long":-72.947159},"type":"Feature","geometry":{"type":"Point","coordinates":[-72.947159,45.626645]}},{"properties":{"divorced":12.2,"municipality":"Saint-Jean-sur-Richelieu","id":"a68ekck87n4e","lat":45.30611,"province":"Quebec","long":-73.250319},"type":"Feature","geometry":{"type":"Point","coordinates":[-73.250319,45.30611]}},{"properties":{"divorced":13.6,"municipality":"Saint-Jerome","id":"a68ekcl1iwbo","lat":45.77501,"province":"Quebec","long":-74.003508},"type":"Feature","geometry":{"type":"Point","coordinates":[-74.003508,45.77501]}},{"properties":{"divorced":12.0,"municipality":"Saint-Lambert","id":"a68ekc7b40w2","lat":48.977599,"province":"Quebec","long":-79.458274},"type":"Feature","geometry":{"type":"Point","coordinates":[-79.458274,48.977599]}},{"properties":{"divorced":8.3,"municipality":"Saint-Lazare","id":"a68ekce1a99a","lat":45.400355,"province":"Quebec","long":-74.142149},"type":"Feature","geometry":{"type":"Point","coordinates":[-74.142149,45.400355]}},{"properties":{"divorced":11.1,"municipality":"Saint-Lin--Laurentides","id":"a68ekcfbtylv","lat":45.852276,"province":"Quebec","long":-73.755979},"type":"Feature","geometry":{"type":"Point","coordinates":[-73.755979,45.852276]}},{"properties":{"divorced":9.7,"municipality":"Saint-Raymond","id":"a68ekcj1sqw6","lat":46.893429,"province":"Quebec","long":-71.828309},"type":"Feature","geometry":{"type":"Point","coordinates":[-71.828309,46.893429]}},{"properties":{"divorced":8.8,"municipality":"Saint-Remi","id":"a68ekcltbn0b","lat":45.258705,"province":"Quebec","long":-73.614019},"type":"Feature","geometry":{"type":"Point","coordinates":[-73.614019,45.258705]}},{"properties":{"divorced":15.5,"municipality":"Saint-Sauveur","id":"a68ekc93i7m5","lat":45.885975,"province":"Quebec","long":-74.183754},"type":"Feature","geometry":{"type":"Point","coordinates":[-74.183754,45.885975]}},{"properties":{"divorced":16.4,"municipality":"Sainte-Adele","id":"a68ekc7t16ua","lat":45.954319,"province":"Quebec","long":-74.138512},"type":"Feature","geometry":{"type":"Point","coordinates":[-74.138512,45.954319]}},{"properties":{"divorced":13.6,"municipality":"Sainte-Agathe-des-Monts","id":"a68ekcismtot","lat":46.04741,"province":"Quebec","long":-74.283459},"type":"Feature","geometry":{"type":"Point","coordinates":[-74.283459,46.04741]}},{"properties":{"divorced":10.7,"municipality":"Sainte-Anne-des-Monts","id":"a68ekc5qjs72","lat":49.129214,"province":"Quebec","long":-66.486393},"type":"Feature","geometry":{"type":"Point","coordinates":[-66.486393,49.129214]}},{"properties":{"divorced":9.8,"municipality":"Sainte-Anne-des-Plaines","id":"a68ekchce6y5","lat":45.760205,"province":"Quebec","long":-73.814449},"type":"Feature","geometry":{"type":"Point","coordinates":[-73.814449,45.760205]}},{"properties":{"divorced":11.3,"municipality":"Sainte-Catherine","id":"a68ekc9taktu","lat":45.405765,"province":"Quebec","long":-73.571919},"type":"Feature","geometry":{"type":"Point","coordinates":[-73.571919,45.405765]}},{"properties":{"divorced":9.8,"municipality":"Sainte-Julie","id":"a68ekccyybjp","lat":45.587811,"province":"Quebec","long":-73.32692},"type":"Feature","geometry":{"type":"Point","coordinates":[-73.32692,45.587811]}},{"properties":{"divorced":12.8,"municipality":"Sainte-Julienne","id":"a68ekch31wb7","lat":45.962707,"province":"Quebec","long":-73.707924},"type":"Feature","geometry":{"type":"Point","coordinates":[-73.707924,45.962707]}},{"properties":{"divorced":8.0,"municipality":"Sainte-Marie","id":"a68ekcebhtbu","lat":48.172625,"province":"Quebec","long":-65.983826},"type":"Feature","geometry":{"type":"Point","coordinates":[-65.983826,48.172625]}},{"properties":{"divorced":11.7,"municipality":"Sainte-Marthe-sur-le-Lac","id":"a68ekcbia61o","lat":45.52925,"province":"Quebec","long":-73.932364},"type":"Feature","geometry":{"type":"Point","coordinates":[-73.932364,45.52925]}},{"properties":{"divorced":12.1,"municipality":"Sainte-Sophie","id":"a68ekck840wh","lat":45.81936,"province":"Quebec","long":-73.896604},"type":"Feature","geometry":{"type":"Point","coordinates":[-73.896604,45.81936]}},{"properties":{"divorced":13.7,"municipality":"Sainte-Therese","id":"a68ekc8qhg9o","lat":45.640249,"province":"Quebec","long":-73.844227},"type":"Feature","geometry":{"type":"Point","coordinates":[-73.844227,45.640249]}},{"properties":{"divorced":12.7,"municipality":"Salaberry-de-Valleyfield","id":"a68ekccnbv4l","lat":45.256415,"province":"Quebec","long":-74.132459},"type":"Feature","geometry":{"type":"Point","coordinates":[-74.132459,45.256415]}},{"properties":{"divorced":8.8,"municipality":"Salmon Arm","id":"a68ekc9hiq8i","lat":50.702228,"province":"British Columbia","long":-119.271885},"type":"Feature","geometry":{"type":"Point","coordinates":[-119.271885,50.702228]}},{"properties":{"divorced":8.1,"municipality":"Sarnia","id":"a68ekc5v01e8","lat":42.97877,"province":"Ontario","long":-82.403364},"type":"Feature","geometry":{"type":"Point","coordinates":[-82.403364,42.97877]}},{"properties":{"divorced":7.6,"municipality":"Saskatoon","id":"a68ekcj8xygg","lat":52.130505,"province":"Saskatchewan","long":-106.659314},"type":"Feature","geometry":{"type":"Point","coordinates":[-106.659314,52.130505]}},{"properties":{"divorced":7.0,"municipality":"Saugeen Shores","id":"a68ekc7r6tpg","lat":44.428771,"province":"Ontario","long":-81.372318},"type":"Feature","geometry":{"type":"Point","coordinates":[-81.372318,44.428771]}},{"properties":{"divorced":8.1,"municipality":"Sault Ste. Marie","id":"a68ekceuk2u6","lat":46.51828,"province":"Ontario","long":-84.347904},"type":"Feature","geometry":{"type":"Point","coordinates":[-84.347904,46.51828]}},{"properties":{"divorced":4.4,"municipality":"Saumarez","id":"a68ekcj6aebg","lat":47.448511,"province":"New Brunswick","long":-64.915561},"type":"Feature","geometry":{"type":"Point","coordinates":[-64.915561,47.448511]}},{"properties":{"divorced":6.9,"municipality":"Scugog","id":"a68ekcj5u6ce","lat":44.105035,"province":"Ontario","long":-78.944904},"type":"Feature","geometry":{"type":"Point","coordinates":[-78.944904,44.105035]}},{"properties":{"divorced":11.4,"municipality":"Sechelt","id":"a68ekc96auug","lat":49.47346,"province":"British Columbia","long":-123.754609},"type":"Feature","geometry":{"type":"Point","coordinates":[-123.754609,49.47346]}},{"properties":{"divorced":8.7,"municipality":"Selkirk","id":"a68ekc8q3kw4","lat":50.145725,"province":"Manitoba","long":-96.873909},"type":"Feature","geometry":{"type":"Point","coordinates":[-96.873909,50.145725]}},{"properties":{"divorced":10.2,"municipality":"Sept-Iles","id":"a68ekce6snu9","lat":50.208635,"province":"Quebec","long":-66.388234},"type":"Feature","geometry":{"type":"Point","coordinates":[-66.388234,50.208635]}},{"properties":{"divorced":9.4,"municipality":"Sept-Rivieres--Caniapiscau","id":"a68ekc8z5ml3","lat":53.968281,"province":"Quebec","long":-68.43824},"type":"Feature","geometry":{"type":"Point","coordinates":[-68.43824,53.968281]}},{"properties":{"divorced":7.8,"municipality":"Severn","id":"a68ekca9zcbu","lat":44.630086,"province":"Ontario","long":-79.440552},"type":"Feature","geometry":{"type":"Point","coordinates":[-79.440552,44.630086]}},{"properties":{"divorced":13.2,"municipality":"Shawinigan","id":"a68ekckzo77u","lat":46.542459,"province":"Quebec","long":-72.75194},"type":"Feature","geometry":{"type":"Point","coordinates":[-72.75194,46.542459]}},{"properties":{"divorced":13.2,"municipality":"Shawinigan","id":"a68ekchrnofn","lat":46.542459,"province":"Quebec","long":-72.75194},"type":"Feature","geometry":{"type":"Point","coordinates":[-72.75194,46.542459]}},{"properties":{"divorced":8.0,"municipality":"Shelburne","id":"a68ekca56bym","lat":43.76566,"province":"Nova Scotia","long":-65.315644},"type":"Feature","geometry":{"type":"Point","coordinates":[-65.315644,43.76566]}},{"properties":{"divorced":12.5,"municipality":"Sherbrooke","id":"a68ekck7rogo","lat":45.403264,"province":"Quebec","long":-71.888935},"type":"Feature","geometry":{"type":"Point","coordinates":[-71.888935,45.403264]}},{"properties":{"divorced":12.5,"municipality":"Sherbrooke","id":"a68ekc7ljrxm","lat":45.403264,"province":"Quebec","long":-71.888935},"type":"Feature","geometry":{"type":"Point","coordinates":[-71.888935,45.403264]}},{"properties":{"divorced":10.2,"municipality":"Sidney","id":"a68ekc950qkx","lat":48.650215,"province":"British Columbia","long":-123.398424},"type":"Feature","geometry":{"type":"Point","coordinates":[-123.398424,48.650215]}},{"properties":{"divorced":7.9,"municipality":"Simcoe","id":"a68ekc7sp3jt","lat":42.835905,"province":"Ontario","long":-80.305294},"type":"Feature","geometry":{"type":"Point","coordinates":[-80.305294,42.835905]}},{"properties":{"divorced":8.1,"municipality":"Skeena-Queen Charlotte","id":"a68ekcgilynl","lat":53.254248,"province":"British Columbia","long":-132.094295},"type":"Feature","geometry":{"type":"Point","coordinates":[-132.094295,53.254248]}},{"properties":{"divorced":6.4,"municipality":"Slave Lake","id":"a68ekcb9jl11","lat":55.269185,"province":"Alberta","long":-114.771914},"type":"Feature","geometry":{"type":"Point","coordinates":[-114.771914,55.269185]}},{"properties":{"divorced":6.5,"municipality":"Smith-Ennismore-Lakefield","id":"a68ekce2ohxw","lat":44.387236,"province":"Ontario","long":-78.393138},"type":"Feature","geometry":{"type":"Point","coordinates":[-78.393138,44.387236]}},{"properties":{"divorced":10.0,"municipality":"Smiths Falls","id":"a68ekc78z092","lat":44.902585,"province":"Ontario","long":-76.021514},"type":"Feature","geometry":{"type":"Point","coordinates":[-76.021514,44.902585]}},{"properties":{"divorced":10.7,"municipality":"Sooke","id":"a68ekc8i3k8a","lat":48.381913,"province":"British Columbia","long":-123.731237},"type":"Feature","geometry":{"type":"Point","coordinates":[-123.731237,48.381913]}},{"properties":{"divorced":11.8,"municipality":"Sorel-Tracy","id":"a68ekclr94vg","lat":46.04239,"province":"Quebec","long":-73.112629},"type":"Feature","geometry":{"type":"Point","coordinates":[-73.112629,46.04239]}},{"properties":{"divorced":7.8,"municipality":"South Bruce Peninsula","id":"a68ekcdnfdse","lat":44.785782,"province":"Ontario","long":-81.19338},"type":"Feature","geometry":{"type":"Point","coordinates":[-81.19338,44.785782]}},{"properties":{"divorced":7.3,"municipality":"South Dundas","id":"a68ekchc5lnf","lat":44.97547,"province":"Ontario","long":-75.244194},"type":"Feature","geometry":{"type":"Point","coordinates":[-75.244194,44.97547]}},{"properties":{"divorced":6.7,"municipality":"South Frontenac","id":"a68ekcdhvtn6","lat":44.412907,"province":"Ontario","long":-76.594872},"type":"Feature","geometry":{"type":"Point","coordinates":[-76.594872,44.412907]}},{"properties":{"divorced":6.6,"municipality":"South Glengarry","id":"a68ekce9fh2r","lat":45.140046,"province":"Ontario","long":-74.501374},"type":"Feature","geometry":{"type":"Point","coordinates":[-74.501374,45.140046]}},{"properties":{"divorced":6.3,"municipality":"South Huron","id":"a68ekcbbu4ji","lat":43.316158,"province":"Ontario","long":-81.474308},"type":"Feature","geometry":{"type":"Point","coordinates":[-81.474308,43.316158]}},{"properties":{"divorced":6.1,"municipality":"South Stormont","id":"a68ekcd1zgnp","lat":45.025243,"province":"Ontario","long":-74.999183},"type":"Feature","geometry":{"type":"Point","coordinates":[-74.999183,45.025243]}},{"properties":{"divorced":5.1,"municipality":"South-West Oxford","id":"a68ekcfflfhb","lat":42.932696,"province":"Ontario","long":-80.81313},"type":"Feature","geometry":{"type":"Point","coordinates":[-80.81313,42.932696]}},{"properties":{"divorced":6.7,"municipality":"Southgate","id":"a68ekc60xgsr","lat":44.119605,"province":"Ontario","long":-80.536199},"type":"Feature","geometry":{"type":"Point","coordinates":[-80.536199,44.119605]}},{"properties":{"divorced":5.0,"municipality":"Springfield","id":"a68ekclvhnst","lat":49.862835,"province":"Manitoba","long":-96.6376},"type":"Feature","geometry":{"type":"Point","coordinates":[-96.6376,49.862835]}},{"properties":{"divorced":6.1,"municipality":"Springwater","id":"a68ekc7jsscz","lat":44.431424,"province":"Ontario","long":-79.726621},"type":"Feature","geometry":{"type":"Point","coordinates":[-79.726621,44.431424]}},{"properties":{"divorced":7.5,"municipality":"Spruce Grove","id":"a68ekcko6eyu","lat":53.544635,"province":"Alberta","long":-113.901854},"type":"Feature","geometry":{"type":"Point","coordinates":[-113.901854,53.544635]}},{"properties":{"divorced":8.3,"municipality":"Squamish","id":"a68ekckqurcz","lat":49.697985,"province":"British Columbia","long":-123.155454},"type":"Feature","geometry":{"type":"Point","coordinates":[-123.155454,49.697985]}},{"properties":{"divorced":7.5,"municipality":"Squamish-Lillooet","id":"a68ekcl7fzm7","lat":50.693025,"province":"British Columbia","long":-121.934654},"type":"Feature","geometry":{"type":"Point","coordinates":[-121.934654,50.693025]}},{"properties":{"divorced":7.2,"municipality":"St. Albert","id":"a68ekcd2y51f","lat":53.633519,"province":"Alberta","long":-113.627351},"type":"Feature","geometry":{"type":"Point","coordinates":[-113.627351,53.633519]}},{"properties":{"divorced":5.5,"municipality":"St. Andrews","id":"a68ekcjfrl1m","lat":50.388147,"province":"Manitoba","long":-97.032714},"type":"Feature","geometry":{"type":"Point","coordinates":[-97.032714,50.388147]}},{"properties":{"divorced":8.0,"municipality":"St. Catharines","id":"a68ekc6wh424","lat":43.156335,"province":"Ontario","long":-79.248669},"type":"Feature","geometry":{"type":"Point","coordinates":[-79.248669,43.156335]}},{"properties":{"divorced":5.9,"municipality":"St. Clair","id":"a68ekcciht6n","lat":42.844647,"province":"Ontario","long":-82.463042},"type":"Feature","geometry":{"type":"Point","coordinates":[-82.463042,42.844647]}},{"properties":{"divorced":6.5,"municipality":"St. Clements","id":"a68ekcge4w8f","lat":50.131858,"province":"Manitoba","long":-96.822157},"type":"Feature","geometry":{"type":"Point","coordinates":[-96.822157,50.131858]}},{"properties":{"divorced":7.4,"municipality":"St. John's","id":"a68ekck65fsx","lat":47.56086,"province":"Newfoundland","long":-52.71217},"type":"Feature","geometry":{"type":"Point","coordinates":[-52.71217,47.56086]}},{"properties":{"divorced":6.6,"municipality":"St. Marys","id":"a68ekcioaabt","lat":43.259495,"province":"Ontario","long":-81.141424},"type":"Feature","geometry":{"type":"Point","coordinates":[-81.141424,43.259495]}},{"properties":{"divorced":9.1,"municipality":"St. Thomas","id":"a68ekcagfxf1","lat":42.77894,"province":"Ontario","long":-81.193149},"type":"Feature","geometry":{"type":"Point","coordinates":[-81.193149,42.77894]}},{"properties":{"divorced":3.7,"municipality":"Steinbach","id":"a68ekcblvt0x","lat":49.52572,"province":"Manitoba","long":-96.683944},"type":"Feature","geometry":{"type":"Point","coordinates":[-96.683944,49.52572]}},{"properties":{"divorced":9.9,"municipality":"Stephenville","id":"a68ekcinnr74","lat":48.54599,"province":"Newfoundland","long":-58.575364},"type":"Feature","geometry":{"type":"Point","coordinates":[-58.575364,48.54599]}},{"properties":{"divorced":7.3,"municipality":"Stone Mills","id":"a68ekckr4oi0","lat":44.312028,"province":"Ontario","long":-76.885561},"type":"Feature","geometry":{"type":"Point","coordinates":[-76.885561,44.312028]}},{"properties":{"divorced":7.4,"municipality":"Stony Plain","id":"a68ekch65u8x","lat":53.52879,"province":"Alberta","long":-114.005524},"type":"Feature","geometry":{"type":"Point","coordinates":[-114.005524,53.52879]}},{"properties":{"divorced":7.6,"municipality":"Stormont, Dundas and Glengarry","id":"a68ekcib7349","lat":43.263771,"province":"Ontario","long":-79.95237},"type":"Feature","geometry":{"type":"Point","coordinates":[-79.95237,43.263771]}},{"properties":{"divorced":8.2,"municipality":"Stratford","id":"a68ekckewgg4","lat":43.370135,"province":"Ontario","long":-80.981929},"type":"Feature","geometry":{"type":"Point","coordinates":[-80.981929,43.370135]}},{"properties":{"divorced":5.2,"municipality":"Stratford","id":"a68ekcbarf9r","lat":46.218455,"province":"Prince Edward Island","long":-63.079409},"type":"Feature","geometry":{"type":"Point","coordinates":[-63.079409,46.218455]}},{"properties":{"divorced":6.3,"municipality":"Strathcona County","id":"a68ekc8jaelg","lat":53.526402,"province":"Alberta","long":-113.295742},"type":"Feature","geometry":{"type":"Point","coordinates":[-113.295742,53.526402]}},{"properties":{"divorced":7.2,"municipality":"Strathmore","id":"a68ekclo3cla","lat":51.041305,"province":"Alberta","long":-113.400294},"type":"Feature","geometry":{"type":"Point","coordinates":[-113.400294,51.041305]}},{"properties":{"divorced":6.0,"municipality":"Strathroy-Caradoc","id":"a68ekcgxj7o4","lat":42.955774,"province":"Ontario","long":-81.622299},"type":"Feature","geometry":{"type":"Point","coordinates":[-81.622299,42.955774]}},{"properties":{"divorced":5.4,"municipality":"Sturgeon County","id":"a68ekcd3aoap","lat":53.76723,"province":"Alberta","long":-113.644884},"type":"Feature","geometry":{"type":"Point","coordinates":[-113.644884,53.76723]}},{"properties":{"divorced":7.0,"municipality":"Sudbury","id":"a68ekcddlqpw","lat":46.489593,"province":"Ontario","long":-80.989664},"type":"Feature","geometry":{"type":"Point","coordinates":[-80.989664,46.489593]}},{"properties":{"divorced":8.9,"municipality":"Summerland","id":"a68ekcc4xfxp","lat":49.6023,"province":"British Columbia","long":-119.682174},"type":"Feature","geometry":{"type":"Point","coordinates":[-119.682174,49.6023]}},{"properties":{"divorced":8.0,"municipality":"Summerside","id":"a68ekclmevh7","lat":46.394085,"province":"Prince Edward Island","long":-63.791944},"type":"Feature","geometry":{"type":"Point","coordinates":[-63.791944,46.394085]}},{"properties":{"divorced":6.8,"municipality":"Sunbury","id":"a68ekcbliy8x","lat":45.947639,"province":"New Brunswick","long":-66.394981},"type":"Feature","geometry":{"type":"Point","coordinates":[-66.394981,45.947639]}},{"properties":{"divorced":11.0,"municipality":"Sunshine Coast","id":"a68ekc8oo4xo","lat":49.836941,"province":"British Columbia","long":-123.77243},"type":"Feature","geometry":{"type":"Point","coordinates":[-123.77243,49.836941]}},{"properties":{"divorced":6.5,"municipality":"Surrey","id":"a68ekcj5v44k","lat":49.10522,"province":"British Columbia","long":-122.831374},"type":"Feature","geometry":{"type":"Point","coordinates":[-122.831374,49.10522]}},{"properties":{"divorced":7.5,"municipality":"Swift Current","id":"a68ekcb35zm4","lat":50.29276,"province":"Saskatchewan","long":-107.800554},"type":"Feature","geometry":{"type":"Point","coordinates":[-107.800554,50.29276]}},{"properties":{"divorced":8.7,"municipality":"Sylvan Lake","id":"a68ekcfuul4e","lat":52.311083,"province":"Alberta","long":-114.094708},"type":"Feature","geometry":{"type":"Point","coordinates":[-114.094708,52.311083]}},{"properties":{"divorced":7.3,"municipality":"Taber","id":"a68ekcb499hq","lat":49.787215,"province":"Alberta","long":-112.127134},"type":"Feature","geometry":{"type":"Point","coordinates":[-112.127134,49.787215]}},{"properties":{"divorced":4.6,"municipality":"Tache","id":"a68ekcdf05oe","lat":49.750105,"province":"Manitoba","long":-96.768729},"type":"Feature","geometry":{"type":"Point","coordinates":[-96.768729,49.750105]}},{"properties":{"divorced":8.8,"municipality":"Tay","id":"a68ekccnx2m3","lat":44.747385,"province":"Ontario","long":-79.761414},"type":"Feature","geometry":{"type":"Point","coordinates":[-79.761414,44.747385]}},{"properties":{"divorced":5.6,"municipality":"Tecumseh","id":"a68ekcbfej2r","lat":42.31516,"province":"Ontario","long":-82.887119},"type":"Feature","geometry":{"type":"Point","coordinates":[-82.887119,42.31516]}},{"properties":{"divorced":9.0,"municipality":"Temiscamingue","id":"a68ekcigirst","lat":46.722754,"province":"Quebec","long":-79.09469},"type":"Feature","geometry":{"type":"Point","coordinates":[-79.09469,46.722754]}},{"properties":{"divorced":8.2,"municipality":"Temiscouata","id":"a68ekchp0gxt","lat":47.681721,"province":"Quebec","long":-68.984833},"type":"Feature","geometry":{"type":"Point","coordinates":[-68.984833,47.681721]}},{"properties":{"divorced":6.6,"municipality":"Temiskaming Shores","id":"a68ekcelk195","lat":47.539885,"province":"Ontario","long":-79.674493},"type":"Feature","geometry":{"type":"Point","coordinates":[-79.674493,47.539885]}},{"properties":{"divorced":7.7,"municipality":"Terrace","id":"a68ekcbig2io","lat":54.515857,"province":"British Columbia","long":-128.602175},"type":"Feature","geometry":{"type":"Point","coordinates":[-128.602175,54.515857]}},{"properties":{"divorced":10.7,"municipality":"Terrebonne","id":"a68ekc7lbpjj","lat":45.691595,"province":"Quebec","long":-73.633199},"type":"Feature","geometry":{"type":"Point","coordinates":[-73.633199,45.691595]}},{"properties":{"divorced":5.9,"municipality":"Thames Centre","id":"a68ekc7l82di","lat":42.986115,"province":"Ontario","long":-81.049944},"type":"Feature","geometry":{"type":"Point","coordinates":[-81.049944,42.986115]}},{"properties":{"divorced":5.4,"municipality":"The Nation / La Nation","id":"a68ekch6ai9t","lat":45.31968,"province":"Ontario","long":-75.115274},"type":"Feature","geometry":{"type":"Point","coordinates":[-75.115274,45.31968]}},{"properties":{"divorced":11.2,"municipality":"Therese-De Blainville","id":"a68ekc8ycwi3","lat":45.681,"province":"Quebec","long":-73.873009},"type":"Feature","geometry":{"type":"Point","coordinates":[-73.873009,45.681]}},{"properties":{"divorced":10.8,"municipality":"Thetford Mines","id":"a68ekcgo3xto","lat":46.090575,"province":"Quebec","long":-71.299264},"type":"Feature","geometry":{"type":"Point","coordinates":[-71.299264,46.090575]}},{"properties":{"divorced":7.5,"municipality":"Thompson","id":"a68ekcldi2vy","lat":55.74429,"province":"Manitoba","long":-97.850681},"type":"Feature","geometry":{"type":"Point","coordinates":[-97.850681,55.74429]}},{"properties":{"divorced":9.8,"municipality":"Thompson-Nicola","id":"a68ekchtyy4r","lat":51.608675,"province":"British Columbia","long":-120.100187},"type":"Feature","geometry":{"type":"Point","coordinates":[-120.100187,51.608675]}},{"properties":{"divorced":7.1,"municipality":"Thorold","id":"a68ekc6iuyiq","lat":43.124285,"province":"Ontario","long":-79.197719},"type":"Feature","geometry":{"type":"Point","coordinates":[-79.197719,43.124285]}},{"properties":{"divorced":7.3,"municipality":"Thunder Bay","id":"a68ekcbk11y5","lat":48.3817,"province":"Ontario","long":-89.245479},"type":"Feature","geometry":{"type":"Point","coordinates":[-89.245479,48.3817]}},{"properties":{"divorced":7.6,"municipality":"Thunder Bay","id":"a68ekc8aeumk","lat":48.3817,"province":"Ontario","long":-89.245479},"type":"Feature","geometry":{"type":"Point","coordinates":[-89.245479,48.3817]}},{"properties":{"divorced":7.8,"municipality":"Thunder Bay, Unorganized","id":"a68ekcbh83an","lat":48.381699,"province":"Ontario","long":-89.245483},"type":"Feature","geometry":{"type":"Point","coordinates":[-89.245483,48.381699]}},{"properties":{"divorced":7.4,"municipality":"Tillsonburg","id":"a68ekc9jo7ai","lat":42.860675,"province":"Ontario","long":-80.727869},"type":"Feature","geometry":{"type":"Point","coordinates":[-80.727869,42.860675]}},{"properties":{"divorced":7.6,"municipality":"Timiskaming","id":"a68ekcdaiqwg","lat":47.6689,"province":"Ontario","long":-80.633537},"type":"Feature","geometry":{"type":"Point","coordinates":[-80.633537,47.6689]}},{"properties":{"divorced":7.5,"municipality":"Timmins","id":"a68ekcksbe5t","lat":48.476075,"province":"Ontario","long":-81.328954},"type":"Feature","geometry":{"type":"Point","coordinates":[-81.328954,48.476075]}},{"properties":{"divorced":7.6,"municipality":"Tiny","id":"a68ekc9jv32c","lat":44.701725,"province":"Ontario","long":-79.982857},"type":"Feature","geometry":{"type":"Point","coordinates":[-79.982857,44.701725]}},{"properties":{"divorced":5.7,"municipality":"Torbay","id":"a68ekc8wba2i","lat":47.657204,"province":"Newfoundland","long":-52.733178},"type":"Feature","geometry":{"type":"Point","coordinates":[-52.733178,47.657204]}},{"properties":{"divorced":6.9,"municipality":"Toronto","id":"a68ekcce5p16","lat":43.648565,"province":"Ontario","long":-79.385329},"type":"Feature","geometry":{"type":"Point","coordinates":[-79.385329,43.648565]}},{"properties":{"divorced":9.8,"municipality":"Trail","id":"a68ekccrqij8","lat":49.096452,"province":"British Columbia","long":-117.71221},"type":"Feature","geometry":{"type":"Point","coordinates":[-117.71221,49.096452]}},{"properties":{"divorced":8.3,"municipality":"Trent Hills","id":"a68ekcguzymr","lat":44.305735,"province":"Ontario","long":-77.798479},"type":"Feature","geometry":{"type":"Point","coordinates":[-77.798479,44.305735]}},{"properties":{"divorced":12.6,"municipality":"Trois-Rivieres","id":"a68ekc6hwmsj","lat":46.34018,"province":"Quebec","long":-72.545034},"type":"Feature","geometry":{"type":"Point","coordinates":[-72.545034,46.34018]}},{"properties":{"divorced":9.5,"municipality":"Truro","id":"a68ekce2fh5c","lat":45.36602,"province":"Nova Scotia","long":-63.289039},"type":"Feature","geometry":{"type":"Point","coordinates":[-63.289039,45.36602]}},{"properties":{"divorced":6.1,"municipality":"Uxbridge","id":"a68ekcbmxbyr","lat":44.106165,"province":"Ontario","long":-79.123864},"type":"Feature","geometry":{"type":"Point","coordinates":[-79.123864,44.106165]}},{"properties":{"divorced":10.9,"municipality":"Val-d'Or","id":"a68ekcievo2w","lat":53.890121,"province":"Quebec","long":-68.429291},"type":"Feature","geometry":{"type":"Point","coordinates":[-68.429291,53.890121]}},{"properties":{"divorced":10.3,"municipality":"Val-des-Monts","id":"a68ekcldx6ie","lat":45.66453,"province":"Quebec","long":-75.732724},"type":"Feature","geometry":{"type":"Point","coordinates":[-75.732724,45.66453]}},{"properties":{"divorced":7.6,"municipality":"Vancouver","id":"a68ekcic8v8q","lat":49.26044,"province":"British Columbia","long":-123.114034},"type":"Feature","geometry":{"type":"Point","coordinates":[-123.114034,49.26044]}},{"properties":{"divorced":9.9,"municipality":"Varennes","id":"a68ekcb971zo","lat":45.682092,"province":"Quebec","long":-73.441217},"type":"Feature","geometry":{"type":"Point","coordinates":[-73.441217,45.682092]}},{"properties":{"divorced":11.2,"municipality":"Vaudreuil-Dorion","id":"a68ekcdzhzd2","lat":45.404929,"province":"Quebec","long":-74.035403},"type":"Feature","geometry":{"type":"Point","coordinates":[-74.035403,45.404929]}},{"properties":{"divorced":10.7,"municipality":"Vaudreuil-Soulanges","id":"a68ekcipetsw","lat":45.381371,"province":"Quebec","long":-74.158287},"type":"Feature","geometry":{"type":"Point","coordinates":[-74.158287,45.381371]}},{"properties":{"divorced":3.5,"municipality":"Vaughan","id":"a68ekc8rxog4","lat":43.85642,"province":"Ontario","long":-79.508099},"type":"Feature","geometry":{"type":"Point","coordinates":[-79.508099,43.85642]}},{"properties":{"divorced":4.0,"municipality":"Vermilion River County No. 24","id":"a68ekc7ssfn8","lat":53.343537,"province":"Alberta","long":-110.383239},"type":"Feature","geometry":{"type":"Point","coordinates":[-110.383239,53.343537]}},{"properties":{"divorced":11.5,"municipality":"Vernon","id":"a68ekcjg1hya","lat":50.265685,"province":"British Columbia","long":-119.273804},"type":"Feature","geometry":{"type":"Point","coordinates":[-119.273804,50.265685]}},{"properties":{"divorced":6.6,"municipality":"Victoria","id":"a68ekcf3zj2j","lat":46.26129,"province":"New Brunswick","long":-67.523213},"type":"Feature","geometry":{"type":"Point","coordinates":[-67.523213,46.26129]}},{"properties":{"divorced":13.5,"municipality":"Victoria","id":"a68ekc9pagl6","lat":48.428315,"province":"British Columbia","long":-123.364514},"type":"Feature","geometry":{"type":"Point","coordinates":[-123.364514,48.428315]}},{"properties":{"divorced":5.4,"municipality":"Victoria","id":"a68ekcbleigf","lat":46.458432,"province":"Nova Scotia","long":-60.463691},"type":"Feature","geometry":{"type":"Point","coordinates":[-60.463691,46.458432]}},{"properties":{"divorced":12.4,"municipality":"Victoriaville","id":"a68ekcaykxm4","lat":46.055655,"province":"Quebec","long":-71.959469},"type":"Feature","geometry":{"type":"Point","coordinates":[-71.959469,46.055655]}},{"properties":{"divorced":11.1,"municipality":"View Royal","id":"a68ekcay1kum","lat":48.452268,"province":"British Columbia","long":-123.43478},"type":"Feature","geometry":{"type":"Point","coordinates":[-123.43478,48.452268]}},{"properties":{"divorced":5.0,"municipality":"Wainfleet","id":"a68ekcg8zgz9","lat":42.921367,"province":"Ontario","long":-79.370619},"type":"Feature","geometry":{"type":"Point","coordinates":[-79.370619,42.921367]}},{"properties":{"divorced":7.4,"municipality":"Wasaga Beach","id":"a68ekc5r0dpr","lat":44.5208,"province":"Ontario","long":-80.015794},"type":"Feature","geometry":{"type":"Point","coordinates":[-80.015794,44.5208]}},{"properties":{"divorced":6.7,"municipality":"Waterloo","id":"a68ekc6oc34t","lat":43.463139,"province":"Ontario","long":-80.520691},"type":"Feature","geometry":{"type":"Point","coordinates":[-80.520691,43.463139]}},{"properties":{"divorced":5.6,"municipality":"Waterloo","id":"a68ekc8nyd3y","lat":43.463139,"province":"Ontario","long":-80.520691},"type":"Feature","geometry":{"type":"Point","coordinates":[-80.520691,43.463139]}},{"properties":{"divorced":7.9,"municipality":"Welland","id":"a68ekc96htaf","lat":42.993485,"province":"Ontario","long":-79.239244},"type":"Feature","geometry":{"type":"Point","coordinates":[-79.239244,42.993485]}},{"properties":{"divorced":2.6,"municipality":"Wellesley","id":"a68ekc8dhjze","lat":43.476649,"province":"Ontario","long":-80.764541},"type":"Feature","geometry":{"type":"Point","coordinates":[-80.764541,43.476649]}},{"properties":{"divorced":6.6,"municipality":"Wellington","id":"a68ekckb1ex5","lat":43.951695,"province":"Ontario","long":-77.350419},"type":"Feature","geometry":{"type":"Point","coordinates":[-77.350419,43.951695]}},{"properties":{"divorced":6.1,"municipality":"Wellington North","id":"a68ekci73d1f","lat":43.892444,"province":"Ontario","long":-80.638749},"type":"Feature","geometry":{"type":"Point","coordinates":[-80.638749,43.892444]}},{"properties":{"divorced":6.6,"municipality":"West Grey","id":"a68ekclc4u5n","lat":44.179982,"province":"Ontario","long":-80.84085},"type":"Feature","geometry":{"type":"Point","coordinates":[-80.84085,44.179982]}},{"properties":{"divorced":7.8,"municipality":"West Hants","id":"a68ekcb4apy1","lat":44.97346,"province":"Nova Scotia","long":-64.101079},"type":"Feature","geometry":{"type":"Point","coordinates":[-64.101079,44.97346]}},{"properties":{"divorced":5.4,"municipality":"West Lincoln","id":"a68ekc91jkxl","lat":43.09392,"province":"Ontario","long":-79.548899},"type":"Feature","geometry":{"type":"Point","coordinates":[-79.548899,43.09392]}},{"properties":{"divorced":7.1,"municipality":"West Nipissing / Nipissing Ouest","id":"a68ekcl8s29c","lat":46.374798,"province":"Ontario","long":-79.924933},"type":"Feature","geometry":{"type":"Point","coordinates":[-79.924933,46.374798]}},{"properties":{"divorced":4.4,"municipality":"West Perth","id":"a68ekcixpjlv","lat":43.46931,"province":"Ontario","long":-81.191599},"type":"Feature","geometry":{"type":"Point","coordinates":[-81.191599,43.46931]}},{"properties":{"divorced":7.3,"municipality":"West Vancouver","id":"a68ekc8l1k5z","lat":49.33115,"province":"British Columbia","long":-123.160234},"type":"Feature","geometry":{"type":"Point","coordinates":[-123.160234,49.33115]}},{"properties":{"divorced":6.6,"municipality":"Westlock County","id":"a68ekclz4upp","lat":54.166073,"province":"Alberta","long":-113.642683},"type":"Feature","geometry":{"type":"Point","coordinates":[-113.642683,54.166073]}},{"properties":{"divorced":7.3,"municipality":"Westmorland","id":"a68ekc6a0tf5","lat":45.978834,"province":"New Brunswick","long":-64.160153},"type":"Feature","geometry":{"type":"Point","coordinates":[-64.160153,45.978834]}},{"properties":{"divorced":8.0,"municipality":"Westmount","id":"a68ekce36wgz","lat":45.48496,"province":"Quebec","long":-73.596559},"type":"Feature","geometry":{"type":"Point","coordinates":[-73.596559,45.48496]}},{"properties":{"divorced":9.3,"municipality":"Wetaskiwin","id":"a68ekcbg2fva","lat":52.969909,"province":"Alberta","long":-113.377244},"type":"Feature","geometry":{"type":"Point","coordinates":[-113.377244,52.969909]}},{"properties":{"divorced":6.9,"municipality":"Wetaskiwin County No. 10","id":"a68ekccenxfa","lat":52.988914,"province":"Alberta","long":-113.387499},"type":"Feature","geometry":{"type":"Point","coordinates":[-113.387499,52.988914]}},{"properties":{"divorced":6.7,"municipality":"Weyburn","id":"a68ekcb8mc0k","lat":49.66803,"province":"Saskatchewan","long":-103.858189},"type":"Feature","geometry":{"type":"Point","coordinates":[-103.858189,49.66803]}},{"properties":{"divorced":7.1,"municipality":"Wheatland County","id":"a68ekc6c391q","lat":51.03794,"province":"Alberta","long":-113.0798},"type":"Feature","geometry":{"type":"Point","coordinates":[-113.0798,51.03794]}},{"properties":{"divorced":6.1,"municipality":"Whistler","id":"a68ekcdv7g3p","lat":50.119571,"province":"British Columbia","long":-122.954084},"type":"Feature","geometry":{"type":"Point","coordinates":[-122.954084,50.119571]}},{"properties":{"divorced":6.1,"municipality":"Whitby","id":"a68ekck9jusk","lat":43.899264,"province":"Ontario","long":-78.942547},"type":"Feature","geometry":{"type":"Point","coordinates":[-78.942547,43.899264]}},{"properties":{"divorced":6.0,"municipality":"Whitchurch-Stouffville","id":"a68ekc6u3sly","lat":43.964465,"province":"Ontario","long":-79.270021},"type":"Feature","geometry":{"type":"Point","coordinates":[-79.270021,43.964465]}},{"properties":{"divorced":13.9,"municipality":"White Rock","id":"a68ekc9fh4n7","lat":49.02392,"province":"British Columbia","long":-122.796789},"type":"Feature","geometry":{"type":"Point","coordinates":[-122.796789,49.02392]}},{"properties":{"divorced":7.7,"municipality":"Whitecourt","id":"a68ekcd143b1","lat":54.139459,"province":"Alberta","long":-115.70795},"type":"Feature","geometry":{"type":"Point","coordinates":[-115.70795,54.139459]}},{"properties":{"divorced":10.4,"municipality":"Whitehorse","id":"a68ekcihuse9","lat":60.72087,"province":"Yukon","long":-135.053169},"type":"Feature","geometry":{"type":"Point","coordinates":[-135.053169,60.72087]}},{"properties":{"divorced":5.9,"municipality":"Whitewater Region","id":"a68ekclh46m2","lat":45.667425,"province":"Ontario","long":-76.809194},"type":"Feature","geometry":{"type":"Point","coordinates":[-76.809194,45.667425]}},{"properties":{"divorced":9.1,"municipality":"Williams Lake","id":"a68ekcfz6w17","lat":52.128652,"province":"British Columbia","long":-122.141085},"type":"Feature","geometry":{"type":"Point","coordinates":[-122.141085,52.128652]}},{"properties":{"divorced":4.4,"municipality":"Wilmot","id":"a68ekcdxekg8","lat":43.403325,"province":"Ontario","long":-80.671679},"type":"Feature","geometry":{"type":"Point","coordinates":[-80.671679,43.403325]}},{"properties":{"divorced":8.3,"municipality":"Windsor","id":"a68ekcb8f6la","lat":42.31782,"province":"Ontario","long":-83.033914},"type":"Feature","geometry":{"type":"Point","coordinates":[-83.033914,42.31782]}},{"properties":{"divorced":2.0,"municipality":"Winkler","id":"a68ekcetwh83","lat":49.177705,"province":"Manitoba","long":-97.938399},"type":"Feature","geometry":{"type":"Point","coordinates":[-97.938399,49.177705]}},{"properties":{"divorced":7.9,"municipality":"Winnipeg","id":"a68ekc63a2q8","lat":49.899425,"province":"Manitoba","long":-97.140739},"type":"Feature","geometry":{"type":"Point","coordinates":[-97.140739,49.899425]}},{"properties":{"divorced":7.3,"municipality":"Wood Buffalo","id":"a68ekc9g9ika","lat":56.727187,"province":"Alberta","long":-111.380305},"type":"Feature","geometry":{"type":"Point","coordinates":[-111.380305,56.727187]}},{"properties":{"divorced":8.4,"municipality":"Woodstock","id":"a68ekcbaqvjv","lat":43.13011,"province":"Ontario","long":-80.756559},"type":"Feature","geometry":{"type":"Point","coordinates":[-80.756559,43.13011]}},{"properties":{"divorced":4.3,"municipality":"Woolwich","id":"a68ekc7wjd4o","lat":43.59755,"province":"Ontario","long":-80.559534},"type":"Feature","geometry":{"type":"Point","coordinates":[-80.559534,43.59755]}},{"properties":{"divorced":9.9,"municipality":"Yarmouth","id":"a68ekci0hzhg","lat":43.84128,"province":"Nova Scotia","long":-66.118854},"type":"Feature","geometry":{"type":"Point","coordinates":[-66.118854,43.84128]}},{"properties":{"divorced":7.5,"municipality":"Yarmouth","id":"a68ekcke3184","lat":43.84128,"province":"Nova Scotia","long":-66.118854},"type":"Feature","geometry":{"type":"Point","coordinates":[-66.118854,43.84128]}},{"properties":{"divorced":7.9,"municipality":"Yarmouth","id":"a68ekckrn82p","lat":43.84128,"province":"Nova Scotia","long":-66.118854},"type":"Feature","geometry":{"type":"Point","coordinates":[-66.118854,43.84128]}},{"properties":{"divorced":8.5,"municipality":"Yellowhead County","id":"a68ekc61ob1z","lat":53.348555,"province":"Alberta","long":-117.663029},"type":"Feature","geometry":{"type":"Point","coordinates":[-117.663029,53.348555]}},{"properties":{"divorced":7.4,"municipality":"Yellowknife","id":"a68ekckgwuvs","lat":62.45432,"province":"Northwest Territories","long":-114.371254},"type":"Feature","geometry":{"type":"Point","coordinates":[-114.371254,62.45432]}},{"properties":{"divorced":4.6,"municipality":"York","id":"a68ekc76kt3e","lat":43.022418,"province":"Ontario","long":-79.891117},"type":"Feature","geometry":{"type":"Point","coordinates":[-79.891117,43.022418]}},{"properties":{"divorced":7.0,"municipality":"York","id":"a68ekclp76ep","lat":46.215,"province":"New Brunswick","long":-66.991318},"type":"Feature","geometry":{"type":"Point","coordinates":[-66.991318,46.215]}},{"properties":{"divorced":6.6,"municipality":"Yorkton","id":"a68ekc98voq5","lat":51.204055,"province":"Saskatchewan","long":-102.449874},"type":"Feature","geometry":{"type":"Point","coordinates":[-102.449874,51.204055]}},{"properties":{"divorced":5.2,"municipality":"Zorra","id":"a68ekcixq7yn","lat":43.04837,"province":"Ontario","long":-80.926084},"type":"Feature","geometry":{"type":"Point","coordinates":[-80.926084,43.04837]}}],"is_temporal":false,"author":{"url":"","metadata":"","contact_name":"","contact_address":"","source":"","contact_phone":""},"source":"","pagination":{"sort":null,"start":0,"total":785,"limit":1000000},"state":"complete","tags":"","published":"2014-08-10T23:07:27-04:00","id":17897}