{"type":"FeatureCollection","data_type":"Dataset","url_type":null,"permissions":[{"permissions":{"download":true,"view":true},"group_id":"everyone"}],"classification":null,"title":"texas-zip-sales","count":43,"stream_id":179020,"contributor":{"url":"http://geocommons.com/users/19539","name":"travis@moonblink.com"},"data_attributes":null,"calculation_params":null,"icon_link":null,"link":"http://geocommons.com/overlays/179020.json","extent":[-102.81,26.1744,-93.0552,34.5037],"geometry_types":["point"],"unique_name":null,"name":"texas-zip-sales","feature_count":43,"description":"","next_feature":null,"is_raster":false,"short_classification":"Y","stats":{"sales":{"max":192575.95,"mean":14814.0409302326,"variance":1069043092.42914,"stdev":32696.2244369154,"min":69.99,"median":1200.0}},"features":[{"properties":{"sales":300.0,"zip":"75034","geo_score":0.714,"id":"a6amkpwz0pwo","geo_precision":"zip"},"type":"Feature","geometry":{"type":"Point","coordinates":[-96.930005,33.220674]}},{"properties":{"sales":129.0,"zip":"75056","geo_score":0.714,"id":"a6amkpngveo2","geo_precision":"zip"},"type":"Feature","geometry":{"type":"Point","coordinates":[-96.901605,33.077136]}},{"properties":{"sales":944.0,"zip":"75074","geo_score":0.714,"id":"a6amkpttr9ar","geo_precision":"zip"},"type":"Feature","geometry":{"type":"Point","coordinates":[-96.794723,33.027344]}},{"properties":{"sales":414.0,"zip":"75082","geo_score":0.714,"id":"a6amkpo25koo","geo_precision":"zip"},"type":"Feature","geometry":{"type":"Point","coordinates":[-96.69137,32.979315]}},{"properties":{"sales":3094.72,"zip":"75165","geo_score":0.714,"id":"a6amkpmvy65a","geo_precision":"zip"},"type":"Feature","geometry":{"type":"Point","coordinates":[-96.831387,32.474028]}},{"properties":{"sales":1729.2,"zip":"75201","geo_score":0.714,"id":"a6amkpxnovs2","geo_precision":"zip"},"type":"Feature","geometry":{"type":"Point","coordinates":[-96.790329,32.781179]}},{"properties":{"sales":2230.76,"zip":"75202","geo_score":0.714,"id":"a6amkpv5xbbe","geo_precision":"zip"},"type":"Feature","geometry":{"type":"Point","coordinates":[-96.777626,32.767268]}},{"properties":{"sales":27614.86,"zip":"75429","geo_score":0.714,"id":"a6amkplsvduk","geo_precision":"zip"},"type":"Feature","geometry":{"type":"Point","coordinates":[-95.90886,33.237722]}},{"properties":{"sales":2530.7,"zip":"75601","geo_score":0.714,"id":"a6amkpzpxg5v","geo_precision":"zip"},"type":"Feature","geometry":{"type":"Point","coordinates":[-94.807991,32.537368]}},{"properties":{"sales":251.95,"zip":"75979","geo_score":0.714,"id":"a6amkq03smp8","geo_precision":"zip"},"type":"Feature","geometry":{"type":"Point","coordinates":[-94.366929,30.758494]}},{"properties":{"sales":1087.8,"zip":"76034","geo_score":0.714,"id":"a6amkpwdcspk","geo_precision":"zip"},"type":"Feature","geometry":{"type":"Point","coordinates":[-97.168346,32.899849]}},{"properties":{"sales":146.0,"zip":"76048","geo_score":0.714,"id":"a6amkptvdlsa","geo_precision":"zip"},"type":"Feature","geometry":{"type":"Point","coordinates":[-97.720305,32.483749]}},{"properties":{"sales":150.0,"zip":"76051","geo_score":0.714,"id":"a6amkpuipcck","geo_precision":"zip"},"type":"Feature","geometry":{"type":"Point","coordinates":[-97.080802,32.932843]}},{"properties":{"sales":274.3,"zip":"76244","geo_score":0.714,"id":"a6amkptx3ve0","geo_precision":"zip"},"type":"Feature","geometry":{"type":"Point","coordinates":[-97.291484,32.771419]}},{"properties":{"sales":150.0,"zip":"76567","geo_score":0.714,"id":"a6amkpyxk3zk","geo_precision":"zip"},"type":"Feature","geometry":{"type":"Point","coordinates":[-97.132768,30.593534]}},{"properties":{"sales":18614.1,"zip":"76701","geo_score":0.714,"id":"a6amkpozoq4n","geo_precision":"zip"},"type":"Feature","geometry":{"type":"Point","coordinates":[-97.244452,31.630997]}},{"properties":{"sales":34343.91,"zip":"76802","geo_score":0.714,"id":"a6amkpps44a0","geo_precision":"zip"},"type":"Feature","geometry":{"type":"Point","coordinates":[-98.922858,31.787392]}},{"properties":{"sales":1646.0,"zip":"76901","geo_score":0.714,"id":"a6amkq0bgb2w","geo_precision":"zip"},"type":"Feature","geometry":{"type":"Point","coordinates":[-100.331758,31.656822]}},{"properties":{"sales":53794.1,"zip":"76903","geo_score":0.714,"id":"a6amkpn595tl","geo_precision":"zip"},"type":"Feature","geometry":{"type":"Point","coordinates":[-100.301959,31.505333]}},{"properties":{"sales":14023.5,"zip":"77002","geo_score":0.714,"id":"a6amkpzk69ad","geo_precision":"zip"},"type":"Feature","geometry":{"type":"Point","coordinates":[-95.302435,29.91189]}},{"properties":{"sales":4183.5,"zip":"77032","geo_score":0.714,"id":"a6amkplk9g20","geo_precision":"zip"},"type":"Feature","geometry":{"type":"Point","coordinates":[-95.434241,29.83399]}},{"properties":{"sales":25657.9,"zip":"77043","geo_score":0.714,"id":"a6amkpp3hsg0","geo_precision":"zip"},"type":"Feature","geometry":{"type":"Point","coordinates":[-95.434241,29.83399]}},{"properties":{"sales":1200.0,"zip":"77058","geo_score":0.714,"id":"a6amkq0y5fb8","geo_precision":"zip"},"type":"Feature","geometry":{"type":"Point","coordinates":[-95.091041,29.544675]}},{"properties":{"sales":51288.2,"zip":"77208","geo_score":0.714,"id":"a6amkpmrkhta","geo_precision":"zip"},"type":"Feature","geometry":{"type":"Point","coordinates":[-95.434241,29.83399]}},{"properties":{"sales":12886.3,"zip":"77210","geo_score":0.714,"id":"a6amkpnl1zha","geo_precision":"zip"},"type":"Feature","geometry":{"type":"Point","coordinates":[-95.434241,29.83399]}},{"properties":{"sales":1062.6,"zip":"77234","geo_score":0.714,"id":"a6amkpsxn22l","geo_precision":"zip"},"type":"Feature","geometry":{"type":"Point","coordinates":[-95.434241,29.83399]}},{"properties":{"sales":135.0,"zip":"77380","geo_score":0.714,"id":"a6amkq0fiegt","geo_precision":"zip"},"type":"Feature","geometry":{"type":"Point","coordinates":[-95.489385,30.157994]}},{"properties":{"sales":119.0,"zip":"77384","geo_score":0.714,"id":"a6amkpvzg6v3","geo_precision":"zip"},"type":"Feature","geometry":{"type":"Point","coordinates":[-95.499935,30.225997]}},{"properties":{"sales":46204.4,"zip":"77388","geo_score":0.714,"id":"a6amkpvg535n","geo_precision":"zip"},"type":"Feature","geometry":{"type":"Point","coordinates":[-95.434241,29.83399]}},{"properties":{"sales":177.73,"zip":"77459","geo_score":0.714,"id":"a6amkpulpejp","geo_precision":"zip"},"type":"Feature","geometry":{"type":"Point","coordinates":[-95.649939,29.323965]}},{"properties":{"sales":20742.37,"zip":"77566","geo_score":0.714,"id":"a6amkpl97j03","geo_precision":"zip"},"type":"Feature","geometry":{"type":"Point","coordinates":[-95.471609,29.057746]}},{"properties":{"sales":256.0,"zip":"77598","geo_score":0.714,"id":"a6amkpxwcn77","geo_precision":"zip"},"type":"Feature","geometry":{"type":"Point","coordinates":[-95.128758,29.550411]}},{"properties":{"sales":47430.5,"zip":"77612","geo_score":0.714,"id":"a6amkpkp0wf8","geo_precision":"zip"},"type":"Feature","geometry":{"type":"Point","coordinates":[-93.953235,30.462706]}},{"properties":{"sales":964.25,"zip":"78025","geo_score":0.714,"id":"a6amkprhgubm","geo_precision":"zip"},"type":"Feature","geometry":{"type":"Point","coordinates":[-99.207682,30.07271]}},{"properties":{"sales":3498.4,"zip":"78205","geo_score":0.714,"id":"a6amkpwwonnz","geo_precision":"zip"},"type":"Feature","geometry":{"type":"Point","coordinates":[-98.484144,29.424132]}},{"properties":{"sales":620.5,"zip":"78207","geo_score":0.714,"id":"a6amkpqzwbmb","geo_precision":"zip"},"type":"Feature","geometry":{"type":"Point","coordinates":[-98.439943,29.348816]}},{"properties":{"sales":192575.95,"zip":"78228","geo_score":0.714,"id":"a6amkpw8f562","geo_precision":"zip"},"type":"Feature","geometry":{"type":"Point","coordinates":[-98.467443,29.353335]}},{"properties":{"sales":3002.0,"zip":"78522","geo_score":0.714,"id":"a6amkpvdpto2","geo_precision":"zip"},"type":"Feature","geometry":{"type":"Point","coordinates":[-97.764271,26.188911]}},{"properties":{"sales":59399.57,"zip":"78552","geo_score":0.714,"id":"a6amkps2b6e0","geo_precision":"zip"},"type":"Feature","geometry":{"type":"Point","coordinates":[-97.683666,26.174402]}},{"properties":{"sales":849.7,"zip":"79101","geo_score":0.714,"id":"a6amkpzr6b3w","geo_precision":"zip"},"type":"Feature","geometry":{"type":"Point","coordinates":[-93.05518,34.5037]}},{"properties":{"sales":1116.0,"zip":"79347","geo_score":0.714,"id":"a6amkpylt0j8","geo_precision":"zip"},"type":"Feature","geometry":{"type":"Point","coordinates":[-102.809941,34.282855]}},{"properties":{"sales":95.0,"zip":"79424","geo_score":0.714,"id":"a6amkpon1kq5","geo_precision":"zip"},"type":"Feature","geometry":{"type":"Point","coordinates":[-101.983125,33.492483]}},{"properties":{"sales":69.99,"zip":"79701","geo_score":0.714,"id":"a6amkppnw9fc","geo_precision":"zip"},"type":"Feature","geometry":{"type":"Point","coordinates":[-102.091276,31.861876]}}],"is_temporal":false,"author":{"url":"","metadata":"","contact_name":"","contact_address":"","source":"","contact_phone":""},"source":"","pagination":{"sort":null,"start":0,"total":43,"limit":1000000},"state":"complete","tags":"","published":"2014-08-13T11:10:09-04:00","id":179020}