{"type":"FeatureCollection","data_type":"Dataset","url_type":null,"permissions":[{"permissions":{"download":true,"view":true},"group_id":"everyone"}],"classification":null,"title":"DMV_Resources","count":39,"stream_id":179198,"contributor":{"url":"http://geocommons.com/users/35762","name":"kcboss"},"data_attributes":null,"calculation_params":null,"icon_link":null,"link":"http://geocommons.com/overlays/179198.json","extent":[-78.7618,38.0774,-75.5655,39.6546],"geometry_types":["point"],"unique_name":null,"name":"DMV_Resources","feature_count":39,"description":"","next_feature":null,"is_raster":false,"short_classification":"Y","stats":{},"features":[{"properties":{"city":"Brentwood","zip":"20722","geo_score":0.965,"url":"http://www.familycrisiscenter-pgco.org/","phone":"301-731-1203","organization":"Family Crisis Center","id":"a6362oe2rf5s","geo_precision":"range","address":"3601 Taylor Street","state":"MD"},"type":"Feature","geometry":{"type":"Point","coordinates":[-76.95949,38.941595]}},{"properties":{"city":"Cumberland","zip":"21502","geo_score":0.967,"url":"http://www.familycrc.org/","phone":"301-759-9244","organization":"Family Crisis Resource Center","id":"a6362ogl4b92","geo_precision":"range","address":"146 Bedford Street","state":"MD"},"type":"Feature","geometry":{"type":"Point","coordinates":[-78.761787,39.654589]}},{"properties":{"city":"Arnold","zip":"21012","geo_score":0.393,"url":"http://www.annapolisywca.org/programs-domestic-violence.php","phone":"410-222-6800","organization":"YMCA Domestic Violence Resource Center","id":"a6362ojtlqtq","geo_precision":"street","address":"1517 Ritchie Highway, Suite 201","state":"MD"},"type":"Feature","geometry":{"type":"Point","coordinates":[-76.450926,39.467456]}},{"properties":{"city":"Baltimore","zip":"21218","geo_score":0.924,"url":"http://www.hruth.org/","phone":"410-889-7884","organization":"House of Ruth Maryland","id":"a6362omrgbeh","geo_precision":"range","address":"2201 Argonne Drive","state":"MD"},"type":"Feature","geometry":{"type":"Point","coordinates":[-76.578633,39.339615]}},{"properties":{"city":"Towson","zip":"21204","geo_score":0.869,"url":"http://www.turnaroundinc.org/","phone":"410-828-6390","organization":"Turnaround Inc.","id":"a6362ogc7o79","geo_precision":"range","address":"401 Washington Avenue Ste 300","state":"MD"},"type":"Feature","geometry":{"type":"Point","coordinates":[-76.605415,39.39967]}},{"properties":{"city":"Baltimore","zip":"21209","geo_score":0.912,"url":"http://www.fcsmd.org/","phone":"410-828-6390","organization":"Family and Children's Services","id":"a6362on8urml","geo_precision":"range","address":"4623 Falls Road","state":"MD"},"type":"Feature","geometry":{"type":"Point","coordinates":[-76.640894,39.345369]}},{"properties":{"city":"Baltimore","zip":"21222","geo_score":0.444,"url":"http://www.familycrisiscenter.net/","phone":"410-828-6390","organization":"Family Crisis Center of Baltimore County","id":"a6362okbmxc0","geo_precision":"street","address":"P.O. Box 3909","state":"MD"},"type":"Feature","geometry":{"type":"Point","coordinates":[-76.460641,39.278203]}},{"properties":{"city":"Baltimore","zip":"21201","geo_score":0.614,"url":"http://www.turnaroundinc.org/","phone":"410-828-6390","organization":"Turnaround Inc.","id":"a6362oe3bg08","geo_precision":"street","address":"2300 N. Charles Street 2nd Floor","state":"MD"},"type":"Feature","geometry":{"type":"Point","coordinates":[-76.615248,39.289525]}},{"properties":{"city":"Prince Frederick","zip":"21701","geo_score":0.489,"url":"http://www.calverthealth.org/personalhealth/crisisintervention/index.htm","phone":"410-535-1121","organization":"Crisis Intervention Center","id":"a6362og4paxo","geo_precision":"street","address":"975 Solomons Island Road North","state":"MD"},"type":"Feature","geometry":{"type":"Point","coordinates":[-77.71153,39.51215]}},{"properties":{"city":"Baltimore","zip":"21209","geo_score":0.912,"url":"http://www.fcsmd.org/","phone":"410-857-0077","organization":"Family &amp; Children's Svcs of Central MD","id":"a6362o7amazd","geo_precision":"range","address":"4623 Falls Road","state":"MD"},"type":"Feature","geometry":{"type":"Point","coordinates":[-76.640894,39.345369]}},{"properties":{"city":"Denton","zip":"21629","geo_score":0.476,"url":"http://www.mscfv.org/joomla/","phone":"800-927-4673","organization":"Mid-Shore Council  on Family Violence","id":"a6362ogfg1mm","geo_precision":"street","address":"P.O. Box 5","state":"MD"},"type":"Feature","geometry":{"type":"Point","coordinates":[-75.829788,38.88454]}},{"properties":{"city":"Elkton","zip":"21921","geo_score":0.908,"url":"http://www.dhr.state.md.us/county/cecil/spprogs.ph","phone":"410-996-0333","organization":"Cecil County Domestic Violence Center","id":"a6362om7ah23","geo_precision":"range","address":"405 Bow Street","state":"MD"},"type":"Feature","geometry":{"type":"Point","coordinates":[-75.8313,39.613586]}},{"properties":{"city":"Waldorf","zip":"20601","geo_score":0.772,"url":"http://www.centerforabusedpersons.com/","phone":"301-645-3336","organization":"Center for Abused Persons","id":"a6362ogk268v","geo_precision":"range","address":"2670 Crain Highway Suite 303","state":"MD"},"type":"Feature","geometry":{"type":"Point","coordinates":[-76.899574,38.637068]}},{"properties":{"city":"Frederick","zip":"21705","geo_score":0.286,"url":"http://www.heartlyhouse.org/","phone":"301-662-8800","organization":"Heartly House","id":"a6362ol7q5pr","geo_precision":"street","address":"P.O. Box 857","state":"MD"},"type":"Feature","geometry":{"type":"Point","coordinates":[-77.024988,39.443384]}},{"properties":{"city":"Aberdeen","zip":"21001","geo_score":0.905,"url":"http://www.sarc-maryland.org/","phone":"410-836-8430","organization":"Sex Assault/Spouse Abuse Resource Center","id":"a6362o826h3u","geo_precision":"zip","address":null,"state":"MD"},"type":"Feature","geometry":{"type":"Point","coordinates":[-76.137452,39.523167]}},{"properties":{"city":"Columbia","zip":"21045","geo_score":0.488,"url":"http://www.dvcenter.org/","phone":"410-997-2272","organization":"Domestic Violence Center","id":"a6362odcy9cg","geo_precision":"street","address":"5457 Twin Knolls Road, Suite 310","state":"MD"},"type":"Feature","geometry":{"type":"Point","coordinates":[-76.843041,39.220723]}},{"properties":{"city":"Rockville","zip":"20850","geo_score":0.915,"url":"http://www.montgomerycountymd.gov/hhstmpl.asp?url=/content/hhs/bhcs/vs.asp","phone":"240-777-4195","organization":"Abused Persons Program","id":"a6362o89950x","geo_precision":"range","address":"1301 Piccard Drive","state":"MD"},"type":"Feature","geometry":{"type":"Point","coordinates":[-77.177131,39.101863]}},{"properties":{"city":"Charlotte Hall","zip":"20622","geo_score":0.91,"url":"http://www.waldensierra.org/","phone":"301-863-6661","organization":"Walden/Sierra","id":"a6362odwa666","geo_precision":"range","address":"30007 Business Center Dr","state":"MD"},"type":"Feature","geometry":{"type":"Point","coordinates":[-76.768305,38.492994]}},{"properties":{"city":"Hollywood","zip":"20636","geo_score":0.961,"url":"http://www.smcfa.net/","phone":"301-373-4141","organization":"So. MD Center for Family Advocacy","id":"a6362ojmd2eq","geo_precision":"range","address":"23918 Mervell Dean Rd","state":"MD"},"type":"Feature","geometry":{"type":"Point","coordinates":[-76.547284,38.324475]}},{"properties":{"city":"Salisbury","zip":"21803","geo_score":0.286,"url":"http://www.lifecrisiscenter.org/","phone":"800-422-0009","organization":"Life Crisis Center","id":"a6362o828cgp","geo_precision":"street","address":"P.O. Box 387","state":"MD"},"type":"Feature","geometry":{"type":"Point","coordinates":[-75.565483,38.077422]}},{"properties":{"city":"Hagerstown","zip":"21740","geo_score":0.479,"url":"http://www.casainc.org/","phone":"310-739-8975","organization":"Citizens Assisting &amp; Sheltering the Abused","id":"a6362o8ib1do","geo_precision":"street","address":"116 W. Baltimore Street","state":"MD"},"type":"Feature","geometry":{"type":"Point","coordinates":[-77.72227,39.638999]}},{"properties":{"city":"Baltimore","zip":"21215","geo_score":0.83,"url":"http://www.chanabaltimore.org/","phone":"410-234-0023","organization":"CHANA (Jewish)","id":"a6362odryozb","geo_precision":"range","address":"5809 Park Heights Avenue","state":"MD"},"type":"Feature","geometry":{"type":"Point","coordinates":[-76.686937,39.354445]}},{"properties":{"city":"Baltimore","zip":"21218","geo_score":0.924,"url":"http://www.hruth.org/AdelanteFamiliaatHouseOfRuthMaryland.asp","phone":"410-889-7884","organization":"Adelante Familia at House of Ruth","id":"a6362oloj316","geo_precision":"range","address":"2201 Argonne Drive","state":"MD"},"type":"Feature","geometry":{"type":"Point","coordinates":[-76.578633,39.339615]}},{"properties":{"city":"Washington","zip":"20044","geo_score":0.371,"url":"http://www.dvrp.org/","phone":"800-799-7233","organization":"Asian/Pacific Islander Project","id":"a6362oie2k10","geo_precision":"street","address":"P.O. Box 14268","state":"DC"},"type":"Feature","geometry":{"type":"Point","coordinates":[-77.015148,38.872037]}},{"properties":{"city":"Washington","zip":"20005","geo_score":0.649,"url":"http://www.dccadv.org/","phone":"202-299-1181","organization":"DC Coalition Against Domestic Violence","id":"a6362obj7d37","geo_precision":"street","address":"5 Thomas Circle, NW","state":"DC"},"type":"Feature","geometry":{"type":"Point","coordinates":[-77.032412,38.905646]}},{"properties":{"city":"Washington","zip":"20012","geo_score":0.973,"url":"http://www.ayudainc.org","phone":"202-387-4848","organization":"Ayuda","id":"a6362om3aj34","geo_precision":"range","address":"6925 B Willow Street NW","state":"DC"},"type":"Feature","geometry":{"type":"Point","coordinates":[-77.015055,38.972918]}},{"properties":{"city":"Washington","zip":"20009","geo_score":0.371,"url":"http://www.breakthecycle.org","phone":"202-824-0707","organization":"Break The Cycle","id":"a6362old47vf","geo_precision":"street","address":"P.O. Box 21034","state":"DC"},"type":"Feature","geometry":{"type":"Point","coordinates":[-77.015148,38.872037]}},{"properties":{"city":"Washington","zip":"20056","geo_score":0.329,"url":"http://www.dashdc.org","phone":"202-462-3274","organization":"District Alliance for Safe Housing","id":"a6362oewe5g5","geo_precision":"street","address":"PO Box 73186","state":"DC"},"type":"Feature","geometry":{"type":"Point","coordinates":[-77.015148,38.872037]}},{"properties":{"city":"Washington","zip":"20011","geo_score":0.829,"url":"http://www.deafdawn.org","phone":"202-559-5336","organization":"Deaf Abused Women's Network","id":"a6362oechl37","geo_precision":"range","address":"5321 First Place NE","state":"DC"},"type":"Feature","geometry":{"type":"Point","coordinates":[-77.004545,38.95408]}},{"properties":{"city":"Washington","zip":"20052","geo_score":0.709,"url":"http://www.dvleap.org","phone":null,"organization":"DV Legal Empowerment &amp; Appeals","id":"a6362o78u7el","geo_precision":"street","address":"2000 G Street NW","state":"DC"},"type":"Feature","geometry":{"type":"Point","coordinates":[-77.046657,38.898322]}},{"properties":{"city":"Washington","zip":"20005","geo_score":0.649,"url":"http://www.houseofruth.org","phone":"202-667-7001","organization":"House of Ruth","id":"a6362o92ld9v","geo_precision":"street","address":"5 Thomas Circle, NW","state":"DC"},"type":"Feature","geometry":{"type":"Point","coordinates":[-77.032412,38.905646]}},{"properties":{"city":"Washington","zip":"20017","geo_score":0.371,"url":"http://www.mysistersplacedc.org","phone":"202-529-5261","organization":"My Sister's Place","id":"a6362oei5c9g","geo_precision":"street","address":"P.O. Box 29596","state":"DC"},"type":"Feature","geometry":{"type":"Point","coordinates":[-77.015148,38.872037]}},{"properties":{"city":"Washington","zip":"20003","geo_score":0.755,"url":"http://www.dcsafe.org","phone":"202-408-1476","organization":"Survivors &amp; Advocates of Empowerment","id":"a6362odahphg","geo_precision":"street","address":"733 1/2 8th Street, SE Suite A","state":"DC"},"type":"Feature","geometry":{"type":"Point","coordinates":[-76.994962,38.889806]}},{"properties":{"city":"Washington","zip":"20001","geo_score":0.829,"url":"http://www.dcsc.gov/dccourts/superior/dv/intake.jsp","phone":"202-879-7851","organization":"DC Court Domestic Violence Intake","id":"a6362ojksm9p","geo_precision":"range","address":"500 Indiana Avenue NW Rm 4200","state":"DC"},"type":"Feature","geometry":{"type":"Point","coordinates":[-77.019111,38.894641]}},{"properties":{"city":"Washington","zip":"20005","geo_score":0.941,"url":"http://www.weaveincorp.org/","phone":"202-452-9550","organization":"Washington Empowered Against Violence","id":"a6362okf4gtz","geo_precision":"range","address":"1422 K Street NW","state":"DC"},"type":"Feature","geometry":{"type":"Point","coordinates":[-77.032297,38.898316]}},{"properties":{"city":"Washington","zip":"20039","geo_score":0.329,"url":"http://www.womenoffreedomfoundation.org","phone":"202-250-1699","organization":"Women of Freedom Foundation","id":"a6362oir1udf","geo_precision":"street","address":"PO Box 60087","state":"DC"},"type":"Feature","geometry":{"type":"Point","coordinates":[-77.015148,38.872037]}},{"properties":{"city":"Washington","zip":"20032","geo_score":0.922,"url":"http://www.dcsc.gov/dccourts/superior/dv/intake.jsp","phone":"202-879-7851","organization":"DC Court Domestic Violence Intake","id":"a6362oec8nks","geo_precision":"range","address":"1328 Southern Avenue SE","state":"DC"},"type":"Feature","geometry":{"type":"Point","coordinates":[-76.979704,38.838063]}},{"properties":{"city":"Falls Church","zip":"22042","geo_score":0.507,"url":"http://www.tahirih.org/","phone":"571-282-6161","organization":"Tahirih Justice Center","id":"a6362ok9zuxh","geo_precision":"street","address":"6402 Arlington Blvd, Suite 300","state":"VA"},"type":"Feature","geometry":{"type":"Point","coordinates":[-77.159527,38.872248]}},{"properties":{"city":"Sterling","zip":"20164","geo_score":0.679,"url":"http://www.ayudainc.org","phone":"703-444-7009","organization":"Ayuda","id":"a6362oga0pl0","geo_precision":"street","address":"46950 Community Plaza, Suite 213","state":"VA"},"type":"Feature","geometry":{"type":"Point","coordinates":[-77.376322,39.016847]}}],"is_temporal":false,"author":{"url":"","metadata":null,"contact_name":null,"contact_address":null,"source":null,"contact_phone":null},"source":"","pagination":{"sort":null,"start":0,"total":39,"limit":1000000},"state":"complete","tags":"","published":"2014-08-13T11:33:27-04:00","id":179198}