{"type":"FeatureCollection","data_type":"Dataset","url_type":null,"permissions":[{"permissions":{"download":true,"view":true},"group_id":"everyone"}],"classification":null,"title":"20092010prostitution","count":597,"stream_id":180090,"contributor":{"url":"http://geocommons.com/users/16869","name":"mickcote"},"data_attributes":null,"calculation_params":null,"icon_link":null,"link":"http://geocommons.com/overlays/180090.json","extent":[0.0,0.0,0.0,0.0],"geometry_types":[],"unique_name":null,"name":"20092010prostitution","feature_count":597,"description":"","next_feature":null,"is_raster":false,"short_classification":"Y","stats":{"total dispatches":{"max":5,"mean":0.882747068676717,"variance":0.610389756388208,"stdev":0.781274443706056,"min":0,"median":1}},"features":[{"properties":{"column_6":null,"occ date":"11/14/10","column_7":null,"district":"HE","geo_score":0.0,"column_8":null,"total dispatches":1,"column_9":null,"id":"a6qkallejo5o","geo_precision":"unmatched","address":"JACKSON RD / ROBERT BURNS DR","final case full":"http://wwwapps.tc.gc.ca/Saf-Sec-Sur/2/CADORS-SCREAQ/m.aspx?lang=eng"},"type":"Feature","geometry":null},{"properties":{"column_6":null,"occ date":"11/13/10","column_7":null,"district":"HE","geo_score":0.0,"column_8":null,"total dispatches":1,"column_9":null,"id":"a6qkalfv12th","geo_precision":"unmatched","address":"JACKSON RD / ROBERT BURNS DR","final case full":"PROS - PROSTITUTION COMPLAINT"},"type":"Feature","geometry":null},{"properties":{"column_6":null,"occ date":"11/11/10","column_7":null,"district":"HE","geo_score":0.0,"column_8":null,"total dispatches":1,"column_9":null,"id":"a6qkalafvfgy","geo_precision":"unmatched","address":"ELMWOOD AVE / WINDMILL RD","final case full":"PROS - PROSTITUTION COMPLAINT"},"type":"Feature","geometry":null},{"properties":{"column_6":null,"occ date":"11/10/10","column_7":null,"district":"HE","geo_score":0.0,"column_8":null,"total dispatches":2,"column_9":null,"id":"a6qkaljt6zp5","geo_precision":"unmatched","address":"QUEEN ST","final case full":"PROS - PROSTITUTION COMPLAINT"},"type":"Feature","geometry":null},{"properties":{"column_6":null,"occ date":"11/09/10","column_7":null,"district":"HC","geo_score":0.0,"column_8":null,"total dispatches":0,"column_9":null,"id":"a6qkal9yp3yw","geo_precision":"unmatched","address":"BRUNSWICK ST","final case full":"PROS - PROSTITUTION COMPLAINT"},"type":"Feature","geometry":null},{"properties":{"column_6":null,"occ date":"11/08/10","column_7":null,"district":"HE","geo_score":0.0,"column_8":null,"total dispatches":1,"column_9":null,"id":"a6qkali0vfsd","geo_precision":"unmatched","address":"JAMIESON ST","final case full":"PROS - PROSTITUTION COMPLAINT"},"type":"Feature","geometry":null},{"properties":{"column_6":null,"occ date":"11/06/10","column_7":null,"district":"HE","geo_score":0.0,"column_8":null,"total dispatches":1,"column_9":null,"id":"a6qkalec1o1m","geo_precision":"unmatched","address":"JACKSON RD","final case full":"PROS - PROSTITUTION COMPLAINT"},"type":"Feature","geometry":null},{"properties":{"column_6":null,"occ date":"11/04/10","column_7":null,"district":"HE","geo_score":0.0,"column_8":null,"total dispatches":1,"column_9":null,"id":"a6qkalomcso7","geo_precision":"unmatched","address":"PRIMROSE ST","final case full":"PROS - PROSTITUTION COMPLAINT"},"type":"Feature","geometry":null},{"properties":{"column_6":null,"occ date":"11/02/10","column_7":null,"district":"HC","geo_score":0.0,"column_8":null,"total dispatches":0,"column_9":null,"id":"a6qkalnxj64d","geo_precision":"unmatched","address":"BRUNSWICK ST","final case full":"PROS - PROSTITUTION COMPLAINT"},"type":"Feature","geometry":null},{"properties":{"column_6":null,"occ date":"10/26/10","column_7":null,"district":"HE","geo_score":0.0,"column_8":null,"total dispatches":1,"column_9":null,"id":"a6qkalb7snrx","geo_precision":"unmatched","address":"JACKSON RD / VICTORIA RD","final case full":"PROS - PROSTITUTION COMPLAINT"},"type":"Feature","geometry":null},{"properties":{"column_6":null,"occ date":"10/22/10","column_7":null,"district":"HE","geo_score":0.0,"column_8":null,"total dispatches":1,"column_9":null,"id":"a6qkaljckwo6","geo_precision":"unmatched","address":"JACKSON RD","final case full":"PROS - PROSTITUTION COMPLAINT"},"type":"Feature","geometry":null},{"properties":{"column_6":null,"occ date":"10/22/10","column_7":null,"district":"HE","geo_score":0.0,"column_8":null,"total dispatches":1,"column_9":null,"id":"a6qkal9exhkc","geo_precision":"unmatched","address":"WINDMILL RD / STAIRS ST","final case full":"PROS - PROSTITUTION COMPLAINT"},"type":"Feature","geometry":null},{"properties":{"column_6":null,"occ date":"10/21/10","column_7":null,"district":"HE","geo_score":0.0,"column_8":null,"total dispatches":2,"column_9":null,"id":"a6qkal9uxj0h","geo_precision":"unmatched","address":"JACKSON RD","final case full":"PROS - PROSTITUTION COMPLAINT"},"type":"Feature","geometry":null},{"properties":{"column_6":null,"occ date":"10/19/10","column_7":null,"district":"HC","geo_score":0.0,"column_8":null,"total dispatches":0,"column_9":null,"id":"a6qkalmj4669","geo_precision":"unmatched","address":"BRUNSWICK ST","final case full":"PROS - PROSTITUTION COMPLAINT"},"type":"Feature","geometry":null},{"properties":{"column_6":null,"occ date":"10/20/10","column_7":null,"district":"HE","geo_score":0.0,"column_8":null,"total dispatches":1,"column_9":null,"id":"a6qkalmq9ffy","geo_precision":"unmatched","address":"JACKSON RD","final case full":"PROS - PROSTITUTION COMPLAINT"},"type":"Feature","geometry":null},{"properties":{"column_6":null,"occ date":"10/19/10","column_7":null,"district":"HE","geo_score":0.0,"column_8":null,"total dispatches":0,"column_9":null,"id":"a6qkalhqga3f","geo_precision":"unmatched","address":"ALBRO LAKE RD / WINDMILL RD","final case full":"PROS - PROSTITUTION COMPLAINT"},"type":"Feature","geometry":null},{"properties":{"column_6":null,"occ date":"10/19/10","column_7":null,"district":"HE","geo_score":0.0,"column_8":null,"total dispatches":1,"column_9":null,"id":"a6qkal9t2s8a","geo_precision":"unmatched","address":"WINDMILL RD / WALLACE ST","final case full":"PROS - PROSTITUTION COMPLAINT"},"type":"Feature","geometry":null},{"properties":{"column_6":null,"occ date":"10/19/10","column_7":null,"district":"HE","geo_score":0.0,"column_8":null,"total dispatches":1,"column_9":null,"id":"a6qkalo569hc","geo_precision":"unmatched","address":"JAMIESON ST / WINDMILL RD","final case full":"PROS - PROSTITUTION COMPLAINT"},"type":"Feature","geometry":null},{"properties":{"column_6":null,"occ date":"10/17/10","column_7":null,"district":"HE","geo_score":0.0,"column_8":null,"total dispatches":1,"column_9":null,"id":"a6qkal8p9dao","geo_precision":"unmatched","address":"JACKSON RD / VICTORIA RD","final case full":"PROS - PROSTITUTION COMPLAINT"},"type":"Feature","geometry":null},{"properties":{"column_6":null,"occ date":"10/14/10","column_7":null,"district":"HE","geo_score":0.0,"column_8":null,"total dispatches":1,"column_9":null,"id":"a6qkalj9ezc4","geo_precision":"unmatched","address":"JACKSON RD","final case full":"PROS - PROSTITUTION COMPLAINT"},"type":"Feature","geometry":null},{"properties":{"column_6":null,"occ date":"10/14/10","column_7":null,"district":"HC","geo_score":0.0,"column_8":null,"total dispatches":0,"column_9":null,"id":"a6qkal8xsnfx","geo_precision":"unmatched","address":"BRUNSWICK ST","final case full":"PROS - PROSTITUTION COMPLAINT"},"type":"Feature","geometry":null},{"properties":{"column_6":null,"occ date":"10/13/10","column_7":null,"district":"HE","geo_score":0.0,"column_8":null,"total dispatches":1,"column_9":null,"id":"a6qkalkjc08u","geo_precision":"unmatched","address":"JACKSON RD / VICTORIA RD","final case full":"PROS - PROSTITUTION COMPLAINT"},"type":"Feature","geometry":null},{"properties":{"column_6":null,"occ date":"10/13/10","column_7":null,"district":"HE","geo_score":0.0,"column_8":null,"total dispatches":1,"column_9":null,"id":"a6qkalcl91cj","geo_precision":"unmatched","address":"HENRY ST / WINDMILL RD","final case full":"PROS - PROSTITUTION COMPLAINT"},"type":"Feature","geometry":null},{"properties":{"column_6":null,"occ date":"10/12/10","column_7":null,"district":"HC","geo_score":0.0,"column_8":null,"total dispatches":1,"column_9":null,"id":"a6qkalfnh2a2","geo_precision":"unmatched","address":"BLOOMFIELD ST / AGRICOLA ST","final case full":"PROS - PROSTITUTION COMPLAINT"},"type":"Feature","geometry":null},{"properties":{"column_6":null,"occ date":"10/11/10","column_7":null,"district":"HE","geo_score":0.0,"column_8":null,"total dispatches":1,"column_9":null,"id":"a6qkalo9yxh8","geo_precision":"unmatched","address":"ELWOOD DR / WINDMILL RD","final case full":"PROS - PROSTITUTION COMPLAINT"},"type":"Feature","geometry":null},{"properties":{"column_6":null,"occ date":"10/08/10","column_7":null,"district":"HE","geo_score":0.0,"column_8":null,"total dispatches":1,"column_9":null,"id":"a6qkal9ilqvd","geo_precision":"unmatched","address":"JACKSON RD","final case full":"PROS - PROSTITUTION COMPLAINT"},"type":"Feature","geometry":null},{"properties":{"column_6":null,"occ date":"10/08/10","column_7":null,"district":"HE","geo_score":0.0,"column_8":null,"total dispatches":1,"column_9":null,"id":"a6qkalfskfd0","geo_precision":"unmatched","address":"WINDMILL RD / ELMWOOD AVE","final case full":"PROS - PROSTITUTION COMPLAINT"},"type":"Feature","geometry":null},{"properties":{"column_6":null,"occ date":"10/08/10","column_7":null,"district":"HC","geo_score":0.0,"column_8":null,"total dispatches":1,"column_9":null,"id":"a6qkalhlpz7e","geo_precision":"unmatched","address":"ALMON ST / ISLEVILLE ST","final case full":"PROS - PROSTITUTION COMPLAINT"},"type":"Feature","geometry":null},{"properties":{"column_6":null,"occ date":"10/07/10","column_7":null,"district":"HE","geo_score":0.0,"column_8":null,"total dispatches":1,"column_9":null,"id":"a6qkali3oz2g","geo_precision":"unmatched","address":"JAMIESON ST / HESTER ST","final case full":"PROS - PROSTITUTION COMPLAINT"},"type":"Feature","geometry":null},{"properties":{"column_6":null,"occ date":"10/07/10","column_7":null,"district":"HC","geo_score":0.0,"column_8":null,"total dispatches":0,"column_9":null,"id":"a6qkalgfygf8","geo_precision":"unmatched","address":"BRUNSWICK ST","final case full":"PROS - PROSTITUTION COMPLAINT"},"type":"Feature","geometry":null},{"properties":{"column_6":null,"occ date":"10/06/10","column_7":null,"district":"HE","geo_score":0.0,"column_8":null,"total dispatches":2,"column_9":null,"id":"a6qkaljkbohv","geo_precision":"unmatched","address":"WINDMILL RD","final case full":"PROS - PROSTITUTION COMPLAINT"},"type":"Feature","geometry":null},{"properties":{"column_6":null,"occ date":"10/06/10","column_7":null,"district":"HE","geo_score":0.0,"column_8":null,"total dispatches":1,"column_9":null,"id":"a6qkalkqpqf9","geo_precision":"unmatched","address":"JAMIESON ST","final case full":"PROS - PROSTITUTION COMPLAINT"},"type":"Feature","geometry":null},{"properties":{"column_6":null,"occ date":"10/05/10","column_7":null,"district":"HE","geo_score":0.0,"column_8":null,"total dispatches":1,"column_9":null,"id":"a6qkalgmpdgo","geo_precision":"unmatched","address":"HESTER ST / JAMIESON ST","final case full":"PROS - PROSTITUTION COMPLAINT"},"type":"Feature","geometry":null},{"properties":{"column_6":null,"occ date":"10/05/10","column_7":null,"district":"HE","geo_score":0.0,"column_8":null,"total dispatches":0,"column_9":null,"id":"a6qkalm5uba2","geo_precision":"unmatched","address":"WALLACE ST / WINDMILL RD","final case full":"PROS - PROSTITUTION COMPLAINT"},"type":"Feature","geometry":null},{"properties":{"column_6":null,"occ date":"10/04/10","column_7":null,"district":"HE","geo_score":0.0,"column_8":null,"total dispatches":2,"column_9":null,"id":"a6qkalap3cxf","geo_precision":"unmatched","address":"WINDMILL RD","final case full":"PROS - PROSTITUTION COMPLAINT"},"type":"Feature","geometry":null},{"properties":{"column_6":null,"occ date":"10/04/10","column_7":null,"district":"HE","geo_score":0.0,"column_8":null,"total dispatches":1,"column_9":null,"id":"a6qkalb7bhet","geo_precision":"unmatched","address":"STAIRS ST / WINDMILL RD","final case full":"PROS - PROSTITUTION COMPLAINT"},"type":"Feature","geometry":null},{"properties":{"column_6":null,"occ date":"10/04/10","column_7":null,"district":"HE","geo_score":0.0,"column_8":null,"total dispatches":1,"column_9":null,"id":"a6qkallplfj3","geo_precision":"unmatched","address":"JACKSON RD","final case full":"PROS - PROSTITUTION COMPLAINT"},"type":"Feature","geometry":null},{"properties":{"column_6":null,"occ date":"10/02/10","column_7":null,"district":"HE","geo_score":0.0,"column_8":null,"total dispatches":1,"column_9":null,"id":"a6qkalaj4ogl","geo_precision":"unmatched","address":"JACKSON RD","final case full":"PROS - PROSTITUTION COMPLAINT"},"type":"Feature","geometry":null},{"properties":{"column_6":null,"occ date":"10/02/10","column_7":null,"district":"HE","geo_score":0.0,"column_8":null,"total dispatches":1,"column_9":null,"id":"a6qkalm708px","geo_precision":"unmatched","address":"HESTER ST / JAMIESON ST","final case full":"PROS - PROSTITUTION COMPLAINT"},"type":"Feature","geometry":null},{"properties":{"column_6":null,"occ date":"10/01/10","column_7":null,"district":"HE","geo_score":0.0,"column_8":null,"total dispatches":1,"column_9":null,"id":"a6qkale6pzsz","geo_precision":"unmatched","address":"JACKSON RD","final case full":"PROS - PROSTITUTION COMPLAINT"},"type":"Feature","geometry":null},{"properties":{"column_6":null,"occ date":"10/01/10","column_7":null,"district":"HC","geo_score":0.0,"column_8":null,"total dispatches":0,"column_9":null,"id":"a6qkalf9iqvt","geo_precision":"unmatched","address":"BRUNSWICK ST","final case full":"PROS - PROSTITUTION COMPLAINT"},"type":"Feature","geometry":null},{"properties":{"column_6":null,"occ date":"09/29/10","column_7":null,"district":"HE","geo_score":0.0,"column_8":null,"total dispatches":2,"column_9":null,"id":"a6qkala8shxu","geo_precision":"unmatched","address":"WINDMILL RD","final case full":"PROS - PROSTITUTION COMPLAINT"},"type":"Feature","geometry":null},{"properties":{"column_6":null,"occ date":"09/29/10","column_7":null,"district":"HC","geo_score":0.0,"column_8":null,"total dispatches":1,"column_9":null,"id":"a6qkalisj4hs","geo_precision":"unmatched","address":"AGRICOLA ST / MCCULLY ST","final case full":"PROS - PROSTITUTION COMPLAINT"},"type":"Feature","geometry":null},{"properties":{"column_6":null,"occ date":"09/27/10","column_7":null,"district":"HE","geo_score":0.0,"column_8":null,"total dispatches":3,"column_9":null,"id":"a6qkal9scgxp","geo_precision":"unmatched","address":"WINDMILL RD / MIDDLE ST","final case full":"PROS - PROSTITUTION COMPLAINT"},"type":"Feature","geometry":null},{"properties":{"column_6":null,"occ date":"09/26/10","column_7":null,"district":"HE","geo_score":0.0,"column_8":null,"total dispatches":1,"column_9":null,"id":"a6qkalm28oc4","geo_precision":"unmatched","address":"JACKSON RD / PINECREST DR","final case full":"PROS - PROSTITUTION COMPLAINT"},"type":"Feature","geometry":null},{"properties":{"column_6":null,"occ date":"09/26/10","column_7":null,"district":"HE","geo_score":0.0,"column_8":null,"total dispatches":1,"column_9":null,"id":"a6qkalg4ajpx","geo_precision":"unmatched","address":"JAMIESON ST","final case full":"PROS - PROSTITUTION COMPLAINT"},"type":"Feature","geometry":null},{"properties":{"column_6":null,"occ date":"09/26/10","column_7":null,"district":"HE","geo_score":0.0,"column_8":null,"total dispatches":2,"column_9":null,"id":"a6qkall4nv0v","geo_precision":"unmatched","address":"JAMIESON ST","final case full":"PROS - PROSTITUTION COMPLAINT"},"type":"Feature","geometry":null},{"properties":{"column_6":null,"occ date":"09/25/10","column_7":null,"district":"HE","geo_score":0.0,"column_8":null,"total dispatches":3,"column_9":null,"id":"a6qkalhve0x9","geo_precision":"unmatched","address":"WINDMILL RD / STAIRS ST","final case full":"LIQO - LIQUOR OFFENCE"},"type":"Feature","geometry":null},{"properties":{"column_6":null,"occ date":"09/25/10","column_7":null,"district":"HE","geo_score":0.0,"column_8":null,"total dispatches":0,"column_9":null,"id":"a6qkalcvpa6j","geo_precision":"unmatched","address":"HENRY ST / WINDMILL RD","final case full":"PROS - PROSTITUTION COMPLAINT"},"type":"Feature","geometry":null},{"properties":{"column_6":null,"occ date":"09/25/10","column_7":null,"district":"HE","geo_score":0.0,"column_8":null,"total dispatches":1,"column_9":null,"id":"a6qkalfn1cn7","geo_precision":"unmatched","address":"JACKSON RD / ROBERT BURNS DR","final case full":"PROS - PROSTITUTION COMPLAINT"},"type":"Feature","geometry":null},{"properties":{"column_6":null,"occ date":"09/25/10","column_7":null,"district":"HC","geo_score":0.0,"column_8":null,"total dispatches":2,"column_9":null,"id":"a6qkalf8bkh6","geo_precision":"unmatched","address":"MAYNARD ST / ROBERTS ST","final case full":"PROS - PROSTITUTION COMPLAINT"},"type":"Feature","geometry":null},{"properties":{"column_6":null,"occ date":"09/25/10","column_7":null,"district":"HE","geo_score":0.0,"column_8":null,"total dispatches":1,"column_9":null,"id":"a6qkalerescr","geo_precision":"unmatched","address":"JACKSON RD / ROBERT BURNS DR","final case full":"PROS - PROSTITUTION COMPLAINT"},"type":"Feature","geometry":null},{"properties":{"column_6":null,"occ date":"09/23/10","column_7":null,"district":"HE","geo_score":0.0,"column_8":null,"total dispatches":1,"column_9":null,"id":"a6qkalh5r4z7","geo_precision":"unmatched","address":"JACKSON RD / VICTORIA RD","final case full":"PROS - PROSTITUTION COMPLAINT"},"type":"Feature","geometry":null},{"properties":{"column_6":null,"occ date":"09/23/10","column_7":null,"district":"HC","geo_score":0.0,"column_8":null,"total dispatches":2,"column_9":null,"id":"a6qkalhj8ten","geo_precision":"unmatched","address":"ROBIE ST","final case full":"PROS - PROSTITUTION COMPLAINT"},"type":"Feature","geometry":null},{"properties":{"column_6":null,"occ date":"09/22/10","column_7":null,"district":"HE","geo_score":0.0,"column_8":null,"total dispatches":1,"column_9":null,"id":"a6qkalkpr9jh","geo_precision":"unmatched","address":"JAMIESON ST","final case full":"PROS - PROSTITUTION COMPLAINT"},"type":"Feature","geometry":null},{"properties":{"column_6":null,"occ date":"09/20/10","column_7":null,"district":"HE","geo_score":0.0,"column_8":null,"total dispatches":1,"column_9":null,"id":"a6qkal8sdqmw","geo_precision":"unmatched","address":"JAMIESON ST","final case full":"PROS - PROSTITUTION COMPLAINT"},"type":"Feature","geometry":null},{"properties":{"column_6":null,"occ date":"09/20/10","column_7":null,"district":"HE","geo_score":0.0,"column_8":null,"total dispatches":0,"column_9":null,"id":"a6qkalkdq0ji","geo_precision":"unmatched","address":"JAMIESON ST / HESTER ST","final case full":"PROS - PROSTITUTION COMPLAINT"},"type":"Feature","geometry":null},{"properties":{"column_6":null,"occ date":"09/19/10","column_7":null,"district":"HC","geo_score":0.0,"column_8":null,"total dispatches":1,"column_9":null,"id":"a6qkallkgu31","geo_precision":"unmatched","address":"AGRICOLA ST / BILBY ST","final case full":"PROS - PROSTITUTION COMPLAINT"},"type":"Feature","geometry":null},{"properties":{"column_6":null,"occ date":"09/19/10","column_7":null,"district":"HE","geo_score":0.0,"column_8":null,"total dispatches":1,"column_9":null,"id":"a6qkalokayot","geo_precision":"unmatched","address":"WINDMILL RD / JAMIESON ST","final case full":"PROS - PROSTITUTION COMPLAINT"},"type":"Feature","geometry":null},{"properties":{"column_6":null,"occ date":"09/18/10","column_7":null,"district":"HE","geo_score":0.0,"column_8":null,"total dispatches":1,"column_9":null,"id":"a6qkal9qxyhm","geo_precision":"unmatched","address":"JACKSON RD","final case full":"PROS - PROSTITUTION COMPLAINT"},"type":"Feature","geometry":null},{"properties":{"column_6":null,"occ date":"09/17/10","column_7":null,"district":"HE","geo_score":0.0,"column_8":null,"total dispatches":1,"column_9":null,"id":"a6qkalmczfu5","geo_precision":"unmatched","address":"JACKSON RD","final case full":"PROS - PROSTITUTION COMPLAINT"},"type":"Feature","geometry":null},{"properties":{"column_6":null,"occ date":"09/17/10","column_7":null,"district":"HE","geo_score":0.0,"column_8":null,"total dispatches":1,"column_9":null,"id":"a6qkalohc8k0","geo_precision":"unmatched","address":"JACKSON RD","final case full":"PROS - PROSTITUTION COMPLAINT"},"type":"Feature","geometry":null},{"properties":{"column_6":null,"occ date":"09/15/10","column_7":null,"district":"HE","geo_score":0.0,"column_8":null,"total dispatches":1,"column_9":null,"id":"a6qkalgb2h16","geo_precision":"unmatched","address":"HENRY ST / WINDMILL RD","final case full":"PROS - PROSTITUTION COMPLAINT"},"type":"Feature","geometry":null},{"properties":{"column_6":null,"occ date":"09/14/10","column_7":null,"district":"HC","geo_score":0.0,"column_8":null,"total dispatches":0,"column_9":null,"id":"a6qkaljhaiqh","geo_precision":"unmatched","address":"BRUNSWICK ST","final case full":"PROS - PROSTITUTION COMPLAINT"},"type":"Feature","geometry":null},{"properties":{"column_6":null,"occ date":"09/13/10","column_7":null,"district":"HE","geo_score":0.0,"column_8":null,"total dispatches":2,"column_9":null,"id":"a6qkalc9gdro","geo_precision":"unmatched","address":"JACKSON RD / ROBERT BURNS DR","final case full":"PROS - PROSTITUTION COMPLAINT"},"type":"Feature","geometry":null},{"properties":{"column_6":null,"occ date":"09/12/10","column_7":null,"district":"HC","geo_score":0.0,"column_8":null,"total dispatches":1,"column_9":null,"id":"a6qkalnyt6aq","geo_precision":"unmatched","address":"CHARLES ST / AGRICOLA ST","final case full":"PROS - PROSTITUTION COMPLAINT"},"type":"Feature","geometry":null},{"properties":{"column_6":null,"occ date":"09/11/10","column_7":null,"district":"HC","geo_score":0.0,"column_8":null,"total dispatches":1,"column_9":null,"id":"a6qkaliydhzu","geo_precision":"unmatched","address":"AGRICOLA ST","final case full":"PROS - PROSTITUTION COMPLAINT"},"type":"Feature","geometry":null},{"properties":{"column_6":null,"occ date":"09/10/10","column_7":null,"district":"HE","geo_score":0.0,"column_8":null,"total dispatches":1,"column_9":null,"id":"a6qkalb4lfjk","geo_precision":"unmatched","address":"PRIMROSE ST","final case full":"PROS - PROSTITUTION COMPLAINT"},"type":"Feature","geometry":null},{"properties":{"column_6":null,"occ date":"09/10/10","column_7":null,"district":"HC","geo_score":0.0,"column_8":null,"total dispatches":1,"column_9":null,"id":"a6qkaljmuq7s","geo_precision":"unmatched","address":"MAYNARD ST / WEST ST","final case full":"PROS - PROSTITUTION COMPLAINT"},"type":"Feature","geometry":null},{"properties":{"column_6":null,"occ date":"09/10/10","column_7":null,"district":"HE","geo_score":0.0,"column_8":null,"total dispatches":1,"column_9":null,"id":"a6qkalivlxrj","geo_precision":"unmatched","address":"WINDMILL RD / FERNHILL DR","final case full":"PROS - PROSTITUTION COMPLAINT"},"type":"Feature","geometry":null},{"properties":{"column_6":null,"occ date":"09/10/10","column_7":null,"district":"HC","geo_score":0.0,"column_8":null,"total dispatches":1,"column_9":null,"id":"a6qkal9gtcuq","geo_precision":"unmatched","address":"AGRICOLA ST / WOODILL ST","final case full":"PROS - PROSTITUTION COMPLAINT"},"type":"Feature","geometry":null},{"properties":{"column_6":null,"occ date":"09/07/10","column_7":null,"district":"HE","geo_score":0.0,"column_8":null,"total dispatches":0,"column_9":null,"id":"a6qkalayyoyd","geo_precision":"unmatched","address":"VICTORIA RD / PORTLAND ST","final case full":"PROS - PROSTITUTION COMPLAINT"},"type":"Feature","geometry":null},{"properties":{"column_6":null,"occ date":"09/06/10","column_7":null,"district":"HE","geo_score":0.0,"column_8":null,"total dispatches":1,"column_9":null,"id":"a6qkalcqe2si","geo_precision":"unmatched","address":"WINDMILL RD / JAMIESON ST","final case full":"PROS - PROSTITUTION COMPLAINT"},"type":"Feature","geometry":null},{"properties":{"column_6":null,"occ date":"09/04/10","column_7":null,"district":"HE","geo_score":0.0,"column_8":null,"total dispatches":1,"column_9":null,"id":"a6qkalgci6dj","geo_precision":"unmatched","address":"PINECREST DR","final case full":"PROS - PROSTITUTION COMPLAINT"},"type":"Feature","geometry":null},{"properties":{"column_6":null,"occ date":"09/02/10","column_7":null,"district":"HE","geo_score":0.0,"column_8":null,"total dispatches":1,"column_9":null,"id":"a6qkalohpo7z","geo_precision":"unmatched","address":"HENRY ST","final case full":"PROS - PROSTITUTION COMPLAINT"},"type":"Feature","geometry":null},{"properties":{"column_6":null,"occ date":"08/30/10","column_7":null,"district":"HE","geo_score":0.0,"column_8":null,"total dispatches":0,"column_9":null,"id":"a6qkalf7tpck","geo_precision":"unmatched","address":"WINDMILL RD","final case full":"PROS - PROSTITUTION COMPLAINT"},"type":"Feature","geometry":null},{"properties":{"column_6":null,"occ date":"08/28/10","column_7":null,"district":"HE","geo_score":0.0,"column_8":null,"total dispatches":2,"column_9":null,"id":"a6qkaln00hbi","geo_precision":"unmatched","address":"WINDMILL RD / JAMIESON ST","final case full":"PROS - PROSTITUTION COMPLAINT"},"type":"Feature","geometry":null},{"properties":{"column_6":null,"occ date":"08/25/10","column_7":null,"district":"HE","geo_score":0.0,"column_8":null,"total dispatches":2,"column_9":null,"id":"a6qkale2w7uc","geo_precision":"unmatched","address":"JACKSON RD","final case full":"PROS - PROSTITUTION COMPLAINT"},"type":"Feature","geometry":null},{"properties":{"column_6":null,"occ date":"08/24/10","column_7":null,"district":"HE","geo_score":0.0,"column_8":null,"total dispatches":1,"column_9":null,"id":"a6qkalocfe32","geo_precision":"unmatched","address":"JACKSON RD","final case full":"PROS - PROSTITUTION COMPLAINT"},"type":"Feature","geometry":null},{"properties":{"column_6":null,"occ date":"08/23/10","column_7":null,"district":"HE","geo_score":0.0,"column_8":null,"total dispatches":1,"column_9":null,"id":"a6qkalgq9jxr","geo_precision":"unmatched","address":"WINDMILL RD","final case full":"PROS - PROSTITUTION COMPLAINT"},"type":"Feature","geometry":null},{"properties":{"column_6":null,"occ date":"08/23/10","column_7":null,"district":"HE","geo_score":0.0,"column_8":null,"total dispatches":0,"column_9":null,"id":"a6qkal9230an","geo_precision":"unmatched","address":"JACKSON RD","final case full":"PROS - PROSTITUTION COMPLAINT"},"type":"Feature","geometry":null},{"properties":{"column_6":null,"occ date":"08/23/10","column_7":null,"district":"HE","geo_score":0.0,"column_8":null,"total dispatches":0,"column_9":null,"id":"a6qkalngq1ex","geo_precision":"unmatched","address":"JACKSON RD / VICTORIA RD","final case full":"PROS - PROSTITUTION COMPLAINT"},"type":"Feature","geometry":null},{"properties":{"column_6":null,"occ date":"08/23/10","column_7":null,"district":"HE","geo_score":0.0,"column_8":null,"total dispatches":1,"column_9":null,"id":"a6qkalib9wxg","geo_precision":"unmatched","address":"WINDMILL RD / WALLACE ST","final case full":"PROS - PROSTITUTION COMPLAINT"},"type":"Feature","geometry":null},{"properties":{"column_6":null,"occ date":"08/22/10","column_7":null,"district":"HE","geo_score":0.0,"column_8":null,"total dispatches":1,"column_9":null,"id":"a6qkaljor5wt","geo_precision":"unmatched","address":"STAIRS ST / WINDMILL RD","final case full":"PROS - PROSTITUTION COMPLAINT"},"type":"Feature","geometry":null},{"properties":{"column_6":null,"occ date":"08/22/10","column_7":null,"district":"HE","geo_score":0.0,"column_8":null,"total dispatches":2,"column_9":null,"id":"a6qkalodsi3t","geo_precision":"unmatched","address":"VICTORIA RD / QUEEN ST","final case full":"PROS - PROSTITUTION COMPLAINT"},"type":"Feature","geometry":null},{"properties":{"column_6":null,"occ date":"08/19/10","column_7":null,"district":"HC","geo_score":0.0,"column_8":null,"total dispatches":1,"column_9":null,"id":"a6qkal9xles8","geo_precision":"unmatched","address":"BRUNSWICK ST / GERRISH ST","final case full":"PROS - PROSTITUTION COMPLAINT"},"type":"Feature","geometry":null},{"properties":{"column_6":null,"occ date":"08/17/10","column_7":null,"district":"HC","geo_score":0.0,"column_8":null,"total dispatches":0,"column_9":null,"id":"a6qkalj9sb1a","geo_precision":"unmatched","address":"BRUNSWICK ST","final case full":"PROS - PROSTITUTION COMPLAINT"},"type":"Feature","geometry":null},{"properties":{"column_6":null,"occ date":"08/16/10","column_7":null,"district":"HC","geo_score":0.0,"column_8":null,"total dispatches":2,"column_9":null,"id":"a6qkalghanob","geo_precision":"unmatched","address":"AGRICOLA ST / ONTARIO ST","final case full":"PROS - PROSTITUTION COMPLAINT"},"type":"Feature","geometry":null},{"properties":{"column_6":null,"occ date":"08/15/10","column_7":null,"district":"HE","geo_score":0.0,"column_8":null,"total dispatches":1,"column_9":null,"id":"a6qkaljtf8tr","geo_precision":"unmatched","address":"PINECREST DR / ALBRO LAKE RD","final case full":"PROS - PROSTITUTION COMPLAINT"},"type":"Feature","geometry":null},{"properties":{"column_6":null,"occ date":"08/13/10","column_7":null,"district":"HE","geo_score":0.0,"column_8":null,"total dispatches":1,"column_9":null,"id":"a6qkall7zwo3","geo_precision":"unmatched","address":"HENRY ST / WINDMILL RD","final case full":"PROS - PROSTITUTION COMPLAINT"},"type":"Feature","geometry":null},{"properties":{"column_6":null,"occ date":"08/09/10","column_7":null,"district":"HE","geo_score":0.0,"column_8":null,"total dispatches":2,"column_9":null,"id":"a6qkaldjb3py","geo_precision":"unmatched","address":"STAIRS ST / WINDMILL RD","final case full":"PROS - PROSTITUTION COMPLAINT"},"type":"Feature","geometry":null},{"properties":{"column_6":null,"occ date":"08/08/10","column_7":null,"district":"HE","geo_score":0.0,"column_8":null,"total dispatches":1,"column_9":null,"id":"a6qkal9i4uw7","geo_precision":"unmatched","address":"JAMIESON ST / WINDMILL RD","final case full":"PROS - PROSTITUTION COMPLAINT"},"type":"Feature","geometry":null},{"properties":{"column_6":null,"occ date":"08/07/10","column_7":null,"district":"HE","geo_score":0.0,"column_8":null,"total dispatches":1,"column_9":null,"id":"a6qkal9i3wq7","geo_precision":"unmatched","address":"JACKSON RD / ROBERT BURNS DR","final case full":"PSCH - PERSON / STREET CHECK"},"type":"Feature","geometry":null},{"properties":{"column_6":null,"occ date":"08/06/10","column_7":null,"district":"HE","geo_score":0.0,"column_8":null,"total dispatches":3,"column_9":null,"id":"a6qkalm6woh4","geo_precision":"unmatched","address":"JACKSON RD","final case full":"PROS - PROSTITUTION COMPLAINT"},"type":"Feature","geometry":null},{"properties":{"column_6":null,"occ date":"08/04/10","column_7":null,"district":"HE","geo_score":0.0,"column_8":null,"total dispatches":1,"column_9":null,"id":"a6qkalm6jiby","geo_precision":"unmatched","address":"PINEHILL RD / ALBRO LAKE RD","final case full":"PROS - PROSTITUTION COMPLAINT"},"type":"Feature","geometry":null},{"properties":{"column_6":null,"occ date":"07/31/10","column_7":null,"district":"HE","geo_score":0.0,"column_8":null,"total dispatches":0,"column_9":null,"id":"a6qkalgzjrlg","geo_precision":"unmatched","address":"JACKSON RD","final case full":"PROS - PROSTITUTION COMPLAINT"},"type":"Feature","geometry":null},{"properties":{"column_6":null,"occ date":"07/31/10","column_7":null,"district":"HE","geo_score":0.0,"column_8":null,"total dispatches":1,"column_9":null,"id":"a6qkalgsc7mb","geo_precision":"unmatched","address":"JACKSON RD","final case full":"PROS - PROSTITUTION COMPLAINT"},"type":"Feature","geometry":null},{"properties":{"column_6":null,"occ date":"07/30/10","column_7":null,"district":"HE","geo_score":0.0,"column_8":null,"total dispatches":0,"column_9":null,"id":"a6qkalclum0u","geo_precision":"unmatched","address":"JACKSON RD / ROBERT BURNS DR","final case full":"PROS - PROSTITUTION COMPLAINT"},"type":"Feature","geometry":null},{"properties":{"column_6":null,"occ date":"07/30/10","column_7":null,"district":"HE","geo_score":0.0,"column_8":null,"total dispatches":2,"column_9":null,"id":"a6qkalgkz1w8","geo_precision":"unmatched","address":"FARRELL ST / WINDMILL RD","final case full":"PROS - PROSTITUTION COMPLAINT"},"type":"Feature","geometry":null},{"properties":{"column_6":null,"occ date":"07/29/10","column_7":null,"district":"HE","geo_score":0.0,"column_8":null,"total dispatches":0,"column_9":null,"id":"a6qkalg07xx5","geo_precision":"unmatched","address":"WALLACE ST / WINDMILL RD","final case full":"PROS - PROSTITUTION COMPLAINT"},"type":"Feature","geometry":null},{"properties":{"column_6":null,"occ date":"07/29/10","column_7":null,"district":"HE","geo_score":0.0,"column_8":null,"total dispatches":0,"column_9":null,"id":"a6qkalnx2thn","geo_precision":"unmatched","address":"WALLACE ST / WINDMILL RD","final case full":"PROS - PROSTITUTION COMPLAINT"},"type":"Feature","geometry":null},{"properties":{"column_6":null,"occ date":"07/28/10","column_7":null,"district":"HC","geo_score":0.0,"column_8":null,"total dispatches":0,"column_9":null,"id":"a6qkalb6thyk","geo_precision":"unmatched","address":"CHARLES ST / MAYNARD ST","final case full":"PROS - PROSTITUTION COMPLAINT"},"type":"Feature","geometry":null},{"properties":{"column_6":null,"occ date":"07/26/10","column_7":null,"district":"HE","geo_score":0.0,"column_8":null,"total dispatches":1,"column_9":null,"id":"a6qkal9slnd9","geo_precision":"unmatched","address":"JACKSON RD","final case full":"PROS - PROSTITUTION COMPLAINT"},"type":"Feature","geometry":null},{"properties":{"column_6":null,"occ date":"07/24/10","column_7":null,"district":"HE","geo_score":0.0,"column_8":null,"total dispatches":3,"column_9":null,"id":"a6qkalmuhz83","geo_precision":"unmatched","address":"JACKSON RD","final case full":"PROS - PROSTITUTION COMPLAINT"},"type":"Feature","geometry":null},{"properties":{"column_6":null,"occ date":"07/24/10","column_7":null,"district":"HE","geo_score":0.0,"column_8":null,"total dispatches":1,"column_9":null,"id":"a6qkalmub9i5","geo_precision":"unmatched","address":"JAMIESON ST","final case full":"PROS - PROSTITUTION COMPLAINT"},"type":"Feature","geometry":null},{"properties":{"column_6":null,"occ date":"07/20/10","column_7":null,"district":"HE","geo_score":0.0,"column_8":null,"total dispatches":1,"column_9":null,"id":"a6qkalew6hwd","geo_precision":"unmatched","address":"WINDMILL RD / COURTNEY RD","final case full":"PROS - PROSTITUTION COMPLAINT"},"type":"Feature","geometry":null},{"properties":{"column_6":null,"occ date":"07/17/10","column_7":null,"district":"HC","geo_score":0.0,"column_8":null,"total dispatches":1,"column_9":null,"id":"a6qkalkrca5g","geo_precision":"unmatched","address":"MAYNARD ST / ROBERTS ST","final case full":"PROS - PROSTITUTION COMPLAINT"},"type":"Feature","geometry":null},{"properties":{"column_6":null,"occ date":"07/16/10","column_7":null,"district":"HC","geo_score":0.0,"column_8":null,"total dispatches":2,"column_9":null,"id":"a6qkalftn9sw","geo_precision":"unmatched","address":"FERN LANE / MAY ST","final case full":"PROS - PROSTITUTION COMPLAINT"},"type":"Feature","geometry":null},{"properties":{"column_6":null,"occ date":"07/16/10","column_7":null,"district":"HE","geo_score":0.0,"column_8":null,"total dispatches":0,"column_9":null,"id":"a6qkallol7d3","geo_precision":"unmatched","address":"WINDMILL RD / COURTNEY RD","final case full":"PROS - PROSTITUTION COMPLAINT"},"type":"Feature","geometry":null},{"properties":{"column_6":null,"occ date":"07/15/10","column_7":null,"district":"HC","geo_score":0.0,"column_8":null,"total dispatches":0,"column_9":null,"id":"a6qkaljdv1k0","geo_precision":"unmatched","address":"AGRICOLA ST / BLOOMFIELD ST","final case full":"PROS - PROSTITUTION COMPLAINT"},"type":"Feature","geometry":null},{"properties":{"column_6":null,"occ date":"07/14/10","column_7":null,"district":"HE","geo_score":0.0,"column_8":null,"total dispatches":0,"column_9":null,"id":"a6qkalixzoia","geo_precision":"unmatched","address":"WINDMILL RD / ELWOOD DR","final case full":"PROS - PROSTITUTION COMPLAINT"},"type":"Feature","geometry":null},{"properties":{"column_6":null,"occ date":"07/14/10","column_7":null,"district":"HE","geo_score":0.0,"column_8":null,"total dispatches":0,"column_9":null,"id":"a6qkalkmtt0q","geo_precision":"unmatched","address":"WINDMILL RD / FARRELL ST","final case full":"PROS - PROSTITUTION COMPLAINT"},"type":"Feature","geometry":null},{"properties":{"column_6":null,"occ date":"07/11/10","column_7":null,"district":"HE","geo_score":0.0,"column_8":null,"total dispatches":1,"column_9":null,"id":"a6qkalnueu7m","geo_precision":"unmatched","address":"WINDMILL RD","final case full":"PROS - PROSTITUTION COMPLAINT"},"type":"Feature","geometry":null},{"properties":{"column_6":null,"occ date":"07/09/10","column_7":null,"district":"HE","geo_score":0.0,"column_8":null,"total dispatches":1,"column_9":null,"id":"a6qkale9nq60","geo_precision":"unmatched","address":"JACKSON RD / ROBERT BURNS DR","final case full":"PROS - PROSTITUTION COMPLAINT"},"type":"Feature","geometry":null},{"properties":{"column_6":null,"occ date":"07/09/10","column_7":null,"district":"HE","geo_score":0.0,"column_8":null,"total dispatches":2,"column_9":null,"id":"a6qkalax5d8w","geo_precision":"unmatched","address":"WYSE RD","final case full":"PROS - PROSTITUTION COMPLAINT"},"type":"Feature","geometry":null},{"properties":{"column_6":null,"occ date":"07/09/10","column_7":null,"district":"HE","geo_score":0.0,"column_8":null,"total dispatches":2,"column_9":null,"id":"a6qkalhuvvmx","geo_precision":"unmatched","address":"WINDMILL RD / GROVE ST","final case full":"PROS - PROSTITUTION COMPLAINT"},"type":"Feature","geometry":null},{"properties":{"column_6":null,"occ date":"07/06/10","column_7":null,"district":"HW","geo_score":0.0,"column_8":null,"total dispatches":4,"column_9":null,"id":"a6qkali5bff9","geo_precision":"unmatched","address":"HERRING COVE RD","final case full":"PROS - PROSTITUTION COMPLAINT"},"type":"Feature","geometry":null},{"properties":{"column_6":null,"occ date":"07/05/10","column_7":null,"district":"HW","geo_score":0.0,"column_8":null,"total dispatches":1,"column_9":null,"id":"a6qkalgb9oph","geo_precision":"unmatched","address":"HERRING COVE RD","final case full":"PROS - PROSTITUTION COMPLAINT"},"type":"Feature","geometry":null},{"properties":{"column_6":null,"occ date":"06/29/10","column_7":null,"district":"HE","geo_score":0.0,"column_8":null,"total dispatches":0,"column_9":null,"id":"a6qkala2hhpi","geo_precision":"unmatched","address":"NIVENS AVE / WINDMILL RD","final case full":"PROS - PROSTITUTION COMPLAINT"},"type":"Feature","geometry":null},{"properties":{"column_6":null,"occ date":"06/27/10","column_7":null,"district":"HC","geo_score":0.0,"column_8":null,"total dispatches":1,"column_9":null,"id":"a6qkalkjpwsl","geo_precision":"unmatched","address":"MAY ST / AGRICOLA ST","final case full":"PROS - PROSTITUTION COMPLAINT"},"type":"Feature","geometry":null},{"properties":{"column_6":null,"occ date":"06/25/10","column_7":null,"district":"HC","geo_score":0.0,"column_8":null,"total dispatches":1,"column_9":null,"id":"a6qkalnlytuh","geo_precision":"unmatched","address":"ROBERTS ST / MAYNARD ST","final case full":"ACIT - ASSIST CITIZEN"},"type":"Feature","geometry":null},{"properties":{"column_6":null,"occ date":"06/25/10","column_7":null,"district":"HE","geo_score":0.0,"column_8":null,"total dispatches":1,"column_9":null,"id":"a6qkalfj1zck","geo_precision":"unmatched","address":"WINDMILL RD / JAMIESON ST","final case full":"PROS - PROSTITUTION COMPLAINT"},"type":"Feature","geometry":null},{"properties":{"column_6":null,"occ date":"06/24/10","column_7":null,"district":"HE","geo_score":0.0,"column_8":null,"total dispatches":1,"column_9":null,"id":"a6qkalodn718","geo_precision":"unmatched","address":"WINDMILL RD / JAMIESON ST","final case full":"PROS - PROSTITUTION COMPLAINT"},"type":"Feature","geometry":null},{"properties":{"column_6":null,"occ date":"06/24/10","column_7":null,"district":"HC","geo_score":0.0,"column_8":null,"total dispatches":0,"column_9":null,"id":"a6qkalfifre3","geo_precision":"unmatched","address":"BRUNSWICK ST","final case full":"PROS - PROSTITUTION COMPLAINT"},"type":"Feature","geometry":null},{"properties":{"column_6":null,"occ date":"06/23/10","column_7":null,"district":"HE","geo_score":0.0,"column_8":null,"total dispatches":1,"column_9":null,"id":"a6qkalewb5us","geo_precision":"unmatched","address":"WINDMILL RD","final case full":"PROS - PROSTITUTION COMPLAINT"},"type":"Feature","geometry":null},{"properties":{"column_6":null,"occ date":"06/22/10","column_7":null,"district":"HW","geo_score":0.0,"column_8":null,"total dispatches":0,"column_9":null,"id":"a6qkallxa278","geo_precision":"unmatched","address":"GEBHARDT ST","final case full":"PROS - PROSTITUTION COMPLAINT"},"type":"Feature","geometry":null},{"properties":{"column_6":null,"occ date":"06/20/10","column_7":null,"district":"HE","geo_score":0.0,"column_8":null,"total dispatches":1,"column_9":null,"id":"a6qkalhudt4a","geo_precision":"unmatched","address":"NIVENS AVE","final case full":"PROS - PROSTITUTION COMPLAINT"},"type":"Feature","geometry":null},{"properties":{"column_6":null,"occ date":"06/20/10","column_7":null,"district":"HC","geo_score":0.0,"column_8":null,"total dispatches":1,"column_9":null,"id":"a6qkal8okb77","geo_precision":"unmatched","address":"CHARLES ST / CREIGHTON ST","final case full":"PROS - PROSTITUTION COMPLAINT"},"type":"Feature","geometry":null},{"properties":{"column_6":null,"occ date":"06/18/10","column_7":null,"district":"HE","geo_score":0.0,"column_8":null,"total dispatches":1,"column_9":null,"id":"a6qkallc8suj","geo_precision":"unmatched","address":"WINDMILL RD","final case full":"PROS - PROSTITUTION COMPLAINT"},"type":"Feature","geometry":null},{"properties":{"column_6":null,"occ date":"06/18/10","column_7":null,"district":"HE","geo_score":0.0,"column_8":null,"total dispatches":1,"column_9":null,"id":"a6qkall68729","geo_precision":"unmatched","address":"WINDMILL RD","final case full":"SUSP - SUSPICIOUS PERSON"},"type":"Feature","geometry":null},{"properties":{"column_6":null,"occ date":"06/12/10","column_7":null,"district":"HC","geo_score":0.0,"column_8":null,"total dispatches":1,"column_9":null,"id":"a6qkalff3xsm","geo_precision":"unmatched","address":"BILBY ST / AGRICOLA ST","final case full":"PROS - PROSTITUTION COMPLAINT"},"type":"Feature","geometry":null},{"properties":{"column_6":null,"occ date":"06/10/10","column_7":null,"district":"HC","geo_score":0.0,"column_8":null,"total dispatches":0,"column_9":null,"id":"a6qkaldoebud","geo_precision":"unmatched","address":"BRUNSWICK ST","final case full":"PROS - PROSTITUTION COMPLAINT"},"type":"Feature","geometry":null},{"properties":{"column_6":null,"occ date":"06/09/10","column_7":null,"district":"HE","geo_score":0.0,"column_8":null,"total dispatches":0,"column_9":null,"id":"a6qkalh3vdag","geo_precision":"unmatched","address":"WALLACE ST / WINDMILL RD","final case full":"PROS - PROSTITUTION COMPLAINT"},"type":"Feature","geometry":null},{"properties":{"column_6":null,"occ date":"06/09/10","column_7":null,"district":"HE","geo_score":0.0,"column_8":null,"total dispatches":0,"column_9":null,"id":"a6qkalbjp4kc","geo_precision":"unmatched","address":"WINDMILL RD / WALLACE ST","final case full":"PROS - PROSTITUTION COMPLAINT"},"type":"Feature","geometry":null},{"properties":{"column_6":null,"occ date":"06/09/10","column_7":null,"district":"HE","geo_score":0.0,"column_8":null,"total dispatches":0,"column_9":null,"id":"a6qkali8gsz7","geo_precision":"unmatched","address":"WINDMILL RD / HENRY ST","final case full":"PROS - PROSTITUTION COMPLAINT"},"type":"Feature","geometry":null},{"properties":{"column_6":null,"occ date":"06/08/10","column_7":null,"district":"HE","geo_score":0.0,"column_8":null,"total dispatches":0,"column_9":null,"id":"a6qkaleyhkou","geo_precision":"unmatched","address":"PORTLAND ST / DUNDAS ST","final case full":"PROS - PROSTITUTION COMPLAINT"},"type":"Feature","geometry":null},{"properties":{"column_6":null,"occ date":"06/08/10","column_7":null,"district":"HE","geo_score":0.0,"column_8":null,"total dispatches":1,"column_9":null,"id":"a6qkalj4c4b4","geo_precision":"unmatched","address":"JAMIESON ST","final case full":"PROS - PROSTITUTION COMPLAINT"},"type":"Feature","geometry":null},{"properties":{"column_6":null,"occ date":"06/08/10","column_7":null,"district":"HE","geo_score":0.0,"column_8":null,"total dispatches":0,"column_9":null,"id":"a6qkaloq3ukc","geo_precision":"unmatched","address":"WINDMILL RD / STAIRS ST","final case full":"PROS - PROSTITUTION COMPLAINT"},"type":"Feature","geometry":null},{"properties":{"column_6":null,"occ date":"06/07/10","column_7":null,"district":"HE","geo_score":0.0,"column_8":null,"total dispatches":1,"column_9":null,"id":"a6qkal9k7msa","geo_precision":"unmatched","address":"ELMWOOD AVE / WINDMILL RD","final case full":"PROS - PROSTITUTION COMPLAINT"},"type":"Feature","geometry":null},{"properties":{"column_6":null,"occ date":"06/07/10","column_7":null,"district":"HE","geo_score":0.0,"column_8":null,"total dispatches":0,"column_9":null,"id":"a6qkale85ryt","geo_precision":"unmatched","address":"WINDMILL RD / HENRY ST","final case full":"PROS - PROSTITUTION COMPLAINT"},"type":"Feature","geometry":null},{"properties":{"column_6":null,"occ date":"06/05/10","column_7":null,"district":"HC","geo_score":0.0,"column_8":null,"total dispatches":1,"column_9":null,"id":"a6qkalmzl08f","geo_precision":"unmatched","address":"AGRICOLA ST / BLOOMFIELD ST","final case full":"PROS - PROSTITUTION COMPLAINT"},"type":"Feature","geometry":null},{"properties":{"column_6":null,"occ date":"06/03/10","column_7":null,"district":"HE","geo_score":0.0,"column_8":null,"total dispatches":2,"column_9":null,"id":"a6qkalersd5p","geo_precision":"unmatched","address":"JAMIESON ST / HESTER ST","final case full":"PROS - PROSTITUTION COMPLAINT"},"type":"Feature","geometry":null},{"properties":{"column_6":null,"occ date":"06/01/10","column_7":null,"district":"HE","geo_score":0.0,"column_8":null,"total dispatches":0,"column_9":null,"id":"a6qkallxoulk","geo_precision":"unmatched","address":"WINDMILL RD / STAIRS ST","final case full":"PROS - PROSTITUTION COMPLAINT"},"type":"Feature","geometry":null},{"properties":{"column_6":null,"occ date":"05/31/10","column_7":null,"district":"HC","geo_score":0.0,"column_8":null,"total dispatches":0,"column_9":null,"id":"a6qkalgt0v0h","geo_precision":"unmatched","address":"BRUNSWICK ST","final case full":"PROS - PROSTITUTION COMPLAINT"},"type":"Feature","geometry":null},{"properties":{"column_6":null,"occ date":"05/30/10","column_7":null,"district":"HE","geo_score":0.0,"column_8":null,"total dispatches":1,"column_9":null,"id":"a6qkald60r2f","geo_precision":"unmatched","address":"HENRY ST / WINDMILL RD","final case full":"PROS - PROSTITUTION COMPLAINT"},"type":"Feature","geometry":null},{"properties":{"column_6":null,"occ date":"05/29/10","column_7":null,"district":"HE","geo_score":0.0,"column_8":null,"total dispatches":1,"column_9":null,"id":"a6qkalk6z7z9","geo_precision":"unmatched","address":"WINDMILL RD / JAMIESON ST","final case full":"PROS - PROSTITUTION COMPLAINT"},"type":"Feature","geometry":null},{"properties":{"column_6":null,"occ date":"05/29/10","column_7":null,"district":"HC","geo_score":0.0,"column_8":null,"total dispatches":1,"column_9":null,"id":"a6qkalcrzzup","geo_precision":"unmatched","address":"AGRICOLA ST / NORTH ST","final case full":"PROS - PROSTITUTION COMPLAINT"},"type":"Feature","geometry":null},{"properties":{"column_6":null,"occ date":"05/28/10","column_7":null,"district":"HE","geo_score":0.0,"column_8":null,"total dispatches":0,"column_9":null,"id":"a6qkaln75m97","geo_precision":"unmatched","address":"WINDMILL RD","final case full":"PROS - PROSTITUTION COMPLAINT"},"type":"Feature","geometry":null},{"properties":{"column_6":null,"occ date":"05/28/10","column_7":null,"district":"HC","geo_score":0.0,"column_8":null,"total dispatches":1,"column_9":null,"id":"a6qkalo5bpl3","geo_precision":"unmatched","address":"AGRICOLA ST","final case full":"UNWP - UNWANTED PERSON"},"type":"Feature","geometry":null},{"properties":{"column_6":null,"occ date":"05/27/10","column_7":null,"district":"HC","geo_score":0.0,"column_8":null,"total dispatches":1,"column_9":null,"id":"a6qkalhjopog","geo_precision":"unmatched","address":"AGRICOLA ST / BLOOMFIELD ST","final case full":"PROS - PROSTITUTION COMPLAINT"},"type":"Feature","geometry":null},{"properties":{"column_6":null,"occ date":"05/26/10","column_7":null,"district":"HC","geo_score":0.0,"column_8":null,"total dispatches":1,"column_9":null,"id":"a6qkalkpy1aq","geo_precision":"unmatched","address":"AGRICOLA ST / CHARLES ST","final case full":"PROS - PROSTITUTION COMPLAINT"},"type":"Feature","geometry":null},{"properties":{"column_6":null,"occ date":"05/26/10","column_7":null,"district":"HE","geo_score":0.0,"column_8":null,"total dispatches":2,"column_9":null,"id":"a6qkalkqa5ot","geo_precision":"unmatched","address":"JAMIESON ST","final case full":"PROS - PROSTITUTION COMPLAINT"},"type":"Feature","geometry":null},{"properties":{"column_6":null,"occ date":"05/25/10","column_7":null,"district":"HE","geo_score":0.0,"column_8":null,"total dispatches":1,"column_9":null,"id":"a6qkaln2vys7","geo_precision":"unmatched","address":"WINDMILL RD","final case full":"PROS - PROSTITUTION COMPLAINT"},"type":"Feature","geometry":null},{"properties":{"column_6":null,"occ date":"05/24/10","column_7":null,"district":"HE","geo_score":0.0,"column_8":null,"total dispatches":1,"column_9":null,"id":"a6qkalb742r0","geo_precision":"unmatched","address":"WYSE RD","final case full":"PROS - PROSTITUTION COMPLAINT"},"type":"Feature","geometry":null},{"properties":{"column_6":null,"occ date":"05/21/10","column_7":null,"district":"HE","geo_score":0.0,"column_8":null,"total dispatches":0,"column_9":null,"id":"a6qkaldyahtt","geo_precision":"unmatched","address":"WINDMILL RD","final case full":"PROS - PROSTITUTION COMPLAINT"},"type":"Feature","geometry":null},{"properties":{"column_6":null,"occ date":"05/20/10","column_7":null,"district":"HC","geo_score":0.0,"column_8":null,"total dispatches":0,"column_9":null,"id":"a6qkalljn9pg","geo_precision":"unmatched","address":"BRUNSWICK ST","final case full":"PROS - PROSTITUTION COMPLAINT"},"type":"Feature","geometry":null},{"properties":{"column_6":null,"occ date":"05/20/10","column_7":null,"district":"HC","geo_score":0.0,"column_8":null,"total dispatches":1,"column_9":null,"id":"a6qkalhe3phw","geo_precision":"unmatched","address":"AGRICOLA ST","final case full":"PROS - PROSTITUTION COMPLAINT"},"type":"Feature","geometry":null},{"properties":{"column_6":null,"occ date":"05/19/10","column_7":null,"district":"HC","geo_score":0.0,"column_8":null,"total dispatches":0,"column_9":null,"id":"a6qkaln5s9um","geo_precision":"unmatched","address":"BRUNSWICK ST","final case full":"PROS - PROSTITUTION COMPLAINT"},"type":"Feature","geometry":null},{"properties":{"column_6":null,"occ date":"05/18/10","column_7":null,"district":"HC","geo_score":0.0,"column_8":null,"total dispatches":0,"column_9":null,"id":"a6qkaloykpdj","geo_precision":"unmatched","address":"ROBIE ST","final case full":"PROS - PROSTITUTION COMPLAINT"},"type":"Feature","geometry":null},{"properties":{"column_6":null,"occ date":"05/18/10","column_7":null,"district":"HC","geo_score":0.0,"column_8":null,"total dispatches":0,"column_9":null,"id":"a6qkalod9s5p","geo_precision":"unmatched","address":"AGRICOLA ST / BLOOMFIELD ST","final case full":"PROS - PROSTITUTION COMPLAINT"},"type":"Feature","geometry":null},{"properties":{"column_6":null,"occ date":"05/18/10","column_7":null,"district":"HE","geo_score":0.0,"column_8":null,"total dispatches":2,"column_9":null,"id":"a6qkalm4klee","geo_precision":"unmatched","address":"HESTER ST / STAIRS ST","final case full":"PROS - PROSTITUTION COMPLAINT"},"type":"Feature","geometry":null},{"properties":{"column_6":null,"occ date":"05/18/10","column_7":null,"district":"HC","geo_score":0.0,"column_8":null,"total dispatches":0,"column_9":null,"id":"a6qkalgx7fx8","geo_precision":"unmatched","address":"BRUNSWICK ST","final case full":"PROS - PROSTITUTION COMPLAINT"},"type":"Feature","geometry":null},{"properties":{"column_6":null,"occ date":"05/15/10","column_7":null,"district":"HE","geo_score":0.0,"column_8":null,"total dispatches":0,"column_9":null,"id":"a6qkalooq8uk","geo_precision":"unmatched","address":"HENRY ST / WINDMILL RD","final case full":"PROS - PROSTITUTION COMPLAINT"},"type":"Feature","geometry":null},{"properties":{"column_6":null,"occ date":"05/13/10","column_7":null,"district":"HC","geo_score":0.0,"column_8":null,"total dispatches":1,"column_9":null,"id":"a6qkald5qojg","geo_precision":"unmatched","address":"AGRICOLA ST / BLOOMFIELD ST","final case full":"SUSP - SUSPICIOUS PERSON"},"type":"Feature","geometry":null},{"properties":{"column_6":null,"occ date":"05/13/10","column_7":null,"district":"HC","geo_score":0.0,"column_8":null,"total dispatches":0,"column_9":null,"id":"a6qkaldw7zl5","geo_precision":"unmatched","address":"BRUNSWICK ST","final case full":"PROS - PROSTITUTION COMPLAINT"},"type":"Feature","geometry":null},{"properties":{"column_6":null,"occ date":"05/13/10","column_7":null,"district":"HC","geo_score":0.0,"column_8":null,"total dispatches":0,"column_9":null,"id":"a6qkalg3z3bn","geo_precision":"unmatched","address":"BRUNSWICK ST","final case full":"PROS - PROSTITUTION COMPLAINT"},"type":"Feature","geometry":null},{"properties":{"column_6":null,"occ date":"05/12/10","column_7":null,"district":"HC","geo_score":0.0,"column_8":null,"total dispatches":0,"column_9":null,"id":"a6qkalgznsr1","geo_precision":"unmatched","address":"BRUNSWICK ST","final case full":"PROS - PROSTITUTION COMPLAINT"},"type":"Feature","geometry":null},{"properties":{"column_6":null,"occ date":"05/11/10","column_7":null,"district":"HE","geo_score":0.0,"column_8":null,"total dispatches":2,"column_9":null,"id":"a6qkale3dvql","geo_precision":"unmatched","address":"HENRY ST / WINDMILL RD","final case full":"PROS - PROSTITUTION COMPLAINT"},"type":"Feature","geometry":null},{"properties":{"column_6":null,"occ date":"05/10/10","column_7":null,"district":"HE","geo_score":0.0,"column_8":null,"total dispatches":1,"column_9":null,"id":"a6qkal8o82ds","geo_precision":"unmatched","address":"WINDMILL RD / HENRY ST","final case full":"PROS - PROSTITUTION COMPLAINT"},"type":"Feature","geometry":null},{"properties":{"column_6":null,"occ date":"05/09/10","column_7":null,"district":"HC","geo_score":0.0,"column_8":null,"total dispatches":2,"column_9":null,"id":"a6qkalgckh2u","geo_precision":"unmatched","address":"AGRICOLA ST / CHARLES ST","final case full":"LIQO - LIQUOR OFFENCE"},"type":"Feature","geometry":null},{"properties":{"column_6":null,"occ date":"05/09/10","column_7":null,"district":"HC","geo_score":0.0,"column_8":null,"total dispatches":0,"column_9":null,"id":"a6qkalj1qrch","geo_precision":"unmatched","address":"AGRICOLA ST","final case full":"PROS - PROSTITUTION COMPLAINT"},"type":"Feature","geometry":null},{"properties":{"column_6":null,"occ date":"05/08/10","column_7":null,"district":"HC","geo_score":0.0,"column_8":null,"total dispatches":2,"column_9":null,"id":"a6qkalgc0dox","geo_precision":"unmatched","address":"AGRICOLA ST","final case full":"PROS - PROSTITUTION COMPLAINT"},"type":"Feature","geometry":null},{"properties":{"column_6":null,"occ date":"05/08/10","column_7":null,"district":"HW","geo_score":0.0,"column_8":null,"total dispatches":0,"column_9":null,"id":"a6qkal8qujsr","geo_precision":"unmatched","address":"BEDFORD HWY","final case full":"PROS - PROSTITUTION COMPLAINT"},"type":"Feature","geometry":null},{"properties":{"column_6":null,"occ date":"05/08/10","column_7":null,"district":"HE","geo_score":0.0,"column_8":null,"total dispatches":0,"column_9":null,"id":"a6qkalm4ab6w","geo_precision":"unmatched","address":"WINDMILL RD","final case full":"PROS - PROSTITUTION COMPLAINT"},"type":"Feature","geometry":null},{"properties":{"column_6":null,"occ date":"05/07/10","column_7":null,"district":"HE","geo_score":0.0,"column_8":null,"total dispatches":1,"column_9":null,"id":"a6qkalci1r4y","geo_precision":"unmatched","address":"WINDMILL RD","final case full":"PROS - PROSTITUTION COMPLAINT"},"type":"Feature","geometry":null},{"properties":{"column_6":null,"occ date":"05/07/10","column_7":null,"district":"HC","geo_score":0.0,"column_8":null,"total dispatches":0,"column_9":null,"id":"a6qkalog1fdx","geo_precision":"unmatched","address":"SALTER ST","final case full":"PROS - PROSTITUTION COMPLAINT"},"type":"Feature","geometry":null},{"properties":{"column_6":null,"occ date":"05/07/10","column_7":null,"district":"HE","geo_score":0.0,"column_8":null,"total dispatches":3,"column_9":null,"id":"a6qkalmsesfd","geo_precision":"unmatched","address":"WINDMILL RD","final case full":"PROS - PROSTITUTION COMPLAINT"},"type":"Feature","geometry":null},{"properties":{"column_6":null,"occ date":"05/07/10","column_7":null,"district":"HE","geo_score":0.0,"column_8":null,"total dispatches":0,"column_9":null,"id":"a6qkaldjvlzd","geo_precision":"unmatched","address":"HENRY ST / WINDMILL RD","final case full":"PROS - PROSTITUTION COMPLAINT"},"type":"Feature","geometry":null},{"properties":{"column_6":null,"occ date":"05/07/10","column_7":null,"district":"HC","geo_score":0.0,"column_8":null,"total dispatches":0,"column_9":null,"id":"a6qkale5dv8i","geo_precision":"unmatched","address":"BRUNSWICK ST","final case full":"PROS - PROSTITUTION COMPLAINT"},"type":"Feature","geometry":null},{"properties":{"column_6":null,"occ date":"05/06/10","column_7":null,"district":"HE","geo_score":0.0,"column_8":null,"total dispatches":1,"column_9":null,"id":"a6qkalczhp4r","geo_precision":"unmatched","address":"WINDMILL RD","final case full":"PROS - PROSTITUTION COMPLAINT"},"type":"Feature","geometry":null},{"properties":{"column_6":null,"occ date":"05/06/10","column_7":null,"district":"HC","geo_score":0.0,"column_8":null,"total dispatches":0,"column_9":null,"id":"a6qkallfttx1","geo_precision":"unmatched","address":"BRUNSWICK ST","final case full":"PROS - PROSTITUTION COMPLAINT"},"type":"Feature","geometry":null},{"properties":{"column_6":null,"occ date":"05/05/10","column_7":null,"district":"HE","geo_score":0.0,"column_8":null,"total dispatches":2,"column_9":null,"id":"a6qkalewmb1i","geo_precision":"unmatched","address":"WINDMILL RD","final case full":"PROS - PROSTITUTION COMPLAINT"},"type":"Feature","geometry":null},{"properties":{"column_6":null,"occ date":"05/05/10","column_7":null,"district":"HE","geo_score":0.0,"column_8":null,"total dispatches":2,"column_9":null,"id":"a6qkalar0s4p","geo_precision":"unmatched","address":"HESTER ST / HENRY ST","final case full":"PROS - PROSTITUTION COMPLAINT"},"type":"Feature","geometry":null},{"properties":{"column_6":null,"occ date":"05/05/10","column_7":null,"district":"HC","geo_score":0.0,"column_8":null,"total dispatches":0,"column_9":null,"id":"a6qkalemp0s0","geo_precision":"unmatched","address":"BRUNSWICK ST","final case full":"PROS - PROSTITUTION COMPLAINT"},"type":"Feature","geometry":null},{"properties":{"column_6":null,"occ date":"05/05/10","column_7":null,"district":"HE","geo_score":0.0,"column_8":null,"total dispatches":2,"column_9":null,"id":"a6qkalktbkqe","geo_precision":"unmatched","address":"BISHOP AVE","final case full":"PROS - PROSTITUTION COMPLAINT"},"type":"Feature","geometry":null},{"properties":{"column_6":null,"occ date":"05/04/10","column_7":null,"district":"HE","geo_score":0.0,"column_8":null,"total dispatches":1,"column_9":null,"id":"a6qkalbopn8g","geo_precision":"unmatched","address":"WINDMILL RD","final case full":"PROS - PROSTITUTION COMPLAINT"},"type":"Feature","geometry":null},{"properties":{"column_6":null,"occ date":"05/03/10","column_7":null,"district":"HE","geo_score":0.0,"column_8":null,"total dispatches":1,"column_9":null,"id":"a6qkaljw6xwv","geo_precision":"unmatched","address":"WINDMILL RD","final case full":"PROS - PROSTITUTION COMPLAINT"},"type":"Feature","geometry":null},{"properties":{"column_6":null,"occ date":"05/03/10","column_7":null,"district":"HE","geo_score":0.0,"column_8":null,"total dispatches":1,"column_9":null,"id":"a6qkalm6h68k","geo_precision":"unmatched","address":"WINDMILL RD","final case full":"PROS - PROSTITUTION COMPLAINT"},"type":"Feature","geometry":null},{"properties":{"column_6":null,"occ date":"05/02/10","column_7":null,"district":"HC","geo_score":0.0,"column_8":null,"total dispatches":0,"column_9":null,"id":"a6qkald964hb","geo_precision":"unmatched","address":"HOLLIS ST","final case full":"PROS - PROSTITUTION COMPLAINT"},"type":"Feature","geometry":null},{"properties":{"column_6":null,"occ date":"05/02/10","column_7":null,"district":"HE","geo_score":0.0,"column_8":null,"total dispatches":0,"column_9":null,"id":"a6qkalm91u99","geo_precision":"unmatched","address":"HESTER ST / JAMIESON ST","final case full":"PROS - PROSTITUTION COMPLAINT"},"type":"Feature","geometry":null},{"properties":{"column_6":null,"occ date":"05/02/10","column_7":null,"district":"HE","geo_score":0.0,"column_8":null,"total dispatches":1,"column_9":null,"id":"a6qkalguklow","geo_precision":"unmatched","address":"JAMIESON ST / WYSE RD","final case full":"PROS - PROSTITUTION COMPLAINT"},"type":"Feature","geometry":null},{"properties":{"column_6":null,"occ date":"05/02/10","column_7":null,"district":"HE","geo_score":0.0,"column_8":null,"total dispatches":2,"column_9":null,"id":"a6qkalamwhza","geo_precision":"unmatched","address":"WINDMILL RD","final case full":"PROS - PROSTITUTION COMPLAINT"},"type":"Feature","geometry":null},{"properties":{"column_6":null,"occ date":"05/02/10","column_7":null,"district":"HE","geo_score":0.0,"column_8":null,"total dispatches":1,"column_9":null,"id":"a6qkalk5tgp6","geo_precision":"unmatched","address":"WINDMILL RD","final case full":"PROS - PROSTITUTION COMPLAINT"},"type":"Feature","geometry":null},{"properties":{"column_6":null,"occ date":"05/02/10","column_7":null,"district":"HE","geo_score":0.0,"column_8":null,"total dispatches":1,"column_9":null,"id":"a6qkalhi0pd5","geo_precision":"unmatched","address":"WINDMILL RD / HENRY ST","final case full":"PROS - PROSTITUTION COMPLAINT"},"type":"Feature","geometry":null},{"properties":{"column_6":null,"occ date":"05/01/10","column_7":null,"district":"HE","geo_score":0.0,"column_8":null,"total dispatches":1,"column_9":null,"id":"a6qkallqdo1u","geo_precision":"unmatched","address":"WINDMILL RD","final case full":"PROS - PROSTITUTION COMPLAINT"},"type":"Feature","geometry":null},{"properties":{"column_6":null,"occ date":"05/01/10","column_7":null,"district":"HE","geo_score":0.0,"column_8":null,"total dispatches":1,"column_9":null,"id":"a6qkalfef37v","geo_precision":"unmatched","address":"WINDMILL RD / ALBRO LAKE RD","final case full":"PROS - PROSTITUTION COMPLAINT"},"type":"Feature","geometry":null},{"properties":{"column_6":null,"occ date":"04/30/10","column_7":null,"district":"HE","geo_score":0.0,"column_8":null,"total dispatches":1,"column_9":null,"id":"a6qkalf2x4ud","geo_precision":"unmatched","address":"WINDMILL RD","final case full":"PROS - PROSTITUTION COMPLAINT"},"type":"Feature","geometry":null},{"properties":{"column_6":null,"occ date":"04/28/10","column_7":null,"district":"HE","geo_score":0.0,"column_8":null,"total dispatches":1,"column_9":null,"id":"a6qkalejcm67","geo_precision":"unmatched","address":"WINDMILL RD","final case full":"PROS - PROSTITUTION COMPLAINT"},"type":"Feature","geometry":null},{"properties":{"column_6":null,"occ date":"04/27/10","column_7":null,"district":"HE","geo_score":0.0,"column_8":null,"total dispatches":1,"column_9":null,"id":"a6qkali73fzm","geo_precision":"unmatched","address":"WINDMILL RD / HOWE ST","final case full":"PROS - PROSTITUTION COMPLAINT"},"type":"Feature","geometry":null},{"properties":{"column_6":null,"occ date":"04/25/10","column_7":null,"district":"HE","geo_score":0.0,"column_8":null,"total dispatches":5,"column_9":null,"id":"a6qkalcnkqdx","geo_precision":"unmatched","address":"VICTORIA RD","final case full":"PROS - PROSTITUTION COMPLAINT"},"type":"Feature","geometry":null},{"properties":{"column_6":null,"occ date":"04/24/10","column_7":null,"district":"HE","geo_score":0.0,"column_8":null,"total dispatches":2,"column_9":null,"id":"a6qkalltr7kx","geo_precision":"unmatched","address":"JACKSON RD / ROBERT BURNS DR","final case full":"PROS - PROSTITUTION COMPLAINT"},"type":"Feature","geometry":null},{"properties":{"column_6":null,"occ date":"04/23/10","column_7":null,"district":"HE","geo_score":0.0,"column_8":null,"total dispatches":2,"column_9":null,"id":"a6qkaligst54","geo_precision":"unmatched","address":"HOWE ST / WINDMILL RD","final case full":"PROS - PROSTITUTION COMPLAINT"},"type":"Feature","geometry":null},{"properties":{"column_6":null,"occ date":"04/23/10","column_7":null,"district":"HC","geo_score":0.0,"column_8":null,"total dispatches":1,"column_9":null,"id":"a6qkalflnhoy","geo_precision":"unmatched","address":"MAYNARD ST","final case full":"SUSP - SUSPICIOUS PERSON"},"type":"Feature","geometry":null},{"properties":{"column_6":null,"occ date":"04/22/10","column_7":null,"district":"HC","geo_score":0.0,"column_8":null,"total dispatches":0,"column_9":null,"id":"a6qkalivr3x0","geo_precision":"unmatched","address":"AGRICOLA ST / CHARLES ST","final case full":"PROS - PROSTITUTION COMPLAINT"},"type":"Feature","geometry":null},{"properties":{"column_6":null,"occ date":"04/22/10","column_7":null,"district":"HE","geo_score":0.0,"column_8":null,"total dispatches":1,"column_9":null,"id":"a6qkal9tal8p","geo_precision":"unmatched","address":"WINDMILL RD","final case full":"PROS - PROSTITUTION COMPLAINT"},"type":"Feature","geometry":null},{"properties":{"column_6":null,"occ date":"04/22/10","column_7":null,"district":"HE","geo_score":0.0,"column_8":null,"total dispatches":2,"column_9":null,"id":"a6qkallfgro2","geo_precision":"unmatched","address":"WINDMILL RD / STAIRS ST","final case full":"PROS - PROSTITUTION COMPLAINT"},"type":"Feature","geometry":null},{"properties":{"column_6":null,"occ date":"04/21/10","column_7":null,"district":"HE","geo_score":0.0,"column_8":null,"total dispatches":0,"column_9":null,"id":"a6qkalgfh2qz","geo_precision":"unmatched","address":"WALLACE ST / WINDMILL RD","final case full":"PROS - PROSTITUTION COMPLAINT"},"type":"Feature","geometry":null},{"properties":{"column_6":null,"occ date":"04/21/10","column_7":null,"district":"HE","geo_score":0.0,"column_8":null,"total dispatches":0,"column_9":null,"id":"a6qkalo5rwar","geo_precision":"unmatched","address":"WINDMILL RD / WALLACE ST","final case full":"PROS - PROSTITUTION COMPLAINT"},"type":"Feature","geometry":null},{"properties":{"column_6":null,"occ date":"04/21/10","column_7":null,"district":"HE","geo_score":0.0,"column_8":null,"total dispatches":1,"column_9":null,"id":"a6qkalbrgi8w","geo_precision":"unmatched","address":"QUEEN ST","final case full":"PROS - PROSTITUTION COMPLAINT"},"type":"Feature","geometry":null},{"properties":{"column_6":null,"occ date":"04/21/10","column_7":null,"district":"HE","geo_score":0.0,"column_8":null,"total dispatches":1,"column_9":null,"id":"a6qkalcc6q6v","geo_precision":"unmatched","address":"QUEEN ST","final case full":"PROS - PROSTITUTION COMPLAINT"},"type":"Feature","geometry":null},{"properties":{"column_6":null,"occ date":"04/20/10","column_7":null,"district":"HE","geo_score":0.0,"column_8":null,"total dispatches":0,"column_9":null,"id":"a6qkaleqkiug","geo_precision":"unmatched","address":"WINDMILL RD / STAIRS ST","final case full":"PROS - PROSTITUTION COMPLAINT"},"type":"Feature","geometry":null},{"properties":{"column_6":null,"occ date":"04/20/10","column_7":null,"district":"HC","geo_score":0.0,"column_8":null,"total dispatches":0,"column_9":null,"id":"a6qkalg8q6vf","geo_precision":"unmatched","address":"BRUNSWICK ST","final case full":"PROS - PROSTITUTION COMPLAINT"},"type":"Feature","geometry":null},{"properties":{"column_6":null,"occ date":"04/20/10","column_7":null,"district":"HE","geo_score":0.0,"column_8":null,"total dispatches":1,"column_9":null,"id":"a6qkalmfthcs","geo_precision":"unmatched","address":"PRIMROSE ST","final case full":"PROS - PROSTITUTION COMPLAINT"},"type":"Feature","geometry":null},{"properties":{"column_6":null,"occ date":"04/16/10","column_7":null,"district":"HE","geo_score":0.0,"column_8":null,"total dispatches":1,"column_9":null,"id":"a6qkal8whzmc","geo_precision":"unmatched","address":"WYSE RD","final case full":"PROS - PROSTITUTION COMPLAINT"},"type":"Feature","geometry":null},{"properties":{"column_6":null,"occ date":"04/16/10","column_7":null,"district":"HE","geo_score":0.0,"column_8":null,"total dispatches":1,"column_9":null,"id":"a6qkalotrvgt","geo_precision":"unmatched","address":"VICTORIA RD / QUEEN ST","final case full":"PROS - PROSTITUTION COMPLAINT"},"type":"Feature","geometry":null},{"properties":{"column_6":null,"occ date":"04/16/10","column_7":null,"district":"HC","geo_score":0.0,"column_8":null,"total dispatches":0,"column_9":null,"id":"a6qkalb36xnm","geo_precision":"unmatched","address":"LADY HAMMOND RD","final case full":"PROS - PROSTITUTION COMPLAINT"},"type":"Feature","geometry":null},{"properties":{"column_6":null,"occ date":"04/15/10","column_7":null,"district":"HE","geo_score":0.0,"column_8":null,"total dispatches":0,"column_9":null,"id":"a6qkalm1xm3l","geo_precision":"unmatched","address":"HENRY ST","final case full":"PROS - PROSTITUTION COMPLAINT"},"type":"Feature","geometry":null},{"properties":{"column_6":null,"occ date":"04/11/10","column_7":null,"district":"HE","geo_score":0.0,"column_8":null,"total dispatches":1,"column_9":null,"id":"a6qkalerhoz7","geo_precision":"unmatched","address":"WINDMILL RD / FARRELL ST","final case full":"PROS - PROSTITUTION COMPLAINT"},"type":"Feature","geometry":null},{"properties":{"column_6":null,"occ date":"04/10/10","column_7":null,"district":"HE","geo_score":0.0,"column_8":null,"total dispatches":0,"column_9":null,"id":"a6qkalkyh3dl","geo_precision":"unmatched","address":"WINDMILL RD","final case full":"PROS - PROSTITUTION COMPLAINT"},"type":"Feature","geometry":null},{"properties":{"column_6":null,"occ date":"04/06/10","column_7":null,"district":"HE","geo_score":0.0,"column_8":null,"total dispatches":1,"column_9":null,"id":"a6qkalbg3u8l","geo_precision":"unmatched","address":"WINDMILL RD","final case full":"PROS - PROSTITUTION COMPLAINT"},"type":"Feature","geometry":null},{"properties":{"column_6":null,"occ date":"04/06/10","column_7":null,"district":"HE","geo_score":0.0,"column_8":null,"total dispatches":1,"column_9":null,"id":"a6qkal8p3j0e","geo_precision":"unmatched","address":"NIVENS AVE / WINDMILL RD","final case full":"PROS - PROSTITUTION COMPLAINT"},"type":"Feature","geometry":null},{"properties":{"column_6":null,"occ date":"04/05/10","column_7":null,"district":"HE","geo_score":0.0,"column_8":null,"total dispatches":1,"column_9":null,"id":"a6qkalkbphxq","geo_precision":"unmatched","address":"HENRY ST / WINDMILL RD","final case full":"PROS - PROSTITUTION COMPLAINT"},"type":"Feature","geometry":null},{"properties":{"column_6":null,"occ date":"04/04/10","column_7":null,"district":"HE","geo_score":0.0,"column_8":null,"total dispatches":1,"column_9":null,"id":"a6qkalotxfsz","geo_precision":"unmatched","address":"QUEEN ST / VICTORIA RD","final case full":"PROS - PROSTITUTION COMPLAINT"},"type":"Feature","geometry":null},{"properties":{"column_6":null,"occ date":"04/03/10","column_7":null,"district":"HE","geo_score":0.0,"column_8":null,"total dispatches":1,"column_9":null,"id":"a6qkalhojew8","geo_precision":"unmatched","address":"WINDMILL RD / ALBRO LAKE RD","final case full":"PROS - PROSTITUTION COMPLAINT"},"type":"Feature","geometry":null},{"properties":{"column_6":null,"occ date":"04/03/10","column_7":null,"district":"HC","geo_score":0.0,"column_8":null,"total dispatches":1,"column_9":null,"id":"a6qkalegbrf0","geo_precision":"unmatched","address":"AGRICOLA ST","final case full":"PROS - PROSTITUTION COMPLAINT"},"type":"Feature","geometry":null},{"properties":{"column_6":null,"occ date":"03/31/10","column_7":null,"district":"HE","geo_score":0.0,"column_8":null,"total dispatches":1,"column_9":null,"id":"a6qkaldd5krz","geo_precision":"unmatched","address":"WINDMILL RD","final case full":"PROS - PROSTITUTION COMPLAINT"},"type":"Feature","geometry":null},{"properties":{"column_6":null,"occ date":"01/04/10","column_7":null,"district":"HE","geo_score":0.0,"column_8":null,"total dispatches":1,"column_9":null,"id":"a6qkalaxda7h","geo_precision":"unmatched","address":"QUEEN ST / VICTORIA RD","final case full":"PROS - PROSTITUTION COMPLAINT"},"type":"Feature","geometry":null},{"properties":{"column_6":null,"occ date":"01/12/10","column_7":null,"district":"HC","geo_score":0.0,"column_8":null,"total dispatches":0,"column_9":null,"id":"a6qkalf5k28r","geo_precision":"unmatched","address":"BRUNSWICK ST","final case full":"PROS - PROSTITUTION COMPLAINT"},"type":"Feature","geometry":null},{"properties":{"column_6":null,"occ date":"01/12/10","column_7":null,"district":"HC","geo_score":0.0,"column_8":null,"total dispatches":0,"column_9":null,"id":"a6qkalj3l6zj","geo_precision":"unmatched","address":"BRUNSWICK ST","final case full":"PROS - PROSTITUTION COMPLAINT"},"type":"Feature","geometry":null},{"properties":{"column_6":null,"occ date":"01/12/10","column_7":null,"district":"HC","geo_score":0.0,"column_8":null,"total dispatches":0,"column_9":null,"id":"a6qkalot18o5","geo_precision":"unmatched","address":"BRUNSWICK ST","final case full":"PROS - PROSTITUTION COMPLAINT"},"type":"Feature","geometry":null},{"properties":{"column_6":null,"occ date":"01/14/10","column_7":null,"district":"HE","geo_score":0.0,"column_8":null,"total dispatches":1,"column_9":null,"id":"a6qkallblcgq","geo_precision":"unmatched","address":"WINDMILL RD / STAIRS ST","final case full":"PROS - PROSTITUTION COMPLAINT"},"type":"Feature","geometry":null},{"properties":{"column_6":null,"occ date":"01/14/10","column_7":null,"district":"HE","geo_score":0.0,"column_8":null,"total dispatches":0,"column_9":null,"id":"a6qkalk3pcd3","geo_precision":"unmatched","address":"ELMWOOD AVE / WINDMILL RD","final case full":"PROS - PROSTITUTION COMPLAINT"},"type":"Feature","geometry":null},{"properties":{"column_6":null,"occ date":"01/14/10","column_7":null,"district":"HE","geo_score":0.0,"column_8":null,"total dispatches":0,"column_9":null,"id":"a6qkaleyjzoq","geo_precision":"unmatched","address":"WINDMILL RD / WALLACE ST","final case full":"PROS - PROSTITUTION COMPLAINT"},"type":"Feature","geometry":null},{"properties":{"column_6":null,"occ date":"01/14/10","column_7":null,"district":"HE","geo_score":0.0,"column_8":null,"total dispatches":0,"column_9":null,"id":"a6qkalg4fr4y","geo_precision":"unmatched","address":"WINDMILL RD / WALLACE ST","final case full":"PROS - PROSTITUTION COMPLAINT"},"type":"Feature","geometry":null},{"properties":{"column_6":null,"occ date":"01/16/10","column_7":null,"district":"HE","geo_score":0.0,"column_8":null,"total dispatches":1,"column_9":null,"id":"a6qkald7sqsq","geo_precision":"unmatched","address":"QUEEN ST","final case full":"PROS - PROSTITUTION COMPLAINT"},"type":"Feature","geometry":null},{"properties":{"column_6":null,"occ date":"01/19/10","column_7":null,"district":"HE","geo_score":0.0,"column_8":null,"total dispatches":1,"column_9":null,"id":"a6qkalh3s5gv","geo_precision":"unmatched","address":"QUEEN ST / VICTORIA RD","final case full":"PROS - PROSTITUTION COMPLAINT"},"type":"Feature","geometry":null},{"properties":{"column_6":null,"occ date":"01/19/10","column_7":null,"district":"HC","geo_score":0.0,"column_8":null,"total dispatches":1,"column_9":null,"id":"a6qkalil504y","geo_precision":"unmatched","address":"AGRICOLA ST / BLOOMFIELD ST","final case full":"PROS - PROSTITUTION COMPLAINT"},"type":"Feature","geometry":null},{"properties":{"column_6":null,"occ date":"01/24/10","column_7":null,"district":"HE","geo_score":0.0,"column_8":null,"total dispatches":2,"column_9":null,"id":"a6qkal9zjey7","geo_precision":"unmatched","address":"JAMIESON ST","final case full":"PROS - PROSTITUTION COMPLAINT"},"type":"Feature","geometry":null},{"properties":{"column_6":null,"occ date":"01/24/10","column_7":null,"district":"HE","geo_score":0.0,"column_8":null,"total dispatches":1,"column_9":null,"id":"a6qkaligde5z","geo_precision":"unmatched","address":"WINDMILL RD","final case full":"PROS - PROSTITUTION COMPLAINT"},"type":"Feature","geometry":null},{"properties":{"column_6":null,"occ date":"01/25/10","column_7":null,"district":"HE","geo_score":0.0,"column_8":null,"total dispatches":2,"column_9":null,"id":"a6qkalbb1zc6","geo_precision":"unmatched","address":"WINDMILL RD","final case full":"PROS - PROSTITUTION COMPLAINT"},"type":"Feature","geometry":null},{"properties":{"column_6":null,"occ date":"01/26/10","column_7":null,"district":"HE","geo_score":0.0,"column_8":null,"total dispatches":1,"column_9":null,"id":"a6qkalfzym4b","geo_precision":"unmatched","address":"CHAPPELL ST","final case full":"SUSV - SUSPICIOUS VEHICLE"},"type":"Feature","geometry":null},{"properties":{"column_6":null,"occ date":"01/27/10","column_7":null,"district":"HE","geo_score":0.0,"column_8":null,"total dispatches":1,"column_9":null,"id":"a6qkallziv3i","geo_precision":"unmatched","address":"WINDMILL RD / ELMWOOD AVE","final case full":"PROS - PROSTITUTION COMPLAINT"},"type":"Feature","geometry":null},{"properties":{"column_6":null,"occ date":"01/28/10","column_7":null,"district":"HE","geo_score":0.0,"column_8":null,"total dispatches":1,"column_9":null,"id":"a6qkalb1r5ns","geo_precision":"unmatched","address":"JAMIESON ST","final case full":"PROS - PROSTITUTION COMPLAINT"},"type":"Feature","geometry":null},{"properties":{"column_6":null,"occ date":"01/28/10","column_7":null,"district":"HE","geo_score":0.0,"column_8":null,"total dispatches":0,"column_9":null,"id":"a6qkald49nbj","geo_precision":"unmatched","address":"WINDMILL RD","final case full":"PROS - PROSTITUTION COMPLAINT"},"type":"Feature","geometry":null},{"properties":{"column_6":null,"occ date":"01/30/10","column_7":null,"district":"HE","geo_score":0.0,"column_8":null,"total dispatches":1,"column_9":null,"id":"a6qkalfoioox","geo_precision":"unmatched","address":"JAMIESON ST","final case full":"PROS - PROSTITUTION COMPLAINT"},"type":"Feature","geometry":null},{"properties":{"column_6":null,"occ date":"02/02/10","column_7":null,"district":"HE","geo_score":0.0,"column_8":null,"total dispatches":1,"column_9":null,"id":"a6qkalj0ghqg","geo_precision":"unmatched","address":"JAMIESON ST","final case full":"PROS - PROSTITUTION COMPLAINT"},"type":"Feature","geometry":null},{"properties":{"column_6":null,"occ date":"02/03/10","column_7":null,"district":"HE","geo_score":0.0,"column_8":null,"total dispatches":1,"column_9":null,"id":"a6qkaldkifrt","geo_precision":"unmatched","address":"WINDMILL RD","final case full":"PROS - PROSTITUTION COMPLAINT"},"type":"Feature","geometry":null},{"properties":{"column_6":null,"occ date":"02/03/10","column_7":null,"district":"HE","geo_score":0.0,"column_8":null,"total dispatches":1,"column_9":null,"id":"a6qkalhyln58","geo_precision":"unmatched","address":"ELMWOOD AVE / WINDMILL RD","final case full":"PROS - PROSTITUTION COMPLAINT"},"type":"Feature","geometry":null},{"properties":{"column_6":null,"occ date":"02/05/10","column_7":null,"district":"HE","geo_score":0.0,"column_8":null,"total dispatches":1,"column_9":null,"id":"a6qkalb88h4e","geo_precision":"unmatched","address":"WINDMILL RD / PRINCESS MARGARET BLVD","final case full":"PROS - PROSTITUTION COMPLAINT"},"type":"Feature","geometry":null},{"properties":{"column_6":null,"occ date":"02/05/10","column_7":null,"district":"HC","geo_score":0.0,"column_8":null,"total dispatches":0,"column_9":null,"id":"a6qkalo8dkda","geo_precision":"unmatched","address":"AGRICOLA ST / BLOOMFIELD ST","final case full":"PROS - PROSTITUTION COMPLAINT"},"type":"Feature","geometry":null},{"properties":{"column_6":null,"occ date":"02/06/10","column_7":null,"district":"HE","geo_score":0.0,"column_8":null,"total dispatches":1,"column_9":null,"id":"a6qkalmddtrk","geo_precision":"unmatched","address":"JAMIESON ST / HESTER ST","final case full":"PROS - PROSTITUTION COMPLAINT"},"type":"Feature","geometry":null},{"properties":{"column_6":null,"occ date":"02/06/10","column_7":null,"district":"HE","geo_score":0.0,"column_8":null,"total dispatches":1,"column_9":null,"id":"a6qkal8rszgb","geo_precision":"unmatched","address":"HESTER ST / JAMIESON ST","final case full":"PROS - PROSTITUTION COMPLAINT"},"type":"Feature","geometry":null},{"properties":{"column_6":null,"occ date":"02/07/10","column_7":null,"district":"HE","geo_score":0.0,"column_8":null,"total dispatches":0,"column_9":null,"id":"a6qkalg2gmu8","geo_precision":"unmatched","address":"WINDMILL RD","final case full":"PROS - PROSTITUTION COMPLAINT"},"type":"Feature","geometry":null},{"properties":{"column_6":null,"occ date":"02/07/10","column_7":null,"district":"HE","geo_score":0.0,"column_8":null,"total dispatches":2,"column_9":null,"id":"a6qkalii1e49","geo_precision":"unmatched","address":"QUEEN ST / VICTORIA RD","final case full":"PROS - PROSTITUTION COMPLAINT"},"type":"Feature","geometry":null},{"properties":{"column_6":null,"occ date":"02/08/10","column_7":null,"district":"HE","geo_score":0.0,"column_8":null,"total dispatches":1,"column_9":null,"id":"a6qkalbgaknp","geo_precision":"unmatched","address":"PORTLAND ST / VICTORIA RD","final case full":"PROS - PROSTITUTION COMPLAINT"},"type":"Feature","geometry":null},{"properties":{"column_6":null,"occ date":"02/09/10","column_7":null,"district":"HC","geo_score":0.0,"column_8":null,"total dispatches":0,"column_9":null,"id":"a6qkaldiyabs","geo_precision":"unmatched","address":"AGRICOLA ST / ONTARIO ST","final case full":"PROS - PROSTITUTION COMPLAINT"},"type":"Feature","geometry":null},{"properties":{"column_6":null,"occ date":"02/10/10","column_7":null,"district":"HE","geo_score":0.0,"column_8":null,"total dispatches":1,"column_9":null,"id":"a6qkalfsa3v8","geo_precision":"unmatched","address":"WINDMILL RD / STAIRS ST","final case full":"PROS - PROSTITUTION COMPLAINT"},"type":"Feature","geometry":null},{"properties":{"column_6":null,"occ date":"02/11/10","column_7":null,"district":"HE","geo_score":0.0,"column_8":null,"total dispatches":0,"column_9":null,"id":"a6qkalo81mj4","geo_precision":"unmatched","address":"HESTER ST / JAMIESON ST","final case full":"PROS - PROSTITUTION COMPLAINT"},"type":"Feature","geometry":null},{"properties":{"column_6":null,"occ date":"02/13/10","column_7":null,"district":"HE","geo_score":0.0,"column_8":null,"total dispatches":2,"column_9":null,"id":"a6qkalcmxxxb","geo_precision":"unmatched","address":"WINDMILL RD","final case full":"SUSV - SUSPICIOUS VEHICLE"},"type":"Feature","geometry":null},{"properties":{"column_6":null,"occ date":"02/15/10","column_7":null,"district":"HE","geo_score":0.0,"column_8":null,"total dispatches":2,"column_9":null,"id":"a6qkalhb7j66","geo_precision":"unmatched","address":"WINDMILL RD","final case full":"PROS - PROSTITUTION COMPLAINT"},"type":"Feature","geometry":null},{"properties":{"column_6":null,"occ date":"02/15/10","column_7":null,"district":"HE","geo_score":0.0,"column_8":null,"total dispatches":1,"column_9":null,"id":"a6qkalof9zms","geo_precision":"unmatched","address":"QUEEN ST / VICTORIA RD","final case full":"PROS - PROSTITUTION COMPLAINT"},"type":"Feature","geometry":null},{"properties":{"column_6":null,"occ date":"02/17/10","column_7":null,"district":"HE","geo_score":0.0,"column_8":null,"total dispatches":1,"column_9":null,"id":"a6qkala3q0u3","geo_precision":"unmatched","address":"HENRY ST / HESTER ST","final case full":"PROS - PROSTITUTION COMPLAINT"},"type":"Feature","geometry":null},{"properties":{"column_6":null,"occ date":"02/21/10","column_7":null,"district":"HE","geo_score":0.0,"column_8":null,"total dispatches":1,"column_9":null,"id":"a6qkalm7vcuy","geo_precision":"unmatched","address":"WINDMILL RD","final case full":"PROS - PROSTITUTION COMPLAINT"},"type":"Feature","geometry":null},{"properties":{"column_6":null,"occ date":"02/22/10","column_7":null,"district":"HE","geo_score":0.0,"column_8":null,"total dispatches":1,"column_9":null,"id":"a6qkalesj629","geo_precision":"unmatched","address":"WINDMILL RD","final case full":"PROS - PROSTITUTION COMPLAINT"},"type":"Feature","geometry":null},{"properties":{"column_6":null,"occ date":"02/23/10","column_7":null,"district":"HC","geo_score":0.0,"column_8":null,"total dispatches":4,"column_9":null,"id":"a6qkalnyicbd","geo_precision":"unmatched","address":"ROBERTS ST / MAYNARD ST","final case full":"PROS - PROSTITUTION COMPLAINT"},"type":"Feature","geometry":null},{"properties":{"column_6":null,"occ date":"02/23/10","column_7":null,"district":"HC","geo_score":0.0,"column_8":null,"total dispatches":0,"column_9":null,"id":"a6qkalcpg6l8","geo_precision":"unmatched","address":"ROBERTS ST / MAYNARD ST","final case full":"PROS - PROSTITUTION COMPLAINT"},"type":"Feature","geometry":null},{"properties":{"column_6":null,"occ date":"02/25/10","column_7":null,"district":"HE","geo_score":0.0,"column_8":null,"total dispatches":1,"column_9":null,"id":"a6qkal95b50d","geo_precision":"unmatched","address":"WINDMILL RD / PELZANT ST","final case full":"SUSP - SUSPICIOUS PERSON"},"type":"Feature","geometry":null},{"properties":{"column_6":null,"occ date":"02/25/10","column_7":null,"district":"HC","geo_score":0.0,"column_8":null,"total dispatches":0,"column_9":null,"id":"a6qkalladgsc","geo_precision":"unmatched","address":"BRUNSWICK ST","final case full":"PROS - PROSTITUTION COMPLAINT"},"type":"Feature","geometry":null},{"properties":{"column_6":null,"occ date":"02/26/10","column_7":null,"district":"HE","geo_score":0.0,"column_8":null,"total dispatches":1,"column_9":null,"id":"a6qkalhjxwh0","geo_precision":"unmatched","address":"HENRY ST / WINDMILL RD","final case full":"PROS - PROSTITUTION COMPLAINT"},"type":"Feature","geometry":null},{"properties":{"column_6":null,"occ date":"02/27/10","column_7":null,"district":"HE","geo_score":0.0,"column_8":null,"total dispatches":1,"column_9":null,"id":"a6qkalg9dsrj","geo_precision":"unmatched","address":"WINDMILL RD","final case full":"PROS - PROSTITUTION COMPLAINT"},"type":"Feature","geometry":null},{"properties":{"column_6":null,"occ date":"02/28/10","column_7":null,"district":"HE","geo_score":0.0,"column_8":null,"total dispatches":2,"column_9":null,"id":"a6qkalamoup7","geo_precision":"unmatched","address":"WINDMILL RD","final case full":"MSCI - MISCELLANEOUS / SUSPICIOUS CIRCUMSTANCES"},"type":"Feature","geometry":null},{"properties":{"column_6":null,"occ date":"03/01/10","column_7":null,"district":"HC","geo_score":0.0,"column_8":null,"total dispatches":1,"column_9":null,"id":"a6qkalo6d8je","geo_precision":"unmatched","address":"AGRICOLA ST","final case full":"PROS - PROSTITUTION COMPLAINT"},"type":"Feature","geometry":null},{"properties":{"column_6":null,"occ date":"03/01/10","column_7":null,"district":"HE","geo_score":0.0,"column_8":null,"total dispatches":1,"column_9":null,"id":"a6qkali9swsc","geo_precision":"unmatched","address":"WINDMILL RD","final case full":"PROS - PROSTITUTION COMPLAINT"},"type":"Feature","geometry":null},{"properties":{"column_6":null,"occ date":"03/02/10","column_7":null,"district":"HC","geo_score":0.0,"column_8":null,"total dispatches":0,"column_9":null,"id":"a6qkalnpzqje","geo_precision":"unmatched","address":"BRUNSWICK ST","final case full":"PROS - PROSTITUTION COMPLAINT"},"type":"Feature","geometry":null},{"properties":{"column_6":null,"occ date":"03/04/10","column_7":null,"district":"HW","geo_score":0.0,"column_8":null,"total dispatches":0,"column_9":null,"id":"a6qkald5im57","geo_precision":"unmatched","address":"PUNCH BOWL DR / HERRING COVE RD","final case full":"PROS - PROSTITUTION COMPLAINT"},"type":"Feature","geometry":null},{"properties":{"column_6":null,"occ date":"03/05/10","column_7":null,"district":"HE","geo_score":0.0,"column_8":null,"total dispatches":0,"column_9":null,"id":"a6qkald06li6","geo_precision":"unmatched","address":"JAMIESON ST / WINDMILL RD","final case full":"PROS - PROSTITUTION COMPLAINT"},"type":"Feature","geometry":null},{"properties":{"column_6":null,"occ date":"03/05/10","column_7":null,"district":"HE","geo_score":0.0,"column_8":null,"total dispatches":3,"column_9":null,"id":"a6qkaln37gc3","geo_precision":"unmatched","address":"JAMIESON ST / WINDMILL RD","final case full":"PROS - PROSTITUTION COMPLAINT"},"type":"Feature","geometry":null},{"properties":{"column_6":null,"occ date":"03/05/10","column_7":null,"district":"HE","geo_score":0.0,"column_8":null,"total dispatches":1,"column_9":null,"id":"a6qkalo03hyt","geo_precision":"unmatched","address":"WINDMILL RD / ALBRO LAKE RD","final case full":"PROS - PROSTITUTION COMPLAINT"},"type":"Feature","geometry":null},{"properties":{"column_6":null,"occ date":"03/06/10","column_7":null,"district":"HC","geo_score":0.0,"column_8":null,"total dispatches":1,"column_9":null,"id":"a6qkalaj3wf9","geo_precision":"unmatched","address":"NORTH ST / AGRICOLA ST","final case full":"PROS - PROSTITUTION COMPLAINT"},"type":"Feature","geometry":null},{"properties":{"column_6":null,"occ date":"03/09/10","column_7":null,"district":"HE","geo_score":0.0,"column_8":null,"total dispatches":0,"column_9":null,"id":"a6qkalef2ck2","geo_precision":"unmatched","address":"WINDMILL RD / ALBRO LAKE RD","final case full":"PROS - PROSTITUTION COMPLAINT"},"type":"Feature","geometry":null},{"properties":{"column_6":null,"occ date":"03/09/10","column_7":null,"district":"HE","geo_score":0.0,"column_8":null,"total dispatches":0,"column_9":null,"id":"a6qkal8w9iab","geo_precision":"unmatched","address":"WINDMILL RD / WALLACE ST","final case full":"PROS - PROSTITUTION COMPLAINT"},"type":"Feature","geometry":null},{"properties":{"column_6":null,"occ date":"03/12/10","column_7":null,"district":"HC","geo_score":0.0,"column_8":null,"total dispatches":2,"column_9":null,"id":"a6qkalhxe9cj","geo_precision":"unmatched","address":"AGRICOLA ST","final case full":"SUSP - SUSPICIOUS PERSON"},"type":"Feature","geometry":null},{"properties":{"column_6":null,"occ date":"03/13/10","column_7":null,"district":"HE","geo_score":0.0,"column_8":null,"total dispatches":1,"column_9":null,"id":"a6qkaln2rfwa","geo_precision":"unmatched","address":"WINDMILL RD / JAMIESON ST","final case full":"PROS - PROSTITUTION COMPLAINT"},"type":"Feature","geometry":null},{"properties":{"column_6":null,"occ date":"03/14/10","column_7":null,"district":"HE","geo_score":0.0,"column_8":null,"total dispatches":1,"column_9":null,"id":"a6qkalfsbadi","geo_precision":"unmatched","address":"ALBRO LAKE RD / WINDMILL RD","final case full":"PROS - PROSTITUTION COMPLAINT"},"type":"Feature","geometry":null},{"properties":{"column_6":null,"occ date":"03/15/10","column_7":null,"district":"HE","geo_score":0.0,"column_8":null,"total dispatches":2,"column_9":null,"id":"a6qkalmlix6n","geo_precision":"unmatched","address":"HENRY ST / WINDMILL RD","final case full":"SUSP - SUSPICIOUS PERSON"},"type":"Feature","geometry":null},{"properties":{"column_6":null,"occ date":"03/15/10","column_7":null,"district":"HE","geo_score":0.0,"column_8":null,"total dispatches":0,"column_9":null,"id":"a6qkalbs0xjy","geo_precision":"unmatched","address":"HESTER ST / JAMIESON ST","final case full":"PROS - PROSTITUTION COMPLAINT"},"type":"Feature","geometry":null},{"properties":{"column_6":null,"occ date":"03/16/10","column_7":null,"district":"HE","geo_score":0.0,"column_8":null,"total dispatches":1,"column_9":null,"id":"a6qkalc0q6jf","geo_precision":"unmatched","address":"HENRY ST","final case full":"PROS - PROSTITUTION COMPLAINT"},"type":"Feature","geometry":null},{"properties":{"column_6":null,"occ date":"03/16/10","column_7":null,"district":"HE","geo_score":0.0,"column_8":null,"total dispatches":1,"column_9":null,"id":"a6qkalcp4j09","geo_precision":"unmatched","address":"HESTER ST / JAMIESON ST","final case full":"PROS - PROSTITUTION COMPLAINT"},"type":"Feature","geometry":null},{"properties":{"column_6":null,"occ date":"03/17/10","column_7":null,"district":"HC","geo_score":0.0,"column_8":null,"total dispatches":0,"column_9":null,"id":"a6qkalhw3ynl","geo_precision":"unmatched","address":"BRUNSWICK ST","final case full":"PROS - PROSTITUTION COMPLAINT"},"type":"Feature","geometry":null},{"properties":{"column_6":null,"occ date":"03/18/10","column_7":null,"district":"HC","geo_score":0.0,"column_8":null,"total dispatches":1,"column_9":null,"id":"a6qkallxo6hq","geo_precision":"unmatched","address":"ROBERTS ST / AGRICOLA ST","final case full":"PROS - PROSTITUTION COMPLAINT"},"type":"Feature","geometry":null},{"properties":{"column_6":null,"occ date":"03/18/10","column_7":null,"district":"HE","geo_score":0.0,"column_8":null,"total dispatches":0,"column_9":null,"id":"a6qkalgi7pp7","geo_precision":"unmatched","address":"ALBRO LAKE RD / CHAPMAN ST","final case full":"PROS - PROSTITUTION COMPLAINT"},"type":"Feature","geometry":null},{"properties":{"column_6":null,"occ date":"03/20/10","column_7":null,"district":"HE","geo_score":0.0,"column_8":null,"total dispatches":1,"column_9":null,"id":"a6qkalh7pv36","geo_precision":"unmatched","address":"JAMIESON ST","final case full":"PROS - PROSTITUTION COMPLAINT"},"type":"Feature","geometry":null},{"properties":{"column_6":null,"occ date":"03/24/10","column_7":null,"district":"HE","geo_score":0.0,"column_8":null,"total dispatches":1,"column_9":null,"id":"a6qkalnyk52r","geo_precision":"unmatched","address":"ALBRO LAKE RD / VICTORIA RD","final case full":"PROS - PROSTITUTION COMPLAINT"},"type":"Feature","geometry":null},{"properties":{"column_6":null,"occ date":"03/24/10","column_7":null,"district":"HE","geo_score":0.0,"column_8":null,"total dispatches":0,"column_9":null,"id":"a6qkal8i8iky","geo_precision":"unmatched","address":"ALBRO LAKE RD / RICHMOND ST","final case full":"PROS - PROSTITUTION COMPLAINT"},"type":"Feature","geometry":null},{"properties":{"column_6":null,"occ date":"03/25/10","column_7":null,"district":"HE","geo_score":0.0,"column_8":null,"total dispatches":1,"column_9":null,"id":"a6qkalodwlvc","geo_precision":"unmatched","address":"ELMWOOD AVE / BEDFORD ST","final case full":"PROS - PROSTITUTION COMPLAINT"},"type":"Feature","geometry":null},{"properties":{"column_6":null,"occ date":"03/26/10","column_7":null,"district":"HC","geo_score":0.0,"column_8":null,"total dispatches":0,"column_9":null,"id":"a6qkald6oxxa","geo_precision":"unmatched","address":"BRUNSWICK ST","final case full":"PROS - PROSTITUTION COMPLAINT"},"type":"Feature","geometry":null},{"properties":{"column_6":null,"occ date":"03/26/10","column_7":null,"district":"HE","geo_score":0.0,"column_8":null,"total dispatches":0,"column_9":null,"id":"a6qkalhwcwm5","geo_precision":"unmatched","address":"COURTNEY RD","final case full":"MSCI - MISCELLANEOUS / SUSPICIOUS CIRCUMSTANCES"},"type":"Feature","geometry":null},{"properties":{"column_6":null,"occ date":"03/26/10","column_7":null,"district":"HE","geo_score":0.0,"column_8":null,"total dispatches":2,"column_9":null,"id":"a6qkalb7h0uy","geo_precision":"unmatched","address":"WINDMILL RD / FERNHILL DR","final case full":"PROS - PROSTITUTION COMPLAINT"},"type":"Feature","geometry":null},{"properties":{"column_6":null,"occ date":"03/26/10","column_7":null,"district":"HE","geo_score":0.0,"column_8":null,"total dispatches":2,"column_9":null,"id":"a6qkalef35kk","geo_precision":"unmatched","address":"WINDMILL RD / COURTNEY RD","final case full":"PROS - PROSTITUTION COMPLAINT"},"type":"Feature","geometry":null},{"properties":{"column_6":null,"occ date":"03/27/10","column_7":null,"district":"HC","geo_score":0.0,"column_8":null,"total dispatches":0,"column_9":null,"id":"a6qkaleqid4i","geo_precision":"unmatched","address":"BRUNSWICK ST","final case full":"PROS - PROSTITUTION COMPLAINT"},"type":"Feature","geometry":null},{"properties":{"column_6":null,"occ date":"11/17/10","column_7":null,"district":"HE","geo_score":0.0,"column_8":null,"total dispatches":2,"column_9":null,"id":"a6qkalkd0eno","geo_precision":"unmatched","address":"WINDMILL RD / JAMIESON ST","final case full":"PROS - PROSTITUTION COMPLAINT"},"type":"Feature","geometry":null},{"properties":{"column_6":null,"occ date":"11/19/10","column_7":null,"district":"HE","geo_score":0.0,"column_8":null,"total dispatches":1,"column_9":null,"id":"a6qkalld72th","geo_precision":"unmatched","address":"WINDMILL RD / HENRY ST","final case full":"PROS - PROSTITUTION COMPLAINT"},"type":"Feature","geometry":null},{"properties":{"column_6":null,"occ date":"11/23/10","column_7":null,"district":"HC","geo_score":0.0,"column_8":null,"total dispatches":0,"column_9":null,"id":"a6qkall0p67k","geo_precision":"unmatched","address":"GOTTINGEN ST","final case full":"PROS - PROSTITUTION COMPLAINT"},"type":"Feature","geometry":null},{"properties":{"column_6":null,"occ date":"11/23/10","column_7":null,"district":"HC","geo_score":0.0,"column_8":null,"total dispatches":1,"column_9":null,"id":"a6qkalbw6sny","geo_precision":"unmatched","address":"MAYNARD ST","final case full":"ACIT - ASSIST CITIZEN"},"type":"Feature","geometry":null},{"properties":{"column_6":null,"occ date":"11/24/10","column_7":null,"district":"HE","geo_score":0.0,"column_8":null,"total dispatches":1,"column_9":null,"id":"a6qkalf833ph","geo_precision":"unmatched","address":"PORTLAND ST / DUNDAS ST","final case full":"PROS - PROSTITUTION COMPLAINT"},"type":"Feature","geometry":null},{"properties":{"column_6":null,"occ date":"11/24/10","column_7":null,"district":"HC","geo_score":0.0,"column_8":null,"total dispatches":0,"column_9":null,"id":"a6qkalgoa8qs","geo_precision":"unmatched","address":"BRUNSWICK ST","final case full":"PROS - PROSTITUTION COMPLAINT"},"type":"Feature","geometry":null},{"properties":{"column_6":null,"occ date":"11/24/10","column_7":null,"district":"HE","geo_score":0.0,"column_8":null,"total dispatches":0,"column_9":null,"id":"a6qkalbuag4k","geo_precision":"unmatched","address":"ELMWOOD AVE / WINDMILL RD","final case full":"PROS - PROSTITUTION COMPLAINT"},"type":"Feature","geometry":null},{"properties":{"column_6":null,"occ date":"11/25/10","column_7":null,"district":"HC","geo_score":0.0,"column_8":null,"total dispatches":0,"column_9":null,"id":"a6qkalou9c5m","geo_precision":"unmatched","address":"BRUNSWICK ST","final case full":"PROS - PROSTITUTION COMPLAINT"},"type":"Feature","geometry":null},{"properties":{"column_6":null,"occ date":"12/01/10","column_7":null,"district":"HE","geo_score":0.0,"column_8":null,"total dispatches":0,"column_9":null,"id":"a6qkalox84yp","geo_precision":"unmatched","address":"WINDMILL RD / WALLACE ST","final case full":"PROS - PROSTITUTION COMPLAINT"},"type":"Feature","geometry":null},{"properties":{"column_6":null,"occ date":"12/01/10","column_7":null,"district":"HE","geo_score":0.0,"column_8":null,"total dispatches":0,"column_9":null,"id":"a6qkalg7qftq","geo_precision":"unmatched","address":"WINDMILL RD / WALLACE ST","final case full":"PROS - PROSTITUTION COMPLAINT"},"type":"Feature","geometry":null},{"properties":{"column_6":null,"occ date":"12/01/10","column_7":null,"district":"HE","geo_score":0.0,"column_8":null,"total dispatches":0,"column_9":null,"id":"a6qkalci5eks","geo_precision":"unmatched","address":"WINDMILL RD / WALLACE ST","final case full":"PROS - PROSTITUTION COMPLAINT"},"type":"Feature","geometry":null},{"properties":{"column_6":null,"occ date":"12/02/10","column_7":null,"district":"HE","geo_score":0.0,"column_8":null,"total dispatches":1,"column_9":null,"id":"a6qkalfb48pv","geo_precision":"unmatched","address":"WINDMILL RD","final case full":"PROS - PROSTITUTION COMPLAINT"},"type":"Feature","geometry":null},{"properties":{"column_6":null,"occ date":"12/02/10","column_7":null,"district":"HE","geo_score":0.0,"column_8":null,"total dispatches":1,"column_9":null,"id":"a6qkalh3xsv2","geo_precision":"unmatched","address":"JACKSON RD / ROBERT BURNS DR","final case full":"PROS - PROSTITUTION COMPLAINT"},"type":"Feature","geometry":null},{"properties":{"column_6":null,"occ date":"12/08/10","column_7":null,"district":"HE","geo_score":0.0,"column_8":null,"total dispatches":1,"column_9":null,"id":"a6qkalngyht8","geo_precision":"unmatched","address":"HENRY ST / WINDMILL RD","final case full":"PROS - PROSTITUTION COMPLAINT"},"type":"Feature","geometry":null},{"properties":{"column_6":null,"occ date":"12/09/10","column_7":null,"district":"HE","geo_score":0.0,"column_8":null,"total dispatches":1,"column_9":null,"id":"a6qkalmew5ox","geo_precision":"unmatched","address":"WINDMILL RD / HENRY ST","final case full":"PROS - PROSTITUTION COMPLAINT"},"type":"Feature","geometry":null},{"properties":{"column_6":null,"occ date":"12/12/10","column_7":null,"district":"HE","geo_score":0.0,"column_8":null,"total dispatches":4,"column_9":null,"id":"a6qkalhupgux","geo_precision":"unmatched","address":"WINDMILL RD","final case full":"ACIT - ASSIST CITIZEN"},"type":"Feature","geometry":null},{"properties":{"column_6":null,"occ date":"12/15/10","column_7":null,"district":"HE","geo_score":0.0,"column_8":null,"total dispatches":1,"column_9":null,"id":"a6qkall3ab7l","geo_precision":"unmatched","address":"WINDMILL RD","final case full":"PROS - PROSTITUTION COMPLAINT"},"type":"Feature","geometry":null},{"properties":{"column_6":null,"occ date":"12/15/10","column_7":null,"district":"HC","geo_score":0.0,"column_8":null,"total dispatches":0,"column_9":null,"id":"a6qkal9vzdog","geo_precision":"unmatched","address":"BRUNSWICK ST","final case full":"PROS - PROSTITUTION COMPLAINT"},"type":"Feature","geometry":null},{"properties":{"column_6":null,"occ date":"12/19/10","column_7":null,"district":"HE","geo_score":0.0,"column_8":null,"total dispatches":1,"column_9":null,"id":"a6qkaleexyx3","geo_precision":"unmatched","address":"WINDMILL RD / HENRY ST","final case full":"PROS - PROSTITUTION COMPLAINT"},"type":"Feature","geometry":null},{"properties":{"column_6":null,"occ date":"12/21/10","column_7":null,"district":"HE","geo_score":0.0,"column_8":null,"total dispatches":0,"column_9":null,"id":"a6qkalo5x2rq","geo_precision":"unmatched","address":"SPECTACLE LAKE DR","final case full":"PROS - PROSTITUTION COMPLAINT"},"type":"Feature","geometry":null},{"properties":{"column_6":null,"occ date":"12/22/10","column_7":null,"district":"HC","geo_score":0.0,"column_8":null,"total dispatches":1,"column_9":null,"id":"a6qkalfmf5xh","geo_precision":"unmatched","address":"MAYNARD ST / CHARLES ST","final case full":"PROS - PROSTITUTION COMPLAINT"},"type":"Feature","geometry":null},{"properties":{"column_6":null,"occ date":"12/28/10","column_7":null,"district":"HE","geo_score":0.0,"column_8":null,"total dispatches":0,"column_9":null,"id":"a6qkalnr28ih","geo_precision":"unmatched","address":"JAMIESON ST","final case full":"PROS - PROSTITUTION COMPLAINT"},"type":"Feature","geometry":null},{"properties":{"column_6":null,"occ date":"12/29/10","column_7":null,"district":"HE","geo_score":0.0,"column_8":null,"total dispatches":1,"column_9":null,"id":"a6qkalf0dv38","geo_precision":"unmatched","address":"WINDMILL RD","final case full":"PROS - PROSTITUTION COMPLAINT"},"type":"Feature","geometry":null},{"properties":{"column_6":null,"occ date":"05/03/09","column_7":null,"district":"HC","geo_score":0.0,"column_8":null,"total dispatches":2,"column_9":null,"id":"a6qkalmqqgai","geo_precision":"unmatched","address":"SPRING GARDEN RD","final case full":"PROS - PROSTITUTION COMPLAINT"},"type":"Feature","geometry":null},{"properties":{"column_6":null,"occ date":"09/03/09","column_7":null,"district":"HE","geo_score":0.0,"column_8":null,"total dispatches":1,"column_9":null,"id":"a6qkald8el36","geo_precision":"unmatched","address":"WINDMILL RD / BROOKSIDE AVE","final case full":"PROS - PROSTITUTION COMPLAINT"},"type":"Feature","geometry":null},{"properties":{"column_6":null,"occ date":"09/05/09","column_7":null,"district":"HE","geo_score":0.0,"column_8":null,"total dispatches":1,"column_9":null,"id":"a6qkaljlpeoe","geo_precision":"unmatched","address":"WYSE RD / BOLAND RD","final case full":"PROS - PROSTITUTION COMPLAINT"},"type":"Feature","geometry":null},{"properties":{"column_6":null,"occ date":"01/26/09","column_7":null,"district":"HC","geo_score":0.0,"column_8":null,"total dispatches":0,"column_9":null,"id":"a6qkalljs0kg","geo_precision":"unmatched","address":"BRUNSWICK ST","final case full":"PROS - PROSTITUTION COMPLAINT"},"type":"Feature","geometry":null},{"properties":{"column_6":null,"occ date":"07/05/09","column_7":null,"district":"HE","geo_score":0.0,"column_8":null,"total dispatches":2,"column_9":null,"id":"a6qkaljrddwh","geo_precision":"unmatched","address":"WINDMILL RD","final case full":"PROS - PROSTITUTION COMPLAINT"},"type":"Feature","geometry":null},{"properties":{"column_6":null,"occ date":"07/30/09","column_7":null,"district":"HC","geo_score":0.0,"column_8":null,"total dispatches":0,"column_9":null,"id":"a6qkalb5s34k","geo_precision":"unmatched","address":"BRUNSWICK ST","final case full":"PROS - PROSTITUTION COMPLAINT"},"type":"Feature","geometry":null},{"properties":{"column_6":null,"occ date":"05/21/09","column_7":null,"district":"HE","geo_score":0.0,"column_8":null,"total dispatches":0,"column_9":null,"id":"a6qkalop0jic","geo_precision":"unmatched","address":"WALLACE ST / WINDMILL RD","final case full":"PROS - PROSTITUTION COMPLAINT"},"type":"Feature","geometry":null},{"properties":{"column_6":null,"occ date":"08/28/09","column_7":null,"district":"HE","geo_score":0.0,"column_8":null,"total dispatches":2,"column_9":null,"id":"a6qkalef26ff","geo_precision":"unmatched","address":"WINDMILL RD","final case full":"PROS - PROSTITUTION COMPLAINT"},"type":"Feature","geometry":null},{"properties":{"column_6":null,"occ date":"01/20/09","column_7":null,"district":"HE","geo_score":0.0,"column_8":null,"total dispatches":0,"column_9":null,"id":"a6qkalg2f6zu","geo_precision":"unmatched","address":"ALBRO LAKE RD / WYSE RD","final case full":"PROS - PROSTITUTION COMPLAINT"},"type":"Feature","geometry":null},{"properties":{"column_6":null,"occ date":"03/20/09","column_7":null,"district":"HE","geo_score":0.0,"column_8":null,"total dispatches":0,"column_9":null,"id":"a6qkal9245uw","geo_precision":"unmatched","address":"HIGHFIELD PARK DR","final case full":"PROS - PROSTITUTION COMPLAINT"},"type":"Feature","geometry":null},{"properties":{"column_6":null,"occ date":"08/03/09","column_7":null,"district":"HE","geo_score":0.0,"column_8":null,"total dispatches":1,"column_9":null,"id":"a6qkalik6bkw","geo_precision":"unmatched","address":"HENRY ST / WINDMILL RD","final case full":"PROS - PROSTITUTION COMPLAINT"},"type":"Feature","geometry":null},{"properties":{"column_6":null,"occ date":"09/23/09","column_7":null,"district":"HE","geo_score":0.0,"column_8":null,"total dispatches":1,"column_9":null,"id":"a6qkalbg9hyt","geo_precision":"unmatched","address":"NIVENS AVE","final case full":"PROS - PROSTITUTION COMPLAINT"},"type":"Feature","geometry":null},{"properties":{"column_6":null,"occ date":"07/14/09","column_7":null,"district":"HC","geo_score":0.0,"column_8":null,"total dispatches":1,"column_9":null,"id":"a6qkalfakc4k","geo_precision":"unmatched","address":"MAYNARD ST / BUDDY DAYE ST","final case full":"PROS - PROSTITUTION COMPLAINT"},"type":"Feature","geometry":null},{"properties":{"column_6":null,"occ date":"05/06/09","column_7":null,"district":"HC","geo_score":0.0,"column_8":null,"total dispatches":0,"column_9":null,"id":"a6qkaljq9rou","geo_precision":"unmatched","address":"AGRICOLA ST / MAY ST","final case full":"PROS - PROSTITUTION COMPLAINT"},"type":"Feature","geometry":null},{"properties":{"column_6":null,"occ date":"08/07/09","column_7":null,"district":"HE","geo_score":0.0,"column_8":null,"total dispatches":1,"column_9":null,"id":"a6qkaljpgosh","geo_precision":"unmatched","address":"WINDMILL RD / FAULKNER ST","final case full":"PROS - PROSTITUTION COMPLAINT"},"type":"Feature","geometry":null},{"properties":{"column_6":null,"occ date":"10/02/09","column_7":null,"district":"HC","geo_score":0.0,"column_8":null,"total dispatches":0,"column_9":null,"id":"a6qkallq1p3l","geo_precision":"unmatched","address":"BRUNSWICK ST","final case full":"PROS - PROSTITUTION COMPLAINT"},"type":"Feature","geometry":null},{"properties":{"column_6":null,"occ date":"10/15/09","column_7":null,"district":"HE","geo_score":0.0,"column_8":null,"total dispatches":1,"column_9":null,"id":"a6qkalfrphp2","geo_precision":"unmatched","address":"PRINCE ALBERT RD / NOWLAN ST","final case full":"PROS - PROSTITUTION COMPLAINT"},"type":"Feature","geometry":null},{"properties":{"column_6":null,"occ date":"03/22/09","column_7":null,"district":"HE","geo_score":0.0,"column_8":null,"total dispatches":1,"column_9":null,"id":"a6qkale8ebg6","geo_precision":"unmatched","address":"VICTORIA RD / QUEEN ST","final case full":"PROS - PROSTITUTION COMPLAINT"},"type":"Feature","geometry":null},{"properties":{"column_6":null,"occ date":"03/10/09","column_7":null,"district":"HE","geo_score":0.0,"column_8":null,"total dispatches":1,"column_9":null,"id":"a6qkalcmeeiv","geo_precision":"unmatched","address":"VICTORIA RD / QUEEN ST","final case full":"PROS - PROSTITUTION COMPLAINT"},"type":"Feature","geometry":null},{"properties":{"column_6":null,"occ date":"03/22/09","column_7":null,"district":"HC","geo_score":0.0,"column_8":null,"total dispatches":0,"column_9":null,"id":"a6qkal8gh0ks","geo_precision":"unmatched","address":"BRUNSWICK ST","final case full":"PROS - PROSTITUTION COMPLAINT"},"type":"Feature","geometry":null},{"properties":{"column_6":null,"occ date":"07/22/09","column_7":null,"district":"HE","geo_score":0.0,"column_8":null,"total dispatches":1,"column_9":null,"id":"a6qkalae9kws","geo_precision":"unmatched","address":"VICTORIA RD / QUEEN ST","final case full":"PROS - PROSTITUTION COMPLAINT"},"type":"Feature","geometry":null},{"properties":{"column_6":null,"occ date":"09/07/09","column_7":null,"district":"HE","geo_score":0.0,"column_8":null,"total dispatches":1,"column_9":null,"id":"a6qkalkrjoya","geo_precision":"unmatched","address":"JAMIESON ST / HESTER ST","final case full":"PROS - PROSTITUTION COMPLAINT"},"type":"Feature","geometry":null},{"properties":{"column_6":null,"occ date":"10/15/09","column_7":null,"district":"HC","geo_score":0.0,"column_8":null,"total dispatches":0,"column_9":null,"id":"a6qkalgiw9sy","geo_precision":"unmatched","address":"BRUNSWICK ST","final case full":"PROS - PROSTITUTION COMPLAINT"},"type":"Feature","geometry":null},{"properties":{"column_6":null,"occ date":"04/02/09","column_7":null,"district":"HE","geo_score":0.0,"column_8":null,"total dispatches":0,"column_9":null,"id":"a6qkalcksl0j","geo_precision":"unmatched","address":"HOWE ST / WINDMILL RD","final case full":"PROS - PROSTITUTION COMPLAINT"},"type":"Feature","geometry":null},{"properties":{"column_6":null,"occ date":"08/26/09","column_7":null,"district":"HE","geo_score":0.0,"column_8":null,"total dispatches":0,"column_9":null,"id":"a6qkalbjih9z","geo_precision":"unmatched","address":"WINDMILL RD / WALLACE ST","final case full":"PROS - PROSTITUTION COMPLAINT"},"type":"Feature","geometry":null},{"properties":{"column_6":null,"occ date":"09/03/09","column_7":null,"district":"HE","geo_score":0.0,"column_8":null,"total dispatches":1,"column_9":null,"id":"a6qkalcxcffv","geo_precision":"unmatched","address":"WINDMILL RD / JAMIESON ST","final case full":"PROS - PROSTITUTION COMPLAINT"},"type":"Feature","geometry":null},{"properties":{"column_6":null,"occ date":"10/05/09","column_7":null,"district":"HE","geo_score":0.0,"column_8":null,"total dispatches":1,"column_9":null,"id":"a6qkalbq1f16","geo_precision":"unmatched","address":"WINDMILL RD","final case full":"PROS - PROSTITUTION COMPLAINT"},"type":"Feature","geometry":null},{"properties":{"column_6":null,"occ date":"10/15/09","column_7":null,"district":"HE","geo_score":0.0,"column_8":null,"total dispatches":1,"column_9":null,"id":"a6qkalilhqxt","geo_precision":"unmatched","address":"JACKSON RD / ROBERT BURNS DR","final case full":"PROS - PROSTITUTION COMPLAINT"},"type":"Feature","geometry":null},{"properties":{"column_6":null,"occ date":"01/08/09","column_7":null,"district":"HC","geo_score":0.0,"column_8":null,"total dispatches":0,"column_9":null,"id":"a6qkalfeumgb","geo_precision":"unmatched","address":"BRUNSWICK ST","final case full":"PROS - PROSTITUTION COMPLAINT"},"type":"Feature","geometry":null},{"properties":{"column_6":null,"occ date":"11/12/09","column_7":null,"district":"HE","geo_score":0.0,"column_8":null,"total dispatches":0,"column_9":null,"id":"a6qkalky4neo","geo_precision":"unmatched","address":"WINDMILL RD","final case full":"PROS - PROSTITUTION COMPLAINT"},"type":"Feature","geometry":null},{"properties":{"column_6":null,"occ date":"06/12/09","column_7":null,"district":"HC","geo_score":0.0,"column_8":null,"total dispatches":0,"column_9":null,"id":"a6qkalllxi3e","geo_precision":"unmatched","address":"BRUNSWICK ST","final case full":"PROS - PROSTITUTION COMPLAINT"},"type":"Feature","geometry":null},{"properties":{"column_6":null,"occ date":"06/22/09","column_7":null,"district":"HE","geo_score":0.0,"column_8":null,"total dispatches":1,"column_9":null,"id":"a6qkalihhnor","geo_precision":"unmatched","address":"JACKSON RD","final case full":"PROS - PROSTITUTION COMPLAINT"},"type":"Feature","geometry":null},{"properties":{"column_6":null,"occ date":"07/08/09","column_7":null,"district":"HE","geo_score":0.0,"column_8":null,"total dispatches":0,"column_9":null,"id":"a6qkalnv8ejr","geo_precision":"unmatched","address":"NADIA DR","final case full":"PROS - PROSTITUTION COMPLAINT"},"type":"Feature","geometry":null},{"properties":{"column_6":null,"occ date":"11/15/09","column_7":null,"district":"HE","geo_score":0.0,"column_8":null,"total dispatches":1,"column_9":null,"id":"a6qkalkfqa6f","geo_precision":"unmatched","address":"WINDMILL RD / JAMIESON ST","final case full":"PROS - PROSTITUTION COMPLAINT"},"type":"Feature","geometry":null},{"properties":{"column_6":null,"occ date":"01/10/09","column_7":null,"district":"HE","geo_score":0.0,"column_8":null,"total dispatches":1,"column_9":null,"id":"a6qkalcwqirz","geo_precision":"unmatched","address":"WINDMILL RD / ALBRO LAKE RD","final case full":"SUSP - SUSPICIOUS PERSON"},"type":"Feature","geometry":null},{"properties":{"column_6":null,"occ date":"12/07/09","column_7":null,"district":"HC","geo_score":0.0,"column_8":null,"total dispatches":1,"column_9":null,"id":"a6qkald0k059","geo_precision":"unmatched","address":"AGRICOLA ST","final case full":"PROS - PROSTITUTION COMPLAINT"},"type":"Feature","geometry":null},{"properties":{"column_6":null,"occ date":"02/27/09","column_7":null,"district":"HE","geo_score":0.0,"column_8":null,"total dispatches":1,"column_9":null,"id":"a6qkal96fp11","geo_precision":"unmatched","address":"WINDMILL RD","final case full":"PROS - PROSTITUTION COMPLAINT"},"type":"Feature","geometry":null},{"properties":{"column_6":null,"occ date":"10/19/09","column_7":null,"district":"HE","geo_score":0.0,"column_8":null,"total dispatches":1,"column_9":null,"id":"a6qkal9soi9a","geo_precision":"unmatched","address":"VICTORIA RD","final case full":"PROS - PROSTITUTION COMPLAINT"},"type":"Feature","geometry":null},{"properties":{"column_6":null,"occ date":"10/26/09","column_7":null,"district":"HC","geo_score":0.0,"column_8":null,"total dispatches":0,"column_9":null,"id":"a6qkaletxv82","geo_precision":"unmatched","address":"MARGINAL RD","final case full":"PROS - PROSTITUTION COMPLAINT"},"type":"Feature","geometry":null},{"properties":{"column_6":null,"occ date":"03/24/09","column_7":null,"district":"HE","geo_score":0.0,"column_8":null,"total dispatches":1,"column_9":null,"id":"a6qkalc0d1vg","geo_precision":"unmatched","address":"ALBRO LAKE RD","final case full":"PROS - PROSTITUTION COMPLAINT"},"type":"Feature","geometry":null},{"properties":{"column_6":null,"occ date":"09/11/09","column_7":null,"district":"HE","geo_score":0.0,"column_8":null,"total dispatches":1,"column_9":null,"id":"a6qkalodtm7e","geo_precision":"unmatched","address":"WINDMILL RD / JAMIESON ST","final case full":"PROS - PROSTITUTION COMPLAINT"},"type":"Feature","geometry":null},{"properties":{"column_6":null,"occ date":"11/22/09","column_7":null,"district":"HE","geo_score":0.0,"column_8":null,"total dispatches":2,"column_9":null,"id":"a6qkalme764v","geo_precision":"unmatched","address":"WINDMILL RD / HENRY ST","final case full":"PROS - PROSTITUTION COMPLAINT"},"type":"Feature","geometry":null},{"properties":{"column_6":null,"occ date":"04/21/09","column_7":null,"district":"HE","geo_score":0.0,"column_8":null,"total dispatches":2,"column_9":null,"id":"a6qkalb7idu9","geo_precision":"unmatched","address":"QUEEN ST / VICTORIA RD","final case full":"PROS - PROSTITUTION COMPLAINT"},"type":"Feature","geometry":null},{"properties":{"column_6":null,"occ date":"09/19/09","column_7":null,"district":"HE","geo_score":0.0,"column_8":null,"total dispatches":2,"column_9":null,"id":"a6qkalfa2thb","geo_precision":"unmatched","address":"WINDMILL RD / JAMIESON ST","final case full":"PROS - PROSTITUTION COMPLAINT"},"type":"Feature","geometry":null},{"properties":{"column_6":null,"occ date":"09/24/09","column_7":null,"district":"HC","geo_score":0.0,"column_8":null,"total dispatches":0,"column_9":null,"id":"a6qkalo0gpsc","geo_precision":"unmatched","address":"SACKVILLE ST","final case full":"PROS - PROSTITUTION COMPLAINT"},"type":"Feature","geometry":null},{"properties":{"column_6":null,"occ date":"09/23/09","column_7":null,"district":"HC","geo_score":0.0,"column_8":null,"total dispatches":1,"column_9":null,"id":"a6qkalnfbyq1","geo_precision":"unmatched","address":"AGRICOLA ST / NORTH ST","final case full":"PROS - PROSTITUTION COMPLAINT"},"type":"Feature","geometry":null},{"properties":{"column_6":null,"occ date":"03/06/09","column_7":null,"district":"HC","geo_score":0.0,"column_8":null,"total dispatches":0,"column_9":null,"id":"a6qkalibv4e5","geo_precision":"unmatched","address":"BLOOMFIELD ST / AGRICOLA ST","final case full":"PROS - PROSTITUTION COMPLAINT"},"type":"Feature","geometry":null},{"properties":{"column_6":null,"occ date":"11/13/09","column_7":null,"district":"HC","geo_score":0.0,"column_8":null,"total dispatches":0,"column_9":null,"id":"a6qkalc1qhag","geo_precision":"unmatched","address":"BRUNSWICK ST","final case full":"PROS - PROSTITUTION COMPLAINT"},"type":"Feature","geometry":null},{"properties":{"column_6":null,"occ date":"07/30/09","column_7":null,"district":"HE","geo_score":0.0,"column_8":null,"total dispatches":0,"column_9":null,"id":"a6qkalnu09ng","geo_precision":"unmatched","address":"WALLACE ST / WINDMILL RD","final case full":"PROS - PROSTITUTION COMPLAINT"},"type":"Feature","geometry":null},{"properties":{"column_6":null,"occ date":"09/30/09","column_7":null,"district":"HC","geo_score":0.0,"column_8":null,"total dispatches":1,"column_9":null,"id":"a6qkalksnm72","geo_precision":"unmatched","address":"AGRICOLA ST","final case full":"PROS - PROSTITUTION COMPLAINT"},"type":"Feature","geometry":null},{"properties":{"column_6":null,"occ date":"08/31/09","column_7":null,"district":"HE","geo_score":0.0,"column_8":null,"total dispatches":1,"column_9":null,"id":"a6qkalev8nwf","geo_precision":"unmatched","address":"JACKSON RD / VICTORIA RD","final case full":"PROS - PROSTITUTION COMPLAINT"},"type":"Feature","geometry":null},{"properties":{"column_6":null,"occ date":"01/06/09","column_7":null,"district":"HE","geo_score":0.0,"column_8":null,"total dispatches":0,"column_9":null,"id":"a6qkalgyo5vt","geo_precision":"unmatched","address":"HOWE ST","final case full":"PROS - PROSTITUTION COMPLAINT"},"type":"Feature","geometry":null},{"properties":{"column_6":null,"occ date":"11/19/09","column_7":null,"district":"HE","geo_score":0.0,"column_8":null,"total dispatches":0,"column_9":null,"id":"a6qkalicsakp","geo_precision":"unmatched","address":"WALLACE ST / WINDMILL RD","final case full":"PROS - PROSTITUTION COMPLAINT"},"type":"Feature","geometry":null},{"properties":{"column_6":null,"occ date":"08/11/09","column_7":null,"district":"HW","geo_score":0.0,"column_8":null,"total dispatches":0,"column_9":null,"id":"a6qkalhqn9eh","geo_precision":"unmatched","address":"CORONATION AVE","final case full":"PROS - PROSTITUTION COMPLAINT"},"type":"Feature","geometry":null},{"properties":{"column_6":null,"occ date":"09/25/09","column_7":null,"district":"HC","geo_score":0.0,"column_8":null,"total dispatches":1,"column_9":null,"id":"a6qkalli11cu","geo_precision":"unmatched","address":"CHARLES ST / MAYNARD ST","final case full":"PROS - PROSTITUTION COMPLAINT"},"type":"Feature","geometry":null},{"properties":{"column_6":null,"occ date":"10/31/09","column_7":null,"district":"HE","geo_score":0.0,"column_8":null,"total dispatches":1,"column_9":null,"id":"a6qkalh9iql4","geo_precision":"unmatched","address":"JACKSON RD / VICTORIA RD","final case full":"PROS - PROSTITUTION COMPLAINT"},"type":"Feature","geometry":null},{"properties":{"column_6":null,"occ date":"03/28/09","column_7":null,"district":"HE","geo_score":0.0,"column_8":null,"total dispatches":2,"column_9":null,"id":"a6qkallarmh2","geo_precision":"unmatched","address":"ELMWOOD AVE / WINDMILL RD","final case full":"PROS - PROSTITUTION COMPLAINT"},"type":"Feature","geometry":null},{"properties":{"column_6":null,"occ date":"09/04/09","column_7":null,"district":"HE","geo_score":0.0,"column_8":null,"total dispatches":1,"column_9":null,"id":"a6qkalksqm4j","geo_precision":"unmatched","address":"VICTORIA RD / JACKSON RD","final case full":"PROS - PROSTITUTION COMPLAINT"},"type":"Feature","geometry":null},{"properties":{"column_6":null,"occ date":"09/23/09","column_7":null,"district":"HE","geo_score":0.0,"column_8":null,"total dispatches":2,"column_9":null,"id":"a6qkallfddh9","geo_precision":"unmatched","address":"WINDMILL RD","final case full":"PROS - PROSTITUTION COMPLAINT"},"type":"Feature","geometry":null},{"properties":{"column_6":null,"occ date":"06/23/09","column_7":null,"district":"HE","geo_score":0.0,"column_8":null,"total dispatches":1,"column_9":null,"id":"a6qkalog4dan","geo_precision":"unmatched","address":"WINDMILL RD","final case full":"PROS - PROSTITUTION COMPLAINT"},"type":"Feature","geometry":null},{"properties":{"column_6":null,"occ date":"08/26/09","column_7":null,"district":"HC","geo_score":0.0,"column_8":null,"total dispatches":1,"column_9":null,"id":"a6qkale1njb7","geo_precision":"unmatched","address":"MAYNARD ST","final case full":"PROS - PROSTITUTION COMPLAINT"},"type":"Feature","geometry":null},{"properties":{"column_6":null,"occ date":"09/03/09","column_7":null,"district":"HE","geo_score":0.0,"column_8":null,"total dispatches":2,"column_9":null,"id":"a6qkaliiyko6","geo_precision":"unmatched","address":"WINDMILL RD / WALLACE ST","final case full":"PROS - PROSTITUTION COMPLAINT"},"type":"Feature","geometry":null},{"properties":{"column_6":null,"occ date":"03/10/09","column_7":null,"district":"HE","geo_score":0.0,"column_8":null,"total dispatches":0,"column_9":null,"id":"a6qkalgj7ljc","geo_precision":"unmatched","address":"ALBRO LAKE RD / WINDMILL RD","final case full":"PROS - PROSTITUTION COMPLAINT"},"type":"Feature","geometry":null},{"properties":{"column_6":null,"occ date":"02/18/09","column_7":null,"district":"HE","geo_score":0.0,"column_8":null,"total dispatches":1,"column_9":null,"id":"a6qkalimd3sw","geo_precision":"unmatched","address":"PRIMROSE ST","final case full":"PROS - PROSTITUTION COMPLAINT"},"type":"Feature","geometry":null},{"properties":{"column_6":null,"occ date":"05/15/09","column_7":null,"district":"HE","geo_score":0.0,"column_8":null,"total dispatches":1,"column_9":null,"id":"a6qkalbnjfin","geo_precision":"unmatched","address":"ALBRO LAKE RD / RICHMOND ST","final case full":"PROS - PROSTITUTION COMPLAINT"},"type":"Feature","geometry":null},{"properties":{"column_6":null,"occ date":"06/12/09","column_7":null,"district":"HE","geo_score":0.0,"column_8":null,"total dispatches":2,"column_9":null,"id":"a6qkalh23aqy","geo_precision":"unmatched","address":"PRIMROSE ST / ROBERT BURNS DR","final case full":"PROS - PROSTITUTION COMPLAINT"},"type":"Feature","geometry":null},{"properties":{"column_6":null,"occ date":"07/23/09","column_7":null,"district":"HE","geo_score":0.0,"column_8":null,"total dispatches":2,"column_9":null,"id":"a6qkaljxwh2d","geo_precision":"unmatched","address":"HENRY ST / WINDMILL RD","final case full":"PROS - PROSTITUTION COMPLAINT"},"type":"Feature","geometry":null},{"properties":{"column_6":null,"occ date":"04/26/09","column_7":null,"district":"HW","geo_score":0.0,"column_8":null,"total dispatches":2,"column_9":null,"id":"a6qkalkyk6dc","geo_precision":"unmatched","address":"HERRING COVE RD","final case full":"PROS - PROSTITUTION COMPLAINT"},"type":"Feature","geometry":null},{"properties":{"column_6":null,"occ date":"08/15/09","column_7":null,"district":"HE","geo_score":0.0,"column_8":null,"total dispatches":1,"column_9":null,"id":"a6qkaln6vmwd","geo_precision":"unmatched","address":"WINDMILL RD / ALBRO LAKE RD","final case full":"PROS - PROSTITUTION COMPLAINT"},"type":"Feature","geometry":null},{"properties":{"column_6":null,"occ date":"03/10/09","column_7":null,"district":"HC","geo_score":0.0,"column_8":null,"total dispatches":0,"column_9":null,"id":"a6qkalmj5oib","geo_precision":"unmatched","address":"BRUNSWICK ST","final case full":"PROS - PROSTITUTION COMPLAINT"},"type":"Feature","geometry":null},{"properties":{"column_6":null,"occ date":"03/29/09","column_7":null,"district":"HE","geo_score":0.0,"column_8":null,"total dispatches":1,"column_9":null,"id":"a6qkalms1d2b","geo_precision":"unmatched","address":"PRIMROSE ST / ROBERT BURNS DR","final case full":"PROS - PROSTITUTION COMPLAINT"},"type":"Feature","geometry":null},{"properties":{"column_6":null,"occ date":"07/14/09","column_7":null,"district":"HC","geo_score":0.0,"column_8":null,"total dispatches":1,"column_9":null,"id":"a6qkal98k5fi","geo_precision":"unmatched","address":"GOTTINGEN ST / BLACK ST","final case full":"PROS - PROSTITUTION COMPLAINT"},"type":"Feature","geometry":null},{"properties":{"column_6":null,"occ date":"09/24/09","column_7":null,"district":"HC","geo_score":0.0,"column_8":null,"total dispatches":0,"column_9":null,"id":"a6qkaljawo74","geo_precision":"unmatched","address":"SACKVILLE ST","final case full":"PROS - PROSTITUTION COMPLAINT"},"type":"Feature","geometry":null},{"properties":{"column_6":null,"occ date":"12/16/09","column_7":null,"district":"HE","geo_score":0.0,"column_8":null,"total dispatches":2,"column_9":null,"id":"a6qkalnd418k","geo_precision":"unmatched","address":"WINDMILL RD / HENRY ST","final case full":"PROS - PROSTITUTION COMPLAINT"},"type":"Feature","geometry":null},{"properties":{"column_6":null,"occ date":"01/29/09","column_7":null,"district":"HC","geo_score":0.0,"column_8":null,"total dispatches":0,"column_9":null,"id":"a6qkalo1ygzo","geo_precision":"unmatched","address":"BRUNSWICK ST","final case full":"PROS - PROSTITUTION COMPLAINT"},"type":"Feature","geometry":null},{"properties":{"column_6":null,"occ date":"08/20/09","column_7":null,"district":"HE","geo_score":0.0,"column_8":null,"total dispatches":0,"column_9":null,"id":"a6qkalco853i","geo_precision":"unmatched","address":"ALBRO LAKE RD / WYSE RD","final case full":"PROS - PROSTITUTION COMPLAINT"},"type":"Feature","geometry":null},{"properties":{"column_6":null,"occ date":"09/20/09","column_7":null,"district":"HE","geo_score":0.0,"column_8":null,"total dispatches":1,"column_9":null,"id":"a6qkald659az","geo_precision":"unmatched","address":"WINDMILL RD / JAMIESON ST","final case full":"PROS - PROSTITUTION COMPLAINT"},"type":"Feature","geometry":null},{"properties":{"column_6":null,"occ date":"10/15/09","column_7":null,"district":"HE","geo_score":0.0,"column_8":null,"total dispatches":0,"column_9":null,"id":"a6qkalenhqof","geo_precision":"unmatched","address":"NOWLAN ST / PRINCE ALBERT RD","final case full":"PROS - PROSTITUTION COMPLAINT"},"type":"Feature","geometry":null},{"properties":{"column_6":null,"occ date":"05/20/09","column_7":null,"district":"HE","geo_score":0.0,"column_8":null,"total dispatches":0,"column_9":null,"id":"a6qkalh48mu4","geo_precision":"unmatched","address":"WINDMILL RD / ALBRO LAKE RD","final case full":"PROS - PROSTITUTION COMPLAINT"},"type":"Feature","geometry":null},{"properties":{"column_6":null,"occ date":"05/04/09","column_7":null,"district":"HC","geo_score":0.0,"column_8":null,"total dispatches":1,"column_9":null,"id":"a6qkalcc50r2","geo_precision":"unmatched","address":"AGRICOLA ST / BLOOMFIELD ST","final case full":"PROS - PROSTITUTION COMPLAINT"},"type":"Feature","geometry":null},{"properties":{"column_6":null,"occ date":"10/21/09","column_7":null,"district":"HE","geo_score":0.0,"column_8":null,"total dispatches":2,"column_9":null,"id":"a6qkalh4x5cp","geo_precision":"unmatched","address":"HENRY ST","final case full":"MSCI - MISCELLANEOUS / SUSPICIOUS CIRCUMSTANCES"},"type":"Feature","geometry":null},{"properties":{"column_6":null,"occ date":"04/12/09","column_7":null,"district":"HE","geo_score":0.0,"column_8":null,"total dispatches":1,"column_9":null,"id":"a6qkalkltaln","geo_precision":"unmatched","address":"WINDMILL RD / FERNHILL DR","final case full":"PROS - PROSTITUTION COMPLAINT"},"type":"Feature","geometry":null},{"properties":{"column_6":null,"occ date":"07/27/09","column_7":null,"district":"HC","geo_score":0.0,"column_8":null,"total dispatches":1,"column_9":null,"id":"a6qkalgpzxmd","geo_precision":"unmatched","address":"AGRICOLA ST / MCCULLY ST","final case full":"PROS - PROSTITUTION COMPLAINT"},"type":"Feature","geometry":null},{"properties":{"column_6":null,"occ date":"01/16/09","column_7":null,"district":"HC","geo_score":0.0,"column_8":null,"total dispatches":0,"column_9":null,"id":"a6qkale8pttx","geo_precision":"unmatched","address":"BRUNSWICK ST","final case full":"PROS - PROSTITUTION COMPLAINT"},"type":"Feature","geometry":null},{"properties":{"column_6":null,"occ date":"07/15/09","column_7":null,"district":"HE","geo_score":0.0,"column_8":null,"total dispatches":1,"column_9":null,"id":"a6qkalct8gr1","geo_precision":"unmatched","address":"AKERLEY BLVD","final case full":"PROS - PROSTITUTION COMPLAINT"},"type":"Feature","geometry":null},{"properties":{"column_6":null,"occ date":"02/05/09","column_7":null,"district":"HC","geo_score":0.0,"column_8":null,"total dispatches":0,"column_9":null,"id":"a6qkal8hxg0r","geo_precision":"unmatched","address":"BRUNSWICK ST","final case full":"PROS - PROSTITUTION COMPLAINT"},"type":"Feature","geometry":null},{"properties":{"column_6":null,"occ date":"07/15/09","column_7":null,"district":"HE","geo_score":0.0,"column_8":null,"total dispatches":1,"column_9":null,"id":"a6qkalin0j9w","geo_precision":"unmatched","address":"ELMWOOD AVE / WINDMILL RD","final case full":"PROS - PROSTITUTION COMPLAINT"},"type":"Feature","geometry":null},{"properties":{"column_6":null,"occ date":"02/02/09","column_7":null,"district":"HC","geo_score":0.0,"column_8":null,"total dispatches":1,"column_9":null,"id":"a6qkalo7suet","geo_precision":"unmatched","address":"AGRICOLA ST / MAY ST","final case full":"PROS - PROSTITUTION COMPLAINT"},"type":"Feature","geometry":null},{"properties":{"column_6":null,"occ date":"10/20/09","column_7":null,"district":"HC","geo_score":0.0,"column_8":null,"total dispatches":0,"column_9":null,"id":"a6qkald60d6b","geo_precision":"unmatched","address":"BRUNSWICK ST","final case full":"PROS - PROSTITUTION COMPLAINT"},"type":"Feature","geometry":null},{"properties":{"column_6":null,"occ date":"03/27/09","column_7":null,"district":"HE","geo_score":0.0,"column_8":null,"total dispatches":1,"column_9":null,"id":"a6qkalehf99a","geo_precision":"unmatched","address":"ALBRO LAKE RD","final case full":"PROS - PROSTITUTION COMPLAINT"},"type":"Feature","geometry":null},{"properties":{"column_6":null,"occ date":"08/05/09","column_7":null,"district":"HC","geo_score":0.0,"column_8":null,"total dispatches":1,"column_9":null,"id":"a6qkala1z4ra","geo_precision":"unmatched","address":"CHEBUCTO RD","final case full":"SUSP - SUSPICIOUS PERSON"},"type":"Feature","geometry":null},{"properties":{"column_6":null,"occ date":"11/26/09","column_7":null,"district":"HE","geo_score":0.0,"column_8":null,"total dispatches":1,"column_9":null,"id":"a6qkalf4qx4f","geo_precision":"unmatched","address":"OCHTERLONEY ST / VICTORIA RD","final case full":"PROS - PROSTITUTION COMPLAINT"},"type":"Feature","geometry":null},{"properties":{"column_6":null,"occ date":"03/24/09","column_7":null,"district":"HC","geo_score":0.0,"column_8":null,"total dispatches":0,"column_9":null,"id":"a6qkal9xavhu","geo_precision":"unmatched","address":"BRUNSWICK ST","final case full":"PROS - PROSTITUTION COMPLAINT"},"type":"Feature","geometry":null},{"properties":{"column_6":null,"occ date":"07/22/09","column_7":null,"district":"HC","geo_score":0.0,"column_8":null,"total dispatches":0,"column_9":null,"id":"a6qkal9brjrv","geo_precision":"unmatched","address":"GOTTINGEN ST","final case full":"PROS - PROSTITUTION COMPLAINT"},"type":"Feature","geometry":null},{"properties":{"column_6":null,"occ date":"08/20/09","column_7":null,"district":"HE","geo_score":0.0,"column_8":null,"total dispatches":1,"column_9":null,"id":"a6qkalmuavyd","geo_precision":"unmatched","address":"JACKSON RD","final case full":"PROS - PROSTITUTION COMPLAINT"},"type":"Feature","geometry":null},{"properties":{"column_6":null,"occ date":"08/26/09","column_7":null,"district":"HE","geo_score":0.0,"column_8":null,"total dispatches":0,"column_9":null,"id":"a6qkalknsl9c","geo_precision":"unmatched","address":"WALLACE ST / WINDMILL RD","final case full":"PROS - PROSTITUTION COMPLAINT"},"type":"Feature","geometry":null},{"properties":{"column_6":null,"occ date":"10/05/09","column_7":null,"district":"HC","geo_score":0.0,"column_8":null,"total dispatches":1,"column_9":null,"id":"a6qkalkuo2y2","geo_precision":"unmatched","address":"AGRICOLA ST / CHARLES ST","final case full":"PROS - PROSTITUTION COMPLAINT"},"type":"Feature","geometry":null},{"properties":{"column_6":null,"occ date":"11/12/09","column_7":null,"district":"HC","geo_score":0.0,"column_8":null,"total dispatches":0,"column_9":null,"id":"a6qkalikheen","geo_precision":"unmatched","address":"BRUNSWICK ST","final case full":"PROS - PROSTITUTION COMPLAINT"},"type":"Feature","geometry":null},{"properties":{"column_6":null,"occ date":"02/06/09","column_7":null,"district":"HC","geo_score":0.0,"column_8":null,"total dispatches":0,"column_9":null,"id":"a6qkaljgeojc","geo_precision":"unmatched","address":"BRUNSWICK ST","final case full":"PROS - PROSTITUTION COMPLAINT"},"type":"Feature","geometry":null},{"properties":{"column_6":null,"occ date":"05/21/09","column_7":null,"district":"HC","geo_score":0.0,"column_8":null,"total dispatches":0,"column_9":null,"id":"a6qkallztw6z","geo_precision":"unmatched","address":"AGRICOLA ST / MAY ST","final case full":"PROS - PROSTITUTION COMPLAINT"},"type":"Feature","geometry":null},{"properties":{"column_6":null,"occ date":"05/23/09","column_7":null,"district":"HE","geo_score":0.0,"column_8":null,"total dispatches":1,"column_9":null,"id":"a6qkalg0gxgm","geo_precision":"unmatched","address":"ALBRO LAKE RD","final case full":"PROS - PROSTITUTION COMPLAINT"},"type":"Feature","geometry":null},{"properties":{"column_6":null,"occ date":"06/09/09","column_7":null,"district":"HC","geo_score":0.0,"column_8":null,"total dispatches":1,"column_9":null,"id":"a6qkal9et5ga","geo_precision":"unmatched","address":"AGRICOLA ST / MAY ST","final case full":"PROS - PROSTITUTION COMPLAINT"},"type":"Feature","geometry":null},{"properties":{"column_6":null,"occ date":"08/16/09","column_7":null,"district":"HE","geo_score":0.0,"column_8":null,"total dispatches":1,"column_9":null,"id":"a6qkalfvob9j","geo_precision":"unmatched","address":"ALBRO LAKE RD","final case full":"UNWP - UNWANTED PERSON"},"type":"Feature","geometry":null},{"properties":{"column_6":null,"occ date":"11/06/09","column_7":null,"district":"HE","geo_score":0.0,"column_8":null,"total dispatches":0,"column_9":null,"id":"a6qkal9aw4u0","geo_precision":"unmatched","address":"STAIRS ST / WINDMILL RD","final case full":"PROS - PROSTITUTION COMPLAINT"},"type":"Feature","geometry":null},{"properties":{"column_6":null,"occ date":"01/10/09","column_7":null,"district":"HE","geo_score":0.0,"column_8":null,"total dispatches":1,"column_9":null,"id":"a6qkalnfwna1","geo_precision":"unmatched","address":"ALBRO LAKE RD / WINDMILL RD","final case full":"PROS - PROSTITUTION COMPLAINT"},"type":"Feature","geometry":null},{"properties":{"column_6":null,"occ date":"01/14/09","column_7":null,"district":"HE","geo_score":0.0,"column_8":null,"total dispatches":0,"column_9":null,"id":"a6qkalbz5xyu","geo_precision":"unmatched","address":"MICMAC BLVD","final case full":"PROS - PROSTITUTION COMPLAINT"},"type":"Feature","geometry":null},{"properties":{"column_6":null,"occ date":"04/28/09","column_7":null,"district":"HE","geo_score":0.0,"column_8":null,"total dispatches":1,"column_9":null,"id":"a6qkalj59es8","geo_precision":"unmatched","address":"WINDMILL RD / JAMIESON ST","final case full":"SUSP - SUSPICIOUS PERSON"},"type":"Feature","geometry":null},{"properties":{"column_6":null,"occ date":"09/16/09","column_7":null,"district":"HE","geo_score":0.0,"column_8":null,"total dispatches":1,"column_9":null,"id":"a6qkalle68jn","geo_precision":"unmatched","address":"ALBRO LAKE RD / WYSE RD","final case full":"PROS - PROSTITUTION COMPLAINT"},"type":"Feature","geometry":null},{"properties":{"column_6":null,"occ date":"03/19/09","column_7":null,"district":"HE","geo_score":0.0,"column_8":null,"total dispatches":3,"column_9":null,"id":"a6qkalfu0fpz","geo_precision":"unmatched","address":"HOWE ST / WINDMILL RD","final case full":"PROS - PROSTITUTION COMPLAINT"},"type":"Feature","geometry":null},{"properties":{"column_6":null,"occ date":"07/10/09","column_7":null,"district":"HC","geo_score":0.0,"column_8":null,"total dispatches":1,"column_9":null,"id":"a6qkalh7yplq","geo_precision":"unmatched","address":"AGRICOLA ST / ROBERTS ST","final case full":"PROS - PROSTITUTION COMPLAINT"},"type":"Feature","geometry":null},{"properties":{"column_6":null,"occ date":"12/20/09","column_7":null,"district":"HE","geo_score":0.0,"column_8":null,"total dispatches":1,"column_9":null,"id":"a6qkaln8kzv6","geo_precision":"unmatched","address":"HENRY ST / HESTER ST","final case full":"PROS - PROSTITUTION COMPLAINT"},"type":"Feature","geometry":null},{"properties":{"column_6":null,"occ date":"05/03/09","column_7":null,"district":"HE","geo_score":0.0,"column_8":null,"total dispatches":1,"column_9":null,"id":"a6qkalgabnmy","geo_precision":"unmatched","address":"WINDMILL RD / ALBRO LAKE RD","final case full":"PROS - PROSTITUTION COMPLAINT"},"type":"Feature","geometry":null},{"properties":{"column_6":null,"occ date":"04/10/09","column_7":null,"district":"HE","geo_score":0.0,"column_8":null,"total dispatches":2,"column_9":null,"id":"a6qkaln9gcj3","geo_precision":"unmatched","address":"VICTORIA RD / QUEEN ST","final case full":"PROS - PROSTITUTION COMPLAINT"},"type":"Feature","geometry":null},{"properties":{"column_6":null,"occ date":"06/09/09","column_7":null,"district":"HC","geo_score":0.0,"column_8":null,"total dispatches":1,"column_9":null,"id":"a6qkaldga8wc","geo_precision":"unmatched","address":"AGRICOLA ST","final case full":"PROS - PROSTITUTION COMPLAINT"},"type":"Feature","geometry":null},{"properties":{"column_6":null,"occ date":"06/17/09","column_7":null,"district":"HE","geo_score":0.0,"column_8":null,"total dispatches":2,"column_9":null,"id":"a6qkallael4y","geo_precision":"unmatched","address":"FERNHILL DR","final case full":"PROS - PROSTITUTION COMPLAINT"},"type":"Feature","geometry":null},{"properties":{"column_6":null,"occ date":"07/12/09","column_7":null,"district":"HE","geo_score":0.0,"column_8":null,"total dispatches":1,"column_9":null,"id":"a6qkaljbsovh","geo_precision":"unmatched","address":"WYSE RD","final case full":"PROS - PROSTITUTION COMPLAINT"},"type":"Feature","geometry":null},{"properties":{"column_6":null,"occ date":"11/18/09","column_7":null,"district":"HE","geo_score":0.0,"column_8":null,"total dispatches":1,"column_9":null,"id":"a6qkalhq9hmv","geo_precision":"unmatched","address":"WINDMILL RD / JAMIESON ST","final case full":"SUSP - SUSPICIOUS PERSON"},"type":"Feature","geometry":null},{"properties":{"column_6":null,"occ date":"08/25/09","column_7":null,"district":"HC","geo_score":0.0,"column_8":null,"total dispatches":0,"column_9":null,"id":"a6qkalltzj81","geo_precision":"unmatched","address":"AGRICOLA ST / BLOOMFIELD ST","final case full":"PROS - PROSTITUTION COMPLAINT"},"type":"Feature","geometry":null},{"properties":{"column_6":null,"occ date":"05/21/09","column_7":null,"district":"HC","geo_score":0.0,"column_8":null,"total dispatches":0,"column_9":null,"id":"a6qkalhrfows","geo_precision":"unmatched","address":"GOTTINGEN ST","final case full":"PROS - PROSTITUTION COMPLAINT"},"type":"Feature","geometry":null},{"properties":{"column_6":null,"occ date":"07/13/09","column_7":null,"district":"HE","geo_score":0.0,"column_8":null,"total dispatches":1,"column_9":null,"id":"a6qkald88sji","geo_precision":"unmatched","address":"JACKSON RD / VICTORIA RD","final case full":"PROS - PROSTITUTION COMPLAINT"},"type":"Feature","geometry":null},{"properties":{"column_6":null,"occ date":"09/01/09","column_7":null,"district":"HE","geo_score":0.0,"column_8":null,"total dispatches":1,"column_9":null,"id":"a6qkaldchlw7","geo_precision":"unmatched","address":"STONE AVE / WINDMILL RD","final case full":"PROS - PROSTITUTION COMPLAINT"},"type":"Feature","geometry":null},{"properties":{"column_6":null,"occ date":"03/08/09","column_7":null,"district":"HE","geo_score":0.0,"column_8":null,"total dispatches":2,"column_9":null,"id":"a6qkal8mfkew","geo_precision":"unmatched","address":"WYSE RD / ALBRO LAKE RD","final case full":"PROS - PROSTITUTION COMPLAINT"},"type":"Feature","geometry":null},{"properties":{"column_6":null,"occ date":"03/11/09","column_7":null,"district":"HC","geo_score":0.0,"column_8":null,"total dispatches":0,"column_9":null,"id":"a6qkaleza2p8","geo_precision":"unmatched","address":"BLOOMFIELD ST / AGRICOLA ST","final case full":"PROS - PROSTITUTION COMPLAINT"},"type":"Feature","geometry":null},{"properties":{"column_6":null,"occ date":"12/14/09","column_7":null,"district":"HC","geo_score":0.0,"column_8":null,"total dispatches":1,"column_9":null,"id":"a6qkalhwa5in","geo_precision":"unmatched","address":"ALMON ST / AGRICOLA ST","final case full":"PROS - PROSTITUTION COMPLAINT"},"type":"Feature","geometry":null},{"properties":{"column_6":null,"occ date":"01/12/09","column_7":null,"district":"HC","geo_score":0.0,"column_8":null,"total dispatches":3,"column_9":null,"id":"a6qkalbfklm2","geo_precision":"unmatched","address":"CREIGHTON ST","final case full":"SUSP - SUSPICIOUS PERSON"},"type":"Feature","geometry":null},{"properties":{"column_6":null,"occ date":"03/10/09","column_7":null,"district":"HC","geo_score":0.0,"column_8":null,"total dispatches":0,"column_9":null,"id":"a6qkalmzvnyt","geo_precision":"unmatched","address":"GOTTINGEN ST","final case full":"PROS - PROSTITUTION COMPLAINT"},"type":"Feature","geometry":null},{"properties":{"column_6":null,"occ date":"06/04/09","column_7":null,"district":"HE","geo_score":0.0,"column_8":null,"total dispatches":1,"column_9":null,"id":"a6qkalbgoc1r","geo_precision":"unmatched","address":"WINDMILL RD / FARRELL ST","final case full":"PROS - PROSTITUTION COMPLAINT"},"type":"Feature","geometry":null},{"properties":{"column_6":null,"occ date":"07/06/09","column_7":null,"district":"HE","geo_score":0.0,"column_8":null,"total dispatches":1,"column_9":null,"id":"a6qkalhv8byy","geo_precision":"unmatched","address":"ALBRO LAKE RD","final case full":"PROS - PROSTITUTION COMPLAINT"},"type":"Feature","geometry":null},{"properties":{"column_6":null,"occ date":"11/11/09","column_7":null,"district":"HE","geo_score":0.0,"column_8":null,"total dispatches":1,"column_9":null,"id":"a6qkalgv554r","geo_precision":"unmatched","address":"JAMIESON ST / WINDMILL RD","final case full":"PROS - PROSTITUTION COMPLAINT"},"type":"Feature","geometry":null},{"properties":{"column_6":null,"occ date":"06/16/09","column_7":null,"district":"HE","geo_score":0.0,"column_8":null,"total dispatches":0,"column_9":null,"id":"a6qkalktqhj6","geo_precision":"unmatched","address":"VICTORIA RD / QUEEN ST","final case full":"PROS - PROSTITUTION COMPLAINT"},"type":"Feature","geometry":null},{"properties":{"column_6":null,"occ date":"11/29/09","column_7":null,"district":"HE","geo_score":0.0,"column_8":null,"total dispatches":1,"column_9":null,"id":"a6qkalnhh29d","geo_precision":"unmatched","address":"JAMIESON ST / HESTER ST","final case full":"PROS - PROSTITUTION COMPLAINT"},"type":"Feature","geometry":null},{"properties":{"column_6":null,"occ date":"02/26/09","column_7":null,"district":"HC","geo_score":0.0,"column_8":null,"total dispatches":5,"column_9":null,"id":"a6qkalbdvn0r","geo_precision":"unmatched","address":"HOLLIS ST","final case full":"PROS - PROSTITUTION COMPLAINT"},"type":"Feature","geometry":null},{"properties":{"column_6":null,"occ date":"02/02/09","column_7":null,"district":"HE","geo_score":0.0,"column_8":null,"total dispatches":1,"column_9":null,"id":"a6qkaloa8hj6","geo_precision":"unmatched","address":"ALBRO LAKE RD","final case full":"UNWP - UNWANTED PERSON"},"type":"Feature","geometry":null},{"properties":{"column_6":null,"occ date":"03/27/09","column_7":null,"district":"HC","geo_score":0.0,"column_8":null,"total dispatches":1,"column_9":null,"id":"a6qkalk86acx","geo_precision":"unmatched","address":"AGRICOLA ST","final case full":"PROS - PROSTITUTION COMPLAINT"},"type":"Feature","geometry":null},{"properties":{"column_6":null,"occ date":"09/27/09","column_7":null,"district":"HE","geo_score":0.0,"column_8":null,"total dispatches":1,"column_9":null,"id":"a6qkal8gvijb","geo_precision":"unmatched","address":"JAMIESON ST","final case full":"PROS - PROSTITUTION COMPLAINT"},"type":"Feature","geometry":null},{"properties":{"column_6":null,"occ date":"08/26/09","column_7":null,"district":"HE","geo_score":0.0,"column_8":null,"total dispatches":0,"column_9":null,"id":"a6qkalghv6tf","geo_precision":"unmatched","address":"WINDMILL RD / WALLACE ST","final case full":"PROS - PROSTITUTION COMPLAINT"},"type":"Feature","geometry":null},{"properties":{"column_6":null,"occ date":"04/24/09","column_7":null,"district":"HC","geo_score":0.0,"column_8":null,"total dispatches":1,"column_9":null,"id":"a6qkalfzsl08","geo_precision":"unmatched","address":"AGRICOLA ST / ONTARIO ST","final case full":"PROS - PROSTITUTION COMPLAINT"},"type":"Feature","geometry":null},{"properties":{"column_6":null,"occ date":"06/18/09","column_7":null,"district":"HE","geo_score":0.0,"column_8":null,"total dispatches":1,"column_9":null,"id":"a6qkalfpw4bw","geo_precision":"unmatched","address":"WINDMILL RD / JAMIESON ST","final case full":"PROS - PROSTITUTION COMPLAINT"},"type":"Feature","geometry":null},{"properties":{"column_6":null,"occ date":"06/29/09","column_7":null,"district":"HE","geo_score":0.0,"column_8":null,"total dispatches":1,"column_9":null,"id":"a6qkalhhbcp0","geo_precision":"unmatched","address":"NIVENS AVE / INDIA ST","final case full":"SUSV - SUSPICIOUS VEHICLE"},"type":"Feature","geometry":null},{"properties":{"column_6":null,"occ date":"08/04/09","column_7":null,"district":"HE","geo_score":0.0,"column_8":null,"total dispatches":1,"column_9":null,"id":"a6qkallk9nyt","geo_precision":"unmatched","address":"WINDMILL RD / ALBRO LAKE RD","final case full":"PROS - PROSTITUTION COMPLAINT"},"type":"Feature","geometry":null},{"properties":{"column_6":null,"occ date":"08/31/09","column_7":null,"district":"HE","geo_score":0.0,"column_8":null,"total dispatches":1,"column_9":null,"id":"a6qkali8sq5z","geo_precision":"unmatched","address":"WINDMILL RD","final case full":"PROS - PROSTITUTION COMPLAINT"},"type":"Feature","geometry":null},{"properties":{"column_6":null,"occ date":"07/30/09","column_7":null,"district":"HE","geo_score":0.0,"column_8":null,"total dispatches":0,"column_9":null,"id":"a6qkalk7bpfm","geo_precision":"unmatched","address":"WALLACE ST / WINDMILL RD","final case full":"PROS - PROSTITUTION COMPLAINT"},"type":"Feature","geometry":null},{"properties":{"column_6":null,"occ date":"10/02/09","column_7":null,"district":"HC","geo_score":0.0,"column_8":null,"total dispatches":0,"column_9":null,"id":"a6qkalkrqgsj","geo_precision":"unmatched","address":"BRUNSWICK ST","final case full":"PROS - PROSTITUTION COMPLAINT"},"type":"Feature","geometry":null},{"properties":{"column_6":null,"occ date":"10/05/09","column_7":null,"district":"HC","geo_score":0.0,"column_8":null,"total dispatches":0,"column_9":null,"id":"a6qkalc0r95q","geo_precision":"unmatched","address":"BRUNSWICK ST","final case full":"PROS - PROSTITUTION COMPLAINT"},"type":"Feature","geometry":null},{"properties":{"column_6":null,"occ date":"10/22/09","column_7":null,"district":"HE","geo_score":0.0,"column_8":null,"total dispatches":1,"column_9":null,"id":"a6qkall0ojrl","geo_precision":"unmatched","address":"VICTORIA RD / ALBRO LAKE RD","final case full":"PROS - PROSTITUTION COMPLAINT"},"type":"Feature","geometry":null},{"properties":{"column_6":null,"occ date":"12/02/09","column_7":null,"district":"HE","geo_score":0.0,"column_8":null,"total dispatches":2,"column_9":null,"id":"a6qkalcvncji","geo_precision":"unmatched","address":"JAMIESON ST / FRASER ST","final case full":"PROS - PROSTITUTION COMPLAINT"},"type":"Feature","geometry":null},{"properties":{"column_6":null,"occ date":"05/04/09","column_7":null,"district":"HE","geo_score":0.0,"column_8":null,"total dispatches":1,"column_9":null,"id":"a6qkali8sp7a","geo_precision":"unmatched","address":"WINDMILL RD / ELMWOOD AVE","final case full":"PROS - PROSTITUTION COMPLAINT"},"type":"Feature","geometry":null},{"properties":{"column_6":null,"occ date":"08/24/09","column_7":null,"district":"HE","geo_score":0.0,"column_8":null,"total dispatches":2,"column_9":null,"id":"a6qkalon8rmv","geo_precision":"unmatched","address":"WINDMILL RD / WADDELL AVE","final case full":"SUSP - SUSPICIOUS PERSON"},"type":"Feature","geometry":null},{"properties":{"column_6":null,"occ date":"01/22/09","column_7":null,"district":"HE","geo_score":0.0,"column_8":null,"total dispatches":1,"column_9":null,"id":"a6qkalajs01r","geo_precision":"unmatched","address":"HOWE ST / WINDMILL RD","final case full":"PROS - PROSTITUTION COMPLAINT"},"type":"Feature","geometry":null},{"properties":{"column_6":null,"occ date":"04/23/09","column_7":null,"district":"HC","geo_score":0.0,"column_8":null,"total dispatches":0,"column_9":null,"id":"a6qkal9kamfj","geo_precision":"unmatched","address":"GOTTINGEN ST","final case full":"PROS - PROSTITUTION COMPLAINT"},"type":"Feature","geometry":null},{"properties":{"column_6":null,"occ date":"09/04/09","column_7":null,"district":"HC","geo_score":0.0,"column_8":null,"total dispatches":0,"column_9":null,"id":"a6qkalcqgbj2","geo_precision":"unmatched","address":"BRUNSWICK ST","final case full":"PROS - PROSTITUTION COMPLAINT"},"type":"Feature","geometry":null},{"properties":{"column_6":null,"occ date":"09/14/09","column_7":null,"district":"HE","geo_score":0.0,"column_8":null,"total dispatches":2,"column_9":null,"id":"a6qkaljjdjqh","geo_precision":"unmatched","address":"ALBRO LAKE RD / VICTORIA RD","final case full":"PROS - PROSTITUTION COMPLAINT"},"type":"Feature","geometry":null},{"properties":{"column_6":null,"occ date":"10/05/09","column_7":null,"district":"HE","geo_score":0.0,"column_8":null,"total dispatches":1,"column_9":null,"id":"a6qkalgeqcay","geo_precision":"unmatched","address":"WINDMILL RD / STAIRS ST","final case full":"PROS - PROSTITUTION COMPLAINT"},"type":"Feature","geometry":null},{"properties":{"column_6":null,"occ date":"11/30/09","column_7":null,"district":"HE","geo_score":0.0,"column_8":null,"total dispatches":0,"column_9":null,"id":"a6qkalbj92d8","geo_precision":"unmatched","address":"JAMIESON ST / WYSE RD","final case full":"PROS - PROSTITUTION COMPLAINT"},"type":"Feature","geometry":null},{"properties":{"column_6":null,"occ date":"05/04/09","column_7":null,"district":"HE","geo_score":0.0,"column_8":null,"total dispatches":1,"column_9":null,"id":"a6qkalacso7p","geo_precision":"unmatched","address":"ALBRO LAKE RD / PINECREST DR","final case full":"PROS - PROSTITUTION COMPLAINT"},"type":"Feature","geometry":null},{"properties":{"column_6":null,"occ date":"08/14/09","column_7":null,"district":"HC","geo_score":0.0,"column_8":null,"total dispatches":2,"column_9":null,"id":"a6qkalkd3vmr","geo_precision":"unmatched","address":"SPRING GARDEN RD","final case full":"PROS - PROSTITUTION COMPLAINT"},"type":"Feature","geometry":null},{"properties":{"column_6":null,"occ date":"05/31/09","column_7":null,"district":"HE","geo_score":0.0,"column_8":null,"total dispatches":1,"column_9":null,"id":"a6qkalfpzidd","geo_precision":"unmatched","address":"WINDMILL RD","final case full":"PROS - PROSTITUTION COMPLAINT"},"type":"Feature","geometry":null},{"properties":{"column_6":null,"occ date":"07/22/09","column_7":null,"district":"HE","geo_score":0.0,"column_8":null,"total dispatches":2,"column_9":null,"id":"a6qkalh869zy","geo_precision":"unmatched","address":"WINDMILL RD / STAIRS ST","final case full":"PROS - PROSTITUTION COMPLAINT"},"type":"Feature","geometry":null},{"properties":{"column_6":null,"occ date":"10/05/09","column_7":null,"district":"HE","geo_score":0.0,"column_8":null,"total dispatches":2,"column_9":null,"id":"a6qkalc6p0i3","geo_precision":"unmatched","address":"ALBRO LAKE RD","final case full":"ACIT - ASSIST CITIZEN"},"type":"Feature","geometry":null},{"properties":{"column_6":null,"occ date":"08/04/09","column_7":null,"district":"HE","geo_score":0.0,"column_8":null,"total dispatches":4,"column_9":null,"id":"a6qkalljq60i","geo_precision":"unmatched","address":"WINDMILL RD / JAMIESON ST","final case full":"PROS - PROSTITUTION COMPLAINT"},"type":"Feature","geometry":null},{"properties":{"column_6":null,"occ date":"08/14/09","column_7":null,"district":"HE","geo_score":0.0,"column_8":null,"total dispatches":1,"column_9":null,"id":"a6qkallopdtm","geo_precision":"unmatched","address":"JACKSON RD","final case full":"PROS - PROSTITUTION COMPLAINT"},"type":"Feature","geometry":null},{"properties":{"column_6":null,"occ date":"09/23/09","column_7":null,"district":"HE","geo_score":0.0,"column_8":null,"total dispatches":1,"column_9":null,"id":"a6qkalkvqfwh","geo_precision":"unmatched","address":"ELMWOOD AVE / WINDMILL RD","final case full":"PROS - PROSTITUTION COMPLAINT"},"type":"Feature","geometry":null},{"properties":{"column_6":null,"occ date":"06/02/09","column_7":null,"district":"HE","geo_score":0.0,"column_8":null,"total dispatches":2,"column_9":null,"id":"a6qkalocszpq","geo_precision":"unmatched","address":"JACKSON RD","final case full":"PROS - PROSTITUTION COMPLAINT"},"type":"Feature","geometry":null},{"properties":{"column_6":null,"occ date":"07/30/09","column_7":null,"district":"HE","geo_score":0.0,"column_8":null,"total dispatches":0,"column_9":null,"id":"a6qkalbtij33","geo_precision":"unmatched","address":"WALLACE ST / WINDMILL RD","final case full":"PROS - PROSTITUTION COMPLAINT"},"type":"Feature","geometry":null},{"properties":{"column_6":null,"occ date":"09/01/09","column_7":null,"district":"HE","geo_score":0.0,"column_8":null,"total dispatches":1,"column_9":null,"id":"a6qkalbx8olu","geo_precision":"unmatched","address":"PRIMROSE ST / PINECREST DR","final case full":"PROS - PROSTITUTION COMPLAINT"},"type":"Feature","geometry":null},{"properties":{"column_6":null,"occ date":"02/20/09","column_7":null,"district":"HE","geo_score":0.0,"column_8":null,"total dispatches":1,"column_9":null,"id":"a6qkale5g9oo","geo_precision":"unmatched","address":"WINDMILL RD / NIVENS AVE","final case full":"PROS - PROSTITUTION COMPLAINT"},"type":"Feature","geometry":null},{"properties":{"column_6":null,"occ date":"03/19/09","column_7":null,"district":"HC","geo_score":0.0,"column_8":null,"total dispatches":0,"column_9":null,"id":"a6qkalhx0tll","geo_precision":"unmatched","address":"UNIACKE ST","final case full":"PROS - PROSTITUTION COMPLAINT"},"type":"Feature","geometry":null},{"properties":{"column_6":null,"occ date":"02/25/09","column_7":null,"district":"HE","geo_score":0.0,"column_8":null,"total dispatches":2,"column_9":null,"id":"a6qkalmqsv4q","geo_precision":"unmatched","address":"WINDMILL RD","final case full":"PROS - PROSTITUTION COMPLAINT"},"type":"Feature","geometry":null},{"properties":{"column_6":null,"occ date":"12/31/09","column_7":null,"district":"HE","geo_score":0.0,"column_8":null,"total dispatches":1,"column_9":null,"id":"a6qkalf9ll6t","geo_precision":"unmatched","address":"QUEEN ST","final case full":"PROS - PROSTITUTION COMPLAINT"},"type":"Feature","geometry":null},{"properties":{"column_6":null,"occ date":"05/29/09","column_7":null,"district":"HE","geo_score":0.0,"column_8":null,"total dispatches":2,"column_9":null,"id":"a6qkalnxp8b8","geo_precision":"unmatched","address":"NIVENS AVE / WINDMILL RD","final case full":"PROS - PROSTITUTION COMPLAINT"},"type":"Feature","geometry":null},{"properties":{"column_6":null,"occ date":"10/05/09","column_7":null,"district":"HC","geo_score":0.0,"column_8":null,"total dispatches":0,"column_9":null,"id":"a6qkal9vk60m","geo_precision":"unmatched","address":"BRUNSWICK ST","final case full":"PROS - PROSTITUTION COMPLAINT"},"type":"Feature","geometry":null},{"properties":{"column_6":null,"occ date":"12/01/09","column_7":null,"district":"HE","geo_score":0.0,"column_8":null,"total dispatches":1,"column_9":null,"id":"a6qkalbei2qb","geo_precision":"unmatched","address":"JAMIESON ST","final case full":"PROS - PROSTITUTION COMPLAINT"},"type":"Feature","geometry":null},{"properties":{"column_6":null,"occ date":"05/25/09","column_7":null,"district":"HE","geo_score":0.0,"column_8":null,"total dispatches":2,"column_9":null,"id":"a6qkalmic0lh","geo_precision":"unmatched","address":"STAIRS ST / WINDMILL RD","final case full":"PROS - PROSTITUTION COMPLAINT"},"type":"Feature","geometry":null},{"properties":{"column_6":null,"occ date":"07/30/09","column_7":null,"district":"HE","geo_score":0.0,"column_8":null,"total dispatches":1,"column_9":null,"id":"a6qkalhz06xs","geo_precision":"unmatched","address":"FARRELL ST","final case full":"PROS - PROSTITUTION COMPLAINT"},"type":"Feature","geometry":null},{"properties":{"column_6":null,"occ date":"02/03/09","column_7":null,"district":"HC","geo_score":0.0,"column_8":null,"total dispatches":0,"column_9":null,"id":"a6qkallrwjok","geo_precision":"unmatched","address":"GOTTINGEN ST","final case full":"PROS - PROSTITUTION COMPLAINT"},"type":"Feature","geometry":null},{"properties":{"column_6":null,"occ date":"03/15/09","column_7":null,"district":"HC","geo_score":0.0,"column_8":null,"total dispatches":2,"column_9":null,"id":"a6qkalebziej","geo_precision":"unmatched","address":"AGRICOLA ST / CHARLES ST","final case full":"PROS - PROSTITUTION COMPLAINT"},"type":"Feature","geometry":null},{"properties":{"column_6":null,"occ date":"01/30/09","column_7":null,"district":"HE","geo_score":0.0,"column_8":null,"total dispatches":1,"column_9":null,"id":"a6qkalmqn2n9","geo_precision":"unmatched","address":"WINDMILL RD","final case full":"PROS - PROSTITUTION COMPLAINT"},"type":"Feature","geometry":null},{"properties":{"column_6":null,"occ date":"03/23/09","column_7":null,"district":"HE","geo_score":0.0,"column_8":null,"total dispatches":1,"column_9":null,"id":"a6qkaln78mat","geo_precision":"unmatched","address":"WINDMILL RD","final case full":"PROS - PROSTITUTION COMPLAINT"},"type":"Feature","geometry":null},{"properties":{"column_6":null,"occ date":"06/17/09","column_7":null,"district":"HE","geo_score":0.0,"column_8":null,"total dispatches":0,"column_9":null,"id":"a6qkalns1tvd","geo_precision":"unmatched","address":"WINDMILL RD","final case full":"PROS - PROSTITUTION COMPLAINT"},"type":"Feature","geometry":null},{"properties":{"column_6":null,"occ date":"10/20/09","column_7":null,"district":"HC","geo_score":0.0,"column_8":null,"total dispatches":0,"column_9":null,"id":"a6qkallkfwzr","geo_precision":"unmatched","address":"BRUNSWICK ST","final case full":"PROS - PROSTITUTION COMPLAINT"},"type":"Feature","geometry":null},{"properties":{"column_6":null,"occ date":"07/18/09","column_7":null,"district":"HE","geo_score":0.0,"column_8":null,"total dispatches":1,"column_9":null,"id":"a6qkalmymkyk","geo_precision":"unmatched","address":"ALBRO LAKE RD","final case full":"PROS - PROSTITUTION COMPLAINT"},"type":"Feature","geometry":null},{"properties":{"column_6":null,"occ date":"08/28/09","column_7":null,"district":"HE","geo_score":0.0,"column_8":null,"total dispatches":2,"column_9":null,"id":"a6qkald0flu6","geo_precision":"unmatched","address":"WINDMILL RD / WALLACE ST","final case full":"PROS - PROSTITUTION COMPLAINT"},"type":"Feature","geometry":null},{"properties":{"column_6":null,"occ date":"01/06/09","column_7":null,"district":"HE","geo_score":0.0,"column_8":null,"total dispatches":1,"column_9":null,"id":"a6qkalcq689c","geo_precision":"unmatched","address":"HOWE ST / WINDMILL RD","final case full":"PROS - PROSTITUTION COMPLAINT"},"type":"Feature","geometry":null},{"properties":{"column_6":null,"occ date":"04/22/09","column_7":null,"district":"HC","geo_score":0.0,"column_8":null,"total dispatches":0,"column_9":null,"id":"a6qkalh1fvbw","geo_precision":"unmatched","address":"BLOOMFIELD ST / AGRICOLA ST","final case full":"PROS - PROSTITUTION COMPLAINT"},"type":"Feature","geometry":null},{"properties":{"column_6":null,"occ date":"07/19/09","column_7":null,"district":"HE","geo_score":0.0,"column_8":null,"total dispatches":1,"column_9":null,"id":"a6qkalix7yxa","geo_precision":"unmatched","address":"WINDMILL RD","final case full":"PROS - PROSTITUTION COMPLAINT"},"type":"Feature","geometry":null},{"properties":{"column_6":null,"occ date":"09/12/09","column_7":null,"district":"HE","geo_score":0.0,"column_8":null,"total dispatches":1,"column_9":null,"id":"a6qkalj8gk2b","geo_precision":"unmatched","address":"QUEEN ST / VICTORIA RD","final case full":"PROS - PROSTITUTION COMPLAINT"},"type":"Feature","geometry":null},{"properties":{"column_6":null,"occ date":"06/15/09","column_7":null,"district":"HE","geo_score":0.0,"column_8":null,"total dispatches":1,"column_9":null,"id":"a6qkalfi0gjt","geo_precision":"unmatched","address":"JACKSON RD","final case full":"PROS - PROSTITUTION COMPLAINT"},"type":"Feature","geometry":null},{"properties":{"column_6":null,"occ date":"07/09/09","column_7":null,"district":"HC","geo_score":0.0,"column_8":null,"total dispatches":0,"column_9":null,"id":"a6qkal8ue80i","geo_precision":"unmatched","address":"CHARLES ST / AGRICOLA ST","final case full":"PROS - PROSTITUTION COMPLAINT"},"type":"Feature","geometry":null},{"properties":{"column_6":null,"occ date":"12/05/09","column_7":null,"district":"HE","geo_score":0.0,"column_8":null,"total dispatches":1,"column_9":null,"id":"a6qkall1t0kn","geo_precision":"unmatched","address":"HESTER ST / JAMIESON ST","final case full":"PROS - PROSTITUTION COMPLAINT"},"type":"Feature","geometry":null},{"properties":{"column_6":null,"occ date":"01/20/09","column_7":null,"district":"HC","geo_score":0.0,"column_8":null,"total dispatches":1,"column_9":null,"id":"a6qkalhr9zgs","geo_precision":"unmatched","address":"WILLOW ST / AGRICOLA ST","final case full":"PROS - PROSTITUTION COMPLAINT"},"type":"Feature","geometry":null},{"properties":{"column_6":null,"occ date":"03/10/09","column_7":null,"district":"HC","geo_score":0.0,"column_8":null,"total dispatches":0,"column_9":null,"id":"a6qkalmulndh","geo_precision":"unmatched","address":"BRUNSWICK ST","final case full":"PROS - PROSTITUTION COMPLAINT"},"type":"Feature","geometry":null},{"properties":{"column_6":null,"occ date":"12/02/09","column_7":null,"district":"HE","geo_score":0.0,"column_8":null,"total dispatches":0,"column_9":null,"id":"a6qkalc98lms","geo_precision":"unmatched","address":"ROSSI DR","final case full":"PROS - PROSTITUTION COMPLAINT"},"type":"Feature","geometry":null},{"properties":{"column_6":null,"occ date":"05/22/09","column_7":null,"district":"HE","geo_score":0.0,"column_8":null,"total dispatches":1,"column_9":null,"id":"a6qkalolg481","geo_precision":"unmatched","address":"WYSE RD / WINDMILL RD","final case full":"PROS - PROSTITUTION COMPLAINT"},"type":"Feature","geometry":null},{"properties":{"column_6":null,"occ date":"07/15/09","column_7":null,"district":"HC","geo_score":0.0,"column_8":null,"total dispatches":0,"column_9":null,"id":"a6qkalk2hd1g","geo_precision":"unmatched","address":"GOTTINGEN ST","final case full":"PROS - PROSTITUTION COMPLAINT"},"type":"Feature","geometry":null},{"properties":{"column_6":null,"occ date":"09/20/09","column_7":null,"district":"HE","geo_score":0.0,"column_8":null,"total dispatches":1,"column_9":null,"id":"a6qkallmd3t0","geo_precision":"unmatched","address":"WINDMILL RD / HENRY ST","final case full":"PROS - PROSTITUTION COMPLAINT"},"type":"Feature","geometry":null},{"properties":{"column_6":null,"occ date":"02/11/09","column_7":null,"district":"HE","geo_score":0.0,"column_8":null,"total dispatches":1,"column_9":null,"id":"a6qkaldkv52j","geo_precision":"unmatched","address":"CHAPMAN ST / CHAPPELL ST","final case full":"PROS - PROSTITUTION COMPLAINT"},"type":"Feature","geometry":null},{"properties":{"column_6":null,"occ date":"09/23/09","column_7":null,"district":"HE","geo_score":0.0,"column_8":null,"total dispatches":1,"column_9":null,"id":"a6qkalcffmtl","geo_precision":"unmatched","address":"WINDMILL RD","final case full":"PROS - PROSTITUTION COMPLAINT"},"type":"Feature","geometry":null},{"properties":{"column_6":null,"occ date":"05/21/09","column_7":null,"district":"HC","geo_score":0.0,"column_8":null,"total dispatches":0,"column_9":null,"id":"a6qkale5lx7n","geo_precision":"unmatched","address":"ONTARIO ST / AGRICOLA ST","final case full":"PROS - PROSTITUTION COMPLAINT"},"type":"Feature","geometry":null},{"properties":{"column_6":null,"occ date":"08/07/09","column_7":null,"district":"HE","geo_score":0.0,"column_8":null,"total dispatches":1,"column_9":null,"id":"a6qkaln1hzu6","geo_precision":"unmatched","address":"VICTORIA RD / CHAPPELL ST","final case full":"PROS - PROSTITUTION COMPLAINT"},"type":"Feature","geometry":null},{"properties":{"column_6":null,"occ date":"03/10/09","column_7":null,"district":"HE","geo_score":0.0,"column_8":null,"total dispatches":0,"column_9":null,"id":"a6qkallqb2za","geo_precision":"unmatched","address":"WINDMILL RD / ALBRO LAKE RD","final case full":"PROS - PROSTITUTION COMPLAINT"},"type":"Feature","geometry":null},{"properties":{"column_6":null,"occ date":"05/14/09","column_7":null,"district":"HE","geo_score":0.0,"column_8":null,"total dispatches":1,"column_9":null,"id":"a6qkalm430rb","geo_precision":"unmatched","address":"JACKSON RD / VICTORIA RD","final case full":"PROS - PROSTITUTION COMPLAINT"},"type":"Feature","geometry":null},{"properties":{"column_6":null,"occ date":"07/08/09","column_7":null,"district":"HC","geo_score":0.0,"column_8":null,"total dispatches":1,"column_9":null,"id":"a6qkalj36hw9","geo_precision":"unmatched","address":"ALMON ST / ISLEVILLE ST","final case full":"SUSP - SUSPICIOUS PERSON"},"type":"Feature","geometry":null},{"properties":{"column_6":null,"occ date":"07/20/09","column_7":null,"district":"HE","geo_score":0.0,"column_8":null,"total dispatches":1,"column_9":null,"id":"a6qkalkhblyf","geo_precision":"unmatched","address":"WINDMILL RD","final case full":"PROS - PROSTITUTION COMPLAINT"},"type":"Feature","geometry":null},{"properties":{"column_6":null,"occ date":"01/26/09","column_7":null,"district":"HC","geo_score":0.0,"column_8":null,"total dispatches":1,"column_9":null,"id":"a6qkalo5s1c2","geo_precision":"unmatched","address":"BRUNSWICK ST","final case full":"PROS - PROSTITUTION COMPLAINT"},"type":"Feature","geometry":null},{"properties":{"column_6":null,"occ date":"08/22/09","column_7":null,"district":"HE","geo_score":0.0,"column_8":null,"total dispatches":1,"column_9":null,"id":"a6qkaldtcpa4","geo_precision":"unmatched","address":"WINDMILL RD","final case full":"PROS - PROSTITUTION COMPLAINT"},"type":"Feature","geometry":null},{"properties":{"column_6":null,"occ date":"12/01/09","column_7":null,"district":"HC","geo_score":0.0,"column_8":null,"total dispatches":0,"column_9":null,"id":"a6qkalkfhkxx","geo_precision":"unmatched","address":"ST ALBANS ST / ROBIE ST","final case full":"PROS - PROSTITUTION COMPLAINT"},"type":"Feature","geometry":null},{"properties":{"column_6":null,"occ date":"10/23/09","column_7":null,"district":"HC","geo_score":0.0,"column_8":null,"total dispatches":0,"column_9":null,"id":"a6qkallqnwn0","geo_precision":"unmatched","address":"GOTTINGEN ST","final case full":"PROS - PROSTITUTION COMPLAINT"},"type":"Feature","geometry":null},{"properties":{"column_6":null,"occ date":"06/19/09","column_7":null,"district":"HC","geo_score":0.0,"column_8":null,"total dispatches":0,"column_9":null,"id":"a6qkaljsbnnq","geo_precision":"unmatched","address":"BRUNSWICK ST","final case full":"PROS - PROSTITUTION COMPLAINT"},"type":"Feature","geometry":null},{"properties":{"column_6":null,"occ date":"07/16/09","column_7":null,"district":"HE","geo_score":0.0,"column_8":null,"total dispatches":1,"column_9":null,"id":"a6qkallgxyql","geo_precision":"unmatched","address":"WINDMILL RD / ELMWOOD AVE","final case full":"PROS - PROSTITUTION COMPLAINT"},"type":"Feature","geometry":null},{"properties":{"column_6":null,"occ date":"03/10/09","column_7":null,"district":"HE","geo_score":0.0,"column_8":null,"total dispatches":1,"column_9":null,"id":"a6qkalcnp5wo","geo_precision":"unmatched","address":"VICTORIA RD / ALBRO LAKE RD","final case full":"PROS - PROSTITUTION COMPLAINT"},"type":"Feature","geometry":null},{"properties":{"column_6":null,"occ date":"05/05/09","column_7":null,"district":"HE","geo_score":0.0,"column_8":null,"total dispatches":0,"column_9":null,"id":"a6qkaljpy9bw","geo_precision":"unmatched","address":"WINDMILL RD","final case full":"PROS - PROSTITUTION COMPLAINT"},"type":"Feature","geometry":null},{"properties":{"column_6":null,"occ date":"07/12/09","column_7":null,"district":"HE","geo_score":0.0,"column_8":null,"total dispatches":1,"column_9":null,"id":"a6qkalbb9isu","geo_precision":"unmatched","address":"QUEEN ST / VICTORIA RD","final case full":"PROS - PROSTITUTION COMPLAINT"},"type":"Feature","geometry":null},{"properties":{"column_6":null,"occ date":"04/27/09","column_7":null,"district":"HE","geo_score":0.0,"column_8":null,"total dispatches":1,"column_9":null,"id":"a6qkalljwrkr","geo_precision":"unmatched","address":"HENRY ST","final case full":"PROS - PROSTITUTION COMPLAINT"},"type":"Feature","geometry":null},{"properties":{"column_6":null,"occ date":"06/23/09","column_7":null,"district":"HE","geo_score":0.0,"column_8":null,"total dispatches":1,"column_9":null,"id":"a6qkalk0tjer","geo_precision":"unmatched","address":"WINDMILL RD / JAMIESON ST","final case full":"PROS - PROSTITUTION COMPLAINT"},"type":"Feature","geometry":null},{"properties":{"column_6":null,"occ date":"07/25/09","column_7":null,"district":"HE","geo_score":0.0,"column_8":null,"total dispatches":2,"column_9":null,"id":"a6qkalmzlwmy","geo_precision":"unmatched","address":"QUEEN ST / VICTORIA RD","final case full":"PROS - PROSTITUTION COMPLAINT"},"type":"Feature","geometry":null},{"properties":{"column_6":null,"occ date":"01/09/09","column_7":null,"district":"HE","geo_score":0.0,"column_8":null,"total dispatches":1,"column_9":null,"id":"a6qkalll3b43","geo_precision":"unmatched","address":"WINDMILL RD","final case full":"PROS - PROSTITUTION COMPLAINT"},"type":"Feature","geometry":null},{"properties":{"column_6":null,"occ date":"08/03/09","column_7":null,"district":"HE","geo_score":0.0,"column_8":null,"total dispatches":2,"column_9":null,"id":"a6qkalb5hnzb","geo_precision":"unmatched","address":"WINDMILL RD / STAIRS ST","final case full":"PROS - PROSTITUTION COMPLAINT"},"type":"Feature","geometry":null},{"properties":{"column_6":null,"occ date":"08/19/09","column_7":null,"district":"HE","geo_score":0.0,"column_8":null,"total dispatches":0,"column_9":null,"id":"a6qkalfwjlgu","geo_precision":"unmatched","address":"HENRY ST / WINDMILL RD","final case full":"PROS - PROSTITUTION COMPLAINT"},"type":"Feature","geometry":null},{"properties":{"column_6":null,"occ date":"09/01/09","column_7":null,"district":"HE","geo_score":0.0,"column_8":null,"total dispatches":1,"column_9":null,"id":"a6qkalkuexj0","geo_precision":"unmatched","address":"PRINCESS MARGARET BLVD","final case full":"PROS - PROSTITUTION COMPLAINT"},"type":"Feature","geometry":null},{"properties":{"column_6":null,"occ date":"06/11/09","column_7":null,"district":"HC","geo_score":0.0,"column_8":null,"total dispatches":0,"column_9":null,"id":"a6qkala62yo1","geo_precision":"unmatched","address":"BRUNSWICK ST","final case full":"PROS - PROSTITUTION COMPLAINT"},"type":"Feature","geometry":null},{"properties":{"column_6":null,"occ date":"03/26/09","column_7":null,"district":"HE","geo_score":0.0,"column_8":null,"total dispatches":1,"column_9":null,"id":"a6qkalbbgtld","geo_precision":"unmatched","address":"ALBRO LAKE RD / VICTORIA RD","final case full":"PROS - PROSTITUTION COMPLAINT"},"type":"Feature","geometry":null},{"properties":{"column_6":null,"occ date":"05/21/09","column_7":null,"district":"HE","geo_score":0.0,"column_8":null,"total dispatches":0,"column_9":null,"id":"a6qkalnxu543","geo_precision":"unmatched","address":"ALBRO LAKE RD / WINDMILL RD","final case full":"PROS - PROSTITUTION COMPLAINT"},"type":"Feature","geometry":null},{"properties":{"column_6":null,"occ date":"08/30/09","column_7":null,"district":"HC","geo_score":0.0,"column_8":null,"total dispatches":1,"column_9":null,"id":"a6qkalij0c93","geo_precision":"unmatched","address":"ONTARIO ST / FULLER TERR","final case full":"PROS - PROSTITUTION COMPLAINT"},"type":"Feature","geometry":null},{"properties":{"column_6":null,"occ date":"10/05/09","column_7":null,"district":"HE","geo_score":0.0,"column_8":null,"total dispatches":1,"column_9":null,"id":"a6qkali203oj","geo_precision":"unmatched","address":"ALBRO LAKE RD","final case full":"PROS - PROSTITUTION COMPLAINT"},"type":"Feature","geometry":null},{"properties":{"column_6":null,"occ date":"10/14/09","column_7":null,"district":"HE","geo_score":0.0,"column_8":null,"total dispatches":2,"column_9":null,"id":"a6qkalmkt6sb","geo_precision":"unmatched","address":"SLAYTER ST / RUSSELL ST","final case full":"PROS - PROSTITUTION COMPLAINT"},"type":"Feature","geometry":null},{"properties":{"column_6":null,"occ date":"05/06/09","column_7":null,"district":"HC","geo_score":0.0,"column_8":null,"total dispatches":0,"column_9":null,"id":"a6qkal98byjd","geo_precision":"unmatched","address":"ONTARIO ST / AGRICOLA ST","final case full":"PROS - PROSTITUTION COMPLAINT"},"type":"Feature","geometry":null},{"properties":{"column_6":null,"occ date":"07/13/09","column_7":null,"district":"HE","geo_score":0.0,"column_8":null,"total dispatches":2,"column_9":null,"id":"a6qkalgpzk1d","geo_precision":"unmatched","address":"HOWE ST / WINDMILL RD","final case full":"PROS - PROSTITUTION COMPLAINT"},"type":"Feature","geometry":null},{"properties":{"column_6":null,"occ date":"07/21/09","column_7":null,"district":"HC","geo_score":0.0,"column_8":null,"total dispatches":0,"column_9":null,"id":"a6qkal9nhq62","geo_precision":"unmatched","address":"GOTTINGEN ST","final case full":"PROS - PROSTITUTION COMPLAINT"},"type":"Feature","geometry":null},{"properties":{"column_6":null,"occ date":"08/25/09","column_7":null,"district":"HE","geo_score":0.0,"column_8":null,"total dispatches":1,"column_9":null,"id":"a6qkalmrl788","geo_precision":"unmatched","address":"ALBRO LAKE RD / WINDMILL RD","final case full":"PROS - PROSTITUTION COMPLAINT"},"type":"Feature","geometry":null},{"properties":{"column_6":null,"occ date":"10/01/09","column_7":null,"district":"HC","geo_score":0.0,"column_8":null,"total dispatches":0,"column_9":null,"id":"a6qkalnndqwx","geo_precision":"unmatched","address":"BRUNSWICK ST","final case full":"PROS - PROSTITUTION COMPLAINT"},"type":"Feature","geometry":null},{"properties":{"column_6":null,"occ date":"06/16/09","column_7":null,"district":"HE","geo_score":0.0,"column_8":null,"total dispatches":1,"column_9":null,"id":"a6qkalnmz2vz","geo_precision":"unmatched","address":"WINDMILL RD / HOWE ST","final case full":"PROS - PROSTITUTION COMPLAINT"},"type":"Feature","geometry":null},{"properties":{"column_6":null,"occ date":"07/05/09","column_7":null,"district":"HE","geo_score":0.0,"column_8":null,"total dispatches":1,"column_9":null,"id":"a6qkalb89zeh","geo_precision":"unmatched","address":"WINDMILL RD / HENRY ST","final case full":"PROS - PROSTITUTION COMPLAINT"},"type":"Feature","geometry":null},{"properties":{"column_6":null,"occ date":"11/27/09","column_7":null,"district":"HE","geo_score":0.0,"column_8":null,"total dispatches":1,"column_9":null,"id":"a6qkalimtqpe","geo_precision":"unmatched","address":"QUEEN ST","final case full":"PROS - PROSTITUTION COMPLAINT"},"type":"Feature","geometry":null},{"properties":{"column_6":null,"occ date":"03/22/09","column_7":null,"district":"HC","geo_score":0.0,"column_8":null,"total dispatches":0,"column_9":null,"id":"a6qkalgyxv5f","geo_precision":"unmatched","address":"BRUNSWICK ST","final case full":"PROS - PROSTITUTION COMPLAINT"},"type":"Feature","geometry":null},{"properties":{"column_6":null,"occ date":"06/16/09","column_7":null,"district":"HE","geo_score":0.0,"column_8":null,"total dispatches":1,"column_9":null,"id":"a6qkall27iwf","geo_precision":"unmatched","address":"QUEEN ST / VICTORIA RD","final case full":"PROS - PROSTITUTION COMPLAINT"},"type":"Feature","geometry":null},{"properties":{"column_6":null,"occ date":"08/17/09","column_7":null,"district":"HE","geo_score":0.0,"column_8":null,"total dispatches":2,"column_9":null,"id":"a6qkalk7482h","geo_precision":"unmatched","address":"ALBRO LAKE RD","final case full":"PROS - PROSTITUTION COMPLAINT"},"type":"Feature","geometry":null},{"properties":{"column_6":null,"occ date":"08/19/09","column_7":null,"district":"HE","geo_score":0.0,"column_8":null,"total dispatches":3,"column_9":null,"id":"a6qkalfklevl","geo_precision":"unmatched","address":"WINDMILL RD","final case full":"PROS - PROSTITUTION COMPLAINT"},"type":"Feature","geometry":null},{"properties":{"column_6":null,"occ date":"09/21/09","column_7":null,"district":"HE","geo_score":0.0,"column_8":null,"total dispatches":1,"column_9":null,"id":"a6qkali4507l","geo_precision":"unmatched","address":"JAMIESON ST / WINDMILL RD","final case full":"PROS - PROSTITUTION COMPLAINT"},"type":"Feature","geometry":null},{"properties":{"column_6":null,"occ date":"10/30/09","column_7":null,"district":"HE","geo_score":0.0,"column_8":null,"total dispatches":1,"column_9":null,"id":"a6qkalf15eyx","geo_precision":"unmatched","address":"MONIQUE AVE","final case full":"PROS - PROSTITUTION COMPLAINT"},"type":"Feature","geometry":null},{"properties":{"column_6":null,"occ date":"03/28/09","column_7":null,"district":"HC","geo_score":0.0,"column_8":null,"total dispatches":1,"column_9":null,"id":"a6qkalmx1e1r","geo_precision":"unmatched","address":"AGRICOLA ST","final case full":"UNWP - UNWANTED PERSON"},"type":"Feature","geometry":null},{"properties":{"column_6":null,"occ date":"05/22/09","column_7":null,"district":"HC","geo_score":0.0,"column_8":null,"total dispatches":0,"column_9":null,"id":"a6qkalmypmsq","geo_precision":"unmatched","address":"AGRICOLA ST / WILLOW ST","final case full":"PROS - PROSTITUTION COMPLAINT"},"type":"Feature","geometry":null},{"properties":{"column_6":null,"occ date":"10/11/09","column_7":null,"district":"HE","geo_score":0.0,"column_8":null,"total dispatches":1,"column_9":null,"id":"a6qkall6hkbo","geo_precision":"unmatched","address":"NIVENS AVE / WINDMILL RD","final case full":"PROS - PROSTITUTION COMPLAINT"},"type":"Feature","geometry":null},{"properties":{"column_6":null,"occ date":"03/26/09","column_7":null,"district":"HC","geo_score":0.0,"column_8":null,"total dispatches":1,"column_9":null,"id":"a6qkaldpuopp","geo_precision":"unmatched","address":"AGRICOLA ST","final case full":"PROS - PROSTITUTION COMPLAINT"},"type":"Feature","geometry":null},{"properties":{"column_6":null,"occ date":"03/26/09","column_7":null,"district":"HE","geo_score":0.0,"column_8":null,"total dispatches":1,"column_9":null,"id":"a6qkallk58g3","geo_precision":"unmatched","address":"VICTORIA RD / JACKSON RD","final case full":"PROS - PROSTITUTION COMPLAINT"},"type":"Feature","geometry":null},{"properties":{"column_6":null,"occ date":"04/30/09","column_7":null,"district":"HE","geo_score":0.0,"column_8":null,"total dispatches":1,"column_9":null,"id":"a6qkall9x6tu","geo_precision":"unmatched","address":"WINDMILL RD / STAIRS ST","final case full":"PROS - PROSTITUTION COMPLAINT"},"type":"Feature","geometry":null},{"properties":{"column_6":null,"occ date":"06/18/09","column_7":null,"district":"HE","geo_score":0.0,"column_8":null,"total dispatches":1,"column_9":null,"id":"a6qkallnwu7o","geo_precision":"unmatched","address":"WINDMILL RD / VICTORIA RD","final case full":"PROS - PROSTITUTION COMPLAINT"},"type":"Feature","geometry":null},{"properties":{"column_6":null,"occ date":"07/22/09","column_7":null,"district":"HE","geo_score":0.0,"column_8":null,"total dispatches":1,"column_9":null,"id":"a6qkali5ap71","geo_precision":"unmatched","address":"ROBERT BURNS DR / JACKSON RD","final case full":"PROS - PROSTITUTION COMPLAINT"},"type":"Feature","geometry":null},{"properties":{"column_6":null,"occ date":"11/06/09","column_7":null,"district":"HE","geo_score":0.0,"column_8":null,"total dispatches":2,"column_9":null,"id":"a6qkalort1cz","geo_precision":"unmatched","address":"JAMIESON ST / ROSEDALE DR","final case full":"PROS - PROSTITUTION COMPLAINT"},"type":"Feature","geometry":null},{"properties":{"column_6":null,"occ date":"03/22/09","column_7":null,"district":"HC","geo_score":0.0,"column_8":null,"total dispatches":0,"column_9":null,"id":"a6qkalldmutx","geo_precision":"unmatched","address":"BRUNSWICK ST","final case full":"PROS - PROSTITUTION COMPLAINT"},"type":"Feature","geometry":null},{"properties":{"column_6":null,"occ date":"04/08/09","column_7":null,"district":"HC","geo_score":0.0,"column_8":null,"total dispatches":0,"column_9":null,"id":"a6qkalab2ndg","geo_precision":"unmatched","address":"BLOOMFIELD ST / AGRICOLA ST","final case full":"PROS - PROSTITUTION COMPLAINT"},"type":"Feature","geometry":null},{"properties":{"column_6":null,"occ date":"08/28/09","column_7":null,"district":"HE","geo_score":0.0,"column_8":null,"total dispatches":2,"column_9":null,"id":"a6qkalosobk1","geo_precision":"unmatched","address":"WINDMILL RD / HENRY ST","final case full":"PROS - PROSTITUTION COMPLAINT"},"type":"Feature","geometry":null},{"properties":{"column_6":null,"occ date":"09/02/09","column_7":null,"district":"HE","geo_score":0.0,"column_8":null,"total dispatches":1,"column_9":null,"id":"a6qkal9ma6fo","geo_precision":"unmatched","address":"JAMIESON ST / ROSEDALE DR","final case full":"PROS - PROSTITUTION COMPLAINT"},"type":"Feature","geometry":null},{"properties":{"column_6":null,"occ date":"02/04/09","column_7":null,"district":"HE","geo_score":0.0,"column_8":null,"total dispatches":1,"column_9":null,"id":"a6qkal8x215f","geo_precision":"unmatched","address":"ALBRO LAKE RD","final case full":"PROS - PROSTITUTION COMPLAINT"},"type":"Feature","geometry":null},{"properties":{"column_6":null,"occ date":"09/04/09","column_7":null,"district":"HE","geo_score":0.0,"column_8":null,"total dispatches":1,"column_9":null,"id":"a6qkalny2mvh","geo_precision":"unmatched","address":"HOWE ST / WINDMILL RD","final case full":"PROS - PROSTITUTION COMPLAINT"},"type":"Feature","geometry":null},{"properties":{"column_6":null,"occ date":"04/08/09","column_7":null,"district":"HE","geo_score":0.0,"column_8":null,"total dispatches":0,"column_9":null,"id":"a6qkalgncqow","geo_precision":"unmatched","address":"WALLACE ST / WINDMILL RD","final case full":"PROS - PROSTITUTION COMPLAINT"},"type":"Feature","geometry":null},{"properties":{"column_6":null,"occ date":"08/14/09","column_7":null,"district":"HE","geo_score":0.0,"column_8":null,"total dispatches":2,"column_9":null,"id":"a6qkaletuptg","geo_precision":"unmatched","address":"HENRY ST / WINDMILL RD","final case full":"PROS - PROSTITUTION COMPLAINT"},"type":"Feature","geometry":null},{"properties":{"column_6":null,"occ date":"10/05/09","column_7":null,"district":"HC","geo_score":0.0,"column_8":null,"total dispatches":0,"column_9":null,"id":"a6qkaloylrip","geo_precision":"unmatched","address":"BRUNSWICK ST","final case full":"PROS - PROSTITUTION COMPLAINT"},"type":"Feature","geometry":null},{"properties":{"column_6":null,"occ date":"10/20/09","column_7":null,"district":"HC","geo_score":0.0,"column_8":null,"total dispatches":0,"column_9":null,"id":"a6qkaldyje2u","geo_precision":"unmatched","address":"BRUNSWICK ST","final case full":"PROS - PROSTITUTION COMPLAINT"},"type":"Feature","geometry":null},{"properties":{"column_6":null,"occ date":"09/16/09","column_7":null,"district":"HE","geo_score":0.0,"column_8":null,"total dispatches":1,"column_9":null,"id":"a6qkalfboibj","geo_precision":"unmatched","address":"PRIMROSE ST / PINECREST DR","final case full":"SUSP - SUSPICIOUS PERSON"},"type":"Feature","geometry":null},{"properties":{"column_6":null,"occ date":"07/25/09","column_7":null,"district":"HE","geo_score":0.0,"column_8":null,"total dispatches":1,"column_9":null,"id":"a6qkallu5m5l","geo_precision":"unmatched","address":"JACKSON RD / ROBERT BURNS DR","final case full":"PROS - PROSTITUTION COMPLAINT"},"type":"Feature","geometry":null},{"properties":{"column_6":null,"occ date":"08/26/09","column_7":null,"district":"HE","geo_score":0.0,"column_8":null,"total dispatches":0,"column_9":null,"id":"a6qkal9hb17j","geo_precision":"unmatched","address":"WINDMILL RD / WALLACE ST","final case full":"PROS - PROSTITUTION COMPLAINT"},"type":"Feature","geometry":null},{"properties":{"column_6":null,"occ date":"10/04/09","column_7":null,"district":"HC","geo_score":0.0,"column_8":null,"total dispatches":1,"column_9":null,"id":"a6qkali2vnqq","geo_precision":"unmatched","address":"AGRICOLA ST","final case full":"PROS - PROSTITUTION COMPLAINT"},"type":"Feature","geometry":null},{"properties":{"column_6":null,"occ date":"12/12/09","column_7":null,"district":"HE","geo_score":0.0,"column_8":null,"total dispatches":1,"column_9":null,"id":"a6qkal95vkru","geo_precision":"unmatched","address":"VICTORIA RD / QUEEN ST","final case full":"PROS - PROSTITUTION COMPLAINT"},"type":"Feature","geometry":null},{"properties":{"column_6":null,"occ date":"06/18/09","column_7":null,"district":"HE","geo_score":0.0,"column_8":null,"total dispatches":0,"column_9":null,"id":"a6qkalo72ngm","geo_precision":"unmatched","address":"WINDMILL RD / ELMWOOD AVE","final case full":"PROS - PROSTITUTION COMPLAINT"},"type":"Feature","geometry":null},{"properties":{"column_6":null,"occ date":"04/07/09","column_7":null,"district":"HC","geo_score":0.0,"column_8":null,"total dispatches":0,"column_9":null,"id":"a6qkalocjzar","geo_precision":"unmatched","address":"BRUNSWICK ST","final case full":"PROS - PROSTITUTION COMPLAINT"},"type":"Feature","geometry":null},{"properties":{"column_6":null,"occ date":"06/04/09","column_7":null,"district":"HC","geo_score":0.0,"column_8":null,"total dispatches":1,"column_9":null,"id":"a6qkalkr1djo","geo_precision":"unmatched","address":"AGRICOLA ST / ONTARIO ST","final case full":"PROS - PROSTITUTION COMPLAINT"},"type":"Feature","geometry":null},{"properties":{"column_6":null,"occ date":"05/31/09","column_7":null,"district":"HE","geo_score":0.0,"column_8":null,"total dispatches":2,"column_9":null,"id":"a6qkal9waosl","geo_precision":"unmatched","address":"JACKSON RD / ROBERT BURNS DR","final case full":"SUSP - SUSPICIOUS PERSON"},"type":"Feature","geometry":null},{"properties":{"column_6":null,"occ date":"06/08/09","column_7":null,"district":"HE","geo_score":0.0,"column_8":null,"total dispatches":1,"column_9":null,"id":"a6qkalaajsnr","geo_precision":"unmatched","address":"HENRY ST / WINDMILL RD","final case full":"PROS - PROSTITUTION COMPLAINT"},"type":"Feature","geometry":null},{"properties":{"column_6":null,"occ date":"09/06/09","column_7":null,"district":"HC","geo_score":0.0,"column_8":null,"total dispatches":1,"column_9":null,"id":"a6qkallp1gzb","geo_precision":"unmatched","address":"AGRICOLA ST","final case full":"PROS - PROSTITUTION COMPLAINT"},"type":"Feature","geometry":null},{"properties":{"column_6":null,"occ date":"12/01/09","column_7":null,"district":"HE","geo_score":0.0,"column_8":null,"total dispatches":1,"column_9":null,"id":"a6qkale9tlgb","geo_precision":"unmatched","address":"QUEEN ST / WENTWORTH ST","final case full":"PROS - PROSTITUTION COMPLAINT"},"type":"Feature","geometry":null},{"properties":{"column_6":null,"occ date":"11/26/09","column_7":null,"district":"HE","geo_score":0.0,"column_8":null,"total dispatches":1,"column_9":null,"id":"a6qkalbbgmi2","geo_precision":"unmatched","address":"VICTORIA RD / PORTLAND ST","final case full":"PROS - PROSTITUTION COMPLAINT"},"type":"Feature","geometry":null},{"properties":{"column_6":null,"occ date":"03/28/09","column_7":null,"district":"HE","geo_score":0.0,"column_8":null,"total dispatches":1,"column_9":null,"id":"a6qkalbj8507","geo_precision":"unmatched","address":"WYSE RD / JAMIESON ST","final case full":"PROS - PROSTITUTION COMPLAINT"},"type":"Feature","geometry":null},{"properties":{"column_6":null,"occ date":"02/25/09","column_7":null,"district":"HE","geo_score":0.0,"column_8":null,"total dispatches":0,"column_9":null,"id":"a6qkalf5mhly","geo_precision":"unmatched","address":"STAIRS ST / WINDMILL RD","final case full":"PROS - PROSTITUTION COMPLAINT"},"type":"Feature","geometry":null},{"properties":{"column_6":null,"occ date":"09/04/09","column_7":null,"district":"HE","geo_score":0.0,"column_8":null,"total dispatches":1,"column_9":null,"id":"a6qkalny1718","geo_precision":"unmatched","address":"WINDMILL RD / ALBRO LAKE RD","final case full":"PROS - PROSTITUTION COMPLAINT"},"type":"Feature","geometry":null}],"is_temporal":false,"author":{"url":"","metadata":"","contact_name":"","contact_address":"","source":"","contact_phone":""},"source":"","pagination":{"sort":null,"start":0,"total":597,"limit":1000000},"state":"complete","tags":"","published":"2014-08-12T21:04:40-04:00","id":180090}