{"type":"FeatureCollection","data_type":"Dataset","url_type":null,"permissions":[{"permissions":{"download":true,"view":true},"group_id":"everyone"}],"classification":null,"title":"North_Crest_Customers","count":214,"stream_id":180232,"contributor":{"url":"http://geocommons.com/users/36338","name":"billcorcoranz"},"data_attributes":null,"calculation_params":null,"icon_link":null,"link":"http://geocommons.com/overlays/180232.json","extent":[-94.6674,43.8947,-91.9793,45.9032],"geometry_types":["point"],"unique_name":null,"name":"North_Crest_Customers","feature_count":214,"description":"","next_feature":null,"is_raster":false,"short_classification":"Y","stats":{},"features":[{"properties":{"city":"sauk rapids","address1":"1283 Agate Ct","name":"Tasha Chapman","zip":"56379","geo_score":0.857,"type":"Mother","family":"Chapman","id":"a6saxokydqgr","geo_precision":"zip","state":"MN"},"type":"Feature","geometry":{"type":"Point","coordinates":[-94.024429,45.661911]}},{"properties":{"city":"St. Cloud","address1":"840 Marquette Dr","name":"Kevin Ahles","zip":"56301","geo_score":0.893,"type":"Father","family":"Smith-Ahles","id":"a6saxopg4c5f","geo_precision":"zip","state":"MN"},"type":"Feature","geometry":{"type":"Point","coordinates":[-94.154155,45.478576]}},{"properties":{"city":"St Cloud","address1":"2510 18th Ave SE","name":"Bridget Applegate","zip":"56304","geo_score":0.957,"type":"Mother","family":"Applegate","id":"a6saxori2u39","geo_precision":"zip","state":"MN"},"type":"Feature","geometry":{"type":"Point","coordinates":[-94.440969,45.544864]}},{"properties":{"city":"St Cloud","address1":"2510 18th Ave SE","name":"Corey Applegate","zip":"56304","geo_score":0.957,"type":"Father","family":"Applegate","id":"a6saxosw4ins","geo_precision":"zip","state":"MN"},"type":"Feature","geometry":{"type":"Point","coordinates":[-94.440969,45.544864]}},{"properties":{"city":"Sartell","address1":"519 Greenview Ct","name":"Drew Austin","zip":"56377","geo_score":1.0,"type":"Father","family":"Austin","id":"a6saxoe35a1n","geo_precision":"zip","state":"MN"},"type":"Feature","geometry":{"type":"Point","coordinates":[-94.355049,45.573808]}},{"properties":{"city":"Rice","address1":"255 2nd Ave SW","name":"Elizabeth Baker","zip":"56367","geo_score":1.0,"type":"Mother","family":"Baker","id":"a6saxom8lbcv","geo_precision":"zip","state":"MN"},"type":"Feature","geometry":{"type":"Point","coordinates":[-94.124878,45.745866]}},{"properties":{"city":"Rice","address1":"255 2nd Ave SW","name":"Miles Baker","zip":"56367","geo_score":1.0,"type":"Father","family":"Baker","id":"a6saxoe45zlb","geo_precision":"zip","state":"MN"},"type":"Feature","geometry":{"type":"Point","coordinates":[-94.124878,45.745866]}},{"properties":{"city":"Clear Lake","address1":"P.O. Box 205","name":"Mark Baumgartner","zip":"55319","geo_score":1.0,"type":"Guardian","family":"Radey","id":"a6saxosrg0cb","geo_precision":"zip","state":"MN"},"type":"Feature","geometry":{"type":"Point","coordinates":[-93.952504,45.466197]}},{"properties":{"city":"saint cloud","address1":"819 clark place","name":"Jackie Bautch","zip":"56301","geo_score":0.929,"type":"Mother","family":"Bautch","id":"a6saxoff9lzp","geo_precision":"zip","state":"MN"},"type":"Feature","geometry":{"type":"Point","coordinates":[-94.154155,45.478576]}},{"properties":{"city":"saint cloud","address1":"819 clark place","name":"Jeff Bautch","zip":"56301","geo_score":0.929,"type":"Father","family":"Bautch","id":"a6saxojnns7l","geo_precision":"zip","state":"MN"},"type":"Feature","geometry":{"type":"Point","coordinates":[-94.154155,45.478576]}},{"properties":{"city":"clear lake","address1":"3438 river road se","name":"Russell Bellefeuille","zip":"55319","geo_score":1.0,"type":"Father","family":"Bellefeuille","id":"a6saxoprknn6","geo_precision":"zip","state":"MN"},"type":"Feature","geometry":{"type":"Point","coordinates":[-93.952504,45.466197]}},{"properties":{"city":"clear lake","address1":"3438 river road se","name":"Jennifer Bellefeuille","zip":"55319","geo_score":1.0,"type":"Mother","family":"Bellefeuille","id":"a6saxokblhax","geo_precision":"zip","state":"MN"},"type":"Feature","geometry":{"type":"Point","coordinates":[-93.952504,45.466197]}},{"properties":{"city":"Sartell","address1":"519 Greenview Ct","name":"Thomas Berger","zip":"56377","geo_score":1.0,"type":"Guardian","family":"Austin","id":"a6saxoes6snc","geo_precision":"zip","state":"MN"},"type":"Feature","geometry":{"type":"Point","coordinates":[-94.355049,45.573808]}},{"properties":{"city":"Sartell","address1":"1804 3rd Ave N","name":"Angela Berndt","zip":"56377","geo_score":1.0,"type":"Mother","family":"Berndt","id":"a6saxon0i0at","geo_precision":"zip","state":"MN"},"type":"Feature","geometry":{"type":"Point","coordinates":[-94.355049,45.573808]}},{"properties":{"city":"Sartell","address1":"1804 3rd Ave N","name":"Paul Berndt","zip":"56377","geo_score":1.0,"type":"Father","family":"Berndt","id":"a6saxoirpfa3","geo_precision":"zip","state":"MN"},"type":"Feature","geometry":{"type":"Point","coordinates":[-94.355049,45.573808]}},{"properties":{"city":"Waite Park","address1":"403 Park Meadows Drive","name":"Brent Betzler","zip":"56387","geo_score":1.0,"type":"Father","family":"Betzler","id":"a6saxoqa4k2j","geo_precision":"zip","state":"MN"},"type":"Feature","geometry":{"type":"Point","coordinates":[-94.667422,45.510622]}},{"properties":{"city":"Sartell","address1":"801 9th St. N","name":"Julia Bjerke","zip":"56377","geo_score":1.0,"type":"Mother","family":"Bjerke","id":"a6saxoe2vif1","geo_precision":"zip","state":"MN"},"type":"Feature","geometry":{"type":"Point","coordinates":[-94.355049,45.573808]}},{"properties":{"city":"Sartell","address1":"801 9th St. N","name":"Ryan Bjerke","zip":"56377","geo_score":1.0,"type":"Father","family":"Bjerke","id":"a6saxosno7jj","geo_precision":"zip","state":"MN"},"type":"Feature","geometry":{"type":"Point","coordinates":[-94.355049,45.573808]}},{"properties":{"city":"st cloud","address1":"122 19 1/2 ave north","name":"Deanna Bloch","zip":"56303","geo_score":0.957,"type":"Mother","family":"Bloch","id":"a6saxonsy00v","geo_precision":"zip","state":"MN"},"type":"Feature","geometry":{"type":"Point","coordinates":[-94.223023,45.627994]}},{"properties":{"city":"Sartell","address1":"2289 Utah Rd","name":"Ryan Bokelman","zip":"56377","geo_score":1.0,"type":"Mother","family":"Bokelman","id":"a6saxofyax4j","geo_precision":"zip","state":"MN"},"type":"Feature","geometry":{"type":"Point","coordinates":[-94.355049,45.573808]}},{"properties":{"city":"Sartell","address1":"2289 Utah Rd","name":"Joe Bokelman","zip":"56377","geo_score":1.0,"type":"Father","family":"Bokelman","id":"a6saxoflxx9f","geo_precision":"zip","state":"MN"},"type":"Feature","geometry":{"type":"Point","coordinates":[-94.355049,45.573808]}},{"properties":{"city":"Clearwater","address1":"345 Spring St","name":"Carolyn Bolander","zip":"55320","geo_score":0.886,"type":"Grandparent","family":"Colberg","id":"a6saxohfnbph","geo_precision":"zip","state":"MN"},"type":"Feature","geometry":{"type":"Point","coordinates":[-93.973035,45.371077]}},{"properties":{"city":"St Cloud","address1":"139 18th Ave N. Apt 1","name":"Brittney Borst","zip":"56303","geo_score":0.957,"type":"Mother","family":"Borst","id":"a6saxoqzezjp","geo_precision":"zip","state":"MN"},"type":"Feature","geometry":{"type":"Point","coordinates":[-94.223023,45.627994]}},{"properties":{"city":"St Cloud","address1":"139 18th Ave N. Apt 1","name":"Brandon Borst","zip":"5630","geo_score":0.755,"type":"Father","family":"Borst","id":"a6saxom8ip3e","geo_precision":"city","state":"MN"},"type":"Feature","geometry":{"type":"Point","coordinates":[-91.979323,43.894685]}},{"properties":{"city":"ST JOSEPH","address1":"528 ELENA LANE","name":"Heidi Brophy","zip":"56374","geo_score":0.961,"type":"Mother","family":"BROPHY","id":"a6saxohv74qe","geo_precision":"zip","state":"MN"},"type":"Feature","geometry":{"type":"Point","coordinates":[-94.350962,45.614235]}},{"properties":{"city":"ST JOSEPH","address1":"528 ELENA LANE","name":"Jon Brophy","zip":"56374","geo_score":0.961,"type":"Father","family":"BROPHY","id":"a6saxope7fc9","geo_precision":"zip","state":"MN"},"type":"Feature","geometry":{"type":"Point","coordinates":[-94.350962,45.614235]}},{"properties":{"city":"Sauk Rapids","address1":"1304 Stone Ridge Rd","name":"Brenda Burk","zip":"56379","geo_score":0.857,"type":"Mother","family":"Burk","id":"a6saxofbimqw","geo_precision":"zip","state":"MN"},"type":"Feature","geometry":{"type":"Point","coordinates":[-94.024429,45.661911]}},{"properties":{"city":"Sauk Rapids","address1":"1304 Stone Ridge Rd","name":"Jason Burk","zip":"56379","geo_score":0.857,"type":"Father","family":"Burk","id":"a6saxota6hzf","geo_precision":"zip","state":"MN"},"type":"Feature","geometry":{"type":"Point","coordinates":[-94.024429,45.661911]}},{"properties":{"city":"Rice","address1":"1581 105th St NW","name":"April Burton","zip":"56367","geo_score":1.0,"type":"Mother","family":"Burton","id":"a6saxonx6hpq","geo_precision":"zip","state":"MN"},"type":"Feature","geometry":{"type":"Point","coordinates":[-94.124878,45.745866]}},{"properties":{"city":"Rice","address1":"1581 105th St NW","name":"Mike Burton","zip":"56367","geo_score":1.0,"type":"Father","family":"Burton","id":"a6saxoko3ak9","geo_precision":"zip","state":"MN"},"type":"Feature","geometry":{"type":"Point","coordinates":[-94.124878,45.745866]}},{"properties":{"city":"st cloud","address1":"122 19 1/2 ave north","name":"Brandon Carter","zip":"56303","geo_score":0.957,"type":"Father","family":"Bloch","id":"a6saxoor810l","geo_precision":"zip","state":"MN"},"type":"Feature","geometry":{"type":"Point","coordinates":[-94.223023,45.627994]}},{"properties":{"city":"Saint Cloud","address1":"721 7th St. SE","name":"Ambur Chaika","zip":"56304","geo_score":1.0,"type":"Mother","family":"Chaika","id":"a6saxogvro9e","geo_precision":"zip","state":"MN"},"type":"Feature","geometry":{"type":"Point","coordinates":[-94.440969,45.544864]}},{"properties":{"city":"Saint Cloud","address1":null,"name":"Jamie Chaika","zip":null,"geo_score":0.743,"type":"Father","family":"Chaika","id":"a6saxofc0r4l","geo_precision":"city","state":"MN"},"type":"Feature","geometry":{"type":"Point","coordinates":[-91.979323,43.894685]}},{"properties":{"city":"Waite Park","address1":"1109 7th St S Apt. 210b","name":"Melissa Chance","zip":"56387","geo_score":1.0,"type":"Mother","family":"Chance","id":"a6saxork4h3v","geo_precision":"zip","state":"MN"},"type":"Feature","geometry":{"type":"Point","coordinates":[-94.667422,45.510622]}},{"properties":{"city":"Waite Park","address1":"1109 7th St S Apt. 210b","name":"Jeff Chance","zip":"56387","geo_score":1.0,"type":"Father","family":"Chance","id":"a6saxognyki5","geo_precision":"zip","state":"MN"},"type":"Feature","geometry":{"type":"Point","coordinates":[-94.667422,45.510622]}},{"properties":{"city":"Rice","address1":"295 86th ST NW","name":"Amy Chantry","zip":"56367","geo_score":0.857,"type":"Mother","family":"Chantry","id":"a6saxoeznato","geo_precision":"zip","state":null},"type":"Feature","geometry":{"type":"Point","coordinates":[-94.124878,45.745866]}},{"properties":{"city":"Rice","address1":"295 86th ST NW","name":"Todd Chantry","zip":"56367","geo_score":0.857,"type":"Father","family":"Chantry","id":"a6saxolsc17u","geo_precision":"zip","state":null},"type":"Feature","geometry":{"type":"Point","coordinates":[-94.124878,45.745866]}},{"properties":{"city":"Clearwater","address1":"345 Spring St","name":"Barbara Colberg","zip":"55320","geo_score":0.886,"type":"Mother","family":"Colberg","id":"a6saxodb57j3","geo_precision":"zip","state":"MN"},"type":"Feature","geometry":{"type":"Point","coordinates":[-93.973035,45.371077]}},{"properties":{"city":"Foley","address1":"610 110th Ave. SE","name":"Nicole Corrigan","zip":"56329","geo_score":0.918,"type":"Mother","family":"Corrigan","id":"a6saxotactkt","geo_precision":"zip","state":"MN"},"type":"Feature","geometry":{"type":"Point","coordinates":[-93.864698,45.681356]}},{"properties":{"city":"Foley","address1":"610 110th Ave. SE","name":"Jeremy Corrigan","zip":"56329","geo_score":0.918,"type":"Father","family":"Corrigan","id":"a6saxosou3fm","geo_precision":"zip","state":"MN"},"type":"Feature","geometry":{"type":"Point","coordinates":[-93.864698,45.681356]}},{"properties":{"city":"Sartell","address1":"1506 6th Ave. N","name":"Amy Couch","zip":"56377","geo_score":1.0,"type":"Mother","family":"Couch","id":"a6saxodug1j7","geo_precision":"zip","state":"MN"},"type":"Feature","geometry":{"type":"Point","coordinates":[-94.355049,45.573808]}},{"properties":{"city":"Sauk Rapids","address1":"2031 Highview Drive","name":"Krista Cullen","zip":"56379","geo_score":0.857,"type":"Mother","family":"Cullen","id":"a6saxoshute6","geo_precision":"zip","state":"MN"},"type":"Feature","geometry":{"type":"Point","coordinates":[-94.024429,45.661911]}},{"properties":{"city":"Sauk Rapids","address1":"2031 Highview Drive","name":"Tom Cullen","zip":"56379","geo_score":0.857,"type":"Father","family":"Cullen","id":"a6saxohzv44e","geo_precision":"zip","state":"MN"},"type":"Feature","geometry":{"type":"Point","coordinates":[-94.024429,45.661911]}},{"properties":{"city":"Saint Cloud","address1":"1530 Hwy 23 E #204","name":"Christopher DesMarais","zip":"55304","geo_score":0.886,"type":"Father","family":"Hoff/DesMarais","id":"a6saxokm5j3u","geo_precision":"zip","state":"MN"},"type":"Feature","geometry":{"type":"Point","coordinates":[-93.249951,45.250243]}},{"properties":{"city":"Sauk Rapids","address1":"1278 7th Ave North","name":"Andy Ditlevson","zip":"56379","geo_score":0.857,"type":"Father","family":"Ditlevson","id":"a6saxonna8s3","geo_precision":"zip","state":"MN"},"type":"Feature","geometry":{"type":"Point","coordinates":[-94.024429,45.661911]}},{"properties":{"city":"St. Cloud","address1":"3033 30th Street Court S.","name":"Kathi Dobbs","zip":"56301","geo_score":0.893,"type":"Mother","family":"Dobbs","id":"a6saxorzysfz","geo_precision":"zip","state":"MN"},"type":"Feature","geometry":{"type":"Point","coordinates":[-94.154155,45.478576]}},{"properties":{"city":"St. Cloud","address1":"3033 30th Street Court S.","name":"John Dobbs","zip":"56301","geo_score":0.893,"type":"Father","family":"Dobbs","id":"a6saxofwpzrm","geo_precision":"zip","state":"MN"},"type":"Feature","geometry":{"type":"Point","coordinates":[-94.154155,45.478576]}},{"properties":{"city":"ST CLOUD","address1":"1260 WHITNEY DRIVE","name":"Tanya DOERING","zip":"56303","geo_score":0.957,"type":"Mother","family":"DOERING","id":"a6saxossv050","geo_precision":"zip","state":"MN"},"type":"Feature","geometry":{"type":"Point","coordinates":[-94.223023,45.627994]}},{"properties":{"city":"ST CLOUD","address1":"1260 WHITNEY DRIVE","name":"Brandon DOERING","zip":"56303","geo_score":0.957,"type":"Father","family":"DOERING","id":"a6saxofgpttr","geo_precision":"zip","state":"MN"},"type":"Feature","geometry":{"type":"Point","coordinates":[-94.223023,45.627994]}},{"properties":{"city":"Princeton","address1":"1425 Agae RD","name":"Janelle Dudek","zip":"55371","geo_score":0.871,"type":"Mother","family":"Dudek","id":"a6saxog4hzfj","geo_precision":"zip","state":"MN"},"type":"Feature","geometry":{"type":"Point","coordinates":[-93.769694,45.578023]}},{"properties":{"city":"Princeton","address1":"1425 Agae RD","name":"Scott Dudek","zip":"55371","geo_score":0.871,"type":"Father","family":"Dudek","id":"a6saxofdu024","geo_precision":"zip","state":"MN"},"type":"Feature","geometry":{"type":"Point","coordinates":[-93.769694,45.578023]}},{"properties":{"city":"Sartell","address1":"655 Brianna Drive","name":"Charissa Ertl","zip":"56377","geo_score":1.0,"type":"Mother","family":"Ertl","id":"a6saxogg4any","geo_precision":"zip","state":"MN"},"type":"Feature","geometry":{"type":"Point","coordinates":[-94.355049,45.573808]}},{"properties":{"city":"Sartell","address1":"655 Brianna Drive","name":"Derek Ertl","zip":"56377","geo_score":1.0,"type":"Father","family":"Ertl","id":"a6saxotg194e","geo_precision":"zip","state":"MN"},"type":"Feature","geometry":{"type":"Point","coordinates":[-94.355049,45.573808]}},{"properties":{"city":"Sauk Rapids","address1":"115 Frontier Court","name":"Lisa Fiereck","zip":"56379","geo_score":0.857,"type":"Mother","family":"Fiereck","id":"a6saxoimmdtq","geo_precision":"zip","state":"MN"},"type":"Feature","geometry":{"type":"Point","coordinates":[-94.024429,45.661911]}},{"properties":{"city":"Sauk Rapids","address1":"115 Frontier Court","name":"Tony Fiereck","zip":"56379","geo_score":0.857,"type":"Father","family":"Fiereck","id":"a6saxoksj31t","geo_precision":"zip","state":"MN"},"type":"Feature","geometry":{"type":"Point","coordinates":[-94.024429,45.661911]}},{"properties":{"city":"St. Cloud","address1":"129 - 27th Ave. N","name":"Tiffany Flesner","zip":"56303","geo_score":0.957,"type":"Mother","family":"Wiser","id":"a6saxonkifzr","geo_precision":"zip","state":"MN"},"type":"Feature","geometry":{"type":"Point","coordinates":[-94.223023,45.627994]}},{"properties":{"city":"St. Cloud","address1":"1216 13th Street N.","name":"Kirstin Franzen","zip":"56303","geo_score":0.957,"type":"Mother","family":"Franzen","id":"a6saxol9ktbb","geo_precision":"zip","state":"MN"},"type":"Feature","geometry":{"type":"Point","coordinates":[-94.223023,45.627994]}},{"properties":{"city":"St. Cloud","address1":"1216 13th Street N.","name":"Tony Franzen","zip":"56303","geo_score":0.957,"type":"Father","family":"Franzen","id":"a6saxonfns5p","geo_precision":"zip","state":"MN"},"type":"Feature","geometry":{"type":"Point","coordinates":[-94.223023,45.627994]}},{"properties":{"city":"Sauk Rapids","address1":"361 Welsh Court","name":"Kris Fremo","zip":"56379","geo_score":0.857,"type":"Mother","family":"Fremo","id":"a6saxorvolox","geo_precision":"zip","state":"MN"},"type":"Feature","geometry":{"type":"Point","coordinates":[-94.024429,45.661911]}},{"properties":{"city":"Sauk Rapids","address1":"361 Welsh Court","name":"David Fremo","zip":"56379","geo_score":0.857,"type":"Father","family":"Fremo","id":"a6saxomjqaaq","geo_precision":"zip","state":"MN"},"type":"Feature","geometry":{"type":"Point","coordinates":[-94.024429,45.661911]}},{"properties":{"city":"St Cloud","address1":"1021 17th Ave N.","name":"Ashley Friedman","zip":"56301","geo_score":0.893,"type":"Mother","family":"Friedman","id":"a6saxok7t22g","geo_precision":"zip","state":"MN"},"type":"Feature","geometry":{"type":"Point","coordinates":[-94.154155,45.478576]}},{"properties":{"city":"st. cloud","address1":"1042 37th ave no.","name":"Danna Gasperlin","zip":"56303","geo_score":0.957,"type":"Mother","family":"gasperlin","id":"a6saxod3jcd6","geo_precision":"zip","state":"MN"},"type":"Feature","geometry":{"type":"Point","coordinates":[-94.223023,45.627994]}},{"properties":{"city":"st. cloud","address1":"1042 37th ave no.","name":"Tim Gasperlin","zip":"56303","geo_score":0.957,"type":"Father","family":"gasperlin","id":"a6saxoo61gxs","geo_precision":"zip","state":"MN"},"type":"Feature","geometry":{"type":"Point","coordinates":[-94.223023,45.627994]}},{"properties":{"city":"Saint Cloud","address1":"126 13th Ave South","name":"Christine Gerth","zip":"56301","geo_score":0.929,"type":"Mother","family":"Gerth - Soland","id":"a6saxofersah","geo_precision":"zip","state":"MN"},"type":"Feature","geometry":{"type":"Point","coordinates":[-94.154155,45.478576]}},{"properties":{"city":"St. Cloud","address1":"939 Cypress Rd Unit 4","name":"Denise GILL","zip":"56303","geo_score":0.957,"type":"Mother","family":"GILL","id":"a6saxorh1itr","geo_precision":"zip","state":"MN"},"type":"Feature","geometry":{"type":"Point","coordinates":[-94.223023,45.627994]}},{"properties":{"city":"St. Cloud","address1":"939 Cypress Rd Unit 4","name":"Joe GILL","zip":"56303","geo_score":0.957,"type":"Father","family":"GILL","id":"a6saxok597g7","geo_precision":"zip","state":"MN"},"type":"Feature","geometry":{"type":"Point","coordinates":[-94.223023,45.627994]}},{"properties":{"city":"Saint Cloud","address1":"1620 Calvary Hill Lane","name":"Julie Granberg","zip":"56301","geo_score":0.929,"type":"Mother","family":"Granberg","id":"a6saxoh1bo2u","geo_precision":"zip","state":"MN"},"type":"Feature","geometry":{"type":"Point","coordinates":[-94.154155,45.478576]}},{"properties":{"city":"Saint Cloud","address1":"1620 Calvary Hill Lane","name":"Gene Granberg","zip":"56301","geo_score":0.929,"type":"Father","family":"Granberg","id":"a6saxopsoylq","geo_precision":"zip","state":"MN"},"type":"Feature","geometry":{"type":"Point","coordinates":[-94.154155,45.478576]}},{"properties":{"city":"Rice","address1":"1738 Pine Road","name":"Suzanne Greenly","zip":"56367","geo_score":1.0,"type":"Mother","family":"Greenly","id":"a6saxooqvday","geo_precision":"zip","state":"MN"},"type":"Feature","geometry":{"type":"Point","coordinates":[-94.124878,45.745866]}},{"properties":{"city":"Rice","address1":"1738 Pine Road","name":"Trevor Greenly","zip":"56367","geo_score":1.0,"type":"Father","family":"Greenly","id":"a6saxoi4lj3m","geo_precision":"zip","state":"MN"},"type":"Feature","geometry":{"type":"Point","coordinates":[-94.124878,45.745866]}},{"properties":{"city":"Clear Lake","address1":"11022 42nd St","name":"Gary Gustafson","zip":"55319","geo_score":1.0,"type":"Father","family":"Gustafson","id":"a6saxohiemci","geo_precision":"zip","state":"MN"},"type":"Feature","geometry":{"type":"Point","coordinates":[-93.952504,45.466197]}},{"properties":{"city":"St.Cloud","address1":"732 30th Ave N","name":"Lindsay Hagburg","zip":"56303","geo_score":0.957,"type":"Mother","family":"Hagburg","id":"a6saxoiy28ug","geo_precision":"zip","state":"MN"},"type":"Feature","geometry":{"type":"Point","coordinates":[-94.223023,45.627994]}},{"properties":{"city":"St.Cloud","address1":"732 30th Ave N","name":"Jordan Hagburg","zip":"56303","geo_score":0.957,"type":"Father","family":"Hagburg","id":"a6saxot7vavl","geo_precision":"zip","state":"MN"},"type":"Feature","geometry":{"type":"Point","coordinates":[-94.223023,45.627994]}},{"properties":{"city":"Big Lake","address1":"1664 Grace Drive","name":"Lori Hahn","zip":"55309","geo_score":0.878,"type":"Mother","family":"Hahn","id":"a6saxop28msv","geo_precision":"zip","state":"MN"},"type":"Feature","geometry":{"type":"Point","coordinates":[-93.736359,45.443855]}},{"properties":{"city":"Big Lake","address1":"1664 Grace Drive","name":"Gary Hahn","zip":"55309","geo_score":0.878,"type":"Father","family":"Hahn","id":"a6saxohmpwm9","geo_precision":"zip","state":"MN"},"type":"Feature","geometry":{"type":"Point","coordinates":[-93.736359,45.443855]}},{"properties":{"city":"Sauk Rapids","address1":"612 7th Ave N","name":"Mike Hasbrouck","zip":"56379","geo_score":0.857,"type":"Father","family":"Hasbrouck","id":"a6saxosplgeb","geo_precision":"zip","state":"MN"},"type":"Feature","geometry":{"type":"Point","coordinates":[-94.024429,45.661911]}},{"properties":{"city":"Sartell","address1":"1908 4th St N","name":"Liz Hilsgen","zip":"56377","geo_score":1.0,"type":"Mother","family":"Hilsgen","id":"a6saxoj793b7","geo_precision":"zip","state":"MN"},"type":"Feature","geometry":{"type":"Point","coordinates":[-94.355049,45.573808]}},{"properties":{"city":"Sartell","address1":"1908 4th St N","name":"Brian Hilsgen","zip":"56377","geo_score":1.0,"type":"Father","family":"Hilsgen","id":"a6saxomg6c80","geo_precision":"zip","state":"MN"},"type":"Feature","geometry":{"type":"Point","coordinates":[-94.355049,45.573808]}},{"properties":{"city":"St. Joseph","address1":"525 ElenaLane East","name":"Angie Hochhalter","zip":"56374","geo_score":0.961,"type":"Mother","family":"Hochhalter","id":"a6saxonhfs8h","geo_precision":"zip","state":"MN"},"type":"Feature","geometry":{"type":"Point","coordinates":[-94.350962,45.614235]}},{"properties":{"city":"St. Joseph","address1":"525 ElenaLane East","name":"Dustin Hochhalter","zip":"56374","geo_score":0.961,"type":"Father","family":"Hochhalter","id":"a6saxoozcvoz","geo_precision":"zip","state":"MN"},"type":"Feature","geometry":{"type":"Point","coordinates":[-94.350962,45.614235]}},{"properties":{"city":"Saint Cloud","address1":"1530 Hwy 23 E #204","name":"Amanda Hoff/DesMarais","zip":"55304","geo_score":0.886,"type":"Mother","family":"Hoff/DesMarais","id":"a6saxoez3lgo","geo_precision":"zip","state":"MN"},"type":"Feature","geometry":{"type":"Point","coordinates":[-93.249951,45.250243]}},{"properties":{"city":"Foley","address1":"5164 410th ave ne","name":"Jeanette Holly","zip":"56329","geo_score":0.918,"type":"Mother","family":"Holly","id":"a6saxomrcb7i","geo_precision":"zip","state":"MN"},"type":"Feature","geometry":{"type":"Point","coordinates":[-93.864698,45.681356]}},{"properties":{"city":"Foley","address1":"5164 410th ave ne","name":"Richard Holly","zip":"56329","geo_score":0.918,"type":"Father","family":"Holly","id":"a6saxojthmb1","geo_precision":"zip","state":"MN"},"type":"Feature","geometry":{"type":"Point","coordinates":[-93.864698,45.681356]}},{"properties":{"city":"Sauk Rapids","address1":"1000 7th Avenue North","name":"Michelle Hovanes","zip":"56379","geo_score":0.857,"type":"Mother","family":"Hovanes","id":"a6saxokdbmsk","geo_precision":"zip","state":"MN"},"type":"Feature","geometry":{"type":"Point","coordinates":[-94.024429,45.661911]}},{"properties":{"city":"Sauk Rapids","address1":"1000 7th Avenue North","name":"John Hovanes","zip":"56379","geo_score":0.857,"type":"Father","family":"Hovanes","id":"a6saxod3jhqj","geo_precision":"zip","state":"MN"},"type":"Feature","geometry":{"type":"Point","coordinates":[-94.024429,45.661911]}},{"properties":{"city":"St. Cloud","address1":"1617 26th Street SE","name":"Ann Hudson","zip":"56304","geo_score":0.957,"type":"Mother","family":"Hudson","id":"a6saxonkbn48","geo_precision":"zip","state":"MN"},"type":"Feature","geometry":{"type":"Point","coordinates":[-94.440969,45.544864]}},{"properties":{"city":"St. Cloud","address1":"1617 26th Street SE","name":"Bill Hudson","zip":"56304","geo_score":0.957,"type":"Father","family":"Hudson","id":"a6saxoqaxztz","geo_precision":"zip","state":"MN"},"type":"Feature","geometry":{"type":"Point","coordinates":[-94.440969,45.544864]}},{"properties":{"city":"St. Joseph","address1":"1002 East Baker St. #24","name":"Kim Hulsebus","zip":"56374","geo_score":0.961,"type":"Other","family":"Waverek","id":"a6saxoe6a8y4","geo_precision":"zip","state":"MN"},"type":"Feature","geometry":{"type":"Point","coordinates":[-94.350962,45.614235]}},{"properties":{"city":"Sartell","address1":"328 23rd ave. North","name":"Amy Jacobson","zip":"56377","geo_score":1.0,"type":"Mother","family":"Jacobson","id":"a6saxom7bwt1","geo_precision":"zip","state":"MN"},"type":"Feature","geometry":{"type":"Point","coordinates":[-94.355049,45.573808]}},{"properties":{"city":"Sartell","address1":"328 23rd ave. North","name":"Nik Jacobson","zip":"56377","geo_score":1.0,"type":"Father","family":"Jacobson","id":"a6saxopcvwnb","geo_precision":"zip","state":"MN"},"type":"Feature","geometry":{"type":"Point","coordinates":[-94.355049,45.573808]}},{"properties":{"city":"Saint Cloud","address1":"1314 6th Street North","name":"Kenny Jansen","zip":"56303","geo_score":1.0,"type":"Father","family":"Winkelman","id":"a6saxospm3ah","geo_precision":"zip","state":"MN"},"type":"Feature","geometry":{"type":"Point","coordinates":[-94.223023,45.627994]}},{"properties":{"city":"St Cloud","address1":"1026 Sunset ridge rd","name":"Melissa Jansen-Lee","zip":"56303","geo_score":0.957,"type":"Mother","family":"Jansen-Lee","id":"a6saxoncjt57","geo_precision":"zip","state":"MN"},"type":"Feature","geometry":{"type":"Point","coordinates":[-94.223023,45.627994]}},{"properties":{"city":"Sartell","address1":"205 11th Ave E #302","name":"Tami Janson","zip":"56377","geo_score":1.0,"type":"Mother","family":"Janson","id":"a6saxoj0cm12","geo_precision":"zip","state":"MN"},"type":"Feature","geometry":{"type":"Point","coordinates":[-94.355049,45.573808]}},{"properties":{"city":"St Cloud","address1":"1035 37th Avenue North","name":"Rachel Jaschke","zip":"56303","geo_score":0.957,"type":"Mother","family":"Jaschke","id":"a6saxonlq8ii","geo_precision":"zip","state":"MN"},"type":"Feature","geometry":{"type":"Point","coordinates":[-94.223023,45.627994]}},{"properties":{"city":"St Cloud","address1":"1035 37th Avenue North","name":"Jeff Jaschke","zip":"56303","geo_score":0.957,"type":"Father","family":"Jaschke","id":"a6saxofg3ljy","geo_precision":"zip","state":"MN"},"type":"Feature","geometry":{"type":"Point","coordinates":[-94.223023,45.627994]}},{"properties":{"city":"Clear Lake","address1":"11022 42nd St","name":"Julie Johns","zip":"55319","geo_score":1.0,"type":"Guardian","family":"Gustafson","id":"a6saxoniqmu1","geo_precision":"zip","state":"MN"},"type":"Feature","geometry":{"type":"Point","coordinates":[-93.952504,45.466197]}},{"properties":{"city":"sauk rapids","address1":"1401 2nd ave n #204","name":"Aaron Johnson","zip":"56379","geo_score":0.857,"type":"Other","family":"maki","id":"a6saxoqxopol","geo_precision":"zip","state":"MN"},"type":"Feature","geometry":{"type":"Point","coordinates":[-94.024429,45.661911]}},{"properties":{"city":"Sartell","address1":"820 West Meadow Court","name":"Beth Johnston","zip":"56377-2270","geo_score":1.0,"type":"Mother","family":"Johnston","id":"a6saxoec0f1b","geo_precision":"zip","state":"MN"},"type":"Feature","geometry":{"type":"Point","coordinates":[-94.355049,45.573808]}},{"properties":{"city":"Sartell","address1":"820 West Meadow Court","name":"Beth Johnston","zip":"56377-2270","geo_score":1.0,"type":"Father","family":"Johnston","id":"a6saxoexbi13","geo_precision":"zip","state":"MN"},"type":"Feature","geometry":{"type":"Point","coordinates":[-94.355049,45.573808]}},{"properties":{"city":"St Cloud","address1":"1120 10th St SE","name":"Jennifer Kampa","zip":"56304","geo_score":0.957,"type":"Step Mother","family":"Kampa","id":"a6saxorpuird","geo_precision":"zip","state":"MN"},"type":"Feature","geometry":{"type":"Point","coordinates":[-94.440969,45.544864]}},{"properties":{"city":"St Cloud","address1":"1120 10th St SE","name":"Carolyn Kampa","zip":"56304","geo_score":0.957,"type":"Grandparent","family":"Kampa","id":"a6saxodcul3x","geo_precision":"zip","state":"MN"},"type":"Feature","geometry":{"type":"Point","coordinates":[-94.440969,45.544864]}},{"properties":{"city":"Sauk Rapids","address1":"6711 5th Ave NE","name":"Katie Katterhagen","zip":"56379","geo_score":0.857,"type":"Mother","family":"Katterhagen","id":"a6saxopgfod2","geo_precision":"zip","state":"MN"},"type":"Feature","geometry":{"type":"Point","coordinates":[-94.024429,45.661911]}},{"properties":{"city":"Sauk Rapids","address1":"6711 5th Ave NE","name":"Luke Katterhagen","zip":"56379","geo_score":0.857,"type":"Father","family":"Katterhagen","id":"a6saxoibmg51","geo_precision":"zip","state":"MN"},"type":"Feature","geometry":{"type":"Point","coordinates":[-94.024429,45.661911]}},{"properties":{"city":"Rice","address1":"904 7th St. NE","name":"Sarah Kedrowski","zip":"56367","geo_score":1.0,"type":"Mother","family":"Kedrowski-Dien","id":"a6saxosblkil","geo_precision":"zip","state":"MN"},"type":"Feature","geometry":{"type":"Point","coordinates":[-94.124878,45.745866]}},{"properties":{"city":"Sauk Rapids","address1":"432 9th Ave N","name":"Rachael Koep","zip":"56379","geo_score":0.857,"type":"Mother","family":"Koep","id":"a6saxoevs64j","geo_precision":"zip","state":"MN"},"type":"Feature","geometry":{"type":"Point","coordinates":[-94.024429,45.661911]}},{"properties":{"city":"Sauk Rapids","address1":"432 9th Ave N","name":"Jed Koep","zip":"56379","geo_score":0.857,"type":"Father","family":"Koep","id":"a6saxoi157mg","geo_precision":"zip","state":"MN"},"type":"Feature","geometry":{"type":"Point","coordinates":[-94.024429,45.661911]}},{"properties":{"city":"Big Lake","address1":"5240 Pondview Ln","name":"Justin Larson","zip":"55309","geo_score":0.878,"type":"Father","family":"Larson","id":"a6saxojjq632","geo_precision":"zip","state":"MN"},"type":"Feature","geometry":{"type":"Point","coordinates":[-93.736359,45.443855]}},{"properties":{"city":"Big Lake","address1":"5240 Pondview Ln","name":"Brenda Larson","zip":"55309","geo_score":0.878,"type":"Mother","family":"Larson","id":"a6saxokqjl96","geo_precision":"zip","state":"MN"},"type":"Feature","geometry":{"type":"Point","coordinates":[-93.736359,45.443855]}},{"properties":{"city":"St Cloud","address1":"1026 Sunset ridge rd","name":"Michael Lee","zip":"56303","geo_score":0.957,"type":"Father","family":"Jansen-Lee","id":"a6saxofy2bsg","geo_precision":"zip","state":"MN"},"type":"Feature","geometry":{"type":"Point","coordinates":[-94.223023,45.627994]}},{"properties":{"city":"Sauk Rapids","address1":"1679 20th Ave NE","name":"Priscilla Lessard","zip":"56379","geo_score":0.857,"type":"Mother","family":"Lessard","id":"a6saxoi4fnup","geo_precision":"zip","state":"MN"},"type":"Feature","geometry":{"type":"Point","coordinates":[-94.024429,45.661911]}},{"properties":{"city":"Sauk Rapids","address1":"1679 20th Ave NE","name":"Greg Lessard","zip":"56379","geo_score":0.857,"type":"Father","family":"Lessard","id":"a6saxodef2sf","geo_precision":"zip","state":"MN"},"type":"Feature","geometry":{"type":"Point","coordinates":[-94.024429,45.661911]}},{"properties":{"city":"Sauk Rapids","address1":"314 7th St S","name":"Brittany Lindberg","zip":"56379","geo_score":0.857,"type":"Mother","family":"Lindberg","id":"a6saxor5vnhj","geo_precision":"zip","state":"MN"},"type":"Feature","geometry":{"type":"Point","coordinates":[-94.024429,45.661911]}},{"properties":{"city":"Sauk Rapids","address1":"314 7th St S","name":"Randy Lindberg","zip":"56379","geo_score":0.857,"type":"Father","family":"Lindberg","id":"a6saxomigqn7","geo_precision":"zip","state":"MN"},"type":"Feature","geometry":{"type":"Point","coordinates":[-94.024429,45.661911]}},{"properties":{"city":"Sauk Rapids","address1":"612 7th Ave N","name":"Sue Linn-Hasbrouck","zip":"56379","geo_score":0.857,"type":"Mother","family":"Hasbrouck","id":"a6saxoj9bypj","geo_precision":"zip","state":"MN"},"type":"Feature","geometry":{"type":"Point","coordinates":[-94.024429,45.661911]}},{"properties":{"city":"Sauk Rapids","address1":"1225 3rd Ave S","name":"Karen Loehrer","zip":"56379","geo_score":0.857,"type":"Grandparent","family":"Loehrer","id":"a6saxoip441t","geo_precision":"zip","state":"MN"},"type":"Feature","geometry":{"type":"Point","coordinates":[-94.024429,45.661911]}},{"properties":{"city":"Oak Park","address1":"17192 125th St NE","name":"Jody Majerus","zip":"56357","geo_score":0.886,"type":"Mother","family":"Majerus","id":"a6saxot7no0w","geo_precision":"zip","state":"MN"},"type":"Feature","geometry":{"type":"Point","coordinates":[-93.737191,45.648856]}},{"properties":{"city":"Oak Park","address1":"17192 125th St NE","name":"Mike Majerus","zip":"56357","geo_score":0.886,"type":"Father","family":"Majerus","id":"a6saxoezvosh","geo_precision":"zip","state":"MN"},"type":"Feature","geometry":{"type":"Point","coordinates":[-93.737191,45.648856]}},{"properties":{"city":"sauk rapids","address1":"1401 2nd ave n #204","name":"Amy Maki","zip":"56379","geo_score":0.857,"type":"Mother","family":"maki","id":"a6saxoshy9k6","geo_precision":"zip","state":"MN"},"type":"Feature","geometry":{"type":"Point","coordinates":[-94.024429,45.661911]}},{"properties":{"city":"Rice","address1":"7975 North East River Road","name":"Jennifer Martinson","zip":"56367","geo_score":1.0,"type":"Mother","family":"Martinson","id":"a6saxotdv1yw","geo_precision":"zip","state":"MN"},"type":"Feature","geometry":{"type":"Point","coordinates":[-94.124878,45.745866]}},{"properties":{"city":"Sartell","address1":"601 13th St N","name":"Patrick Marushin","zip":"56377","geo_score":1.0,"type":"Father","family":"Marushin","id":"a6saxokbl6lo","geo_precision":"zip","state":"MN"},"type":"Feature","geometry":{"type":"Point","coordinates":[-94.355049,45.573808]}},{"properties":{"city":"Sartell","address1":"601 13th St N","name":"Robin Marushin","zip":"56377","geo_score":1.0,"type":"Mother","family":"Marushin","id":"a6saxoghbkx9","geo_precision":"zip","state":"MN"},"type":"Feature","geometry":{"type":"Point","coordinates":[-94.355049,45.573808]}},{"properties":{"city":"Milaca","address1":"455 2nd Ave NW","name":"Katie Mason","zip":"56353","geo_score":1.0,"type":"Mother","family":"Mason","id":"a6saxoiz6ddj","geo_precision":"zip","state":"MN"},"type":"Feature","geometry":{"type":"Point","coordinates":[-93.620355,45.90321]}},{"properties":{"city":"Milaca","address1":"455 2nd Ave NW","name":"Robert Mason","zip":"56353","geo_score":1.0,"type":"Father","family":"Mason","id":"a6saxoq6636j","geo_precision":"zip","state":"MN"},"type":"Feature","geometry":{"type":"Point","coordinates":[-93.620355,45.90321]}},{"properties":{"city":"Rice","address1":"920 Isaac Rd NW","name":"Rachael Matthies","zip":"56367","geo_score":1.0,"type":"Mother","family":"Matthies","id":"a6saxolbpqeu","geo_precision":"zip","state":"MN"},"type":"Feature","geometry":{"type":"Point","coordinates":[-94.124878,45.745866]}},{"properties":{"city":"Rice","address1":"920 Isaac Rd NW","name":"Jeremy Matthies","zip":"56367","geo_score":1.0,"type":"Father","family":"Matthies","id":"a6saxoisf4sh","geo_precision":"zip","state":"MN"},"type":"Feature","geometry":{"type":"Point","coordinates":[-94.124878,45.745866]}},{"properties":{"city":"Sartell","address1":"528 13th Ave N","name":"Andrea McGrew","zip":"56377","geo_score":1.0,"type":"Mother","family":"McGrew","id":"a6saxoecvtyw","geo_precision":"zip","state":"MN"},"type":"Feature","geometry":{"type":"Point","coordinates":[-94.355049,45.573808]}},{"properties":{"city":"Sartell","address1":"528 13th Ave N","name":"Chris McGrew","zip":"56377","geo_score":1.0,"type":"Father","family":"McGrew","id":"a6saxoqtjanr","geo_precision":"zip","state":"MN"},"type":"Feature","geometry":{"type":"Point","coordinates":[-94.355049,45.573808]}},{"properties":{"city":"Sartell","address1":"340 Pheasant Drive","name":"Erica Mohs","zip":"56377","geo_score":1.0,"type":"Mother","family":"Mohs","id":"a6saxop3swdc","geo_precision":"zip","state":"MN"},"type":"Feature","geometry":{"type":"Point","coordinates":[-94.355049,45.573808]}},{"properties":{"city":"Sartell","address1":"340 Pheasant Drive","name":"Shannon Mohs","zip":"56377","geo_score":1.0,"type":"Father","family":"Mohs","id":"a6saxokqlika","geo_precision":"zip","state":"MN"},"type":"Feature","geometry":{"type":"Point","coordinates":[-94.355049,45.573808]}},{"properties":{"city":"Sauk Rapids","address1":"3 Skyview Drive","name":"Karla Montag","zip":"56379","geo_score":0.857,"type":"Mother","family":"Montag","id":"a6saxofczt2q","geo_precision":"zip","state":"MN"},"type":"Feature","geometry":{"type":"Point","coordinates":[-94.024429,45.661911]}},{"properties":{"city":"Sauk Rapids","address1":"3 Skyview Drive","name":"Brian Montag","zip":"56379","geo_score":0.857,"type":"Father","family":"Montag","id":"a6saxoos8akv","geo_precision":"zip","state":"MN"},"type":"Feature","geometry":{"type":"Point","coordinates":[-94.024429,45.661911]}},{"properties":{"city":"Saint Cloud","address1":"128 26th Ave North","name":"Tanya Mortenson","zip":"56303","geo_score":1.0,"type":"Mother","family":"Mortenson","id":"a6saxomls6ks","geo_precision":"zip","state":"MN"},"type":"Feature","geometry":{"type":"Point","coordinates":[-94.223023,45.627994]}},{"properties":{"city":"Sauk Rapids","address1":"1135 24th Ave NE","name":"Anastasia Nathe","zip":"56379","geo_score":0.857,"type":"Mother","family":"Nathe","id":"a6saxota800m","geo_precision":"zip","state":"MN"},"type":"Feature","geometry":{"type":"Point","coordinates":[-94.024429,45.661911]}},{"properties":{"city":"Sauk Rapids","address1":"1135 24th Ave NE","name":"Tony Nathe","zip":"56379","geo_score":0.857,"type":"Father","family":"Nathe","id":"a6saxoszuz3f","geo_precision":"zip","state":"MN"},"type":"Feature","geometry":{"type":"Point","coordinates":[-94.024429,45.661911]}},{"properties":{"city":"St. Cloud","address1":"2225 Viking Dr","name":"Allison O'Bryant","zip":"56301","geo_score":0.893,"type":"Mother","family":"O'Bryant","id":"a6saxolohj47","geo_precision":"zip","state":"MN"},"type":"Feature","geometry":{"type":"Point","coordinates":[-94.154155,45.478576]}},{"properties":{"city":"St. Cloud","address1":"2225 Viking Dr","name":"Daniel O'Bryant","zip":"56301","geo_score":0.893,"type":"Father","family":"O'Bryant","id":"a6saxoq5mvdq","geo_precision":"zip","state":"MN"},"type":"Feature","geometry":{"type":"Point","coordinates":[-94.154155,45.478576]}},{"properties":{"city":"Sauk Rapids","address1":"1829 Eastern Star Loop","name":"Jennifer Ouart","zip":"56379","geo_score":0.857,"type":"Mother","family":"Ouart","id":"a6saxolrdjbu","geo_precision":"zip","state":"MN"},"type":"Feature","geometry":{"type":"Point","coordinates":[-94.024429,45.661911]}},{"properties":{"city":"Sauk Rapids","address1":"1829 Eastern Star Loop","name":"Brad Ouart","zip":"56379","geo_score":0.857,"type":"Father","family":"Ouart","id":"a6saxoe7izhk","geo_precision":"zip","state":"MN"},"type":"Feature","geometry":{"type":"Point","coordinates":[-94.024429,45.661911]}},{"properties":{"city":"St. Cloud","address1":"8 Rivercrest Dr #208","name":"Maria Palacio","zip":"56303","geo_score":0.957,"type":"Mother","family":"Palacio","id":"a6saxofrfdlc","geo_precision":"zip","state":"MN"},"type":"Feature","geometry":{"type":"Point","coordinates":[-94.223023,45.627994]}},{"properties":{"city":"Rice","address1":"1111 6th Ave NW","name":"Sarah Pappenfus","zip":"56367","geo_score":1.0,"type":"Mother","family":"Pappenfus","id":"a6saxooj85ty","geo_precision":"zip","state":"MN"},"type":"Feature","geometry":{"type":"Point","coordinates":[-94.124878,45.745866]}},{"properties":{"city":"Rice","address1":"1111 6th Ave NW","name":"Joseph Pappenfus","zip":"56367","geo_score":1.0,"type":"Father","family":"Pappenfus","id":"a6saxorers8x","geo_precision":"zip","state":"MN"},"type":"Feature","geometry":{"type":"Point","coordinates":[-94.124878,45.745866]}},{"properties":{"city":"Sartell","address1":"309 11th Ave E #311","name":"Rachelle Payonk","zip":"56377","geo_score":1.0,"type":"Mother","family":"Payonk","id":"a6saxomq9sjc","geo_precision":"zip","state":"MN"},"type":"Feature","geometry":{"type":"Point","coordinates":[-94.355049,45.573808]}},{"properties":{"city":"Sauk Rapids","address1":"1277 15th St. NE #301","name":"Corey Peterick","zip":"56379","geo_score":0.857,"type":"Other","family":"Sargeant","id":"a6saxoem66ty","geo_precision":"zip","state":"MN"},"type":"Feature","geometry":{"type":"Point","coordinates":[-94.024429,45.661911]}},{"properties":{"city":"Sartell","address1":"1705 Boulder Drive","name":"Stacy Peterlin","zip":"56377","geo_score":1.0,"type":"Mother","family":"Peterlin","id":"a6saxokk7svj","geo_precision":"zip","state":"MN"},"type":"Feature","geometry":{"type":"Point","coordinates":[-94.355049,45.573808]}},{"properties":{"city":"Sartell","address1":"1705 Boulder Drive","name":"Travis Peterlin","zip":"56377","geo_score":1.0,"type":"Father","family":"Peterlin","id":"a6saxorj01x1","geo_precision":"zip","state":"MN"},"type":"Feature","geometry":{"type":"Point","coordinates":[-94.355049,45.573808]}},{"properties":{"city":"st cloud","address1":"1800 11th ave se","name":"Nichole Pride","zip":"56304","geo_score":0.957,"type":"Mother","family":"Pride","id":"a6saxoereonm","geo_precision":"zip","state":"MN"},"type":"Feature","geometry":{"type":"Point","coordinates":[-94.440969,45.544864]}},{"properties":{"city":"st cloud","address1":"1800 11th ave se","name":"Christopher Pride","zip":"56304","geo_score":0.957,"type":"Father","family":"Pride","id":"a6saxomjpk0j","geo_precision":"zip","state":"MN"},"type":"Feature","geometry":{"type":"Point","coordinates":[-94.440969,45.544864]}},{"properties":{"city":"Clear Lake","address1":"P.O. Box 205","name":"Tracy Radey","zip":"55319","geo_score":1.0,"type":"Mother","family":"Radey","id":"a6saxonfekwr","geo_precision":"zip","state":"MN"},"type":"Feature","geometry":{"type":"Point","coordinates":[-93.952504,45.466197]}},{"properties":{"city":"Sartell","address1":"216 High Drive","name":"Robert Ratka","zip":"56377","geo_score":1.0,"type":"Father","family":"Friedman","id":"a6saxooobey7","geo_precision":"zip","state":"MN"},"type":"Feature","geometry":{"type":"Point","coordinates":[-94.355049,45.573808]}},{"properties":{"city":"Rice","address1":"8815 Lakewood Shores Rd","name":"Jennifer Ratzloff","zip":"56367","geo_score":1.0,"type":"Mother","family":"Ratzloff","id":"a6saxorli7uj","geo_precision":"zip","state":"MN"},"type":"Feature","geometry":{"type":"Point","coordinates":[-94.124878,45.745866]}},{"properties":{"city":"Rice","address1":"8815 Lakewood Shores Rd","name":"Jeff Ratzloff","zip":"56367","geo_score":1.0,"type":"Step Father","family":"Ratzloff","id":"a6saxolrs6qi","geo_precision":"zip","state":"MN"},"type":"Feature","geometry":{"type":"Point","coordinates":[-94.124878,45.745866]}},{"properties":{"city":"St Cloud","address1":"1236 13th Ave N","name":"Cindy Reed","zip":"56303","geo_score":0.957,"type":"Grandparent","family":"Reed","id":"a6saxom8bkte","geo_precision":"zip","state":"MN"},"type":"Feature","geometry":{"type":"Point","coordinates":[-94.223023,45.627994]}},{"properties":{"city":"St Cloud","address1":"1236 13th Ave N","name":"Kristie Reed","zip":"56303","geo_score":0.957,"type":"Mother","family":"Reed","id":"a6saxoel7vjv","geo_precision":"zip","state":"MN"},"type":"Feature","geometry":{"type":"Point","coordinates":[-94.223023,45.627994]}},{"properties":{"city":"rice","address1":"11000 hwy 10nw #68","name":"Edward Rowan","zip":"56367","geo_score":1.0,"type":"Father","family":"Rowan","id":"a6saxonr7wf0","geo_precision":"zip","state":"MN"},"type":"Feature","geometry":{"type":"Point","coordinates":[-94.124878,45.745866]}},{"properties":{"city":"rice","address1":"11000 hwy 10nw #68","name":"Abbie Rowan","zip":"56367","geo_score":1.0,"type":"Mother","family":"Rowan","id":"a6saxoljxror","geo_precision":"zip","state":"MN"},"type":"Feature","geometry":{"type":"Point","coordinates":[-94.124878,45.745866]}},{"properties":{"city":"Sartell","address1":"1535 7th Ave. S #110","name":"Cortney Ryan","zip":"56377","geo_score":1.0,"type":"Mother","family":"Ryan","id":"a6saxol6sczc","geo_precision":"zip","state":"MN"},"type":"Feature","geometry":{"type":"Point","coordinates":[-94.355049,45.573808]}},{"properties":{"city":"Sartell","address1":"1535 7th Ave. S #110","name":"Travis Ryan","zip":"56377","geo_score":1.0,"type":"Father","family":"Ryan","id":"a6saxorhxqmn","geo_precision":"zip","state":"MN"},"type":"Feature","geometry":{"type":"Point","coordinates":[-94.355049,45.573808]}},{"properties":{"city":"Waite Park","address1":"403 Park Meadows Drive","name":"Katie Salzbrunn","zip":"56387","geo_score":1.0,"type":"Mother","family":"Betzler","id":"a6saxosyej5v","geo_precision":"zip","state":"MN"},"type":"Feature","geometry":{"type":"Point","coordinates":[-94.667422,45.510622]}},{"properties":{"city":"Saint Cloud","address1":"5851 Fairway Lane","name":"Chris Sanborn","zip":"56303","geo_score":1.0,"type":"Mother","family":"Sanborn","id":"a6saxoe45omu","geo_precision":"zip","state":"MN"},"type":"Feature","geometry":{"type":"Point","coordinates":[-94.223023,45.627994]}},{"properties":{"city":"Saint Cloud","address1":"5851 Fairway Lane","name":"Mathew Sanborn","zip":"56303","geo_score":1.0,"type":"Father","family":"Sanborn","id":"a6saxodptrfb","geo_precision":"zip","state":"MN"},"type":"Feature","geometry":{"type":"Point","coordinates":[-94.223023,45.627994]}},{"properties":{"city":"Sauk Rapids","address1":"1277 15th St. NE #301","name":"Tanya Sargeant","zip":"56379","geo_score":0.857,"type":"Mother","family":"Sargeant","id":"a6saxooupywf","geo_precision":"zip","state":"MN"},"type":"Feature","geometry":{"type":"Point","coordinates":[-94.024429,45.661911]}},{"properties":{"city":"St Joseph","address1":"31826 Polar Circle","name":"Heidi Schaefer","zip":"56374","geo_score":0.961,"type":"Mother","family":"Schaefer","id":"a6saxojl8scu","geo_precision":"zip","state":"MN"},"type":"Feature","geometry":{"type":"Point","coordinates":[-94.350962,45.614235]}},{"properties":{"city":"St Joseph","address1":"31826 Polar Circle","name":"Daryl Schaefer","zip":"56374","geo_score":0.961,"type":"Father","family":"Schaefer","id":"a6saxoj62h7o","geo_precision":"zip","state":"MN"},"type":"Feature","geometry":{"type":"Point","coordinates":[-94.350962,45.614235]}},{"properties":{"city":"St. Cloud","address1":"1587 Cottonwood Rd","name":"Lacey Schirmers","zip":"56303","geo_score":0.957,"type":"Mother","family":"Schirmers","id":"a6saxot2qzot","geo_precision":"zip","state":"MN"},"type":"Feature","geometry":{"type":"Point","coordinates":[-94.223023,45.627994]}},{"properties":{"city":"St. Cloud","address1":"1587 Cottonwood Rd","name":"James Schirmers","zip":"56303","geo_score":0.957,"type":"Father","family":"Schirmers","id":"a6saxoi4hhb0","geo_precision":"zip","state":"MN"},"type":"Feature","geometry":{"type":"Point","coordinates":[-94.223023,45.627994]}},{"properties":{"city":"Sauk Rapids","address1":"125 Frontier Court","name":"Lorianne Schloe","zip":"56379","geo_score":0.857,"type":"Mother","family":"Schloe","id":"a6saxomzhot5","geo_precision":"zip","state":"MN"},"type":"Feature","geometry":{"type":"Point","coordinates":[-94.024429,45.661911]}},{"properties":{"city":"Sauk Rapids","address1":"125 Frontier Court","name":"Eric Schloe","zip":"56379","geo_score":0.857,"type":"Father","family":"Schloe","id":"a6saxoe08ey8","geo_precision":"zip","state":"MN"},"type":"Feature","geometry":{"type":"Point","coordinates":[-94.024429,45.661911]}},{"properties":{"city":"Sauk Rapids","address1":"201 6th Ave N","name":"Angie Schoenrock","zip":"56379","geo_score":0.857,"type":"Mother","family":"Schoenrock","id":"a6saxof6jhwp","geo_precision":"zip","state":"MN"},"type":"Feature","geometry":{"type":"Point","coordinates":[-94.024429,45.661911]}},{"properties":{"city":"Sauk Rapids","address1":"201 6th Ave N","name":"Randy Schoenrock","zip":"56379","geo_score":0.857,"type":"Father","family":"Schoenrock","id":"a6saxoeftj8w","geo_precision":"zip","state":"MN"},"type":"Feature","geometry":{"type":"Point","coordinates":[-94.024429,45.661911]}},{"properties":{"city":"St Cloud","address1":"5040 15th Ave SE","name":"Andrea Schroeder","zip":"56304","geo_score":0.957,"type":"Mother","family":"Schroeder","id":"a6saxoi79pfh","geo_precision":"zip","state":"MN"},"type":"Feature","geometry":{"type":"Point","coordinates":[-94.440969,45.544864]}},{"properties":{"city":"St Cloud","address1":"5040 15th Ave SE","name":"Scott Schroeder","zip":"56304","geo_score":0.957,"type":"Father","family":"Schroeder","id":"a6saxono6of2","geo_precision":"zip","state":"MN"},"type":"Feature","geometry":{"type":"Point","coordinates":[-94.440969,45.544864]}},{"properties":{"city":"Sartell","address1":"714 Northstar Drive","name":"Sara Shosted","zip":"56377","geo_score":1.0,"type":"Mother","family":"Shosted","id":"a6saxoli8b0w","geo_precision":"zip","state":"MN"},"type":"Feature","geometry":{"type":"Point","coordinates":[-94.355049,45.573808]}},{"properties":{"city":"Sartell","address1":"714 Northstar Drive","name":"Scott Shosted","zip":"56377","geo_score":1.0,"type":"Father","family":"Shosted","id":"a6saxogvhxy6","geo_precision":"zip","state":"MN"},"type":"Feature","geometry":{"type":"Point","coordinates":[-94.355049,45.573808]}},{"properties":{"city":"Rice","address1":"7975 North East River Road","name":"Amanda Smith","zip":"56367","geo_score":1.0,"type":"Other","family":"Martinson","id":"a6saxopie7oi","geo_precision":"zip","state":"MN"},"type":"Feature","geometry":{"type":"Point","coordinates":[-94.124878,45.745866]}},{"properties":{"city":"St. Cloud","address1":"840 Marquette Dr","name":"Mary Smith","zip":"56301","geo_score":0.893,"type":"Mother","family":"Smith-Ahles","id":"a6saxoro4hhk","geo_precision":"zip","state":"MN"},"type":"Feature","geometry":{"type":"Point","coordinates":[-94.154155,45.478576]}},{"properties":{"city":"Saint Cloud","address1":"126 13th Ave South","name":"Brett Soland","zip":"56301","geo_score":0.929,"type":"Father","family":"Gerth - Soland","id":"a6saxoe1a0sb","geo_precision":"zip","state":"MN"},"type":"Feature","geometry":{"type":"Point","coordinates":[-94.154155,45.478576]}},{"properties":{"city":"Sauk Rapids","address1":"1278 7th Ave North","name":"Mary Soroko","zip":"56379","geo_score":0.857,"type":"Mother","family":"Ditlevson","id":"a6saxog5kxmb","geo_precision":"zip","state":"MN"},"type":"Feature","geometry":{"type":"Point","coordinates":[-94.024429,45.661911]}},{"properties":{"city":"Rice","address1":"9928 Sucker Creek Rd.","name":"Mary Ellen Sowada","zip":"56367","geo_score":1.0,"type":"Mother","family":"Sowada","id":"a6saxopp91ah","geo_precision":"zip","state":"MN"},"type":"Feature","geometry":{"type":"Point","coordinates":[-94.124878,45.745866]}},{"properties":{"city":"Rice","address1":"9928 Sucker Creek Rd.","name":"Keith Sowada","zip":"56367","geo_score":1.0,"type":"Father","family":"Sowada","id":"a6saxoos7d95","geo_precision":"zip","state":"MN"},"type":"Feature","geometry":{"type":"Point","coordinates":[-94.124878,45.745866]}},{"properties":{"city":"Rice","address1":"604 SW 3RD ST","name":"Alicia Strandberg","zip":"56367","geo_score":1.0,"type":"Mother","family":"Strandberg","id":"a6saxohretsj","geo_precision":"zip","state":"MN"},"type":"Feature","geometry":{"type":"Point","coordinates":[-94.124878,45.745866]}},{"properties":{"city":"Rice","address1":"604 SW 3RD ST","name":"Brian Strandberg","zip":"56367","geo_score":1.0,"type":"Father","family":"Strandberg","id":"a6saxodq4mr3","geo_precision":"zip","state":"MN"},"type":"Feature","geometry":{"type":"Point","coordinates":[-94.124878,45.745866]}},{"properties":{"city":"Sauk Rapids","address1":"112 5th Ave S","name":"Mindy Sulier","zip":"56379","geo_score":0.857,"type":"Mother","family":"Sulier","id":"a6saxol580qq","geo_precision":"zip","state":"MN"},"type":"Feature","geometry":{"type":"Point","coordinates":[-94.024429,45.661911]}},{"properties":{"city":"Sauk Rapids","address1":"112 5th Ave S","name":"Sergio Sulier","zip":"56379","geo_score":0.857,"type":"Father","family":"Sulier","id":"a6saxoqrkvwe","geo_precision":"zip","state":"MN"},"type":"Feature","geometry":{"type":"Point","coordinates":[-94.024429,45.661911]}},{"properties":{"city":"Kimball","address1":"240 Chatter Circle","name":"Joann Teska","zip":"55353","geo_score":1.0,"type":"Mother","family":"Teska","id":"a6saxogocv8y","geo_precision":"zip","state":"MN"},"type":"Feature","geometry":{"type":"Point","coordinates":[-94.309928,45.36261]}},{"properties":{"city":"Kimball","address1":"240 Chatter Circle","name":"Jody Teska","zip":"55353","geo_score":1.0,"type":"Father","family":"Teska","id":"a6saxop88q8v","geo_precision":"zip","state":"MN"},"type":"Feature","geometry":{"type":"Point","coordinates":[-94.309928,45.36261]}},{"properties":{"city":"st.cloud","address1":"1304 11th. ave. s.","name":"Corinne Thibodeau","zip":"56301","geo_score":0.893,"type":"Mother","family":"Thibodeau","id":"a6saxodh98tb","geo_precision":"zip","state":"MN"},"type":"Feature","geometry":{"type":"Point","coordinates":[-94.154155,45.478576]}},{"properties":{"city":"St. Cloud","address1":"1634 16th St. SE Apt #4","name":"Mike Thibodeau","zip":"56304","geo_score":0.957,"type":"Father","family":"Thibodeau","id":"a6saxoqq7x01","geo_precision":"zip","state":"MN"},"type":"Feature","geometry":{"type":"Point","coordinates":[-94.440969,45.544864]}},{"properties":{"city":"Sauk Rapids","address1":"842 5th Ave N","name":"Marie Thompson","zip":"56379","geo_score":0.857,"type":"Mother","family":"Thompson","id":"a6saxofv3mvf","geo_precision":"zip","state":"MN"},"type":"Feature","geometry":{"type":"Point","coordinates":[-94.024429,45.661911]}},{"properties":{"city":"Sauk Rapids","address1":"842 5th Ave N","name":"Matthew Thompson","zip":"56379","geo_score":0.857,"type":"Father","family":"Thompson","id":"a6saxoofnfwp","geo_precision":"zip","state":"MN"},"type":"Feature","geometry":{"type":"Point","coordinates":[-94.024429,45.661911]}},{"properties":{"city":"Foley","address1":"9123 Hwy 23 NE","name":"Amy Traut","zip":"56329","geo_score":0.918,"type":"Mother","family":"Traut","id":"a6saxooq63as","geo_precision":"zip","state":"MN"},"type":"Feature","geometry":{"type":"Point","coordinates":[-93.864698,45.681356]}},{"properties":{"city":"Foley","address1":"9123 Hwy 23 NE","name":"Jim Traut","zip":"56329","geo_score":0.918,"type":"Father","family":"Traut","id":"a6saxofjx51q","geo_precision":"zip","state":"MN"},"type":"Feature","geometry":{"type":"Point","coordinates":[-93.864698,45.681356]}},{"properties":{"city":"Sauk Rapids","address1":"1760 Peach Drive NE","name":"Kristina Tykwinski","zip":"56379","geo_score":0.857,"type":"Mother","family":"Tykwinski","id":"a6saxofqmhr4","geo_precision":"zip","state":"MN"},"type":"Feature","geometry":{"type":"Point","coordinates":[-94.024429,45.661911]}},{"properties":{"city":"Sauk Rapids","address1":"1760 Peach Drive NE","name":"Derek Tykwinski","zip":"56379","geo_score":0.857,"type":"Father","family":"Tykwinski","id":"a6saxolt9g3t","geo_precision":"zip","state":"MN"},"type":"Feature","geometry":{"type":"Point","coordinates":[-94.024429,45.661911]}},{"properties":{"city":"Foley","address1":"475 Morgan Drive","name":"Sarah Vinge","zip":"56329","geo_score":0.918,"type":"Mother","family":"Vinge","id":"a6saxomzsppz","geo_precision":"zip","state":"MN"},"type":"Feature","geometry":{"type":"Point","coordinates":[-93.864698,45.681356]}},{"properties":{"city":"Foley","address1":"475 Morgan Drive","name":"Erik Vinge","zip":"56329","geo_score":0.918,"type":"Father","family":"Vinge","id":"a6saxomkc5lt","geo_precision":"zip","state":"MN"},"type":"Feature","geometry":{"type":"Point","coordinates":[-93.864698,45.681356]}},{"properties":{"city":"St. Cloud","address1":"2169 Mill Pond Drive","name":"Mark Virtue","zip":"56303","geo_score":0.957,"type":"Father","family":"Virtue","id":"a6saxok9dzw1","geo_precision":"zip","state":"MN"},"type":"Feature","geometry":{"type":"Point","coordinates":[-94.223023,45.627994]}},{"properties":{"city":"St. Cloud","address1":"2169 Mill Pond Drive","name":"Paige Virtue","zip":"56303","geo_score":0.957,"type":"Mother","family":"Virtue","id":"a6saxon2gku7","geo_precision":"zip","state":"MN"},"type":"Feature","geometry":{"type":"Point","coordinates":[-94.223023,45.627994]}},{"properties":{"city":"Sauk Rapids","address1":"4593 Mallard Court NW","name":"Andrea Vogel","zip":"56379","geo_score":0.857,"type":"Mother","family":"Vogel","id":"a6saxor7qz6f","geo_precision":"zip","state":"MN"},"type":"Feature","geometry":{"type":"Point","coordinates":[-94.024429,45.661911]}},{"properties":{"city":"Sauk Rapids","address1":"4593 Mallard Court NW","name":"Randy Vogel","zip":"56379","geo_score":0.857,"type":"Father","family":"Vogel","id":"a6saxoqajvzf","geo_precision":"zip","state":"MN"},"type":"Feature","geometry":{"type":"Point","coordinates":[-94.024429,45.661911]}},{"properties":{"city":"Sauk Rapids","address1":"2524 Ocarina Dr","name":"Erin Voth","zip":"56379","geo_score":0.857,"type":"Mother","family":"Voth","id":"a6saxon67ctp","geo_precision":"zip","state":"MN"},"type":"Feature","geometry":{"type":"Point","coordinates":[-94.024429,45.661911]}},{"properties":{"city":"Sauk Rapids","address1":"2524 Ocarina Dr","name":"Chris Voth","zip":"56379","geo_score":0.857,"type":"Father","family":"Voth","id":"a6saxoip89zq","geo_precision":"zip","state":"MN"},"type":"Feature","geometry":{"type":"Point","coordinates":[-94.024429,45.661911]}},{"properties":{"city":"Rice","address1":"10388 Rose Anna Beach Road","name":"Dawn Walz","zip":"56367","geo_score":1.0,"type":"Mother","family":"Walz","id":"a6saxogvpq7y","geo_precision":"zip","state":"MN"},"type":"Feature","geometry":{"type":"Point","coordinates":[-94.124878,45.745866]}},{"properties":{"city":"Rice","address1":"10388 Rose Anna Beach Road","name":"Chad Walz","zip":"56367","geo_score":1.0,"type":"Father","family":"Walz","id":"a6saxompfpae","geo_precision":"zip","state":"MN"},"type":"Feature","geometry":{"type":"Point","coordinates":[-94.124878,45.745866]}},{"properties":{"city":"Rice","address1":"39991 Garden Crt","name":"Jessica Ward","zip":"56367","geo_score":1.0,"type":"Mother","family":"Ward","id":"a6saxohhxyfj","geo_precision":"zip","state":"MN"},"type":"Feature","geometry":{"type":"Point","coordinates":[-94.124878,45.745866]}},{"properties":{"city":"Rice","address1":"39991 Garden Crt","name":"Ken Ward","zip":"56367","geo_score":1.0,"type":"Father","family":"Ward","id":"a6saxomcwbtw","geo_precision":"zip","state":"MN"},"type":"Feature","geometry":{"type":"Point","coordinates":[-94.124878,45.745866]}},{"properties":{"city":"St. Joseph","address1":"1002 East Baker St. #24","name":"Kristy Waverek","zip":"56374","geo_score":0.961,"type":"Mother","family":"Waverek","id":"a6saxogkojy0","geo_precision":"zip","state":"MN"},"type":"Feature","geometry":{"type":"Point","coordinates":[-94.350962,45.614235]}},{"properties":{"city":"Sartell","address1":"2292 Utah Road","name":"Jennifer Whitehead","zip":"56377","geo_score":1.0,"type":"Mother","family":"Whitehead","id":"a6saxoov6woq","geo_precision":"zip","state":"MN"},"type":"Feature","geometry":{"type":"Point","coordinates":[-94.355049,45.573808]}},{"properties":{"city":"Sartell","address1":"2292 Utah Road","name":"Derek Whitehead","zip":"56377","geo_score":1.0,"type":"Father","family":"Whitehead","id":"a6saxokzbqja","geo_precision":"zip","state":"MN"},"type":"Feature","geometry":{"type":"Point","coordinates":[-94.355049,45.573808]}},{"properties":{"city":"Saint Cloud","address1":"1314 6th Street North","name":"Tina Winkelman","zip":"56303","geo_score":1.0,"type":"Mother","family":"Winkelman","id":"a6saxolnucg3","geo_precision":"zip","state":"MN"},"type":"Feature","geometry":{"type":"Point","coordinates":[-94.223023,45.627994]}},{"properties":{"city":"St. Cloud","address1":"129 - 27th Ave. N","name":"Joseph Wiser","zip":"56303","geo_score":0.957,"type":"Father","family":"Wiser","id":"a6saxodl8xdp","geo_precision":"zip","state":"MN"},"type":"Feature","geometry":{"type":"Point","coordinates":[-94.223023,45.627994]}},{"properties":{"city":"clear lake","address1":"8155 hunter lake dr","name":"Amber Zlotnik","zip":"55319","geo_score":1.0,"type":"Mother","family":"Zlotnik","id":"a6saxos5m2f3","geo_precision":"zip","state":"MN"},"type":"Feature","geometry":{"type":"Point","coordinates":[-93.952504,45.466197]}},{"properties":{"city":"clear lake","address1":"8155 hunter lake dr","name":"Scott Zlotnik","zip":"55319","geo_score":1.0,"type":"Father","family":"Zlotnik","id":"a6saxoel6vx9","geo_precision":"zip","state":"MN"},"type":"Feature","geometry":{"type":"Point","coordinates":[-93.952504,45.466197]}},{"properties":{"city":"Sartell","address1":"401 Dukes Court","name":"Jeanna Zunker","zip":"56377","geo_score":1.0,"type":"Mother","family":"Zunker","id":"a6saxokvu16e","geo_precision":"zip","state":"MN"},"type":"Feature","geometry":{"type":"Point","coordinates":[-94.355049,45.573808]}},{"properties":{"city":"Sartell","address1":"401 Dukes Court","name":"Mike Zunker","zip":"56377","geo_score":1.0,"type":"Father","family":"Zunker","id":"a6saxoex7bur","geo_precision":"zip","state":"MN"},"type":"Feature","geometry":{"type":"Point","coordinates":[-94.355049,45.573808]}}],"is_temporal":false,"author":{"url":"","metadata":null,"contact_name":null,"contact_address":null,"source":null,"contact_phone":null},"source":"","pagination":{"sort":null,"start":0,"total":214,"limit":1000000},"state":"complete","tags":"","published":"2014-08-12T21:17:11-04:00","id":180232}