{"type":"FeatureCollection","data_type":"Dataset","url_type":null,"permissions":[{"permissions":{"download":true,"view":true},"group_id":"everyone"}],"classification":null,"title":"Bakery","count":67,"stream_id":181382,"contributor":{"url":"http://geocommons.com/users/36493","name":"jasantos"},"data_attributes":null,"calculation_params":null,"icon_link":null,"link":"http://geocommons.com/overlays/181382.json","extent":[-149.9,26.7753,-70.4534,61.2181],"geometry_types":["point"],"unique_name":null,"name":"Bakery","feature_count":67,"description":"","next_feature":null,"is_raster":false,"short_classification":"Y","stats":{"latitude":{"max":61.2180556,"mean":38.8743536716418,"variance":27.3813698387109,"stdev":5.23272107404082,"min":26.7753405,"median":39.2014404},"longitude":{"max":-70.4533844,"mean":-94.2481384179104,"variance":266.321494575761,"stdev":16.3193595026202,"min":-149.9002778,"median":-90.0489801}},"features":[{"properties":{"city":"Fort Worth","company":"Bimbo Bakeries","latitude":32.725409,"competitor":null,"fiber":"x","industry":"Bakery","feedstock":null,"protein":null,"country":"United States","corn procesing":null,"desc":null,"grits":null,"germ":null,"longitude":-97.3208496,"capacity":null,"id":"a65x37wcield","hq":null,"state":"TX"},"type":"Feature","geometry":{"type":"Point","coordinates":[-97.3208496,32.725409]}},{"properties":{"city":"Lubbock","company":"Bimbo Bakeries","latitude":33.5778631,"competitor":null,"fiber":"x","industry":"Bakery","feedstock":null,"protein":null,"country":"United States","corn procesing":null,"desc":null,"grits":null,"germ":null,"longitude":-101.8551665,"capacity":null,"id":"a65x37tdy4qa","hq":null,"state":"TX"},"type":"Feature","geometry":{"type":"Point","coordinates":[-101.8551665,33.5778631]}},{"properties":{"city":"Meridian","company":"Bimbo Bakeries","latitude":32.3643098,"competitor":null,"fiber":"x","industry":"Bakery","feedstock":null,"protein":null,"country":"United States","corn procesing":null,"desc":null,"grits":null,"germ":null,"longitude":-88.703656,"capacity":null,"id":"a65x37onhovv","hq":null,"state":"MS"},"type":"Feature","geometry":{"type":"Point","coordinates":[-88.703656,32.3643098]}},{"properties":{"city":"Frederick","company":"Bimbo Bakeries","latitude":39.4142688,"competitor":null,"fiber":"x","industry":"Bakery","feedstock":null,"protein":null,"country":"United States","corn procesing":null,"desc":null,"grits":null,"germ":null,"longitude":-77.4105409,"capacity":null,"id":"a65x37ojbv6p","hq":null,"state":"MD"},"type":"Feature","geometry":{"type":"Point","coordinates":[-77.4105409,39.4142688]}},{"properties":{"city":"San Francisco","company":"Bimbo Bakeries","latitude":37.7749295,"competitor":null,"fiber":"x","industry":"Bakery","feedstock":null,"protein":null,"country":"United States","corn procesing":null,"desc":null,"grits":null,"germ":null,"longitude":-122.4194155,"capacity":null,"id":"a65x37k4u48w","hq":null,"state":"CA"},"type":"Feature","geometry":{"type":"Point","coordinates":[-122.4194155,37.7749295]}},{"properties":{"city":"Stockton","company":"Bimbo Bakeries","latitude":37.9577016,"competitor":null,"fiber":"x","industry":"Bakery","feedstock":null,"protein":null,"country":"United States","corn procesing":null,"desc":null,"grits":null,"germ":null,"longitude":-121.2907796,"capacity":null,"id":"a65x37k97f1u","hq":null,"state":"CA"},"type":"Feature","geometry":{"type":"Point","coordinates":[-121.2907796,37.9577016]}},{"properties":{"city":"Fergus Falls","company":"Bimbo Bakeries","latitude":46.2830556,"competitor":null,"fiber":"x","industry":"Bakery","feedstock":null,"protein":null,"country":"United States","corn procesing":null,"desc":null,"grits":null,"germ":null,"longitude":-96.0775,"capacity":null,"id":"a65x37r7788h","hq":null,"state":"MN"},"type":"Feature","geometry":{"type":"Point","coordinates":[-96.0775,46.2830556]}},{"properties":{"city":"Williamsport","company":"Bimbo Bakeries","latitude":41.2411897,"competitor":null,"fiber":"x","industry":"Bakery","feedstock":null,"protein":null,"country":"United States","corn procesing":null,"desc":null,"grits":null,"germ":null,"longitude":-77.0010786,"capacity":null,"id":"a65x3809psnl","hq":null,"state":"PA"},"type":"Feature","geometry":{"type":"Point","coordinates":[-77.0010786,41.2411897]}},{"properties":{"city":"Kent","company":"Bimbo Bakeries","latitude":47.3809335,"competitor":null,"fiber":"x","industry":"Bakery","feedstock":null,"protein":null,"country":"United States","corn procesing":null,"desc":null,"grits":null,"germ":null,"longitude":-122.2348431,"capacity":null,"id":"a65x37rt1ew4","hq":null,"state":"WA"},"type":"Feature","geometry":{"type":"Point","coordinates":[-122.2348431,47.3809335]}},{"properties":{"city":"Oakland","company":"Bimbo Bakeries","latitude":37.8043637,"competitor":null,"fiber":"x","industry":"Bakery","feedstock":null,"protein":null,"country":"United States","corn procesing":null,"desc":null,"grits":null,"germ":null,"longitude":-122.2711137,"capacity":null,"id":"a65x37sr9cyi","hq":null,"state":"CA"},"type":"Feature","geometry":{"type":"Point","coordinates":[-122.2711137,37.8043637]}},{"properties":{"city":"Dothan","company":"Bimbo Bakeries","latitude":31.2232313,"competitor":null,"fiber":"x","industry":"Bakery","feedstock":null,"protein":null,"country":"United States","corn procesing":null,"desc":null,"grits":null,"germ":null,"longitude":-85.3904888,"capacity":null,"id":"a65x37mnhgl7","hq":null,"state":"AL"},"type":"Feature","geometry":{"type":"Point","coordinates":[-85.3904888,31.2232313]}},{"properties":{"city":"Arlington","company":"Bimbo Bakeries","latitude":32.735687,"competitor":null,"fiber":"x","industry":"Bakery","feedstock":null,"protein":null,"country":"United States","corn procesing":null,"desc":null,"grits":null,"germ":null,"longitude":-97.1080656,"capacity":null,"id":"a65x37yy3siv","hq":null,"state":"TX"},"type":"Feature","geometry":{"type":"Point","coordinates":[-97.1080656,32.735687]}},{"properties":{"city":"Northumberland","company":"Bimbo Bakeries","latitude":40.8917519,"competitor":null,"fiber":"x","industry":"Bakery","feedstock":null,"protein":null,"country":"United States","corn procesing":null,"desc":null,"grits":null,"germ":null,"longitude":-76.7974653,"capacity":null,"id":"a65x37ybca7t","hq":null,"state":"PA"},"type":"Feature","geometry":{"type":"Point","coordinates":[-76.7974653,40.8917519]}},{"properties":{"city":"Grand Rapids","company":"Bimbo Bakeries","latitude":42.9633599,"competitor":null,"fiber":"x","industry":"Bakery","feedstock":null,"protein":null,"country":"United States","corn procesing":null,"desc":null,"grits":null,"germ":null,"longitude":-85.6680863,"capacity":null,"id":"a65x37uudh6o","hq":null,"state":"MI"},"type":"Feature","geometry":{"type":"Point","coordinates":[-85.6680863,42.9633599]}},{"properties":{"city":"Auburn","company":"Bimbo Bakeries","latitude":42.9317335,"competitor":null,"fiber":"x","industry":"Bakery","feedstock":null,"protein":null,"country":"United States","corn procesing":null,"desc":null,"grits":null,"germ":null,"longitude":-76.5660529,"capacity":null,"id":"a65x37u78uvs","hq":null,"state":"NY"},"type":"Feature","geometry":{"type":"Point","coordinates":[-76.5660529,42.9317335]}},{"properties":{"city":"Sioux City","company":"Bimbo Bakeries","latitude":42.445678,"competitor":null,"fiber":"x","industry":"Bakery","feedstock":null,"protein":null,"country":"United States","corn procesing":null,"desc":null,"grits":null,"germ":null,"longitude":-96.4929797,"capacity":null,"id":"a65x37m3c5zi","hq":null,"state":"NE"},"type":"Feature","geometry":{"type":"Point","coordinates":[-96.4929797,42.445678]}},{"properties":{"city":"Albuquerque","company":"Bimbo Bakeries","latitude":35.0844909,"competitor":null,"fiber":"x","industry":"Bakery","feedstock":null,"protein":null,"country":"United States","corn procesing":null,"desc":null,"grits":null,"germ":null,"longitude":-106.6511367,"capacity":null,"id":"a65x37o4hrxa","hq":null,"state":"NM"},"type":"Feature","geometry":{"type":"Point","coordinates":[-106.6511367,35.0844909]}},{"properties":{"city":"Dubuque","company":"Bimbo Bakeries","latitude":42.5005583,"competitor":null,"fiber":"x","industry":"Bakery","feedstock":null,"protein":null,"country":"United States","corn procesing":null,"desc":null,"grits":null,"germ":null,"longitude":-90.6645718,"capacity":null,"id":"a65x37xbl9hl","hq":null,"state":"IA"},"type":"Feature","geometry":{"type":"Point","coordinates":[-90.6645718,42.5005583]}},{"properties":{"city":"Oklahoma City","company":"Bimbo Bakeries","latitude":35.4675602,"competitor":null,"fiber":"x","industry":"Bakery","feedstock":null,"protein":null,"country":"United States","corn procesing":null,"desc":null,"grits":null,"germ":null,"longitude":-97.5164276,"capacity":null,"id":"a65x37rdkzf4","hq":null,"state":"OK"},"type":"Feature","geometry":{"type":"Point","coordinates":[-97.5164276,35.4675602]}},{"properties":{"city":"Sioux City","company":"Bimbo Bakeries","latitude":42.4999942,"competitor":null,"fiber":"x","industry":"Bakery","feedstock":null,"protein":null,"country":"United States","corn procesing":null,"desc":null,"grits":null,"germ":null,"longitude":-96.4003069,"capacity":null,"id":"a65x37o9v1ut","hq":null,"state":"IA"},"type":"Feature","geometry":{"type":"Point","coordinates":[-96.4003069,42.4999942]}},{"properties":{"city":"Owensboro","company":"Bimbo Bakeries","latitude":37.7719074,"competitor":null,"fiber":"x","industry":"Bakery","feedstock":null,"protein":null,"country":"United States","corn procesing":null,"desc":null,"grits":null,"germ":null,"longitude":-87.1111676,"capacity":null,"id":"a65x37qiku8p","hq":null,"state":"KY"},"type":"Feature","geometry":{"type":"Point","coordinates":[-87.1111676,37.7719074]}},{"properties":{"city":"Bellevue","company":"Bimbo Bakeries","latitude":41.1586111,"competitor":null,"fiber":"x","industry":"Bakery","feedstock":null,"protein":null,"country":"United States","corn procesing":null,"desc":null,"grits":null,"germ":null,"longitude":-95.9341667,"capacity":null,"id":"a65x37xnvbql","hq":null,"state":"NE"},"type":"Feature","geometry":{"type":"Point","coordinates":[-95.9341667,41.1586111]}},{"properties":{"city":"Orangeburg","company":"Bimbo Bakeries","latitude":33.4918203,"competitor":null,"fiber":"x","industry":"Bakery","feedstock":null,"protein":null,"country":"United States","corn procesing":null,"desc":null,"grits":null,"germ":null,"longitude":-80.8556476,"capacity":null,"id":"a65x37xxy4xi","hq":null,"state":"SC"},"type":"Feature","geometry":{"type":"Point","coordinates":[-80.8556476,33.4918203]}},{"properties":{"city":"Madison","company":"Bimbo Bakeries","latitude":43.0730517,"competitor":null,"fiber":"x","industry":"Bakery","feedstock":null,"protein":null,"country":"United States","corn procesing":null,"desc":null,"grits":null,"germ":null,"longitude":-89.4012302,"capacity":null,"id":"a65x37uqe0y6","hq":null,"state":"WI"},"type":"Feature","geometry":{"type":"Point","coordinates":[-89.4012302,43.0730517]}},{"properties":{"city":"Elkhart","company":"Bimbo Bakeries","latitude":41.6819935,"competitor":null,"fiber":"x","industry":"Bakery","feedstock":null,"protein":null,"country":"United States","corn procesing":null,"desc":null,"grits":null,"germ":null,"longitude":-85.9766671,"capacity":null,"id":"a65x37vmk0gy","hq":null,"state":"IN"},"type":"Feature","geometry":{"type":"Point","coordinates":[-85.9766671,41.6819935]}},{"properties":{"city":"Riviera Beach","company":"Bimbo Bakeries","latitude":26.7753405,"competitor":null,"fiber":"x","industry":"Bakery","feedstock":null,"protein":null,"country":"United States","corn procesing":null,"desc":null,"grits":null,"germ":null,"longitude":-80.0580969,"capacity":null,"id":"a65x37zn5q6i","hq":null,"state":"FL"},"type":"Feature","geometry":{"type":"Point","coordinates":[-80.0580969,26.7753405]}},{"properties":{"city":"Reading","company":"Bimbo Bakeries","latitude":40.3356483,"competitor":null,"fiber":"x","industry":"Bakery","feedstock":null,"protein":null,"country":"United States","corn procesing":null,"desc":null,"grits":null,"germ":null,"longitude":-75.9268747,"capacity":null,"id":"a65x37pp6uz7","hq":null,"state":"PA"},"type":"Feature","geometry":{"type":"Point","coordinates":[-75.9268747,40.3356483]}},{"properties":{"city":"Bay Shore","company":"Bimbo Bakeries","latitude":40.7250986,"competitor":null,"fiber":"x","industry":"Bakery","feedstock":null,"protein":null,"country":"United States","corn procesing":null,"desc":null,"grits":null,"germ":null,"longitude":-73.2453946,"capacity":null,"id":"a65x37uszgwf","hq":null,"state":"NY"},"type":"Feature","geometry":{"type":"Point","coordinates":[-73.2453946,40.7250986]}},{"properties":{"city":"Greenwich","company":"Bimbo Bakeries","latitude":41.0388889,"competitor":null,"fiber":"x","industry":"Bakery","feedstock":null,"protein":null,"country":"United States","corn procesing":null,"desc":null,"grits":null,"germ":null,"longitude":-73.6136111,"capacity":null,"id":"a65x37rukd08","hq":null,"state":"CT"},"type":"Feature","geometry":{"type":"Point","coordinates":[-73.6136111,41.0388889]}},{"properties":{"city":"Newark","company":"Full Bloom Baking Co.","latitude":37.5296593,"competitor":null,"fiber":"x","industry":"Bakery","feedstock":null,"protein":null,"country":"United States","corn procesing":null,"desc":null,"grits":null,"germ":null,"longitude":-122.0402399,"capacity":null,"id":"a65x37zrn6s8","hq":"x","state":"CA"},"type":"Feature","geometry":{"type":"Point","coordinates":[-122.0402399,37.5296593]}},{"properties":{"city":"Irving","company":"Hostess Brands","latitude":32.8140177,"competitor":null,"fiber":"x","industry":"Bakery","feedstock":null,"protein":null,"country":"United States","corn procesing":null,"desc":"Hostess, Wonder, Nature's Pride, Merita","grits":null,"germ":null,"longitude":-96.9488945,"capacity":null,"id":"a65x37n8b1rq","hq":"x","state":"TX"},"type":"Feature","geometry":{"type":"Point","coordinates":[-96.9488945,32.8140177]}},{"properties":{"city":"Birmingham","company":"Hostess Brands","latitude":33.5206608,"competitor":null,"fiber":"x","industry":"Bakery","feedstock":null,"protein":null,"country":"United States","corn procesing":null,"desc":"Hostess, Wonder, Nature's Pride, Merita","grits":null,"germ":null,"longitude":-86.80249,"capacity":null,"id":"a65x37tx2wx7","hq":null,"state":"AL"},"type":"Feature","geometry":{"type":"Point","coordinates":[-86.80249,33.5206608]}},{"properties":{"city":"Anchorage","company":"Hostess Brands","latitude":61.2180556,"competitor":null,"fiber":"x","industry":"Bakery","feedstock":null,"protein":null,"country":"United States","corn procesing":null,"desc":"Hostess, Wonder, Nature's Pride, Merita","grits":null,"germ":null,"longitude":-149.9002778,"capacity":null,"id":"a65x37wiwmws","hq":null,"state":"AK"},"type":"Feature","geometry":{"type":"Point","coordinates":[-149.9002778,61.2180556]}},{"properties":{"city":"Los Angeles","company":"Hostess Brands","latitude":34.0522342,"competitor":null,"fiber":"x","industry":"Bakery","feedstock":null,"protein":null,"country":"United States","corn procesing":null,"desc":"Hostess, Wonder, Nature's Pride, Merita","grits":null,"germ":null,"longitude":-118.2436849,"capacity":null,"id":"a65x37lj0g6i","hq":null,"state":"CA"},"type":"Feature","geometry":{"type":"Point","coordinates":[-118.2436849,34.0522342]}},{"properties":{"city":"Oakland","company":"Hostess Brands","latitude":37.8043637,"competitor":null,"fiber":"x","industry":"Bakery","feedstock":null,"protein":null,"country":"United States","corn procesing":null,"desc":"Hostess, Wonder, Nature's Pride, Merita","grits":null,"germ":null,"longitude":-122.2711137,"capacity":null,"id":"a65x37npocze","hq":null,"state":"CA"},"type":"Feature","geometry":{"type":"Point","coordinates":[-122.2711137,37.8043637]}},{"properties":{"city":"Sacramento","company":"Hostess Brands","latitude":38.5815719,"competitor":null,"fiber":"x","industry":"Bakery","feedstock":null,"protein":null,"country":"United States","corn procesing":null,"desc":"Hostess, Wonder, Nature's Pride, Merita","grits":null,"germ":null,"longitude":-121.4943996,"capacity":null,"id":"a65x37uhzj17","hq":null,"state":"CA"},"type":"Feature","geometry":{"type":"Point","coordinates":[-121.4943996,38.5815719]}},{"properties":{"city":"Denver","company":"Hostess Brands","latitude":39.7391536,"competitor":null,"fiber":"x","industry":"Bakery","feedstock":null,"protein":null,"country":"United States","corn procesing":null,"desc":"Hostess, Wonder, Nature's Pride, Merita","grits":null,"germ":null,"longitude":-104.9847034,"capacity":null,"id":"a65x37osoz7g","hq":null,"state":"CO"},"type":"Feature","geometry":{"type":"Point","coordinates":[-104.9847034,39.7391536]}},{"properties":{"city":"Jacksonville","company":"Hostess Brands","latitude":30.3321838,"competitor":null,"fiber":"x","industry":"Bakery","feedstock":null,"protein":null,"country":"United States","corn procesing":null,"desc":"Hostess, Wonder, Nature's Pride, Merita","grits":null,"germ":null,"longitude":-81.655651,"capacity":null,"id":"a65x37rmriup","hq":null,"state":"FL"},"type":"Feature","geometry":{"type":"Point","coordinates":[-81.655651,30.3321838]}},{"properties":{"city":"Orlando","company":"Hostess Brands","latitude":28.5383355,"competitor":null,"fiber":"x","industry":"Bakery","feedstock":null,"protein":null,"country":"United States","corn procesing":null,"desc":"Hostess, Wonder, Nature's Pride, Merita","grits":null,"germ":null,"longitude":-81.3792365,"capacity":null,"id":"a65x37y3fhi0","hq":null,"state":"FL"},"type":"Feature","geometry":{"type":"Point","coordinates":[-81.3792365,28.5383355]}},{"properties":{"city":"Columbus","company":"Hostess Brands","latitude":32.4609764,"competitor":null,"fiber":"x","industry":"Bakery","feedstock":null,"protein":null,"country":"United States","corn procesing":null,"desc":"Hostess, Wonder, Nature's Pride, Merita","grits":null,"germ":null,"longitude":-84.9877094,"capacity":null,"id":"a65x37w83vyx","hq":null,"state":"GA"},"type":"Feature","geometry":{"type":"Point","coordinates":[-84.9877094,32.4609764]}},{"properties":{"city":"Hodgkins","company":"Hostess Brands","latitude":41.7689207,"competitor":null,"fiber":"x","industry":"Bakery","feedstock":null,"protein":null,"country":"United States","corn procesing":null,"desc":"Hostess, Wonder, Nature's Pride, Merita","grits":null,"germ":null,"longitude":-87.857835,"capacity":null,"id":"a65x37ryq19p","hq":null,"state":"IL"},"type":"Feature","geometry":{"type":"Point","coordinates":[-87.857835,41.7689207]}},{"properties":{"city":"Peoria","company":"Hostess Brands","latitude":40.6936488,"competitor":null,"fiber":"x","industry":"Bakery","feedstock":null,"protein":null,"country":"United States","corn procesing":null,"desc":"Hostess, Wonder, Nature's Pride, Merita","grits":null,"germ":null,"longitude":-89.5889864,"capacity":null,"id":"a65x37xku16d","hq":null,"state":"IL"},"type":"Feature","geometry":{"type":"Point","coordinates":[-89.5889864,40.6936488]}},{"properties":{"city":"Schiller Park","company":"Hostess Brands","latitude":41.9558637,"competitor":null,"fiber":"x","industry":"Bakery","feedstock":null,"protein":null,"country":"United States","corn procesing":null,"desc":"Hostess, Wonder, Nature's Pride, Merita","grits":null,"germ":null,"longitude":-87.8708965,"capacity":null,"id":"a65x37m9z30m","hq":null,"state":"IL"},"type":"Feature","geometry":{"type":"Point","coordinates":[-87.8708965,41.9558637]}},{"properties":{"city":"Columbus","company":"Hostess Brands","latitude":39.2014404,"competitor":null,"fiber":"x","industry":"Bakery","feedstock":null,"protein":null,"country":"United States","corn procesing":null,"desc":"Hostess, Wonder, Nature's Pride, Merita","grits":null,"germ":null,"longitude":-85.9213796,"capacity":null,"id":"a65x37nkjfii","hq":null,"state":"IN"},"type":"Feature","geometry":{"type":"Point","coordinates":[-85.9213796,39.2014404]}},{"properties":{"city":"Indianapolis","company":"Hostess Brands","latitude":39.7685155,"competitor":null,"fiber":"x","industry":"Bakery","feedstock":null,"protein":null,"country":"United States","corn procesing":null,"desc":"Hostess, Wonder, Nature's Pride, Merita","grits":null,"germ":null,"longitude":-86.1580736,"capacity":null,"id":"a65x37rksd8o","hq":null,"state":"IN"},"type":"Feature","geometry":{"type":"Point","coordinates":[-86.1580736,39.7685155]}},{"properties":{"city":"Waterloo","company":"Hostess Brands","latitude":42.4927641,"competitor":null,"fiber":"x","industry":"Bakery","feedstock":null,"protein":null,"country":"United States","corn procesing":null,"desc":"Hostess, Wonder, Nature's Pride, Merita","grits":null,"germ":null,"longitude":-92.3429631,"capacity":null,"id":"a65x37rdzro8","hq":null,"state":"IA"},"type":"Feature","geometry":{"type":"Point","coordinates":[-92.3429631,42.4927641]}},{"properties":{"city":"Emporia","company":"Hostess Brands","latitude":38.403903,"competitor":null,"fiber":"x","industry":"Bakery","feedstock":null,"protein":null,"country":"United States","corn procesing":null,"desc":"Hostess, Wonder, Nature's Pride, Merita","grits":null,"germ":null,"longitude":-96.1816626,"capacity":null,"id":"a65x37xk33cv","hq":null,"state":"KS"},"type":"Feature","geometry":{"type":"Point","coordinates":[-96.1816626,38.403903]}},{"properties":{"city":"Lenexa","company":"Hostess Brands","latitude":38.9536174,"competitor":null,"fiber":"x","industry":"Bakery","feedstock":null,"protein":null,"country":"United States","corn procesing":null,"desc":"Hostess, Wonder, Nature's Pride, Merita","grits":null,"germ":null,"longitude":-94.7335709,"capacity":null,"id":"a65x37n1ehl9","hq":null,"state":"KA"},"type":"Feature","geometry":{"type":"Point","coordinates":[-94.7335709,38.9536174]}},{"properties":{"city":"Alexandria","company":"Hostess Brands","latitude":31.3112936,"competitor":null,"fiber":"x","industry":"Bakery","feedstock":null,"protein":null,"country":"United States","corn procesing":null,"desc":"Hostess, Wonder, Nature's Pride, Merita","grits":null,"germ":null,"longitude":-92.4451371,"capacity":null,"id":"a65x37vafcwd","hq":null,"state":"LA"},"type":"Feature","geometry":{"type":"Point","coordinates":[-92.4451371,31.3112936]}},{"properties":{"city":"Biddeford","company":"Hostess Brands","latitude":43.4925843,"competitor":null,"fiber":"x","industry":"Bakery","feedstock":null,"protein":null,"country":"United States","corn procesing":null,"desc":"Hostess, Wonder, Nature's Pride, Merita","grits":null,"germ":null,"longitude":-70.4533844,"capacity":null,"id":"a65x37o763ef","hq":null,"state":"ME"},"type":"Feature","geometry":{"type":"Point","coordinates":[-70.4533844,43.4925843]}},{"properties":{"city":"Boonville","company":"Hostess Brands","latitude":38.9736392,"competitor":null,"fiber":"x","industry":"Bakery","feedstock":null,"protein":null,"country":"United States","corn procesing":null,"desc":"Hostess, Wonder, Nature's Pride, Merita","grits":null,"germ":null,"longitude":-92.7432418,"capacity":null,"id":"a65x37w646uv","hq":null,"state":"MO"},"type":"Feature","geometry":{"type":"Point","coordinates":[-92.7432418,38.9736392]}},{"properties":{"city":"St. Louis","company":"Hostess Brands","latitude":38.6270025,"competitor":null,"fiber":"x","industry":"Bakery","feedstock":null,"protein":null,"country":"United States","corn procesing":null,"desc":"Hostess, Wonder, Nature's Pride, Merita","grits":null,"germ":null,"longitude":-90.1994042,"capacity":null,"id":"a65x37rvhrw0","hq":null,"state":"MO"},"type":"Feature","geometry":{"type":"Point","coordinates":[-90.1994042,38.6270025]}},{"properties":{"city":"Billings","company":"Hostess Brands","latitude":45.7832856,"competitor":null,"fiber":"x","industry":"Bakery","feedstock":null,"protein":null,"country":"United States","corn procesing":null,"desc":"Hostess, Wonder, Nature's Pride, Merita","grits":null,"germ":null,"longitude":-108.5006904,"capacity":null,"id":"a65x37n2nqs0","hq":null,"state":"MT"},"type":"Feature","geometry":{"type":"Point","coordinates":[-108.5006904,45.7832856]}},{"properties":{"city":"Henderson","company":"Hostess Brands","latitude":36.0395247,"competitor":null,"fiber":"x","industry":"Bakery","feedstock":null,"protein":null,"country":"United States","corn procesing":null,"desc":"Hostess, Wonder, Nature's Pride, Merita","grits":null,"germ":null,"longitude":-114.9817213,"capacity":null,"id":"a65x37txvlqk","hq":null,"state":"NV"},"type":"Feature","geometry":{"type":"Point","coordinates":[-114.9817213,36.0395247]}},{"properties":{"city":"Wayne","company":"Hostess Brands","latitude":40.9253763,"competitor":null,"fiber":"x","industry":"Bakery","feedstock":null,"protein":null,"country":"United States","corn procesing":null,"desc":"Hostess, Wonder, Nature's Pride, Merita","grits":null,"germ":null,"longitude":-74.2765368,"capacity":null,"id":"a65x37yxmj3a","hq":null,"state":"NJ"},"type":"Feature","geometry":{"type":"Point","coordinates":[-74.2765368,40.9253763]}},{"properties":{"city":"Rocky Mount","company":"Hostess Brands","latitude":35.9382103,"competitor":null,"fiber":"x","industry":"Bakery","feedstock":null,"protein":null,"country":"United States","corn procesing":null,"desc":"Hostess, Wonder, Nature's Pride, Merita","grits":null,"germ":null,"longitude":-77.7905339,"capacity":null,"id":"a65x37n2l611","hq":null,"state":"NC"},"type":"Feature","geometry":{"type":"Point","coordinates":[-77.7905339,35.9382103]}},{"properties":{"city":"Cincinnati","company":"Hostess Brands","latitude":39.1031182,"competitor":null,"fiber":"x","industry":"Bakery","feedstock":null,"protein":null,"country":"United States","corn procesing":null,"desc":"Hostess, Wonder, Nature's Pride, Merita","grits":null,"germ":null,"longitude":-84.5120196,"capacity":null,"id":"a65x37mtt12a","hq":null,"state":"OH"},"type":"Feature","geometry":{"type":"Point","coordinates":[-84.5120196,39.1031182]}},{"properties":{"city":"Defiance","company":"Hostess Brands","latitude":41.2844933,"competitor":null,"fiber":"x","industry":"Bakery","feedstock":null,"protein":null,"country":"United States","corn procesing":null,"desc":"Hostess, Wonder, Nature's Pride, Merita","grits":null,"germ":null,"longitude":-84.3557802,"capacity":null,"id":"a65x37tl63u8","hq":null,"state":"OH"},"type":"Feature","geometry":{"type":"Point","coordinates":[-84.3557802,41.2844933]}},{"properties":{"city":"Northwood","company":"Hostess Brands","latitude":41.607272,"competitor":null,"fiber":"x","industry":"Bakery","feedstock":null,"protein":null,"country":"United States","corn procesing":null,"desc":"Hostess, Wonder, Nature's Pride, Merita","grits":null,"germ":null,"longitude":-83.4688204,"capacity":null,"id":"a65x37ojukvr","hq":null,"state":"OH"},"type":"Feature","geometry":{"type":"Point","coordinates":[-83.4688204,41.607272]}},{"properties":{"city":"Tulsa","company":"Hostess Brands","latitude":36.1539816,"competitor":null,"fiber":"x","industry":"Bakery","feedstock":null,"protein":null,"country":"United States","corn procesing":null,"desc":"Hostess, Wonder, Nature's Pride, Merita","grits":null,"germ":null,"longitude":-95.992775,"capacity":null,"id":"a65x37z3nlpk","hq":null,"state":"OK"},"type":"Feature","geometry":{"type":"Point","coordinates":[-95.992775,36.1539816]}},{"properties":{"city":"Philadelphia","company":"Hostess Brands","latitude":39.952335,"competitor":null,"fiber":"x","industry":"Bakery","feedstock":null,"protein":null,"country":"United States","corn procesing":null,"desc":"Hostess, Wonder, Nature's Pride, Merita","grits":null,"germ":null,"longitude":-75.163789,"capacity":null,"id":"a65x37o6kaoo","hq":null,"state":"PA"},"type":"Feature","geometry":{"type":"Point","coordinates":[-75.163789,39.952335]}},{"properties":{"city":"Knoxville","company":"Hostess Brands","latitude":35.9606384,"competitor":null,"fiber":"x","industry":"Bakery","feedstock":null,"protein":null,"country":"United States","corn procesing":null,"desc":"Hostess, Wonder, Nature's Pride, Merita","grits":null,"germ":null,"longitude":-83.9207392,"capacity":null,"id":"a65x37x9cfjy","hq":null,"state":"TN"},"type":"Feature","geometry":{"type":"Point","coordinates":[-83.9207392,35.9606384]}},{"properties":{"city":"Memphis","company":"Hostess Brands","latitude":35.1495343,"competitor":null,"fiber":"x","industry":"Bakery","feedstock":null,"protein":null,"country":"United States","corn procesing":null,"desc":"Hostess, Wonder, Nature's Pride, Merita","grits":null,"germ":null,"longitude":-90.0489801,"capacity":null,"id":"a65x37rf2ii4","hq":null,"state":"TN"},"type":"Feature","geometry":{"type":"Point","coordinates":[-90.0489801,35.1495343]}},{"properties":{"city":"Ogden","company":"Hostess Brands","latitude":41.223,"competitor":null,"fiber":"x","industry":"Bakery","feedstock":null,"protein":null,"country":"United States","corn procesing":null,"desc":"Hostess, Wonder, Nature's Pride, Merita","grits":null,"germ":null,"longitude":-111.9738304,"capacity":null,"id":"a65x37tzqlcs","hq":null,"state":"UT"},"type":"Feature","geometry":{"type":"Point","coordinates":[-111.9738304,41.223]}},{"properties":{"city":"Salt Lake City","company":"Hostess Brands","latitude":40.7607793,"competitor":null,"fiber":"x","industry":"Bakery","feedstock":null,"protein":null,"country":"United States","corn procesing":null,"desc":"Hostess, Wonder, Nature's Pride, Merita","grits":null,"germ":null,"longitude":-111.8910474,"capacity":null,"id":"a65x37lb6vdk","hq":null,"state":"UT"},"type":"Feature","geometry":{"type":"Point","coordinates":[-111.8910474,40.7607793]}},{"properties":{"city":"Seattle","company":"Hostess Brands","latitude":47.6062095,"competitor":null,"fiber":"x","industry":"Bakery","feedstock":null,"protein":null,"country":"United States","corn procesing":null,"desc":"Hostess, Wonder, Nature's Pride, Merita","grits":null,"germ":null,"longitude":-122.3320708,"capacity":null,"id":"a65x37l9scl7","hq":null,"state":"WA"},"type":"Feature","geometry":{"type":"Point","coordinates":[-122.3320708,47.6062095]}},{"properties":{"city":"Guelph","company":"Bimbo Bakeries","latitude":43.539102,"competitor":null,"fiber":"x","industry":"Bakery","feedstock":null,"protein":null,"country":"United States","corn procesing":null,"desc":null,"grits":null,"germ":null,"longitude":-80.247622,"capacity":null,"id":"a65x37mwg969","hq":null,"state":"ON"},"type":"Feature","geometry":{"type":"Point","coordinates":[-80.247622,43.539102]}}],"is_temporal":false,"author":{"url":"","metadata":"","contact_name":"","contact_address":"","source":"","contact_phone":""},"source":"","pagination":{"sort":null,"start":0,"total":67,"limit":1000000},"state":"complete","tags":"","published":"2014-08-12T23:18:01-04:00","id":181382}