{"type":"FeatureCollection","data_type":"Dataset","url_type":null,"permissions":[{"permissions":{"download":true,"view":true},"group_id":"everyone"}],"classification":null,"title":"RMC Members Per 1000 Population","count":76,"stream_id":18184,"contributor":{"url":"http://geocommons.com/users/9725","name":"pastor_jeff"},"data_attributes":null,"calculation_params":null,"icon_link":null,"link":"http://geocommons.com/overlays/18184.json","extent":[-113.144,37.2023,-74.9182,44.3773],"geometry_types":["point"],"unique_name":null,"name":"RMC Members Per 1000 Population","feature_count":76,"description":"","next_feature":null,"is_raster":false,"short_classification":"Y","stats":{"geo_score":{"max":0.857,"mean":0.800466666666666,"variance":0.0293650900900901,"stdev":0.171362452392845,"min":0.0,"median":0.857},"attend":{"max":4218.0,"mean":406.96,"variance":513181.552432432,"stdev":716.36691187717,"min":0.0,"median":128.0},"pop 07":{"max":965148.0,"mean":87448.7567567568,"variance":29874611923.0907,"stdev":172842.737548011,"min":1409.0,"median":18999.0},"mbr per 1k":{"max":107.0,"mean":22.8337837837838,"variance":520.669116993706,"stdev":22.8181751460038,"min":0.9,"median":14.9},"membs":{"max":8188.0,"mean":901.626666666667,"variance":2465903.50738739,"stdev":1570.31955581894,"min":21.0,"median":265.0},"# churches":{"max":261.0,"mean":7.02631578947368,"variance":890.399298245614,"stdev":29.8395592837028,"min":1.0,"median":2.0}},"features":[{"properties":{"city":"Price","geo_score":0.857,"country":"USA","mbr per 1k":4.5,"pop 07":18999.0,"attend":36.0,"countyno":"49007","membs":85.0,"# churches":1.0,"ctyname":"Carbon County","id":"a62vgpsevgw5","geo_precision":"city","state":"UT"},"type":"Feature","geometry":{"type":"Point","coordinates":[-110.650901,39.567883]}},{"properties":{"city":"BC Aldersgate","geo_score":0.0,"country":"USA","mbr per 1k":1.7,"pop 07":46384.0,"attend":89.0,"countyno":"49003","membs":78.0,"# churches":1.0,"ctyname":"Box Elder County","id":"a62vgpphkh3u","geo_precision":"unmatched","state":"UT"},"type":"Feature","geometry":null},{"properties":{"city":"Douglas","geo_score":0.857,"country":"USA","mbr per 1k":14.9,"pop 07":13027.0,"attend":110.0,"countyno":"56009","membs":194.0,"# churches":1.0,"ctyname":"Converse County","id":"a62vgpt6yhc9","geo_precision":"city","state":"WY"},"type":"Feature","geometry":{"type":"Point","coordinates":[-105.389691,42.894084]}},{"properties":{"city":"Pagosa Springs","geo_score":0.857,"country":"USA","mbr per 1k":13.5,"pop 07":12257.0,"attend":160.0,"countyno":"08007","membs":165.0,"# churches":1.0,"ctyname":"Archuleta County","id":"a62vgpv9z18h","geo_precision":"city","state":"CO"},"type":"Feature","geometry":{"type":"Point","coordinates":[-107.12619,37.202251]}},{"properties":{"city":"Kanab","geo_score":0.857,"country":"USA","mbr per 1k":8.0,"pop 07":6223.0,"attend":27.0,"countyno":"49025","membs":50.0,"# churches":1.0,"ctyname":"Kane County","id":"a62vgpz69ot2","geo_precision":"city","state":"UT"},"type":"Feature","geometry":{"type":"Point","coordinates":[-111.687187,37.265251]}},{"properties":{"city":"Woodland Park","geo_score":0.857,"country":"USA","mbr per 1k":22.7,"pop 07":22318.0,"attend":232.0,"countyno":"08119","membs":507.0,"# churches":1.0,"ctyname":"Teller County","id":"a62vgpz8crg9","geo_precision":"city","state":"CO"},"type":"Feature","geometry":{"type":"Point","coordinates":[-105.166398,38.918437]}},{"properties":{"city":"Trinidad","geo_score":0.857,"country":"USA","mbr per 1k":7.1,"pop 07":15828.0,"attend":41.0,"countyno":"08071","membs":112.0,"# churches":1.0,"ctyname":"Las Animas County","id":"a62vgpykqk7d","geo_precision":"city","state":"CO"},"type":"Feature","geometry":{"type":"Point","coordinates":[-104.5038,37.269059]}},{"properties":{"city":"Salida","geo_score":0.857,"country":"USA","mbr per 1k":10.6,"pop 07":17010.0,"attend":88.0,"countyno":"08015","membs":180.0,"# churches":1.0,"ctyname":"Chaffee County","id":"a62vgprdj6hu","geo_precision":"city","state":"CO"},"type":"Feature","geometry":{"type":"Point","coordinates":[-106.120582,38.629119]}},{"properties":{"city":"Breckenridge","geo_score":0.857,"country":"USA","mbr per 1k":7.8,"pop 07":26385.0,"attend":207.0,"countyno":"08117","membs":206.0,"# churches":1.0,"ctyname":"Summit County","id":"a62vgpn4zjh9","geo_precision":"city","state":"CO"},"type":"Feature","geometry":{"type":"Point","coordinates":[-106.022472,39.475323]}},{"properties":{"city":"Idaho Springs","geo_score":0.857,"country":"USA","mbr per 1k":9.9,"pop 07":9223.0,"attend":92.0,"countyno":"08019","membs":91.0,"# churches":1.0,"ctyname":"Clear Creek County","id":"a62vgpyi4t7p","geo_precision":"city","state":"CO"},"type":"Feature","geometry":{"type":"Point","coordinates":[-105.541583,39.706574]}},{"properties":{"city":"Park City","geo_score":0.857,"country":"USA","mbr per 1k":11.3,"pop 07":36529.0,"attend":274.0,"countyno":"49043","membs":414.0,"# churches":1.0,"ctyname":"Summit County","id":"a62vgq10ucsy","geo_precision":"city","state":"UT"},"type":"Feature","geometry":{"type":"Point","coordinates":[-111.448892,40.71188]}},{"properties":{"city":"Westcliffe","geo_score":0.857,"country":"USA","mbr per 1k":36.3,"pop 07":3997.0,"attend":88.0,"countyno":"08027","membs":145.0,"# churches":1.0,"ctyname":"Custer County","id":"a62vgq0jf5qp","geo_precision":"city","state":"CO"},"type":"Feature","geometry":{"type":"Point","coordinates":[-105.421953,38.095173]}},{"properties":{"city":"Meeker","geo_score":0.857,"country":"USA","mbr per 1k":18.7,"pop 07":6001.0,"attend":89.0,"countyno":"08103","membs":112.0,"# churches":1.0,"ctyname":"Rio Blanco County","id":"a62vgq2tr30y","geo_precision":"city","state":"CO"},"type":"Feature","geometry":{"type":"Point","coordinates":[-108.043592,39.967864]}},{"properties":{"city":"Sundance","geo_score":0.857,"country":"USA","mbr per 1k":34.4,"pop 07":6330.0,"attend":84.0,"countyno":"56011","membs":218.0,"# churches":1.0,"ctyname":"Crook County","id":"a62vgppspwzd","geo_precision":"city","state":"WY"},"type":"Feature","geometry":{"type":"Point","coordinates":[-104.420625,44.352274]}},{"properties":{"city":"Dove Creek","geo_score":0.857,"country":"USA","mbr per 1k":33.0,"pop 07":1820.0,"attend":21.0,"countyno":"08033","membs":60.0,"# churches":1.0,"ctyname":"Dolores County","id":"a62vgpwgakt4","geo_precision":"city","state":"CO"},"type":"Feature","geometry":{"type":"Point","coordinates":[-108.924334,37.711532]}},{"properties":{"city":"Craig","geo_score":0.857,"country":"USA","mbr per 1k":1.6,"pop 07":13385.0,"attend":19.0,"countyno":"08081","membs":22.0,"# churches":1.0,"ctyname":"Moffat County","id":"a62vgpmoxft1","geo_precision":"city","state":"CO"},"type":"Feature","geometry":{"type":"Point","coordinates":[-108.009784,40.612421]}},{"properties":{"city":"Tooele","geo_score":0.857,"country":"USA","mbr per 1k":1.9,"pop 07":53382.0,"attend":51.0,"countyno":"49045","membs":103.0,"# churches":1.0,"ctyname":"Tooele County","id":"a62vgpv9lofj","geo_precision":"city","state":"UT"},"type":"Feature","geometry":{"type":"Point","coordinates":[-113.144159,40.617392]}},{"properties":{"city":"Deer Park","geo_score":0.464,"country":"USA","mbr per 1k":3.9,"pop 07":17290.0,"attend":41.0,"countyno":"08093","membs":68.0,"# churches":1.0,"ctyname":"Park County","id":"a62vgpy2dnhe","geo_precision":"street","state":"CO"},"type":"Feature","geometry":{"type":"Point","coordinates":[-103.237067,38.065284]}},{"properties":{"city":"Simla","geo_score":0.857,"country":"USA","mbr per 1k":0.9,"pop 07":23364.0,"attend":21.0,"countyno":"08039","membs":21.0,"# churches":1.0,"ctyname":"Elbert County","id":"a62vgpo9rk8i","geo_precision":"city","state":"CO"},"type":"Feature","geometry":{"type":"Point","coordinates":[-104.070186,39.208696]}},{"properties":{"city":"Eureka","geo_score":0.857,"country":"USA","mbr per 1k":3.6,"pop 07":9166.0,"attend":0.0,"countyno":"49023","membs":33.0,"# churches":1.0,"ctyname":"Juab County","id":"a62vgq0rhtqe","geo_precision":"city","state":"UT"},"type":"Feature","geometry":{"type":"Point","coordinates":[-112.174424,39.941737]}},{"properties":{"city":"Torrington","geo_score":0.857,"country":"USA","mbr per 1k":19.0,"pop 07":12203.0,"attend":80.0,"countyno":"56015","membs":232.0,"# churches":1.0,"ctyname":"Goshen County","id":"a62vgpxtykyl","geo_precision":"city","state":"WY"},"type":"Feature","geometry":{"type":"Point","coordinates":[-104.187474,42.072314]}},{"properties":{"city":"Central City","geo_score":0.857,"country":"USA","mbr per 1k":19.2,"pop 07":4956.0,"attend":55.0,"countyno":"08047","membs":95.0,"# churches":1.0,"ctyname":"Gilpin County","id":"a62vgps8kyzh","geo_precision":"city","state":"CO"},"type":"Feature","geometry":{"type":"Point","coordinates":[-105.545631,39.821626]}},{"properties":{"city":"St. George","geo_score":0.459,"country":"USA","mbr per 1k":1.6,"pop 07":129747.0,"attend":187.0,"countyno":"49053","membs":213.0,"# churches":1.0,"ctyname":"Washington County","id":"a62vgpqt3af4","geo_precision":"street","state":"UT"},"type":"Feature","geometry":{"type":"Point","coordinates":[-111.815536,40.576242]}},{"properties":{"city":"Walden","geo_score":0.857,"country":"USA","mbr per 1k":90.0,"pop 07":1456.0,"attend":0.0,"countyno":"08057","membs":131.0,"# churches":1.0,"ctyname":"Jackson County","id":"a62vgq0mqaq0","geo_precision":"city","state":"CO"},"type":"Feature","geometry":{"type":"Point","coordinates":[-106.249045,40.678825]}},{"properties":{"city":"Gillette","geo_score":0.857,"country":"USA","mbr per 1k":9.4,"pop 07":38293.0,"attend":161.0,"countyno":"56005","membs":359.0,"# churches":1.0,"ctyname":"Campbell County","id":"a62vgpyx7rw2","geo_precision":"city","state":"WY"},"type":"Feature","geometry":{"type":"Point","coordinates":[-105.550237,44.377283]}},{"properties":{"city":"Laramie","geo_score":0.857,"country":"USA","mbr per 1k":14.0,"pop 07":30474.0,"attend":191.0,"countyno":"56001","membs":426.0,"# churches":1.0,"ctyname":"Albany County","id":"a62vgpwka0fs","geo_precision":"city","state":"WY"},"type":"Feature","geometry":{"type":"Point","coordinates":[-105.801022,41.43902]}},{"properties":{"city":"Kemmerer","geo_score":0.857,"country":"USA","mbr per 1k":3.6,"pop 07":16476.0,"attend":27.0,"countyno":"56023","membs":59.0,"# churches":1.0,"ctyname":"Lincoln County","id":"a62vgpty4v77","geo_precision":"city","state":"WY"},"type":"Feature","geometry":{"type":"Point","coordinates":[-110.514132,42.368433]}},{"properties":{"city":"Aurora","geo_score":0.857,"country":"USA","mbr per 1k":11.7,"pop 07":539641.0,"attend":2384.0,"countyno":"08005","membs":6320.0,"# churches":10.0,"ctyname":"Arapahoe County","id":"a62vgpwxaj3e","geo_precision":"city","state":"CO"},"type":"Feature","geometry":{"type":"Point","coordinates":[-104.84748,39.715287]}},{"properties":{"city":"Pueblo","geo_score":0.857,"country":"USA","mbr per 1k":10.9,"pop 07":152856.0,"attend":834.0,"countyno":"08101","membs":1665.0,"# churches":10.0,"ctyname":"Pueblo County","id":"a62vgpn3qtcm","geo_precision":"city","state":"CO"},"type":"Feature","geometry":{"type":"Point","coordinates":[-104.427776,38.344117]}},{"properties":{"city":"Arvada","geo_score":0.857,"country":"USA","mbr per 1k":8.7,"pop 07":526697.0,"attend":1864.0,"countyno":"08059","membs":4578.0,"# churches":11.0,"ctyname":"Jefferson County","id":"a62vgpythrqd","geo_precision":"city","state":"CO"},"type":"Feature","geometry":{"type":"Point","coordinates":[-105.223945,39.522014]}},{"properties":{"city":"Boulder","geo_score":0.857,"country":"USA","mbr per 1k":14.3,"pop 07":284197.0,"attend":2176.0,"countyno":"08013","membs":4061.0,"# churches":12.0,"ctyname":"Boulder County","id":"a62vgptt7bur","geo_precision":"city","state":"CO"},"type":"Feature","geometry":{"type":"Point","coordinates":[-105.278083,40.094787]}},{"properties":{"city":null,"geo_score":0.346,"country":null,"mbr per 1k":null,"pop 07":null,"attend":506.0,"countyno":null,"membs":617.0,"# churches":12.0,"ctyname":null,"id":"a62vgq1sm99w","geo_precision":"street","state":"Not on GBGM"},"type":"Feature","geometry":{"type":"Point","coordinates":[-74.918161,40.220742]}},{"properties":{"city":"Greely","geo_score":0.476,"country":"USA","mbr per 1k":10.3,"pop 07":238928.0,"attend":1008.0,"countyno":"08123","membs":2470.0,"# churches":13.0,"ctyname":"Weld County","id":"a62vgpy1qpn6","geo_precision":"street","state":"CO"},"type":"Feature","geometry":{"type":"Point","coordinates":[-103.84938,38.194675]}},{"properties":{"city":"Colorado Springs","geo_score":0.857,"country":"USA","mbr per 1k":14.3,"pop 07":573110.0,"attend":4218.0,"countyno":"08041","membs":8188.0,"# churches":18.0,"ctyname":"El Paso County","id":"a62vgq2c3r2t","geo_precision":"city","state":"CO"},"type":"Feature","geometry":{"type":"Point","coordinates":[-104.857828,38.861469]}},{"properties":{"city":"Rock Springs","geo_score":0.857,"country":"USA","mbr per 1k":5.8,"pop 07":38405.0,"attend":117.0,"countyno":"56037","membs":222.0,"# churches":2.0,"ctyname":"Sweetwater County","id":"a62vgpwpgygy","geo_precision":"city","state":"WY"},"type":"Feature","geometry":{"type":"Point","coordinates":[-109.149045,41.634515]}},{"properties":{"city":"Montrose","geo_score":0.857,"country":"USA","mbr per 1k":14.5,"pop 07":38461.0,"attend":256.0,"countyno":"08085","membs":559.0,"# churches":2.0,"ctyname":"Montrose County","id":"a62vgpqef9t6","geo_precision":"city","state":"CO"},"type":"Feature","geometry":{"type":"Point","coordinates":[-108.050689,38.443069]}},{"properties":{"city":"Ogden","geo_score":0.857,"country":"USA","mbr per 1k":2.4,"pop 07":213343.0,"attend":128.0,"countyno":"49057","membs":505.0,"# churches":2.0,"ctyname":"Weber County","id":"a62vgq05wgp1","geo_precision":"city","state":"UT"},"type":"Feature","geometry":{"type":"Point","coordinates":[-112.007924,41.244261]}},{"properties":{"city":"Walsenburg","geo_score":0.857,"country":"USA","mbr per 1k":17.3,"pop 07":7791.0,"attend":84.0,"countyno":"08055","membs":135.0,"# churches":2.0,"ctyname":"Huerfano County","id":"a62vgpy66c2y","geo_precision":"city","state":"CO"},"type":"Feature","geometry":{"type":"Point","coordinates":[-104.779815,37.646467]}},{"properties":{"city":"Rawlins","geo_score":0.857,"country":"USA","mbr per 1k":16.4,"pop 07":15314.0,"attend":85.0,"countyno":"56007","membs":251.0,"# churches":2.0,"ctyname":"Carbon County","id":"a62vgppih3y9","geo_precision":"city","state":"WY"},"type":"Feature","geometry":{"type":"Point","coordinates":[-106.921959,41.538075]}},{"properties":{"city":"Holyoke/Haxtun","geo_score":0.771,"country":"USA","mbr per 1k":107.0,"pop 07":4617.0,"attend":175.0,"countyno":"08095","membs":494.0,"# churches":2.0,"ctyname":"Phillips County","id":"a62vgptfd3au","geo_precision":"city","state":"CO"},"type":"Feature","geometry":{"type":"Point","coordinates":[-102.523842,40.601383]}},{"properties":{"city":"Aspen","geo_score":0.857,"country":"USA","mbr per 1k":7.1,"pop 07":15576.0,"attend":6.0,"countyno":"08097","membs":110.0,"# churches":2.0,"ctyname":"Pitkin County","id":"a62vgpo6ulbx","geo_precision":"city","state":"CO"},"type":"Feature","geometry":{"type":"Point","coordinates":[-106.776744,39.169324]}},{"properties":{"city":"Eagle","geo_score":0.857,"country":"USA","mbr per 1k":4.3,"pop 07":49670.0,"attend":143.0,"countyno":"08037","membs":215.0,"# churches":2.0,"ctyname":"Eagle County","id":"a62vgpo35er7","geo_precision":"city","state":"CO"},"type":"Feature","geometry":{"type":"Point","coordinates":[-106.805111,39.607401]}},{"properties":{"city":"Wheatland","geo_score":0.857,"country":"USA","mbr per 1k":18.2,"pop 07":8565.0,"attend":74.0,"countyno":"56031","membs":156.0,"# churches":2.0,"ctyname":"Platte County","id":"a62vgpshtr5w","geo_precision":"city","state":"WY"},"type":"Feature","geometry":{"type":"Point","coordinates":[-104.967405,42.013984]}},{"properties":{"city":"Eads/Haswell","geo_score":0.531,"country":"USA","mbr per 1k":74.5,"pop 07":1409.0,"attend":48.0,"countyno":"08061","membs":105.0,"# churches":2.0,"ctyname":"Kiowa County","id":"a62vgpplfhs0","geo_precision":"street","state":"CO"},"type":"Feature","geometry":{"type":"Point","coordinates":[-104.733093,38.327138]}},{"properties":{"city":"Ordway","geo_score":0.857,"country":"USA","mbr per 1k":27.5,"pop 07":5533.0,"attend":78.0,"countyno":"08025","membs":152.0,"# churches":2.0,"ctyname":"Crowley County","id":"a62vgpu4aev5","geo_precision":"city","state":"CO"},"type":"Feature","geometry":{"type":"Point","coordinates":[-103.780036,38.317486]}},{"properties":{"city":"Steamboat Springs","geo_score":0.857,"country":"USA","mbr per 1k":19.2,"pop 07":21934.0,"attend":174.0,"countyno":"08107","membs":421.0,"# churches":2.0,"ctyname":"Routt County","id":"a62vgpxsbzc2","geo_precision":"city","state":"CO"},"type":"Feature","geometry":{"type":"Point","coordinates":[-106.92691,40.348242]}},{"properties":{"city":"Saguache","geo_score":0.857,"country":"USA","mbr per 1k":22.2,"pop 07":7085.0,"attend":60.0,"countyno":"08109","membs":157.0,"# churches":2.0,"ctyname":"Saguache County","id":"a62vgq0sni9s","geo_precision":"city","state":"CO"},"type":"Feature","geometry":{"type":"Point","coordinates":[-106.351826,38.181206]}},{"properties":{"city":"Julesburg","geo_score":0.857,"country":"USA","mbr per 1k":67.2,"pop 07":2514.0,"attend":80.0,"countyno":"08115","membs":169.0,"# churches":2.0,"ctyname":"Sedgwick County","id":"a62vgptv3kxk","geo_precision":"city","state":"CO"},"type":"Feature","geometry":{"type":"Point","coordinates":[-102.351994,40.875606]}},{"properties":{"city":"Kit Carson","geo_score":0.857,"country":"USA","mbr per 1k":56.7,"pop 07":1941.0,"attend":61.0,"countyno":"08017","membs":110.0,"# churches":2.0,"ctyname":"Cheyenne County","id":"a62vgppu8bop","geo_precision":"city","state":"CO"},"type":"Feature","geometry":{"type":"Point","coordinates":[-102.598136,38.827174]}},{"properties":{"city":"Las Animas","geo_score":0.857,"country":"USA","mbr per 1k":42.5,"pop 07":5810.0,"attend":98.0,"countyno":"08011","membs":247.0,"# churches":2.0,"ctyname":"Bent County","id":"a62vgput2vtf","geo_precision":"city","state":"CO"},"type":"Feature","geometry":{"type":"Point","coordinates":[-103.088444,37.923031]}},{"properties":{"city":"Last Chance","geo_score":0.857,"country":"USA","mbr per 1k":41.6,"pop 07":4659.0,"attend":75.0,"countyno":"08121","membs":194.0,"# churches":2.0,"ctyname":"Washington County","id":"a62vgpyytsuw","geo_precision":"city","state":"CO"},"type":"Feature","geometry":{"type":"Point","coordinates":[-103.591614,39.74082]}},{"properties":{"city":"Burlington","geo_score":0.857,"country":"USA","mbr per 1k":36.0,"pop 07":7609.0,"attend":101.0,"countyno":"08063","membs":274.0,"# churches":2.0,"ctyname":"Kit Carson County","id":"a62vgpq8f2cq","geo_precision":"city","state":"CO"},"type":"Feature","geometry":{"type":"Point","coordinates":[-102.461287,39.308966]}},{"properties":{"city":"Newcastle","geo_score":0.857,"country":"USA","mbr per 1k":52.0,"pop 07":6690.0,"attend":105.0,"countyno":"56045","membs":348.0,"# churches":2.0,"ctyname":"Weston County","id":"a62vgpoheor6","geo_precision":"city","state":"WY"},"type":"Feature","geometry":{"type":"Point","coordinates":[-104.567814,43.8397]}},{"properties":{"city":"Alamosa","geo_score":0.857,"country":"USA","mbr per 1k":19.1,"pop 07":15517.0,"attend":123.0,"countyno":"08003","membs":296.0,"# churches":2.0,"ctyname":"Alamosa County","id":"a62vgpv39ahr","geo_precision":"city","state":"CO"},"type":"Feature","geometry":{"type":"Point","coordinates":[-105.790967,37.479933]}},{"properties":{"city":"Durango","geo_score":0.857,"country":"USA","mbr per 1k":12.2,"pop 07":48310.0,"attend":384.0,"countyno":"08067","membs":587.0,"# churches":2.0,"ctyname":"La Plata County","id":"a62vgpt5yq2p","geo_precision":"city","state":"CO"},"type":"Feature","geometry":{"type":"Point","coordinates":[-107.880367,37.318364]}},{"properties":{"city":"Canon City","geo_score":0.857,"country":"USA","mbr per 1k":10.1,"pop 07":47810.0,"attend":288.0,"countyno":"08043","membs":485.0,"# churches":2.0,"ctyname":"Fremont County","id":"a62vgppeusci","geo_precision":"city","state":"CO"},"type":"Feature","geometry":{"type":"Point","coordinates":[-105.507603,38.477727]}},{"properties":{"city":"Denver","geo_score":0.857,"country":"USA","mbr per 1k":11.1,"pop 07":561170.0,"attend":2627.0,"countyno":"08031","membs":6215.0,"# churches":26.0,"ctyname":"Denver County","id":"a62vgq1pq4oz","geo_precision":"city","state":"CO"},"type":"Feature","geometry":{"type":"Point","coordinates":[-104.856808,39.726303]}},{"properties":{"city":null,"country":null,"mbr per 1k":null,"pop 07":null,"attend":null,"countyno":null,"membs":null,"# churches":261.0,"ctyname":null,"id":"a62vgq1wazp1","state":null},"type":"Feature","geometry":null},{"properties":{"city":"Highlands Ranch","geo_score":0.857,"country":"USA","mbr per 1k":10.8,"pop 07":268363.0,"attend":1384.0,"countyno":"08035","membs":2892.0,"# churches":3.0,"ctyname":"Douglas County","id":"a62vgpwzp22o","geo_precision":"city","state":"CO"},"type":"Feature","geometry":{"type":"Point","coordinates":[-104.969426,39.553877]}},{"properties":{"city":"Monte Vista","geo_score":0.833,"country":"USA","mbr per 1k":17.8,"pop 07":12569.0,"attend":91.0,"countyno":"08105","membs":224.0,"# churches":3.0,"ctyname":"Rio Grande County","id":"a62vgpzcbw3n","geo_precision":"city","state":"CO"},"type":"Feature","geometry":{"type":"Point","coordinates":[-106.345624,37.570515]}},{"properties":{"city":"Springfield","geo_score":0.857,"country":"USA","mbr per 1k":66.1,"pop 07":4007.0,"attend":127.0,"countyno":"08009","membs":265.0,"# churches":3.0,"ctyname":"Baca County","id":"a62vgq2nv69x","geo_precision":"city","state":"CO"},"type":"Feature","geometry":{"type":"Point","coordinates":[-102.677359,37.371522]}},{"properties":{"city":"Casper","geo_score":0.857,"country":"USA","mbr per 1k":16.7,"pop 07":70888.0,"attend":332.0,"countyno":"56025","membs":1184.0,"# churches":3.0,"ctyname":"Natrona County","id":"a62vgpygqef4","geo_precision":"city","state":"WY"},"type":"Feature","geometry":{"type":"Point","coordinates":[-106.312561,42.859875]}},{"properties":{"city":"Cortez","geo_score":0.857,"country":"USA","mbr per 1k":21.8,"pop 07":25007.0,"attend":256.0,"countyno":"08083","membs":544.0,"# churches":3.0,"ctyname":"Montezuma County","id":"a62vgpxrjdgi","geo_precision":"city","state":"CO"},"type":"Feature","geometry":{"type":"Point","coordinates":[-108.662826,37.373594]}},{"properties":{"city":"Fort Morgan","geo_score":0.857,"country":"USA","mbr per 1k":24.4,"pop 07":28245.0,"attend":255.0,"countyno":"08087","membs":688.0,"# churches":3.0,"ctyname":"Morgan County","id":"a62vgpvg2msf","geo_precision":"city","state":"CO"},"type":"Feature","geometry":{"type":"Point","coordinates":[-103.847648,40.262591]}},{"properties":{"city":"Rifle","geo_score":0.857,"country":"USA","mbr per 1k":11.4,"pop 07":51425.0,"attend":278.0,"countyno":"08045","membs":584.0,"# churches":4.0,"ctyname":"Garfield County","id":"a62vgpu660jk","geo_precision":"city","state":"CO"},"type":"Feature","geometry":{"type":"Point","coordinates":[-107.794723,39.582273]}},{"properties":{"city":"Limon","geo_score":0.857,"country":"USA","mbr per 1k":79.6,"pop 07":5614.0,"attend":242.0,"countyno":"08073","membs":447.0,"# churches":4.0,"ctyname":"Lincoln County","id":"a62vgpmxv75b","geo_precision":"city","state":"CO"},"type":"Feature","geometry":{"type":"Point","coordinates":[-103.604851,39.041435]}},{"properties":{"city":"Kirk/Wray","geo_score":0.771,"country":"USA","mbr per 1k":77.2,"pop 07":9803.0,"attend":215.0,"countyno":"08125","membs":757.0,"# churches":4.0,"ctyname":"Yuma County","id":"a62vgq1p6ci7","geo_precision":"city","state":"CO"},"type":"Feature","geometry":{"type":"Point","coordinates":[-102.392973,40.068525]}},{"properties":{"city":"Lamar","geo_score":0.857,"country":"USA","mbr per 1k":48.6,"pop 07":13664.0,"attend":220.0,"countyno":"08099","membs":664.0,"# churches":5.0,"ctyname":"Prowers County","id":"a62vgpof4gmq","geo_precision":"city","state":"CO"},"type":"Feature","geometry":{"type":"Point","coordinates":[-102.436416,37.955488]}},{"properties":{"city":"Delta","geo_score":0.857,"country":"USA","mbr per 1k":20.8,"pop 07":30528.0,"attend":307.0,"countyno":"08029","membs":635.0,"# churches":5.0,"ctyname":"Delta County","id":"a62vgpx6odqv","geo_precision":"city","state":"CO"},"type":"Feature","geometry":{"type":"Point","coordinates":[-107.97078,38.785768]}},{"properties":{"city":"Rocky Ford/La Junta","geo_score":0.536,"country":"USA","mbr per 1k":40.2,"pop 07":19198.0,"attend":301.0,"countyno":"08089","membs":771.0,"# churches":6.0,"ctyname":"Otero County","id":"a62vgq0aaror","geo_precision":"street","state":"CO"},"type":"Feature","geometry":{"type":"Point","coordinates":[-103.518342,37.998525]}},{"properties":{"city":"Grand Junction","geo_score":0.857,"country":"USA","mbr per 1k":15.5,"pop 07":133264.0,"attend":963.0,"countyno":"08077","membs":2063.0,"# churches":6.0,"ctyname":"Mesa County","id":"a62vgppmdv9n","geo_precision":"city","state":"CO"},"type":"Feature","geometry":{"type":"Point","coordinates":[-108.583126,39.069019]}},{"properties":{"city":"Fort Collins","geo_score":0.857,"country":"USA","mbr per 1k":13.9,"pop 07":275587.0,"attend":1639.0,"countyno":"08069","membs":3825.0,"# churches":6.0,"ctyname":"Larimer County","id":"a62vgpykoriy","geo_precision":"city","state":"CO"},"type":"Feature","geometry":{"type":"Point","coordinates":[-105.298344,40.59227]}},{"properties":{"city":"Sterling","geo_score":0.857,"country":"USA","mbr per 1k":38.3,"pop 07":21143.0,"attend":297.0,"countyno":"08075","membs":810.0,"# churches":7.0,"ctyname":"Logan County","id":"a62vgppvpq7g","geo_precision":"city","state":"CO"},"type":"Feature","geometry":{"type":"Point","coordinates":[-103.211191,40.715081]}},{"properties":{"city":"Cheyenne","geo_score":0.857,"country":"USA","mbr per 1k":20.5,"pop 07":85949.0,"attend":749.0,"countyno":"56021","membs":1760.0,"# churches":8.0,"ctyname":"Laramie County","id":"a62vgpwqmcgx","geo_precision":"city","state":"WY"},"type":"Feature","geometry":{"type":"Point","coordinates":[-104.56264,41.25173]}},{"properties":{"city":"Northglenn","geo_score":0.857,"country":"USA","mbr per 1k":5.0,"pop 07":413121.0,"attend":876.0,"countyno":"08001","membs":2067.0,"# churches":8.0,"ctyname":"Adams County","id":"a62vgpmqzay5","geo_precision":"city","state":"CO"},"type":"Feature","geometry":{"type":"Point","coordinates":[-104.987203,39.885541]}},{"properties":{"city":"SLC","geo_score":0.0,"country":"USA","mbr per 1k":2.9,"pop 07":965148.0,"attend":1159.0,"countyno":"49035","membs":2757.0,"# churches":9.0,"ctyname":"Salt Lake County","id":"a62vgpv7xr7d","geo_precision":"unmatched","state":"UT"},"type":"Feature","geometry":null}],"is_temporal":false,"author":{"url":"","metadata":"","contact_name":"Rev. Jeff Rainwater","contact_address":"jeff.rainwater@bresnan.net","source":"Rocky Mountain Conference Office","contact_phone":""},"source":"","pagination":{"sort":null,"start":0,"total":76,"limit":1000000},"state":"complete","tags":"church,conference,membership,methodist,mountain,rocky,united","published":"2009-11-18T00:23:09Z","id":18184}