{"type":"FeatureCollection","data_type":"Dataset","url_type":null,"permissions":[{"permissions":{"download":true,"view":true},"group_id":"everyone"}],"classification":null,"title":"NYChealthcenter_-_Sheet1","count":16,"stream_id":182063,"contributor":{"url":"http://geocommons.com/users/24949","name":"maromero"},"data_attributes":null,"calculation_params":null,"icon_link":null,"link":"http://geocommons.com/overlays/182063.json","extent":[-73.9248,40.8142,-73.89,40.8501],"geometry_types":["point"],"unique_name":null,"name":"NYChealthcenter_-_Sheet1","feature_count":16,"description":"","next_feature":null,"is_raster":false,"short_classification":"Y","stats":{"postal code/zip code":{"max":10460,"mean":10352.5,"variance":34025.7333333333,"stdev":184.460655244779,"min":10011,"median":10453}},"features":[{"properties":{"city":"Bronx","name":"Adolescent and Young Adult Health Program","geo_score":0.805,"street address":"2737 3rd Ave","postal code/zip code":10451,"id":"a6650zir0z1b","geo_precision":"range","state":"NY"},"type":"Feature","geometry":{"type":"Point","coordinates":[-73.921124,40.814236]}},{"properties":{"city":"Bronx","name":"The Children's Aid Society","geo_score":0.805,"street address":"1515 Southern Blvd","postal code/zip code":10460,"id":"a6650zjv62en","geo_precision":"range","state":"NY"},"type":"Feature","geometry":{"type":"Point","coordinates":[-73.890019,40.833944]}},{"properties":{"city":"Bronx","name":"Community Healthcare Network","geo_score":0.805,"street address":"975 Westchester Ave","postal code/zip code":10459,"id":"a6650ziwro1t","geo_precision":"range","state":"NY"},"type":"Feature","geometry":{"type":"Point","coordinates":[-73.895285,40.823021]}},{"properties":{"city":"Bronx","name":"HHC Lincoln Hospital Teen Clinic","geo_score":0.902,"street address":"234 East 149th St","postal code/zip code":10451,"id":"a6650z9vuwes","geo_precision":"range","state":"NY"},"type":"Feature","geometry":{"type":"Point","coordinates":[-73.924307,40.817714]}},{"properties":{"city":"Bronx","name":"HHC Segundo Ruiz Belvis Neighborhood Family Health Center","geo_score":0.708,"street address":"545 East 142nd St","postal code/zip code":10454,"id":"a6650zbbju1u","geo_precision":"street","state":"NY"},"type":"Feature","geometry":{"type":"Point","coordinates":[-73.924751,40.81438]}},{"properties":{"city":"Bronx","name":"Institute for Urban Family Health Mount Hope Family Practice","geo_score":0.805,"street address":"130 West Tremont Ave","postal code/zip code":10453,"id":"a6650z9qu1k2","geo_precision":"range","state":"NY"},"type":"Feature","geometry":{"type":"Point","coordinates":[-73.914373,40.850085]}},{"properties":{"city":"Bronx","name":"Institute for Urban Family Health Urban Horizon Family Health Center","geo_score":0.805,"street address":"50 East 168th St","postal code/zip code":10452,"id":"a6650zmelsr3","geo_precision":"range","state":"NY"},"type":"Feature","geometry":{"type":"Point","coordinates":[-73.919446,40.836781]}},{"properties":{"city":"Bronx","name":"Institute for Urban Family Health Walton Family Health Center","geo_score":0.708,"street address":"1894 Walton Ave","postal code/zip code":10453,"id":"a6650zksf5m4","geo_precision":"street","state":"NY"},"type":"Feature","geometry":{"type":"Point","coordinates":[-73.924047,40.827244]}},{"properties":{"city":"Bronx","name":"MHRA MIC Women's Health Clinic at Tremont","geo_score":0.61,"street address":"4215 3rd Ave","postal code/zip code":10457,"id":"a6650zfqg4p8","geo_precision":"street","state":"NY"},"type":"Feature","geometry":{"type":"Point","coordinates":[-73.908709,40.824067]}},{"properties":{"city":"Bronx","name":"Morrisania Clinic - NYC Department of Health and Mental Hygiene","geo_score":0.805,"street address":"1309 Fulton Ave","postal code/zip code":10456,"id":"a6650z9jhe5p","geo_precision":"range","state":"NY"},"type":"Feature","geometry":{"type":"Point","coordinates":[-73.90328,40.832527]}},{"properties":{"city":"Bronx","name":"Planned Parenthood Bronx Center","geo_score":0.902,"street address":"349 East 149th St","postal code/zip code":10451,"id":"a6650zf7vdu5","geo_precision":"range","state":"NY"},"type":"Feature","geometry":{"type":"Point","coordinates":[-73.919545,40.816555]}},{"properties":{"city":"Bronx","name":"South Bronx Health Center for Children &amp; Families","geo_score":0.805,"street address":"871 Prospect Ave","postal code/zip code":10459,"id":"a6650zluf6jv","geo_precision":"range","state":"NY"},"type":"Feature","geometry":{"type":"Point","coordinates":[-73.901276,40.820525]}},{"properties":{"city":"NY","name":"The Door","geo_score":0.0,"street address":"555 Broome St","postal code/zip code":10013,"id":"a6650zj4ycxl","geo_precision":"unmatched","state":"NY"},"type":"Feature","geometry":null},{"properties":{"city":"NY","name":"Health Outreach to Teens at Callen-Lorde","geo_score":0.0,"street address":"356 West 18th St","postal code/zip code":10011,"id":"a6650zayo34h","geo_precision":"unmatched","state":"NY"},"type":"Feature","geometry":null},{"properties":{"city":"NY","name":"Mount Sinai Adolescent Health Center","geo_score":0.0,"street address":"312 East 94th St","postal code/zip code":10128,"id":"a6650zahjwn0","geo_precision":"unmatched","state":"NY"},"type":"Feature","geometry":null},{"properties":{"city":"NY","name":"Young Men's Clinic","geo_score":0.0,"street address":"21 Audubon Ave","postal code/zip code":10032,"id":"a6650z7tke8u","geo_precision":"unmatched","state":"NY"},"type":"Feature","geometry":null}],"is_temporal":false,"author":{"url":"","metadata":null,"contact_name":null,"contact_address":null,"source":null,"contact_phone":null},"source":"","pagination":{"sort":null,"start":0,"total":16,"limit":1000000},"state":"complete","tags":"","published":"2014-08-13T00:19:54-04:00","id":182063}