{"type":"FeatureCollection","data_type":"Dataset","url_type":null,"permissions":[{"permissions":{"download":true,"view":true},"group_id":"everyone"}],"classification":null,"title":"occupy protests in the united states","count":173,"stream_id":182300,"contributor":{"url":"http://geocommons.com/users/36617","name":"Bemjamin"},"data_attributes":null,"calculation_params":null,"icon_link":null,"link":"http://geocommons.com/overlays/182300.json","extent":[-157.858,20.9015,-69.8038,64.6441],"geometry_types":["point"],"unique_name":null,"name":"occupy protests in the united states","feature_count":173,"description":"","next_feature":null,"is_raster":false,"short_classification":"Y","stats":{"geo_score":{"max":0.857,"mean":0.840693641618497,"variance":0.00146513234305686,"stdev":0.0382770472092201,"min":0.602,"median":0.857}},"features":[{"properties":{"city":"Akron","geo_precis":"city","geo_score":0.857,"id":"a6nb3bmtbp2m","state":"Ohio"},"type":"Feature","geometry":{"type":"Point","coordinates":[-81.519005,41.081445]}},{"properties":{"city":"Albany","geo_precis":"city","geo_score":0.857,"id":"a6nb3bdnsl9j","state":"New York"},"type":"Feature","geometry":{"type":"Point","coordinates":[-73.756232,42.652579]}},{"properties":{"city":"Albuquerque","geo_precis":"city","geo_score":0.857,"id":"a6nb3bo1z0xl","state":"New Mexico"},"type":"Feature","geometry":{"type":"Point","coordinates":[-106.651137,35.084491]}},{"properties":{"city":"Allentown","geo_precis":"city","geo_score":0.857,"id":"a6nb3bkkmpsm","state":"Pennsylvania"},"type":"Feature","geometry":{"type":"Point","coordinates":[-75.490183,40.608431]}},{"properties":{"city":"Amarillo","geo_precis":"city","geo_score":0.857,"id":"a6nb3bk6wyrq","state":"Texas"},"type":"Feature","geometry":{"type":"Point","coordinates":[-101.831297,35.221997]}},{"properties":{"city":"Ames","geo_precis":"city","geo_score":0.857,"id":"a6nb3bdsg570","state":"Iowa"},"type":"Feature","geometry":{"type":"Point","coordinates":[-93.600254,42.037879]}},{"properties":{"city":"Anchorage","geo_precis":"city","geo_score":0.857,"id":"a6nb3bo14qqv","state":"Alaska"},"type":"Feature","geometry":{"type":"Point","coordinates":[-149.900278,61.218056]}},{"properties":{"city":"Ann Arbor","geo_precis":"city","geo_score":0.75,"id":"a6nb3bgv9fpn","state":"Michigan"},"type":"Feature","geometry":{"type":"Point","coordinates":[-86.176715,42.96502]}},{"properties":{"city":"Asheville","geo_precis":"city","geo_score":0.857,"id":"a6nb3bqerj5e","state":"North Carolina"},"type":"Feature","geometry":{"type":"Point","coordinates":[-82.554015,35.600945]}},{"properties":{"city":"Ashland","geo_precis":"city","geo_score":0.857,"id":"a6nb3blg3vq1","state":"Oregon"},"type":"Feature","geometry":{"type":"Point","coordinates":[-122.537356,42.148098]}},{"properties":{"city":"Astoria","geo_precis":"city","geo_score":0.857,"id":"a6nb3bptm19o","state":"New York"},"type":"Feature","geometry":{"type":"Point","coordinates":[-73.92516,40.770808]}},{"properties":{"city":"Athens","geo_precis":"city","geo_score":0.857,"id":"a6nb3blx3lgg","state":"Ohio"},"type":"Feature","geometry":{"type":"Point","coordinates":[-82.013803,39.339279]}},{"properties":{"city":"Atlanta","geo_precis":"city","geo_score":0.857,"id":"a6nb3bhjbjb2","state":"Georgia"},"type":"Feature","geometry":{"type":"Point","coordinates":[-84.387982,33.748995]}},{"properties":{"city":"Augusta","geo_precis":"city","geo_score":0.857,"id":"a6nb3bp26qve","state":"Georgia"},"type":"Feature","geometry":{"type":"Point","coordinates":[-81.974838,33.47097]}},{"properties":{"city":"Augusta","geo_precis":"city","geo_score":0.857,"id":"a6nb3bkvploq","state":"Maine"},"type":"Feature","geometry":{"type":"Point","coordinates":[-69.803773,44.351642]}},{"properties":{"city":"Austin","geo_precis":"city","geo_score":0.857,"id":"a6nb3bf6mkol","state":"Texas"},"type":"Feature","geometry":{"type":"Point","coordinates":[-97.743061,30.267153]}},{"properties":{"city":"Bakersfield","geo_precis":"city","geo_score":0.857,"id":"a6nb3bkifcp7","state":"California"},"type":"Feature","geometry":{"type":"Point","coordinates":[-119.018713,35.373292]}},{"properties":{"city":"Baltimore","geo_precis":"city","geo_score":0.857,"id":"a6nb3bedptmr","state":"Maryland"},"type":"Feature","geometry":{"type":"Point","coordinates":[-76.612189,39.290385]}},{"properties":{"city":"Bellingham","geo_precis":"city","geo_score":0.857,"id":"a6nb3bneoslv","state":"Washington"},"type":"Feature","geometry":{"type":"Point","coordinates":[-122.454297,48.747687]}},{"properties":{"city":"Bemidji","geo_precis":"city","geo_score":0.857,"id":"a6nb3beyark9","state":"Minnesota"},"type":"Feature","geometry":{"type":"Point","coordinates":[-94.801272,47.571964]}},{"properties":{"city":"Berkeley","geo_precis":"city","geo_score":0.857,"id":"a6nb3brrc47f","state":"California"},"type":"Feature","geometry":{"type":"Point","coordinates":[-122.29673,37.860576]}},{"properties":{"city":"Billings","geo_precis":"city","geo_score":0.857,"id":"a6nb3bk26aw3","state":"Montana"},"type":"Feature","geometry":{"type":"Point","coordinates":[-108.50069,45.783286]}},{"properties":{"city":"Binghamton","geo_precis":"city","geo_score":0.857,"id":"a6nb3bg55pr4","state":"New York"},"type":"Feature","geometry":{"type":"Point","coordinates":[-75.917974,42.098687]}},{"properties":{"city":"Bismarck","geo_precis":"city","geo_score":0.857,"id":"a6nb3bbec0dr","state":"North Dakota"},"type":"Feature","geometry":{"type":"Point","coordinates":[-100.769066,46.810594]}},{"properties":{"city":"Bloomington","geo_precis":"city","geo_score":0.813,"id":"a6nb3bqvjg03","state":"Indiana"},"type":"Feature","geometry":{"type":"Point","coordinates":[-85.064684,39.502272]}},{"properties":{"city":"Boca Raton","geo_precis":"city","geo_score":0.786,"id":"a6nb3bn4p0ld","state":"Florida"},"type":"Feature","geometry":{"type":"Point","coordinates":[-81.331733,28.828325]}},{"properties":{"city":"Boston","geo_precis":"city","geo_score":0.857,"id":"a6nb3bqwpik3","state":"Massachusetts"},"type":"Feature","geometry":{"type":"Point","coordinates":[-71.059773,42.358431]}},{"properties":{"city":"Boulder","geo_precis":"city","geo_score":0.857,"id":"a6nb3bmj8bv4","state":"Colorado"},"type":"Feature","geometry":{"type":"Point","coordinates":[-105.250597,39.975263]}},{"properties":{"city":"Brattleboro","geo_precis":"city","geo_score":0.857,"id":"a6nb3brck7o2","state":"Vermont"},"type":"Feature","geometry":{"type":"Point","coordinates":[-72.760753,42.884281]}},{"properties":{"city":"Brooklyn","geo_precis":"city","geo_score":0.857,"id":"a6nb3bjrq0yi","state":"New York"},"type":"Feature","geometry":{"type":"Point","coordinates":[-78.748363,42.433118]}},{"properties":{"city":"Buffalo","geo_precis":"city","geo_score":0.857,"id":"a6nb3bi6s207","state":"New York"},"type":"Feature","geometry":{"type":"Point","coordinates":[-78.878369,42.886447]}},{"properties":{"city":"Canon City","geo_precis":"city","geo_score":0.794,"id":"a6nb3bi4q0m4","state":"Colorado"},"type":"Feature","geometry":{"type":"Point","coordinates":[-106.145859,37.043345]}},{"properties":{"city":"Canton","geo_precis":"city","geo_score":0.857,"id":"a6nb3bgy8t3j","state":"Ohio"},"type":"Feature","geometry":{"type":"Point","coordinates":[-81.378447,40.798947]}},{"properties":{"city":"Carbondale","geo_precis":"city","geo_score":0.857,"id":"a6nb3bk0p4o0","state":"Illinois"},"type":"Feature","geometry":{"type":"Point","coordinates":[-89.387286,37.77452]}},{"properties":{"city":"Carson City","geo_precis":"city","geo_score":0.857,"id":"a6nb3bgk415x","state":"Nevada"},"type":"Feature","geometry":{"type":"Point","coordinates":[-119.73074,39.154485]}},{"properties":{"city":"Champaign","geo_precis":"city","geo_score":0.857,"id":"a6nb3bra2olk","state":"Illinois"},"type":"Feature","geometry":{"type":"Point","coordinates":[-88.243383,40.116421]}},{"properties":{"city":"Chapel Hill","geo_precis":"city","geo_score":0.857,"id":"a6nb3bjafu4k","state":"North Carolina"},"type":"Feature","geometry":{"type":"Point","coordinates":[-79.038605,35.926939]}},{"properties":{"city":"Charleston","geo_precis":"city","geo_score":0.798,"id":"a6nb3bcmkg7o","state":"South Carolina"},"type":"Feature","geometry":{"type":"Point","coordinates":[-79.970643,32.85712]}},{"properties":{"city":"Charlotte","geo_precis":"city","geo_score":0.857,"id":"a6nb3bjnd9ye","state":"North Carolina"},"type":"Feature","geometry":{"type":"Point","coordinates":[-80.843127,35.227087]}},{"properties":{"city":"Charlottesville","geo_precis":"city","geo_score":0.857,"id":"a6nb3bjwfrzt","state":"Virginia"},"type":"Feature","geometry":{"type":"Point","coordinates":[-78.476678,38.029306]}},{"properties":{"city":"Chicago","geo_precis":"city","geo_score":0.857,"id":"a6nb3bfpbwgg","state":"Illinois"},"type":"Feature","geometry":{"type":"Point","coordinates":[-87.650052,41.850033]}},{"properties":{"city":"Chico","geo_precis":"city","geo_score":0.857,"id":"a6nb3bjtboct","state":"California"},"type":"Feature","geometry":{"type":"Point","coordinates":[-121.840083,39.746159]}},{"properties":{"city":"Cincinnati","geo_precis":"city","geo_score":0.857,"id":"a6nb3bnm5yzy","state":"Ohio"},"type":"Feature","geometry":{"type":"Point","coordinates":[-84.456886,39.162004]}},{"properties":{"city":"Cleveland","geo_precis":"city","geo_score":0.857,"id":"a6nb3bcac18x","state":"Ohio"},"type":"Feature","geometry":{"type":"Point","coordinates":[-81.695409,41.499495]}},{"properties":{"city":"Coeur d'Alene","geo_precis":"city","geo_score":0.74,"id":"a6nb3bfvu3rb","state":"Idaho"},"type":"Feature","geometry":{"type":"Point","coordinates":[-111.379111,43.049919]}},{"properties":{"city":"Colorado Springs","geo_precis":"city","geo_score":0.857,"id":"a6nb3bnoihxf","state":"Colorado"},"type":"Feature","geometry":{"type":"Point","coordinates":[-104.821363,38.833882]}},{"properties":{"city":"Columbia","geo_precis":"city","geo_score":0.857,"id":"a6nb3bltwioo","state":"South Carolina"},"type":"Feature","geometry":{"type":"Point","coordinates":[-81.024864,33.987454]}},{"properties":{"city":"Columbus","geo_precis":"city","geo_score":0.776,"id":"a6nb3bjb6m87","state":"Ohio"},"type":"Feature","geometry":{"type":"Point","coordinates":[-82.695724,39.998397]}},{"properties":{"city":"Corpus Christi","geo_precis":"city","geo_score":0.857,"id":"a6nb3bnv2lxh","state":"Texas"},"type":"Feature","geometry":{"type":"Point","coordinates":[-97.396381,27.800583]}},{"properties":{"city":"Dallas","geo_precis":"city","geo_score":0.857,"id":"a6nb3brv0evh","state":"Texas"},"type":"Feature","geometry":{"type":"Point","coordinates":[-96.806667,32.783056]}},{"properties":{"city":"Dayton","geo_precis":"city","geo_score":0.857,"id":"a6nb3bqtj0tu","state":"Ohio"},"type":"Feature","geometry":{"type":"Point","coordinates":[-84.191607,39.758948]}},{"properties":{"city":"Daytona Beach","geo_precis":"city","geo_score":0.81,"id":"a6nb3bl7d5am","state":"Florida"},"type":"Feature","geometry":{"type":"Point","coordinates":[-80.982832,29.176093]}},{"properties":{"city":"Delray Beach","geo_precis":"city","geo_score":0.74,"id":"a6nb3bmcy2rb","state":"Florida"},"type":"Feature","geometry":{"type":"Point","coordinates":[-82.291229,30.440508]}},{"properties":{"city":"Denver","geo_precis":"city","geo_score":0.857,"id":"a6nb3bj4o43b","state":"Colorado"},"type":"Feature","geometry":{"type":"Point","coordinates":[-104.984703,39.739154]}},{"properties":{"city":"Des Moines","geo_precis":"city","geo_score":0.857,"id":"a6nb3bh6tc8b","state":"Iowa"},"type":"Feature","geometry":{"type":"Point","coordinates":[-93.609106,41.600545]}},{"properties":{"city":"Detroit","geo_precis":"city","geo_score":0.857,"id":"a6nb3bbpajq3","state":"Michigan"},"type":"Feature","geometry":{"type":"Point","coordinates":[-83.045754,42.331427]}},{"properties":{"city":"Durango","geo_precis":"city","geo_score":0.857,"id":"a6nb3brtk8fz","state":"Colorado"},"type":"Feature","geometry":{"type":"Point","coordinates":[-107.868991,37.275907]}},{"properties":{"city":"Durham","geo_precis":"city","geo_score":0.857,"id":"a6nb3bnhy6c4","state":"North Carolina"},"type":"Feature","geometry":{"type":"Point","coordinates":[-78.898619,35.994033]}},{"properties":{"city":"Elkhart","geo_precis":"city","geo_score":0.857,"id":"a6nb3bdv87ye","state":"Indiana"},"type":"Feature","geometry":{"type":"Point","coordinates":[-85.937024,41.71873]}},{"properties":{"city":"Eugene","geo_precis":"city","geo_score":0.857,"id":"a6nb3bjjjcc0","state":"Oregon"},"type":"Feature","geometry":{"type":"Point","coordinates":[-123.086754,44.052069]}},{"properties":{"city":"Fairbanks","geo_precis":"city","geo_score":0.857,"id":"a6nb3bmch8f1","state":"Alaska"},"type":"Feature","geometry":{"type":"Point","coordinates":[-147.522052,64.644047]}},{"properties":{"city":"Fargo","geo_precis":"city","geo_score":0.857,"id":"a6nb3bjhze7t","state":"North Dakota"},"type":"Feature","geometry":{"type":"Point","coordinates":[-96.990615,46.92536]}},{"properties":{"city":"Fayetteville","geo_precis":"city","geo_score":0.857,"id":"a6nb3bpudnc5","state":"North Carolina"},"type":"Feature","geometry":{"type":"Point","coordinates":[-78.878359,35.052664]}},{"properties":{"city":"Flint","geo_precis":"city","geo_score":0.857,"id":"a6nb3bbipuou","state":"Michigan"},"type":"Feature","geometry":{"type":"Point","coordinates":[-83.687456,43.012527]}},{"properties":{"city":"Fort Myers","geo_precis":"city","geo_score":0.746,"id":"a6nb3bi8i1ls","state":"Florida"},"type":"Feature","geometry":{"type":"Point","coordinates":[-81.92122,30.435237]}},{"properties":{"city":"Fort Wayne","geo_precis":"city","geo_score":0.857,"id":"a6nb3bk83616","state":"Indiana"},"type":"Feature","geometry":{"type":"Point","coordinates":[-85.12886,41.130604]}},{"properties":{"city":"Ft. Lauderdale, Florida","geo_precis":"city","geo_score":0.602,"id":"a6nb3bbgm7gb","state":null},"type":"Feature","geometry":{"type":"Point","coordinates":[-86.703053,34.416483]}},{"properties":{"city":"Gainesville","geo_precis":"city","geo_score":0.818,"id":"a6nb3bnk58oi","state":"Florida"},"type":"Feature","geometry":{"type":"Point","coordinates":[-85.354651,30.731305]}},{"properties":{"city":"Grand Forks","geo_precis":"city","geo_score":0.779,"id":"a6nb3bh21n7m","state":"North Dakota"},"type":"Feature","geometry":{"type":"Point","coordinates":[-97.386642,47.954932]}},{"properties":{"city":"Grand Junction","geo_precis":"city","geo_score":0.857,"id":"a6nb3bpaklt9","state":"Colorado"},"type":"Feature","geometry":{"type":"Point","coordinates":[-108.550649,39.063871]}},{"properties":{"city":"Grand Rapids","geo_precis":"city","geo_score":0.857,"id":"a6nb3blf9mjq","state":"Michigan"},"type":"Feature","geometry":{"type":"Point","coordinates":[-85.668086,42.96336]}},{"properties":{"city":"Green Bay","geo_precis":"city","geo_score":0.857,"id":"a6nb3bch5ql7","state":"Wisconsin"},"type":"Feature","geometry":{"type":"Point","coordinates":[-88.019826,44.519159]}},{"properties":{"city":"Harrisburg","geo_precis":"city","geo_score":0.857,"id":"a6nb3bo4nq23","state":"Pennsylvania"},"type":"Feature","geometry":{"type":"Point","coordinates":[-76.884418,40.2737]}},{"properties":{"city":"Honolulu","geo_precis":"city","geo_score":0.857,"id":"a6nb3bn0dgky","state":"Hawaii"},"type":"Feature","geometry":{"type":"Point","coordinates":[-157.858333,21.306944]}},{"properties":{"city":"Houston","geo_precis":"city","geo_score":0.816,"id":"a6nb3blf8k1s","state":"Texas"},"type":"Feature","geometry":{"type":"Point","coordinates":[-96.919704,29.845783]}},{"properties":{"city":"Iowa City","geo_precis":"city","geo_score":0.732,"id":"a6nb3bio3sef","state":"Iowa"},"type":"Feature","geometry":{"type":"Point","coordinates":[-92.161281,43.198027]}},{"properties":{"city":"Irvine","geo_precis":"city","geo_score":0.857,"id":"a6nb3bnp8sdu","state":"California"},"type":"Feature","geometry":{"type":"Point","coordinates":[-117.823111,33.669465]}},{"properties":{"city":"Ithaca","geo_precis":"city","geo_score":0.857,"id":"a6nb3bejzcvq","state":"New York"},"type":"Feature","geometry":{"type":"Point","coordinates":[-76.483999,42.402794]}},{"properties":{"city":"Jacksonville","geo_precis":"city","geo_score":0.857,"id":"a6nb3bopd8m6","state":"Florida"},"type":"Feature","geometry":{"type":"Point","coordinates":[-81.655651,30.332184]}},{"properties":{"city":"johnson city","geo_precis":"city","geo_score":0.791,"id":"a6nb3bc8ht7i","state":"Tennessee"},"type":"Feature","geometry":{"type":"Point","coordinates":[-89.195623,35.767296]}},{"properties":{"city":"Kalamazoo","geo_precis":"city","geo_score":0.857,"id":"a6nb3blvbmzr","state":"Michigan"},"type":"Feature","geometry":{"type":"Point","coordinates":[-85.588195,42.274887]}},{"properties":{"city":"Kansas City","geo_precis":"city","geo_score":0.857,"id":"a6nb3bdv78d6","state":"Missouri"},"type":"Feature","geometry":{"type":"Point","coordinates":[-94.598583,39.102404]}},{"properties":{"city":"Kearney","geo_precis":"city","geo_score":0.857,"id":"a6nb3bmvu5a0","state":"Nebraska"},"type":"Feature","geometry":{"type":"Point","coordinates":[-99.129054,40.75141]}},{"properties":{"city":"Knoxville","geo_precis":"city","geo_score":0.794,"id":"a6nb3bgz0pgx","state":"Tennessee"},"type":"Feature","geometry":{"type":"Point","coordinates":[-86.784443,36.16589]}},{"properties":{"city":"Lake Worth","geo_precis":"city","geo_score":0.857,"id":"a6nb3bo7s70j","state":"Florida"},"type":"Feature","geometry":{"type":"Point","coordinates":[-80.430269,26.645895]}},{"properties":{"city":"Lancaster","geo_precis":"city","geo_score":0.762,"id":"a6nb3bggfn3m","state":"Pennsylvania"},"type":"Feature","geometry":{"type":"Point","coordinates":[-76.658856,39.960376]}},{"properties":{"city":"Lansing","geo_precis":"city","geo_score":0.857,"id":"a6nb3bddsmf4","state":"Michigan"},"type":"Feature","geometry":{"type":"Point","coordinates":[-84.555535,42.732535]}},{"properties":{"city":"Las Cruces","geo_precis":"city","geo_score":0.857,"id":"a6nb3bm9yrf9","state":"New Mexico"},"type":"Feature","geometry":{"type":"Point","coordinates":[-106.778337,32.312316]}},{"properties":{"city":"Las Vegas","geo_precis":"city","geo_score":0.857,"id":"a6nb3bjf0d6l","state":"Nevada"},"type":"Feature","geometry":{"type":"Point","coordinates":[-115.137223,36.174971]}},{"properties":{"city":"Lexington","geo_precis":"city","geo_score":0.857,"id":"a6nb3bjdr5v7","state":"Kentucky"},"type":"Feature","geometry":{"type":"Point","coordinates":[-84.477715,37.988689]}},{"properties":{"city":"Lincoln","geo_precis":"city","geo_score":0.857,"id":"a6nb3bcbfpze","state":"Nebraska"},"type":"Feature","geometry":{"type":"Point","coordinates":[-96.66696,40.800001]}},{"properties":{"city":"Little Rock","geo_precis":"city","geo_score":0.857,"id":"a6nb3bepqzd4","state":"Arkansas"},"type":"Feature","geometry":{"type":"Point","coordinates":[-92.289595,34.746481]}},{"properties":{"city":"Lompoc","geo_precis":"city","geo_score":0.816,"id":"a6nb3bpqabdt","state":"California"},"type":"Feature","geometry":{"type":"Point","coordinates":[-122.05274,37.105503]}},{"properties":{"city":"Los Angeles","geo_precis":"city","geo_score":0.857,"id":"a6nb3bqwcp3s","state":"California"},"type":"Feature","geometry":{"type":"Point","coordinates":[-118.243685,34.052234]}},{"properties":{"city":"Louisville","geo_precis":"city","geo_score":0.857,"id":"a6nb3blfz7bj","state":"Kentucky"},"type":"Feature","geometry":{"type":"Point","coordinates":[-85.759407,38.254238]}},{"properties":{"city":"Madison","geo_precis":"city","geo_score":0.857,"id":"a6nb3bdxh4af","state":"Wisconsin"},"type":"Feature","geometry":{"type":"Point","coordinates":[-89.40123,43.073052]}},{"properties":{"city":"Memphis","geo_precis":"city","geo_score":0.857,"id":"a6nb3bhv28ga","state":"Tennessee"},"type":"Feature","geometry":{"type":"Point","coordinates":[-90.04898,35.149534]}},{"properties":{"city":"Miami","geo_precis":"city","geo_score":0.857,"id":"a6nb3bkijxc3","state":"Florida"},"type":"Feature","geometry":{"type":"Point","coordinates":[-80.193659,25.774266]}},{"properties":{"city":"Milwaukee","geo_precis":"city","geo_score":0.857,"id":"a6nb3bo5r8r4","state":"Wisconsin"},"type":"Feature","geometry":{"type":"Point","coordinates":[-87.906474,43.038903]}},{"properties":{"city":"Minneapolis","geo_precis":"city","geo_score":0.857,"id":"a6nb3bolhhec","state":"Minnesota"},"type":"Feature","geometry":{"type":"Point","coordinates":[-93.263836,44.979965]}},{"properties":{"city":"Minot","geo_precis":"city","geo_score":0.776,"id":"a6nb3bcs4nq6","state":"North Dakota"},"type":"Feature","geometry":{"type":"Point","coordinates":[-102.636569,48.331131]}},{"properties":{"city":"Missoula","geo_precis":"city","geo_score":0.857,"id":"a6nb3bfeir88","state":"Montana"},"type":"Feature","geometry":{"type":"Point","coordinates":[-113.993998,46.872146]}},{"properties":{"city":"Mount Shasta","geo_precis":"city","geo_score":0.857,"id":"a6nb3bg874mv","state":"California"},"type":"Feature","geometry":{"type":"Point","coordinates":[-122.473307,41.427158]}},{"properties":{"city":"Nashville","geo_precis":"city","geo_score":0.857,"id":"a6nb3bj5ozuz","state":"Tennessee"},"type":"Feature","geometry":{"type":"Point","coordinates":[-86.784443,36.16589]}},{"properties":{"city":"Naples","geo_precis":"city","geo_score":0.857,"id":"a6nb3bjmw07m","state":"Florida"},"type":"Feature","geometry":{"type":"Point","coordinates":[-81.79481,26.142036]}},{"properties":{"city":"New Bedford","geo_precis":"city","geo_score":0.755,"id":"a6nb3bchtu6o","state":"Massachusetts"},"type":"Feature","geometry":{"type":"Point","coordinates":[-71.270891,42.516205]}},{"properties":{"city":"New Haven","geo_precis":"city","geo_score":0.857,"id":"a6nb3bnsexcw","state":"Connecticut"},"type":"Feature","geometry":{"type":"Point","coordinates":[-72.928158,41.308153]}},{"properties":{"city":"New Orleans","geo_precis":"city","geo_score":0.857,"id":"a6nb3bnuopvl","state":"Louisiana"},"type":"Feature","geometry":{"type":"Point","coordinates":[-89.930956,30.068812]}},{"properties":{"city":"New York","geo_precis":"city","geo_score":0.857,"id":"a6nb3bp3xggl","state":"New York"},"type":"Feature","geometry":{"type":"Point","coordinates":[-74.005973,40.714269]}},{"properties":{"city":"Niles","geo_precis":"city","geo_score":0.857,"id":"a6nb3bjydnc4","state":"Michigan"},"type":"Feature","geometry":{"type":"Point","coordinates":[-86.421005,41.844732]}},{"properties":{"city":"Norfolk","geo_precis":"city","geo_score":0.857,"id":"a6nb3bggxyra","state":"Virginia"},"type":"Feature","geometry":{"type":"Point","coordinates":[-76.285218,36.846815]}},{"properties":{"city":"Bloomington","geo_precis":"city","geo_score":0.802,"id":"a6nb3bc5iw0q","state":"Illinois"},"type":"Feature","geometry":{"type":"Point","coordinates":[-89.033689,40.480592]}},{"properties":{"city":"Oakland","geo_precis":"city","geo_score":0.857,"id":"a6nb3bih25ph","state":"California"},"type":"Feature","geometry":{"type":"Point","coordinates":[-122.270803,37.804372]}},{"properties":{"city":"Oklahoma City","geo_precis":"city","geo_score":0.857,"id":"a6nb3bfn3nuo","state":"Oklahoma"},"type":"Feature","geometry":{"type":"Point","coordinates":[-97.516428,35.46756]}},{"properties":{"city":"Olympia","geo_precis":"city","geo_score":0.857,"id":"a6nb3bo29oqd","state":"Washington"},"type":"Feature","geometry":{"type":"Point","coordinates":[-122.900695,47.037874]}},{"properties":{"city":"Omaha","geo_precis":"city","geo_score":0.857,"id":"a6nb3bq2szq9","state":"Nebraska"},"type":"Feature","geometry":{"type":"Point","coordinates":[-95.937792,41.25861]}},{"properties":{"city":"Oneonta","geo_precis":"city","geo_score":0.857,"id":"a6nb3bc9hphk","state":"New York"},"type":"Feature","geometry":{"type":"Point","coordinates":[-75.096727,42.461688]}},{"properties":{"city":"Orlando","geo_precis":"city","geo_score":0.857,"id":"a6nb3bo6a4sl","state":"Florida"},"type":"Feature","geometry":{"type":"Point","coordinates":[-81.379237,28.538336]}},{"properties":{"city":"Philadelphia","geo_precis":"city","geo_score":0.857,"id":"a6nb3bgm21yl","state":"Pennsylvania"},"type":"Feature","geometry":{"type":"Point","coordinates":[-75.163789,39.952335]}},{"properties":{"city":"Phoenix","geo_precis":"city","geo_score":0.857,"id":"a6nb3bqcc5vf","state":"Arizona"},"type":"Feature","geometry":{"type":"Point","coordinates":[-112.074037,33.448377]}},{"properties":{"city":"Pittsburg","geo_precis":"city","geo_score":0.857,"id":"a6nb3bcp61lm","state":"Kansas"},"type":"Feature","geometry":{"type":"Point","coordinates":[-94.819212,37.448044]}},{"properties":{"city":"Pittsburgh","geo_precis":"city","geo_score":0.857,"id":"a6nb3bd13233","state":"Pennsylvania"},"type":"Feature","geometry":{"type":"Point","coordinates":[-79.995886,40.440625]}},{"properties":{"city":"Port Angeles","geo_precis":"city","geo_score":0.74,"id":"a6nb3bpr1cbz","state":"Washington"},"type":"Feature","geometry":{"type":"Point","coordinates":[-122.62541,47.388985]}},{"properties":{"city":"Portland","geo_precis":"city","geo_score":0.857,"id":"a6nb3bbkhjie","state":"Oregon"},"type":"Feature","geometry":{"type":"Point","coordinates":[-122.676207,45.523452]}},{"properties":{"city":"Providence","geo_precis":"city","geo_score":0.857,"id":"a6nb3bdpqja9","state":"Rhode Island"},"type":"Feature","geometry":{"type":"Point","coordinates":[-71.412834,41.823989]}},{"properties":{"city":"Raleigh","geo_precis":"city","geo_score":0.857,"id":"a6nb3bivexnm","state":"North Carolina"},"type":"Feature","geometry":{"type":"Point","coordinates":[-78.638615,35.772096]}},{"properties":{"city":"Rapid City","geo_precis":"city","geo_score":0.857,"id":"a6nb3bqnm3l8","state":"South Dakota"},"type":"Feature","geometry":{"type":"Point","coordinates":[-103.231015,44.080543]}},{"properties":{"city":"Redlands","geo_precis":"city","geo_score":0.79,"id":"a6nb3bhnndin","state":"California"},"type":"Feature","geometry":{"type":"Point","coordinates":[-117.158648,34.033903]}},{"properties":{"city":"Reno","geo_precis":"city","geo_score":0.857,"id":"a6nb3bfb6alk","state":"Nevada"},"type":"Feature","geometry":{"type":"Point","coordinates":[-119.813803,39.529633]}},{"properties":{"city":"Richmond","geo_precis":"city","geo_score":0.857,"id":"a6nb3bfo7zpt","state":"California"},"type":"Feature","geometry":{"type":"Point","coordinates":[-122.347749,37.935758]}},{"properties":{"city":"Riverside","geo_precis":"city","geo_score":0.857,"id":"a6nb3bi860d4","state":"California"},"type":"Feature","geometry":{"type":"Point","coordinates":[-117.396156,33.953349]}},{"properties":{"city":"Sacramento","geo_precis":"city","geo_score":0.857,"id":"a6nb3bbzz5dg","state":"California"},"type":"Feature","geometry":{"type":"Point","coordinates":[-121.4944,38.581572]}},{"properties":{"city":"Sag Harbor","geo_precis":"city","geo_score":0.857,"id":"a6nb3bn0rp8k","state":"New York"},"type":"Feature","geometry":{"type":"Point","coordinates":[-72.637078,40.922326]}},{"properties":{"city":"Salt Lake City","geo_precis":"city","geo_score":0.857,"id":"a6nb3bmsf2wr","state":"Utah"},"type":"Feature","geometry":{"type":"Point","coordinates":[-111.891047,40.760779]}},{"properties":{"city":"San Antonio","geo_precis":"city","geo_score":0.857,"id":"a6nb3bmcqqzb","state":"Texas"},"type":"Feature","geometry":{"type":"Point","coordinates":[-98.493628,29.424122]}},{"properties":{"city":"San Diego","geo_precis":"city","geo_score":0.857,"id":"a6nb3bjpydiw","state":"California"},"type":"Feature","geometry":{"type":"Point","coordinates":[-117.157255,32.715329]}},{"properties":{"city":"San Francisco","geo_precis":"city","geo_score":0.857,"id":"a6nb3bnmgcmy","state":"California"},"type":"Feature","geometry":{"type":"Point","coordinates":[-122.419416,37.77493]}},{"properties":{"city":"San Jose","geo_precis":"city","geo_score":0.857,"id":"a6nb3bn4dqx0","state":"California"},"type":"Feature","geometry":{"type":"Point","coordinates":[-121.894956,37.339386]}},{"properties":{"city":"San Luis Obispo","geo_precis":"city","geo_score":0.736,"id":"a6nb3bjkk1am","state":"California"},"type":"Feature","geometry":{"type":"Point","coordinates":[-118.345664,37.400762]}},{"properties":{"city":"San Ramon","geo_precis":"city","geo_score":0.786,"id":"a6nb3bdggnln","state":"California"},"type":"Feature","geometry":{"type":"Point","coordinates":[-116.976549,33.031572]}},{"properties":{"city":"Santa Cruz","geo_precis":"city","geo_score":0.762,"id":"a6nb3bkojexr","state":"California"},"type":"Feature","geometry":{"type":"Point","coordinates":[-119.045658,36.114674]}},{"properties":{"city":"Santa Rosa","geo_precis":"city","geo_score":0.73,"id":"a6nb3bhne101","state":"California"},"type":"Feature","geometry":{"type":"Point","coordinates":[-114.849692,34.083625]}},{"properties":{"city":"Scranton","geo_precis":"city","geo_score":0.857,"id":"a6nb3bie35ot","state":"Pennsylvania"},"type":"Feature","geometry":{"type":"Point","coordinates":[-75.662412,41.408969]}},{"properties":{"city":"Seaside","geo_precis":"city","geo_score":0.857,"id":"a6nb3bnbutuh","state":"Oregon"},"type":"Feature","geometry":{"type":"Point","coordinates":[-123.857394,45.97677]}},{"properties":{"city":"Seattle","geo_precis":"city","geo_score":0.857,"id":"a6nb3bqh9dus","state":"Washington"},"type":"Feature","geometry":{"type":"Point","coordinates":[-122.332071,47.60621]}},{"properties":{"city":"Skagway","geo_precis":"city","geo_score":0.857,"id":"a6nb3bkos9bt","state":"Alaska"},"type":"Feature","geometry":{"type":"Point","coordinates":[-135.314852,59.456753]}},{"properties":{"city":"Sonora","geo_precis":"city","geo_score":0.857,"id":"a6nb3bi8uiao","state":"California"},"type":"Feature","geometry":{"type":"Point","coordinates":[-120.343863,37.96091]}},{"properties":{"city":"South Bend","geo_precis":"city","geo_score":0.857,"id":"a6nb3bp42f8d","state":"Indiana"},"type":"Feature","geometry":{"type":"Point","coordinates":[-86.250007,41.683381]}},{"properties":{"city":"South Portland","geo_precis":"city","geo_score":0.802,"id":"a6nb3bh8g9ow","state":"Maine"},"type":"Feature","geometry":{"type":"Point","coordinates":[-70.255326,43.661471]}},{"properties":{"city":"Spokane","geo_precis":"city","geo_score":0.857,"id":"a6nb3bfckocq","state":"Washington"},"type":"Feature","geometry":{"type":"Point","coordinates":[-117.426047,47.65878]}},{"properties":{"city":"Springfield","geo_precis":"city","geo_score":0.792,"id":"a6nb3bkdaq04","state":"Missouri"},"type":"Feature","geometry":{"type":"Point","coordinates":[-91.237925,38.295605]}},{"properties":{"city":"Saint Louis","geo_precis":"city","geo_score":0.857,"id":"a6nb3bkykmdo","state":"Missouri"},"type":"Feature","geometry":{"type":"Point","coordinates":[-90.197889,38.627273]}},{"properties":{"city":"Tacoma","geo_precis":"city","geo_score":0.857,"id":"a6nb3boe0ufn","state":"Washington"},"type":"Feature","geometry":{"type":"Point","coordinates":[-122.444291,47.252877]}},{"properties":{"city":"Tahlequah","geo_precis":"city","geo_score":0.778,"id":"a6nb3bq12o1l","state":"Oklahoma"},"type":"Feature","geometry":{"type":"Point","coordinates":[-98.961606,36.040765]}},{"properties":{"city":"Tallahassee","geo_precis":"city","geo_score":0.857,"id":"a6nb3bip4oag","state":"Florida"},"type":"Feature","geometry":{"type":"Point","coordinates":[-84.280733,30.438256]}},{"properties":{"city":"Tampa","geo_precis":"city","geo_score":0.857,"id":"a6nb3bgcmc7t","state":"Florida"},"type":"Feature","geometry":{"type":"Point","coordinates":[-82.458428,27.947522]}},{"properties":{"city":"Taos","geo_precis":"city","geo_score":0.857,"id":"a6nb3bgenwx5","state":"New Mexico"},"type":"Feature","geometry":{"type":"Point","coordinates":[-105.554532,36.429239]}},{"properties":{"city":"Toledo","geo_precis":"city","geo_score":0.857,"id":"a6nb3becrkng","state":"Ohio"},"type":"Feature","geometry":{"type":"Point","coordinates":[-83.555212,41.663938]}},{"properties":{"city":"Traverse City","geo_precis":"city","geo_score":0.821,"id":"a6nb3bgllu0p","state":"Michigan"},"type":"Feature","geometry":{"type":"Point","coordinates":[-88.234001,47.194369]}},{"properties":{"city":"Trenton","geo_precis":"city","geo_score":0.857,"id":"a6nb3bjrnig1","state":"New Jersey"},"type":"Feature","geometry":{"type":"Point","coordinates":[-74.742939,40.217053]}},{"properties":{"city":"Tucson","geo_precis":"city","geo_score":0.857,"id":"a6nb3blikj1r","state":"Arizona"},"type":"Feature","geometry":{"type":"Point","coordinates":[-110.926479,32.221743]}},{"properties":{"city":"Tulsa","geo_precis":"city","geo_score":0.857,"id":"a6nb3blbn5of","state":"Oklahoma"},"type":"Feature","geometry":{"type":"Point","coordinates":[-95.992775,36.153982]}},{"properties":{"city":"Utica","geo_precis":"city","geo_score":0.857,"id":"a6nb3bizwdcs","state":"New York"},"type":"Feature","geometry":{"type":"Point","coordinates":[-75.233208,43.077369]}},{"properties":{"city":"Vancouver","geo_precis":"city","geo_score":0.857,"id":"a6nb3bgrs9ux","state":"Washington"},"type":"Feature","geometry":{"type":"Point","coordinates":[-122.661486,45.638728]}},{"properties":{"city":"Ventura","geo_precis":"city","geo_score":0.857,"id":"a6nb3bkyi0da","state":"California"},"type":"Feature","geometry":{"type":"Point","coordinates":[-119.358352,34.330829]}},{"properties":{"city":"Vermillion","geo_precis":"city","geo_score":0.857,"id":"a6nb3bl4kv2t","state":"South Dakota"},"type":"Feature","geometry":{"type":"Point","coordinates":[-96.973318,42.854124]}},{"properties":{"city":"Virginia Beach","geo_precis":"city","geo_score":0.857,"id":"a6nb3bq9nzww","state":"Virginia"},"type":"Feature","geometry":{"type":"Point","coordinates":[-76.076408,36.786299]}},{"properties":{"city":"Wailuku","geo_precis":"city","geo_score":0.857,"id":"a6nb3bgsiab3","state":"Hawaii"},"type":"Feature","geometry":{"type":"Point","coordinates":[-156.566493,20.901536]}},{"properties":{"city":"Walnut Creek","geo_precis":"city","geo_score":0.727,"id":"a6nb3bhq0kx5","state":"California"},"type":"Feature","geometry":{"type":"Point","coordinates":[-122.481647,38.517964]}},{"properties":{"city":"Washington","geo_precis":"city","geo_score":0.857,"id":"a6nb3bf1art5","state":"DC"},"type":"Feature","geometry":{"type":"Point","coordinates":[-77.036366,38.895112]}},{"properties":{"city":"Worcester","geo_precis":"city","geo_score":0.857,"id":"a6nb3bibah4x","state":"Massachusetts"},"type":"Feature","geometry":{"type":"Point","coordinates":[-71.802293,42.262593]}},{"properties":{"city":"Youngstown","geo_precis":"city","geo_score":0.857,"id":"a6nb3boor15j","state":"Ohio"},"type":"Feature","geometry":{"type":"Point","coordinates":[-80.649519,41.09978]}},{"properties":{"city":"Ypsilanti","geo_precis":"city","geo_score":0.857,"id":"a6nb3bfhm4sy","state":"Michigan"},"type":"Feature","geometry":{"type":"Point","coordinates":[-83.620494,42.202139]}}],"is_temporal":false,"author":{"url":null,"metadata":null,"contact_name":null,"contact_address":null,"source":null,"contact_phone":null},"source":null,"pagination":{"sort":null,"start":0,"total":173,"limit":1000000},"state":"complete","tags":"","published":"2014-08-13T00:35:46-04:00","id":182300}