{"type":"FeatureCollection","data_type":"Dataset","url_type":null,"permissions":[{"permissions":{"download":true,"view":true},"group_id":"everyone"}],"classification":null,"title":"Members by County and City","count":392,"stream_id":182383,"contributor":{"url":"http://geocommons.com/users/29031","name":"wrg20"},"data_attributes":null,"calculation_params":null,"icon_link":null,"link":"http://geocommons.com/overlays/182383.json","extent":[-91.0279,37.3006,-87.5387,42.4783],"geometry_types":["point"],"unique_name":null,"name":"Members by County and City","feature_count":392,"description":"","next_feature":null,"is_raster":false,"short_classification":"Y","stats":{"total count":{"max":26768,"mean":323.003802281369,"variance":2776509.96563434,"stdev":1666.28627961534,"min":7,"median":139},"survivor":{"max":2620,"mean":27.4440677966102,"variance":23712.3905684307,"stdev":153.988280620412,"min":1,"median":11},"inactive":{"max":7299,"mean":78.5201238390093,"variance":168988.517450916,"stdev":411.082129812178,"min":1,"median":25},"annuitant":{"max":4099,"mean":45.9223300970874,"variance":57516.9290127349,"stdev":239.826872999535,"min":1,"median":15},"active":{"max":12750,"mean":116.249230769231,"variance":513022.508679962,"stdev":716.255896087398,"min":1,"median":37}},"features":[{"properties":{"city":"Alsip","total count":146,"country":"USA","inactive":40,"survivor":9,"geo_score":0.857,"annuitant":16,"id":"a6mvf5zo52ow","geo_precision":"city","state":"illinois","active":81},"type":"Feature","geometry":{"type":"Point","coordinates":[-87.738662,41.668922]}},{"properties":{"city":"Arlington Heights","total count":725,"country":"USA","inactive":260,"survivor":92,"geo_score":0.857,"annuitant":118,"id":"a6mvf66coybo","geo_precision":"city","state":"illinois","active":255},"type":"Feature","geometry":{"type":"Point","coordinates":[-87.99822,42.085626]}},{"properties":{"city":"Arlington Hts","total count":38,"country":"USA","inactive":17,"survivor":3,"geo_score":0.821,"annuitant":2,"id":"a6mvf69yqd3e","geo_precision":"city","state":"illinois","active":16},"type":"Feature","geometry":{"type":"Point","coordinates":[-87.99822,42.085626]}},{"properties":{"city":"Barrington","total count":null,"country":"USA","inactive":null,"survivor":1,"geo_score":0.81,"annuitant":2,"id":"a6mvf6as2u8b","geo_precision":"city","state":"illinois","active":null},"type":"Feature","geometry":{"type":"Point","coordinates":[-88.055908,42.152248]}},{"properties":{"city":"Bartlett","total count":40,"country":"USA","inactive":21,"survivor":6,"geo_score":0.857,"annuitant":6,"id":"a6mvf63jom7p","geo_precision":"city","state":"illinois","active":7},"type":"Feature","geometry":{"type":"Point","coordinates":[-88.207293,41.980242]}},{"properties":{"city":"Bedford Park","total count":null,"country":"USA","inactive":null,"survivor":null,"geo_score":0.857,"annuitant":null,"id":"a6mvf6bsc1uv","geo_precision":"city","state":"illinois","active":1},"type":"Feature","geometry":{"type":"Point","coordinates":[-87.800055,41.76281]}},{"properties":{"city":"Bellwood","total count":173,"country":"USA","inactive":42,"survivor":22,"geo_score":0.857,"annuitant":35,"id":"a6mvf66btslc","geo_precision":"city","state":"illinois","active":74},"type":"Feature","geometry":{"type":"Point","coordinates":[-87.68732,41.811929]}},{"properties":{"city":"Bensenville","total count":null,"country":"USA","inactive":1,"survivor":null,"geo_score":0.857,"annuitant":null,"id":"a6mvf6aywqj6","geo_precision":"city","state":"illinois","active":null},"type":"Feature","geometry":{"type":"Point","coordinates":[-88.088716,41.839679]}},{"properties":{"city":"Berkeley","total count":50,"country":"USA","inactive":15,"survivor":6,"geo_score":0.786,"annuitant":6,"id":"a6mvf63i64gg","geo_precision":"city","state":"illinois","active":23},"type":"Feature","geometry":{"type":"Point","coordinates":[-89.517876,39.874772]}},{"properties":{"city":"Berwyn","total count":479,"country":"USA","inactive":149,"survivor":28,"geo_score":0.857,"annuitant":60,"id":"a6mvf6fkctys","geo_precision":"city","state":"illinois","active":242},"type":"Feature","geometry":{"type":"Point","coordinates":[-87.68732,41.811929]}},{"properties":{"city":"Blue Island","total count":117,"country":"USA","inactive":28,"survivor":24,"geo_score":0.743,"annuitant":15,"id":"a6mvf6124l9x","geo_precision":"city","state":"illinois","active":50},"type":"Feature","geometry":{"type":"Point","coordinates":[-88.102,41.277532]}},{"properties":{"city":"Bridgeview","total count":85,"country":"USA","inactive":23,"survivor":18,"geo_score":0.857,"annuitant":9,"id":"a6mvf6dzvzum","geo_precision":"city","state":"illinois","active":35},"type":"Feature","geometry":{"type":"Point","coordinates":[-87.68732,41.811929]}},{"properties":{"city":"Broadview","total count":88,"country":"USA","inactive":27,"survivor":12,"geo_score":0.857,"annuitant":16,"id":"a6mvf6acqv7r","geo_precision":"city","state":"illinois","active":33},"type":"Feature","geometry":{"type":"Point","coordinates":[-87.853393,41.86392]}},{"properties":{"city":"Brookfield","total count":226,"country":"USA","inactive":67,"survivor":23,"geo_score":0.814,"annuitant":34,"id":"a6mvf65wc10u","geo_precision":"city","state":"illinois","active":102},"type":"Feature","geometry":{"type":"Point","coordinates":[-89.684004,42.048638]}},{"properties":{"city":"Buffalo Grove","total count":null,"country":"USA","inactive":null,"survivor":null,"geo_score":0.798,"annuitant":3,"id":"a6mvf68p17w0","geo_precision":"city","state":"illinois","active":null},"type":"Feature","geometry":{"type":"Point","coordinates":[-89.387944,39.849893]}},{"properties":{"city":"Burbank","total count":150,"country":"USA","inactive":39,"survivor":15,"geo_score":0.857,"annuitant":21,"id":"a6mvf64ixtre","geo_precision":"city","state":"illinois","active":75},"type":"Feature","geometry":{"type":"Point","coordinates":[-87.68732,41.811929]}},{"properties":{"city":"Burnham","total count":25,"country":"USA","inactive":7,"survivor":2,"geo_score":0.857,"annuitant":4,"id":"a6mvf62r42v4","geo_precision":"city","state":"illinois","active":12},"type":"Feature","geometry":{"type":"Point","coordinates":[-87.556711,41.638924]}},{"properties":{"city":"Burr Ridge","total count":null,"country":"USA","inactive":null,"survivor":null,"geo_score":0.762,"annuitant":null,"id":"a6mvf66uy0wr","geo_precision":"city","state":"illinois","active":1},"type":"Feature","geometry":{"type":"Point","coordinates":[-90.401512,39.506159]}},{"properties":{"city":"Calumet City","total count":281,"country":"USA","inactive":46,"survivor":43,"geo_score":0.857,"annuitant":55,"id":"a6mvf5zjn3uc","geo_precision":"city","state":"illinois","active":137},"type":"Feature","geometry":{"type":"Point","coordinates":[-87.68732,41.811929]}},{"properties":{"city":"Calumet Park","total count":77,"country":"USA","inactive":16,"survivor":8,"geo_score":0.857,"annuitant":11,"id":"a6mvf6dtg492","geo_precision":"city","state":"illinois","active":42},"type":"Feature","geometry":{"type":"Point","coordinates":[-87.660604,41.662812]}},{"properties":{"city":"Chicago","total count":26768,"country":"USA","inactive":7299,"survivor":2620,"geo_score":0.857,"annuitant":4099,"id":"a6mvf613padh","geo_precision":"city","state":"illinois","active":12750},"type":"Feature","geometry":{"type":"Point","coordinates":[-87.650052,41.850033]}},{"properties":{"city":"Chicago Heights","total count":241,"country":"USA","inactive":66,"survivor":29,"geo_score":0.786,"annuitant":46,"id":"a6mvf67nsv3c","geo_precision":"city","state":"illinois","active":100},"type":"Feature","geometry":{"type":"Point","coordinates":[-87.650052,41.850033]}},{"properties":{"city":"Chicago Hts","total count":null,"country":"USA","inactive":null,"survivor":null,"geo_score":0.814,"annuitant":null,"id":"a6mvf6bvmzmg","geo_precision":"city","state":"illinois","active":2},"type":"Feature","geometry":{"type":"Point","coordinates":[-87.650052,41.850033]}},{"properties":{"city":"Chicago Ridge","total count":76,"country":"USA","inactive":19,"survivor":11,"geo_score":0.798,"annuitant":14,"id":"a6mvf69600x1","geo_precision":"city","state":"illinois","active":32},"type":"Feature","geometry":{"type":"Point","coordinates":[-87.650052,41.850033]}},{"properties":{"city":"Cicero","total count":300,"country":"USA","inactive":81,"survivor":27,"geo_score":0.857,"annuitant":20,"id":"a6mvf64jz5lt","geo_precision":"city","state":"illinois","active":172},"type":"Feature","geometry":{"type":"Point","coordinates":[-87.753945,41.845588]}},{"properties":{"city":"Country Clb Hills","total count":null,"country":"USA","inactive":null,"survivor":1,"geo_score":0.752,"annuitant":null,"id":"a6mvf63gph0h","geo_precision":"city","state":"illinois","active":null},"type":"Feature","geometry":{"type":"Point","coordinates":[-89.670103,40.596705]}},{"properties":{"city":"Country Club Hills","total count":226,"country":"USA","inactive":57,"survivor":30,"geo_score":0.75,"annuitant":37,"id":"a6mvf63t9job","geo_precision":"city","state":"illinois","active":102},"type":"Feature","geometry":{"type":"Point","coordinates":[-89.670103,40.596705]}},{"properties":{"city":"Countryside","total count":66,"country":"USA","inactive":20,"survivor":9,"geo_score":0.857,"annuitant":10,"id":"a6mvf6b53jau","geo_precision":"city","state":"illinois","active":27},"type":"Feature","geometry":{"type":"Point","coordinates":[-87.878114,41.782809]}},{"properties":{"city":"Crestwood","total count":73,"country":"USA","inactive":18,"survivor":5,"geo_score":0.857,"annuitant":16,"id":"a6mvf610a49s","geo_precision":"city","state":"illinois","active":34},"type":"Feature","geometry":{"type":"Point","coordinates":[-87.752551,41.661144]}},{"properties":{"city":"Crete","total count":null,"country":"USA","inactive":null,"survivor":null,"geo_score":0.776,"annuitant":1,"id":"a6mvf68rb2yg","geo_precision":"city","state":"illinois","active":null},"type":"Feature","geometry":{"type":"Point","coordinates":[-88.424222,39.798644]}},{"properties":{"city":"Ctry Clb Hls","total count":null,"country":"USA","inactive":null,"survivor":null,"geo_score":0.743,"annuitant":1,"id":"a6mvf63h9naq","geo_precision":"city","state":"illinois","active":1},"type":"Feature","geometry":{"type":"Point","coordinates":[-89.670103,40.596705]}},{"properties":{"city":"Darien","total count":null,"country":"USA","inactive":null,"survivor":null,"geo_score":0.857,"annuitant":1,"id":"a6mvf61wajgt","geo_precision":"city","state":"illinois","active":null},"type":"Feature","geometry":{"type":"Point","coordinates":[-87.98046,41.743437]}},{"properties":{"city":"Des Plaines","total count":576,"country":"USA","inactive":167,"survivor":68,"geo_score":0.743,"annuitant":85,"id":"a6mvf684qv51","geo_precision":"city","state":"illinois","active":256},"type":"Feature","geometry":{"type":"Point","coordinates":[-89.79483,39.985327]}},{"properties":{"city":"Dixmoor","total count":10,"country":"USA","inactive":1,"survivor":1,"geo_score":0.857,"annuitant":2,"id":"a6mvf6f9hsjl","geo_precision":"city","state":"illinois","active":6},"type":"Feature","geometry":{"type":"Point","coordinates":[-87.660881,41.631701]}},{"properties":{"city":"Dolton","total count":214,"country":"USA","inactive":41,"survivor":29,"geo_score":0.857,"annuitant":42,"id":"a6mvf62evyg5","geo_precision":"city","state":"illinois","active":102},"type":"Feature","geometry":{"type":"Point","coordinates":[-87.68732,41.811929]}},{"properties":{"city":"East Hazel Crest","total count":null,"country":"USA","inactive":null,"survivor":1,"geo_score":0.857,"annuitant":null,"id":"a6mvf65ctxj5","geo_precision":"city","state":"illinois","active":null},"type":"Feature","geometry":{"type":"Point","coordinates":[-87.646435,41.573646]}},{"properties":{"city":"Elk Grove Village","total count":261,"country":"USA","inactive":95,"survivor":29,"geo_score":0.743,"annuitant":35,"id":"a6mvf608unpi","geo_precision":"city","state":"illinois","active":102},"type":"Feature","geometry":{"type":"Point","coordinates":[-89.265915,37.300605]}},{"properties":{"city":"Elk Grove Vlg","total count":null,"country":"USA","inactive":3,"survivor":null,"geo_score":0.753,"annuitant":null,"id":"a6mvf6crmzf6","geo_precision":"city","state":"illinois","active":1},"type":"Feature","geometry":{"type":"Point","coordinates":[-89.14093,41.895863]}},{"properties":{"city":"Elmhurst","total count":null,"country":"USA","inactive":null,"survivor":null,"geo_score":0.857,"annuitant":null,"id":"a6mvf66pvsux","geo_precision":"city","state":"illinois","active":1},"type":"Feature","geometry":{"type":"Point","coordinates":[-87.946413,41.88353]}},{"properties":{"city":"Elmwood Park","total count":286,"country":"USA","inactive":117,"survivor":20,"geo_score":0.857,"annuitant":41,"id":"a6mvf65ixtae","geo_precision":"city","state":"illinois","active":108},"type":"Feature","geometry":{"type":"Point","coordinates":[-87.809227,41.921142]}},{"properties":{"city":"Elwood","total count":null,"country":"USA","inactive":null,"survivor":null,"geo_score":0.857,"annuitant":1,"id":"a6mvf67kvy25","geo_precision":"city","state":"illinois","active":null},"type":"Feature","geometry":{"type":"Point","coordinates":[-88.090588,41.44288]}},{"properties":{"city":"Evanston","total count":1155,"country":"USA","inactive":368,"survivor":130,"geo_score":0.857,"annuitant":250,"id":"a6mvf68rwsme","geo_precision":"city","state":"illinois","active":407},"type":"Feature","geometry":{"type":"Point","coordinates":[-87.702155,42.049148]}},{"properties":{"city":"Evergreen Park","total count":260,"country":"USA","inactive":70,"survivor":30,"geo_score":0.857,"annuitant":48,"id":"a6mvf677li65","geo_precision":"city","state":"illinois","active":112},"type":"Feature","geometry":{"type":"Point","coordinates":[-87.701718,41.720589]}},{"properties":{"city":"Flossmoor","total count":292,"country":"USA","inactive":83,"survivor":30,"geo_score":0.786,"annuitant":53,"id":"a6mvf64uto6h","geo_precision":"city","state":"illinois","active":126},"type":"Feature","geometry":{"type":"Point","coordinates":[-87.713381,41.546145]}},{"properties":{"city":"Ford Heights","total count":15,"country":"USA","inactive":5,"survivor":3,"geo_score":0.766,"annuitant":4,"id":"a6mvf65emtod","geo_precision":"city","state":"illinois","active":3},"type":"Feature","geometry":{"type":"Point","coordinates":[-89.862598,38.830881]}},{"properties":{"city":"Forest Park","total count":267,"country":"USA","inactive":90,"survivor":14,"geo_score":0.762,"annuitant":29,"id":"a6mvf61i14do","geo_precision":"city","state":"illinois","active":134},"type":"Feature","geometry":{"type":"Point","coordinates":[-87.687329,41.068206]}},{"properties":{"city":"Forest View","total count":null,"country":"USA","inactive":3,"survivor":null,"geo_score":0.857,"annuitant":null,"id":"a6mvf6atgojg","geo_precision":"city","state":"illinois","active":null},"type":"Feature","geometry":{"type":"Point","coordinates":[-87.79339,41.808643]}},{"properties":{"city":"Forestview","total count":null,"country":"USA","inactive":null,"survivor":null,"geo_score":0.857,"annuitant":null,"id":"a6mvf67oy2co","geo_precision":"city","state":"illinois","active":1},"type":"Feature","geometry":{"type":"Point","coordinates":[-87.79339,41.808643]}},{"properties":{"city":"Franklin Park","total count":139,"country":"USA","inactive":68,"survivor":5,"geo_score":0.802,"annuitant":11,"id":"a6mvf69c6yb3","geo_precision":"city","state":"illinois","active":55},"type":"Feature","geometry":{"type":"Point","coordinates":[-88.511203,42.276689]}},{"properties":{"city":"Glen Ellyn","total count":null,"country":"USA","inactive":1,"survivor":null,"geo_score":0.762,"annuitant":null,"id":"a6mvf68e5tf2","geo_precision":"city","state":"illinois","active":null},"type":"Feature","geometry":{"type":"Point","coordinates":[-88.271174,41.294199]}},{"properties":{"city":"Glencoe","total count":70,"country":"USA","inactive":17,"survivor":9,"geo_score":0.796,"annuitant":21,"id":"a6mvf68bqp32","geo_precision":"city","state":"illinois","active":23},"type":"Feature","geometry":{"type":"Point","coordinates":[-88.039233,41.881696]}},{"properties":{"city":"Glenview","total count":547,"country":"USA","inactive":188,"survivor":51,"geo_score":0.857,"annuitant":114,"id":"a6mvf63s5bx3","geo_precision":"city","state":"illinois","active":194},"type":"Feature","geometry":{"type":"Point","coordinates":[-89.937325,38.586994]}},{"properties":{"city":"Glenwood","total count":134,"country":"USA","inactive":39,"survivor":20,"geo_score":0.857,"annuitant":22,"id":"a6mvf6avj7im","geo_precision":"city","state":"illinois","active":53},"type":"Feature","geometry":{"type":"Point","coordinates":[-87.68732,41.811929]}},{"properties":{"city":"Golf","total count":null,"country":"USA","inactive":null,"survivor":null,"geo_score":0.857,"annuitant":null,"id":"a6mvf60ttxx7","geo_precision":"city","state":"illinois","active":1},"type":"Feature","geometry":{"type":"Point","coordinates":[-87.791636,42.058029]}},{"properties":{"city":"Hanover Park","total count":145,"country":"USA","inactive":60,"survivor":12,"geo_score":0.857,"annuitant":17,"id":"a6mvf6abxlwq","geo_precision":"city","state":"illinois","active":56},"type":"Feature","geometry":{"type":"Point","coordinates":[-88.145074,41.999472]}},{"properties":{"city":"Harvey","total count":138,"country":"USA","inactive":25,"survivor":25,"geo_score":0.857,"annuitant":26,"id":"a6mvf6btni8m","geo_precision":"city","state":"illinois","active":62},"type":"Feature","geometry":{"type":"Point","coordinates":[-87.68732,41.811929]}},{"properties":{"city":"Harwood Heights","total count":46,"country":"USA","inactive":18,"survivor":2,"geo_score":0.857,"annuitant":8,"id":"a6mvf61kvd18","geo_precision":"city","state":"illinois","active":18},"type":"Feature","geometry":{"type":"Point","coordinates":[-87.807561,41.967253]}},{"properties":{"city":"Harwood Hts","total count":null,"country":"USA","inactive":null,"survivor":null,"geo_score":0.816,"annuitant":null,"id":"a6mvf65kbwv2","geo_precision":"city","state":"illinois","active":2},"type":"Feature","geometry":{"type":"Point","coordinates":[-87.807561,41.967253]}},{"properties":{"city":"Hazel Crest","total count":202,"country":"USA","inactive":49,"survivor":27,"geo_score":0.814,"annuitant":38,"id":"a6mvf6etw5lg","geo_precision":"city","state":"illinois","active":88},"type":"Feature","geometry":{"type":"Point","coordinates":[-87.740051,41.683367]}},{"properties":{"city":"Hickory Hills","total count":125,"country":"USA","inactive":28,"survivor":20,"geo_score":0.762,"annuitant":28,"id":"a6mvf6ccqxcq","geo_precision":"city","state":"illinois","active":49},"type":"Feature","geometry":{"type":"Point","coordinates":[-89.670103,40.596705]}},{"properties":{"city":"Highland Park","total count":null,"country":"USA","inactive":null,"survivor":null,"geo_score":0.774,"annuitant":1,"id":"a6mvf6d7d3zt","geo_precision":"city","state":"illinois","active":null},"type":"Feature","geometry":{"type":"Point","coordinates":[-88.748949,39.215876]}},{"properties":{"city":"Hillside","total count":76,"country":"USA","inactive":23,"survivor":9,"geo_score":0.857,"annuitant":14,"id":"a6mvf6eecwvj","geo_precision":"city","state":"illinois","active":30},"type":"Feature","geometry":{"type":"Point","coordinates":[-87.68732,41.811929]}},{"properties":{"city":"Hines","total count":null,"country":"USA","inactive":null,"survivor":null,"geo_score":0.857,"annuitant":1,"id":"a6mvf6c11t0f","geo_precision":"city","state":"illinois","active":1},"type":"Feature","geometry":{"type":"Point","coordinates":[-87.68732,41.811929]}},{"properties":{"city":"Hinsdale","total count":null,"country":"USA","inactive":null,"survivor":1,"geo_score":0.857,"annuitant":1,"id":"a6mvf642ieg2","geo_precision":"city","state":"illinois","active":null},"type":"Feature","geometry":{"type":"Point","coordinates":[-87.966845,41.78213]}},{"properties":{"city":"Hodgkins","total count":null,"country":"USA","inactive":1,"survivor":null,"geo_score":0.857,"annuitant":1,"id":"a6mvf6eb8y8l","geo_precision":"city","state":"illinois","active":2},"type":"Feature","geometry":{"type":"Point","coordinates":[-87.857835,41.768921]}},{"properties":{"city":"Hoffman Est","total count":null,"country":"USA","inactive":4,"survivor":null,"geo_score":0.816,"annuitant":1,"id":"a6mvf67mxhvg","geo_precision":"city","state":"illinois","active":3},"type":"Feature","geometry":{"type":"Point","coordinates":[-88.079795,42.042805]}},{"properties":{"city":"Hoffman Estates","total count":367,"country":"USA","inactive":136,"survivor":25,"geo_score":0.857,"annuitant":55,"id":"a6mvf67t9yfg","geo_precision":"city","state":"illinois","active":151},"type":"Feature","geometry":{"type":"Point","coordinates":[-88.079795,42.042805]}},{"properties":{"city":"Hometown","total count":34,"country":"USA","inactive":7,"survivor":9,"geo_score":0.857,"annuitant":6,"id":"a6mvf6770d94","geo_precision":"city","state":"illinois","active":12},"type":"Feature","geometry":{"type":"Point","coordinates":[-87.68732,41.811929]}},{"properties":{"city":"Homewood","total count":499,"country":"USA","inactive":164,"survivor":47,"geo_score":0.857,"annuitant":92,"id":"a6mvf6e5pqtv","geo_precision":"city","state":"illinois","active":196},"type":"Feature","geometry":{"type":"Point","coordinates":[-87.68732,41.811929]}},{"properties":{"city":"Hopkins Park","total count":null,"country":"USA","inactive":null,"survivor":1,"geo_score":0.857,"annuitant":null,"id":"a6mvf6fuitpn","geo_precision":"city","state":"illinois","active":null},"type":"Feature","geometry":{"type":"Point","coordinates":[-87.888971,41.146464]}},{"properties":{"city":"Indian Head Park","total count":58,"country":"USA","inactive":4,"survivor":12,"geo_score":0.786,"annuitant":22,"id":"a6mvf67tqgmi","geo_precision":"city","state":"illinois","active":20},"type":"Feature","geometry":{"type":"Point","coordinates":[-87.647822,41.501702]}},{"properties":{"city":"Indian Head Pk","total count":null,"country":"USA","inactive":null,"survivor":null,"geo_score":0.798,"annuitant":null,"id":"a6mvf6am8dw6","geo_precision":"city","state":"illinois","active":1},"type":"Feature","geometry":{"type":"Point","coordinates":[-87.647822,41.501702]}},{"properties":{"city":"Indianhead Park","total count":null,"country":"USA","inactive":3,"survivor":1,"geo_score":0.786,"annuitant":null,"id":"a6mvf61u52ap","geo_precision":"city","state":"illinois","active":1},"type":"Feature","geometry":{"type":"Point","coordinates":[-87.647822,41.501702]}},{"properties":{"city":"Inverness","total count":28,"country":"USA","inactive":4,"survivor":3,"geo_score":0.857,"annuitant":13,"id":"a6mvf67zkpq9","geo_precision":"city","state":"illinois","active":8},"type":"Feature","geometry":{"type":"Point","coordinates":[-88.096187,42.118082]}},{"properties":{"city":"Justice","total count":55,"country":"USA","inactive":13,"survivor":6,"geo_score":0.857,"annuitant":12,"id":"a6mvf6eshwqp","geo_precision":"city","state":"illinois","active":24},"type":"Feature","geometry":{"type":"Point","coordinates":[-87.68732,41.811929]}},{"properties":{"city":"Kenilworth","total count":null,"country":"USA","inactive":4,"survivor":null,"geo_score":0.857,"annuitant":6,"id":"a6mvf66mp0p9","geo_precision":"city","state":"illinois","active":3},"type":"Feature","geometry":{"type":"Point","coordinates":[-87.71456,42.088428]}},{"properties":{"city":"La Grange","total count":251,"country":"USA","inactive":79,"survivor":35,"geo_score":0.857,"annuitant":50,"id":"a6mvf5zh5wyq","geo_precision":"city","state":"illinois","active":87},"type":"Feature","geometry":{"type":"Point","coordinates":[-90.537349,39.94727]}},{"properties":{"city":"La Grange Highlands","total count":11,"country":"USA","inactive":2,"survivor":1,"geo_score":0.782,"annuitant":2,"id":"a6mvf6516vvs","geo_precision":"city","state":"illinois","active":6},"type":"Feature","geometry":{"type":"Point","coordinates":[-90.537349,39.94727]}},{"properties":{"city":"La Grange Park","total count":194,"country":"USA","inactive":66,"survivor":29,"geo_score":0.81,"annuitant":38,"id":"a6mvf69qv36g","geo_precision":"city","state":"illinois","active":61},"type":"Feature","geometry":{"type":"Point","coordinates":[-90.537349,39.94727]}},{"properties":{"city":"La Grange Pk","total count":null,"country":"USA","inactive":2,"survivor":null,"geo_score":0.829,"annuitant":null,"id":"a6mvf62to0ea","geo_precision":"city","state":"illinois","active":1},"type":"Feature","geometry":{"type":"Point","coordinates":[-90.537349,39.94727]}},{"properties":{"city":"Lagrange","total count":null,"country":"USA","inactive":null,"survivor":6,"geo_score":0.857,"annuitant":null,"id":"a6mvf6aginlv","geo_precision":"city","state":"illinois","active":null},"type":"Feature","geometry":{"type":"Point","coordinates":[-90.537349,39.94727]}},{"properties":{"city":"Lagrange Hlds","total count":null,"country":"USA","inactive":2,"survivor":null,"geo_score":0.81,"annuitant":null,"id":"a6mvf6e2fzge","geo_precision":"city","state":"illinois","active":2},"type":"Feature","geometry":{"type":"Point","coordinates":[-90.537349,39.94727]}},{"properties":{"city":"Lansing","total count":231,"country":"USA","inactive":44,"survivor":19,"geo_score":0.857,"annuitant":36,"id":"a6mvf6bo4fye","geo_precision":"city","state":"illinois","active":132},"type":"Feature","geometry":{"type":"Point","coordinates":[-87.68732,41.811929]}},{"properties":{"city":"Lemont","total count":226,"country":"USA","inactive":59,"survivor":20,"geo_score":0.857,"annuitant":45,"id":"a6mvf6ari5kf","geo_precision":"city","state":"illinois","active":102},"type":"Feature","geometry":{"type":"Point","coordinates":[-87.975568,41.707431]}},{"properties":{"city":"Lincolnshire","total count":null,"country":"USA","inactive":null,"survivor":null,"geo_score":0.806,"annuitant":1,"id":"a6mvf69sa1x6","geo_precision":"city","state":"illinois","active":null},"type":"Feature","geometry":{"type":"Point","coordinates":[-87.806994,41.502534]}},{"properties":{"city":"Lincolnwood","total count":188,"country":"USA","inactive":51,"survivor":19,"geo_score":0.786,"annuitant":47,"id":"a6mvf61td3yd","geo_precision":"city","state":"illinois","active":71},"type":"Feature","geometry":{"type":"Point","coordinates":[-87.806994,41.502534]}},{"properties":{"city":"Lombard","total count":null,"country":"USA","inactive":null,"survivor":null,"geo_score":0.798,"annuitant":null,"id":"a6mvf6dvnscg","geo_precision":"city","state":"illinois","active":1},"type":"Feature","geometry":{"type":"Point","coordinates":[-89.658431,41.221148]}},{"properties":{"city":"Lynwood","total count":102,"country":"USA","inactive":21,"survivor":11,"geo_score":0.857,"annuitant":20,"id":"a6mvf693i6yz","geo_precision":"city","state":"illinois","active":50},"type":"Feature","geometry":{"type":"Point","coordinates":[-87.538652,41.526424]}},{"properties":{"city":"Lyons","total count":57,"country":"USA","inactive":16,"survivor":2,"geo_score":0.857,"annuitant":10,"id":"a6mvf64ld180","geo_precision":"city","state":"illinois","active":29},"type":"Feature","geometry":{"type":"Point","coordinates":[-87.68732,41.811929]}},{"properties":{"city":"Marengo","total count":null,"country":"USA","inactive":null,"survivor":null,"geo_score":0.857,"annuitant":1,"id":"a6mvf6afivb4","geo_precision":"city","state":"illinois","active":null},"type":"Feature","geometry":{"type":"Point","coordinates":[-88.607897,42.255176]}},{"properties":{"city":"Markham","total count":99,"country":"USA","inactive":26,"survivor":21,"geo_score":0.857,"annuitant":14,"id":"a6mvf68yh0xb","geo_precision":"city","state":"illinois","active":38},"type":"Feature","geometry":{"type":"Point","coordinates":[-87.69477,41.593645]}},{"properties":{"city":"Matteson","total count":319,"country":"USA","inactive":100,"survivor":29,"geo_score":0.857,"annuitant":62,"id":"a6mvf64xf7wv","geo_precision":"city","state":"illinois","active":128},"type":"Feature","geometry":{"type":"Point","coordinates":[-87.68732,41.811929]}},{"properties":{"city":"Maywood","total count":206,"country":"USA","inactive":74,"survivor":27,"geo_score":0.857,"annuitant":43,"id":"a6mvf61601le","geo_precision":"city","state":"illinois","active":62},"type":"Feature","geometry":{"type":"Point","coordinates":[-87.68732,41.811929]}},{"properties":{"city":"Mc Cook","total count":null,"country":"USA","inactive":1,"survivor":null,"geo_score":0.857,"annuitant":null,"id":"a6mvf62pm17a","geo_precision":"city","state":"illinois","active":null},"type":"Feature","geometry":{"type":"Point","coordinates":[-87.84478,41.79781]}},{"properties":{"city":"Melrose Park","total count":254,"country":"USA","inactive":93,"survivor":23,"geo_score":0.805,"annuitant":34,"id":"a6mvf60nybnf","geo_precision":"city","state":"illinois","active":104},"type":"Feature","geometry":{"type":"Point","coordinates":[-87.764196,39.223372]}},{"properties":{"city":"Merrionette Park","total count":16,"country":"USA","inactive":4,"survivor":2,"geo_score":0.857,"annuitant":2,"id":"a6mvf64pepuc","geo_precision":"city","state":"illinois","active":8},"type":"Feature","geometry":{"type":"Point","coordinates":[-87.700328,41.6842]}},{"properties":{"city":"Midlothian","total count":75,"country":"USA","inactive":26,"survivor":9,"geo_score":0.857,"annuitant":7,"id":"a6mvf62db8i1","geo_precision":"city","state":"illinois","active":33},"type":"Feature","geometry":{"type":"Point","coordinates":[-87.68732,41.811929]}},{"properties":{"city":"Mokena","total count":null,"country":"USA","inactive":null,"survivor":null,"geo_score":0.857,"annuitant":1,"id":"a6mvf6063x8p","geo_precision":"city","state":"illinois","active":null},"type":"Feature","geometry":{"type":"Point","coordinates":[-88.006767,41.426002]}},{"properties":{"city":"Monee","total count":null,"country":"USA","inactive":null,"survivor":1,"geo_score":0.857,"annuitant":1,"id":"a6mvf6fgw7v6","geo_precision":"city","state":"illinois","active":null},"type":"Feature","geometry":{"type":"Point","coordinates":[-87.786645,41.412269]}},{"properties":{"city":"Morton Grove","total count":285,"country":"USA","inactive":86,"survivor":28,"geo_score":0.74,"annuitant":67,"id":"a6mvf6bxlgw6","geo_precision":"city","state":"illinois","active":104},"type":"Feature","geometry":{"type":"Point","coordinates":[-89.033418,41.57142]}},{"properties":{"city":"Mount Prospect","total count":334,"country":"USA","inactive":106,"survivor":31,"geo_score":0.758,"annuitant":64,"id":"a6mvf68vnkwz","geo_precision":"city","state":"illinois","active":133},"type":"Feature","geometry":{"type":"Point","coordinates":[-88.397826,39.439202]}},{"properties":{"city":"Mt Prospect","total count":77,"country":"USA","inactive":30,"survivor":10,"geo_score":0.729,"annuitant":2,"id":"a6mvf6dcjd72","geo_precision":"city","state":"illinois","active":35},"type":"Feature","geometry":{"type":"Point","coordinates":[-87.855308,38.397547]}},{"properties":{"city":"N Riverside","total count":null,"country":"USA","inactive":3,"survivor":null,"geo_score":0.843,"annuitant":null,"id":"a6mvf6bycoc1","geo_precision":"city","state":"illinois","active":1},"type":"Feature","geometry":{"type":"Point","coordinates":[-87.68732,41.811929]}},{"properties":{"city":"Niles","total count":211,"country":"USA","inactive":65,"survivor":22,"geo_score":0.857,"annuitant":34,"id":"a6mvf678p9e5","geo_precision":"city","state":"illinois","active":90},"type":"Feature","geometry":{"type":"Point","coordinates":[-87.811163,42.031179]}},{"properties":{"city":"No Riverside","total count":null,"country":"USA","inactive":null,"survivor":null,"geo_score":0.831,"annuitant":null,"id":"a6mvf68w3i40","geo_precision":"city","state":"illinois","active":1},"type":"Feature","geometry":{"type":"Point","coordinates":[-87.68732,41.811929]}},{"properties":{"city":"Norridge","total count":87,"country":"USA","inactive":30,"survivor":12,"geo_score":0.857,"annuitant":16,"id":"a6mvf6057a76","geo_precision":"city","state":"illinois","active":29},"type":"Feature","geometry":{"type":"Point","coordinates":[-87.827284,41.963364]}},{"properties":{"city":"North Riverside","total count":69,"country":"USA","inactive":22,"survivor":9,"geo_score":0.857,"annuitant":11,"id":"a6mvf6bvc2rs","geo_precision":"city","state":"illinois","active":27},"type":"Feature","geometry":{"type":"Point","coordinates":[-87.823114,41.842809]}},{"properties":{"city":"Northbrook","total count":369,"country":"USA","inactive":107,"survivor":57,"geo_score":0.79,"annuitant":81,"id":"a6mvf63a7c74","geo_precision":"city","state":"illinois","active":124},"type":"Feature","geometry":{"type":"Point","coordinates":[-88.140635,42.207802]}},{"properties":{"city":"Northfield","total count":61,"country":"USA","inactive":24,"survivor":3,"geo_score":0.81,"annuitant":14,"id":"a6mvf61say1g","geo_precision":"city","state":"illinois","active":20},"type":"Feature","geometry":{"type":"Point","coordinates":[-87.875345,42.086694]}},{"properties":{"city":"Northlake","total count":83,"country":"USA","inactive":41,"survivor":7,"geo_score":0.857,"annuitant":5,"id":"a6mvf5zl7m9r","geo_precision":"city","state":"illinois","active":30},"type":"Feature","geometry":{"type":"Point","coordinates":[-87.895619,41.917253]}},{"properties":{"city":"Oak Forest","total count":201,"country":"USA","inactive":53,"survivor":23,"geo_score":0.762,"annuitant":34,"id":"a6mvf66swglm","geo_precision":"city","state":"illinois","active":91},"type":"Feature","geometry":{"type":"Point","coordinates":[-88.517825,37.576438]}},{"properties":{"city":"Oak Lawn","total count":632,"country":"USA","inactive":157,"survivor":101,"geo_score":0.776,"annuitant":98,"id":"a6mvf6cgo5f3","geo_precision":"city","state":"illinois","active":276},"type":"Feature","geometry":{"type":"Point","coordinates":[-88.517825,37.576438]}},{"properties":{"city":"Oak Park","total count":1845,"country":"USA","inactive":574,"survivor":128,"geo_score":0.776,"annuitant":279,"id":"a6mvf6b4ebxz","geo_precision":"city","state":"illinois","active":864},"type":"Feature","geometry":{"type":"Point","coordinates":[-88.517825,37.576438]}},{"properties":{"city":"Olmpia Fields","total count":null,"country":"USA","inactive":null,"survivor":1,"geo_score":0.75,"annuitant":null,"id":"a6mvf629b7g6","geo_precision":"city","state":"illinois","active":null},"type":"Feature","geometry":{"type":"Point","coordinates":[-90.194704,38.187143]}},{"properties":{"city":"Olympia Fields","total count":159,"country":"USA","inactive":42,"survivor":13,"geo_score":0.747,"annuitant":43,"id":"a6mvf6bzo37l","geo_precision":"city","state":"illinois","active":61},"type":"Feature","geometry":{"type":"Point","coordinates":[-90.194704,38.187143]}},{"properties":{"city":"Olympia Flds","total count":null,"country":"USA","inactive":2,"survivor":null,"geo_score":0.74,"annuitant":null,"id":"a6mvf6ekp21y","geo_precision":"city","state":"illinois","active":1},"type":"Feature","geometry":{"type":"Point","coordinates":[-90.194704,38.187143]}},{"properties":{"city":"Orland Hills","total count":49,"country":"USA","inactive":14,"survivor":5,"geo_score":0.753,"annuitant":2,"id":"a6mvf62yt3hd","geo_precision":"city","state":"illinois","active":28},"type":"Feature","geometry":{"type":"Point","coordinates":[-89.670103,40.596705]}},{"properties":{"city":"Orland Park","total count":836,"country":"USA","inactive":224,"survivor":91,"geo_score":0.792,"annuitant":169,"id":"a6mvf6ckevnl","geo_precision":"city","state":"illinois","active":352},"type":"Feature","geometry":{"type":"Point","coordinates":[-87.843108,41.585311]}},{"properties":{"city":"Palatine","total count":672,"country":"USA","inactive":233,"survivor":59,"geo_score":0.786,"annuitant":105,"id":"a6mvf63k05p8","geo_precision":"city","state":"illinois","active":275},"type":"Feature","geometry":{"type":"Point","coordinates":[-88.803953,37.763938]}},{"properties":{"city":"Palos Heights","total count":248,"country":"USA","inactive":75,"survivor":28,"geo_score":0.857,"annuitant":53,"id":"a6mvf6feks3e","geo_precision":"city","state":"illinois","active":92},"type":"Feature","geometry":{"type":"Point","coordinates":[-87.68732,41.811929]}},{"properties":{"city":"Palos Hills","total count":209,"country":"USA","inactive":41,"survivor":24,"geo_score":0.757,"annuitant":39,"id":"a6mvf63oo6b3","geo_precision":"city","state":"illinois","active":105},"type":"Feature","geometry":{"type":"Point","coordinates":[-89.670103,40.596705]}},{"properties":{"city":"Palos Park","total count":173,"country":"USA","inactive":44,"survivor":18,"geo_score":0.857,"annuitant":38,"id":"a6mvf63nxtn1","geo_precision":"city","state":"illinois","active":73},"type":"Feature","geometry":{"type":"Point","coordinates":[-87.68732,41.811929]}},{"properties":{"city":"Park Forest","total count":379,"country":"USA","inactive":89,"survivor":49,"geo_score":0.786,"annuitant":88,"id":"a6mvf6arow61","geo_precision":"city","state":"illinois","active":153},"type":"Feature","geometry":{"type":"Point","coordinates":[-88.393085,40.754176]}},{"properties":{"city":"Park Ridge","total count":498,"country":"USA","inactive":160,"survivor":60,"geo_score":0.857,"annuitant":104,"id":"a6mvf62yjav7","geo_precision":"city","state":"illinois","active":174},"type":"Feature","geometry":{"type":"Point","coordinates":[-87.843714,42.037228]}},{"properties":{"city":"Phoenix","total count":19,"country":"USA","inactive":4,"survivor":2,"geo_score":0.857,"annuitant":3,"id":"a6mvf66f4oor","geo_precision":"city","state":"illinois","active":10},"type":"Feature","geometry":{"type":"Point","coordinates":[-87.634768,41.611146]}},{"properties":{"city":"Posen","total count":null,"country":"USA","inactive":2,"survivor":null,"geo_score":0.857,"annuitant":6,"id":"a6mvf68e2bkv","geo_precision":"city","state":"illinois","active":6},"type":"Feature","geometry":{"type":"Point","coordinates":[-89.335639,38.258384]}},{"properties":{"city":"Prospect Heights","total count":71,"country":"USA","inactive":25,"survivor":3,"geo_score":0.79,"annuitant":20,"id":"a6mvf64lazja","geo_precision":"city","state":"illinois","active":23},"type":"Feature","geometry":{"type":"Point","coordinates":[-88.212826,40.319478]}},{"properties":{"city":"Prospect Hts","total count":null,"country":"USA","inactive":3,"survivor":4,"geo_score":0.818,"annuitant":null,"id":"a6mvf66w2k8l","geo_precision":"city","state":"illinois","active":4},"type":"Feature","geometry":{"type":"Point","coordinates":[-88.212826,40.319478]}},{"properties":{"city":"Richton Park","total count":182,"country":"USA","inactive":43,"survivor":19,"geo_score":0.766,"annuitant":30,"id":"a6mvf6d457zn","geo_precision":"city","state":"illinois","active":90},"type":"Feature","geometry":{"type":"Point","coordinates":[-90.04094,38.463107]}},{"properties":{"city":"River Forest","total count":305,"country":"USA","inactive":99,"survivor":25,"geo_score":0.779,"annuitant":72,"id":"a6mvf69gaslg","geo_precision":"city","state":"illinois","active":109},"type":"Feature","geometry":{"type":"Point","coordinates":[-88.393085,40.754176]}},{"properties":{"city":"River Grove","total count":116,"country":"USA","inactive":43,"survivor":18,"geo_score":0.857,"annuitant":15,"id":"a6mvf62i6cnt","geo_precision":"city","state":"illinois","active":40},"type":"Feature","geometry":{"type":"Point","coordinates":[-87.83931,41.923168]}},{"properties":{"city":"Riverdale","total count":93,"country":"USA","inactive":15,"survivor":13,"geo_score":0.857,"annuitant":15,"id":"a6mvf669j31a","geo_precision":"city","state":"illinois","active":50},"type":"Feature","geometry":{"type":"Point","coordinates":[-89.029553,42.420017]}},{"properties":{"city":"Riverside","total count":203,"country":"USA","inactive":83,"survivor":18,"geo_score":0.857,"annuitant":36,"id":"a6mvf65vrpyp","geo_precision":"city","state":"illinois","active":66},"type":"Feature","geometry":{"type":"Point","coordinates":[-87.68732,41.811929]}},{"properties":{"city":"Robbins","total count":null,"country":"USA","inactive":null,"survivor":3,"geo_score":0.857,"annuitant":11,"id":"a6mvf6butg31","geo_precision":"city","state":"illinois","active":11},"type":"Feature","geometry":{"type":"Point","coordinates":[-87.878888,41.95273]}},{"properties":{"city":"Rockford","total count":null,"country":"USA","inactive":null,"survivor":1,"geo_score":0.857,"annuitant":null,"id":"a6mvf62qqgo9","geo_precision":"city","state":"illinois","active":null},"type":"Feature","geometry":{"type":"Point","coordinates":[-89.093995,42.271131]}},{"properties":{"city":"Rolling Mdws","total count":null,"country":"USA","inactive":1,"survivor":1,"geo_score":0.74,"annuitant":null,"id":"a6mvf60ypeqo","geo_precision":"city","state":"illinois","active":null},"type":"Feature","geometry":{"type":"Point","coordinates":[-88.804788,40.744479]}},{"properties":{"city":"Rolling Meadows","total count":147,"country":"USA","inactive":57,"survivor":10,"geo_score":0.786,"annuitant":30,"id":"a6mvf60xq4ep","geo_precision":"city","state":"illinois","active":50},"type":"Feature","geometry":{"type":"Point","coordinates":[-88.804788,40.744479]}},{"properties":{"city":"Roselle","total count":null,"country":"USA","inactive":null,"survivor":null,"geo_score":0.857,"annuitant":1,"id":"a6mvf633ivoi","geo_precision":"city","state":"illinois","active":null},"type":"Feature","geometry":{"type":"Point","coordinates":[-88.086091,41.980753]}},{"properties":{"city":"Rosemont","total count":12,"country":"USA","inactive":5,"survivor":1,"geo_score":0.857,"annuitant":2,"id":"a6mvf6f5uodu","geo_precision":"city","state":"illinois","active":4},"type":"Feature","geometry":{"type":"Point","coordinates":[-90.09733,38.626995]}},{"properties":{"city":"S Chicago Heights","total count":null,"country":"USA","inactive":1,"survivor":1,"geo_score":0.781,"annuitant":null,"id":"a6mvf6fe7mwa","geo_precision":"city","state":"illinois","active":3},"type":"Feature","geometry":{"type":"Point","coordinates":[-87.650052,41.850033]}},{"properties":{"city":"Sauk Village","total count":49,"country":"USA","inactive":9,"survivor":6,"geo_score":0.857,"annuitant":7,"id":"a6mvf6435hso","geo_precision":"city","state":"illinois","active":27},"type":"Feature","geometry":{"type":"Point","coordinates":[-87.567541,41.488369]}},{"properties":{"city":"Schaumburg","total count":647,"country":"USA","inactive":226,"survivor":50,"geo_score":0.857,"annuitant":89,"id":"a6mvf6ddz62e","geo_precision":"city","state":"illinois","active":282},"type":"Feature","geometry":{"type":"Point","coordinates":[-88.083959,42.030261]}},{"properties":{"city":"Schiller Park","total count":72,"country":"USA","inactive":35,"survivor":4,"geo_score":0.798,"annuitant":4,"id":"a6mvf6aqcl5i","geo_precision":"city","state":"illinois","active":29},"type":"Feature","geometry":{"type":"Point","coordinates":[-89.094644,38.176165]}},{"properties":{"city":"Skokie","total count":708,"country":"USA","inactive":216,"survivor":63,"geo_score":0.857,"annuitant":118,"id":"a6mvf62tqlwq","geo_precision":"city","state":"illinois","active":311},"type":"Feature","geometry":{"type":"Point","coordinates":[-87.883566,42.057878]}},{"properties":{"city":"South Barrington","total count":null,"country":"USA","inactive":null,"survivor":null,"geo_score":0.762,"annuitant":1,"id":"a6mvf69klfrm","geo_precision":"city","state":"illinois","active":null},"type":"Feature","geometry":{"type":"Point","coordinates":[-88.055908,42.152248]}},{"properties":{"city":"South Chicago Height","total count":null,"country":"USA","inactive":3,"survivor":1,"geo_score":0.77,"annuitant":null,"id":"a6mvf66bgk6z","geo_precision":"city","state":"illinois","active":7},"type":"Feature","geometry":{"type":"Point","coordinates":[-87.650052,41.850033]}},{"properties":{"city":"South Chicago Hts","total count":null,"country":"USA","inactive":null,"survivor":1,"geo_score":0.781,"annuitant":null,"id":"a6mvf6452w55","geo_precision":"city","state":"illinois","active":null},"type":"Feature","geometry":{"type":"Point","coordinates":[-87.650052,41.850033]}},{"properties":{"city":"South Holland","total count":379,"country":"USA","inactive":81,"survivor":47,"geo_score":0.798,"annuitant":78,"id":"a6mvf63x248g","geo_precision":"city","state":"illinois","active":173},"type":"Feature","geometry":{"type":"Point","coordinates":[-88.748949,39.215876]}},{"properties":{"city":"Steger","total count":74,"country":"USA","inactive":17,"survivor":6,"geo_score":0.857,"annuitant":8,"id":"a6mvf65vfpma","geo_precision":"city","state":"illinois","active":43},"type":"Feature","geometry":{"type":"Point","coordinates":[-87.68732,41.811929]}},{"properties":{"city":"Stickney","total count":32,"country":"USA","inactive":10,"survivor":1,"geo_score":0.857,"annuitant":5,"id":"a6mvf60fdruu","geo_precision":"city","state":"illinois","active":16},"type":"Feature","geometry":{"type":"Point","coordinates":[-87.782834,41.821421]}},{"properties":{"city":"Stone Park","total count":21,"country":"USA","inactive":8,"survivor":2,"geo_score":0.746,"annuitant":2,"id":"a6mvf6cx1i1r","geo_precision":"city","state":"illinois","active":9},"type":"Feature","geometry":{"type":"Point","coordinates":[-88.194244,42.095859]}},{"properties":{"city":"Streamwood","total count":220,"country":"USA","inactive":95,"survivor":10,"geo_score":0.857,"annuitant":14,"id":"a6mvf64lwqpq","geo_precision":"city","state":"illinois","active":101},"type":"Feature","geometry":{"type":"Point","coordinates":[-88.178475,42.019093]}},{"properties":{"city":"Summit","total count":22,"country":"USA","inactive":8,"survivor":2,"geo_score":0.857,"annuitant":2,"id":"a6mvf65ymdxg","geo_precision":"city","state":"illinois","active":10},"type":"Feature","geometry":{"type":"Point","coordinates":[-87.810334,41.788088]}},{"properties":{"city":"Summit Argo","total count":null,"country":"USA","inactive":2,"survivor":null,"geo_score":0.8,"annuitant":null,"id":"a6mvf6bi8tnh","geo_precision":"city","state":"illinois","active":1},"type":"Feature","geometry":{"type":"Point","coordinates":[-87.810334,41.788088]}},{"properties":{"city":"Techny","total count":null,"country":"USA","inactive":null,"survivor":2,"geo_score":0.857,"annuitant":1,"id":"a6mvf5zxaqvo","geo_precision":"city","state":"illinois","active":null},"type":"Feature","geometry":{"type":"Point","coordinates":[-87.812064,42.116377]}},{"properties":{"city":"Thornton","total count":30,"country":"USA","inactive":7,"survivor":6,"geo_score":0.786,"annuitant":2,"id":"a6mvf66rdyjb","geo_precision":"city","state":"illinois","active":15},"type":"Feature","geometry":{"type":"Point","coordinates":[-87.606989,41.589202]}},{"properties":{"city":"Tinley Park","total count":562,"country":"USA","inactive":175,"survivor":54,"geo_score":0.857,"annuitant":107,"id":"a6mvf6bzluo3","geo_precision":"city","state":"illinois","active":226},"type":"Feature","geometry":{"type":"Point","coordinates":[-88.026517,42.143475]}},{"properties":{"city":"University Park","total count":31,"country":"USA","inactive":15,"survivor":4,"geo_score":0.857,"annuitant":1,"id":"a6mvf6c5ld4q","geo_precision":"city","state":"illinois","active":11},"type":"Feature","geometry":{"type":"Point","coordinates":[-87.685325,41.592257]}},{"properties":{"city":"Vernon Hills","total count":null,"country":"USA","inactive":1,"survivor":null,"geo_score":0.753,"annuitant":null,"id":"a6mvf65bk578","geo_precision":"city","state":"illinois","active":null},"type":"Feature","geometry":{"type":"Point","coordinates":[-89.670103,40.596705]}},{"properties":{"city":"Westchester","total count":246,"country":"USA","inactive":97,"survivor":22,"geo_score":0.857,"annuitant":45,"id":"a6mvf61dclnu","geo_precision":"city","state":"illinois","active":82},"type":"Feature","geometry":{"type":"Point","coordinates":[-87.68732,41.811929]}},{"properties":{"city":"Western Sprgs","total count":null,"country":"USA","inactive":1,"survivor":null,"geo_score":0.837,"annuitant":null,"id":"a6mvf5zl96g9","geo_precision":"city","state":"illinois","active":null},"type":"Feature","geometry":{"type":"Point","coordinates":[-87.68732,41.811929]}},{"properties":{"city":"Western Springs","total count":194,"country":"USA","inactive":66,"survivor":20,"geo_score":0.745,"annuitant":45,"id":"a6mvf5zuoqrv","geo_precision":"city","state":"illinois","active":63},"type":"Feature","geometry":{"type":"Point","coordinates":[-90.045117,41.612532]}},{"properties":{"city":"Wheeling","total count":164,"country":"USA","inactive":61,"survivor":19,"geo_score":0.857,"annuitant":13,"id":"a6mvf67ouopk","geo_precision":"city","state":"illinois","active":71},"type":"Feature","geometry":{"type":"Point","coordinates":[-87.933819,42.124176]}},{"properties":{"city":"Willmette","total count":null,"country":"USA","inactive":null,"survivor":1,"geo_score":0.841,"annuitant":null,"id":"a6mvf69b6qz2","geo_precision":"city","state":"illinois","active":null},"type":"Feature","geometry":{"type":"Point","coordinates":[-87.72836,42.079228]}},{"properties":{"city":"Willow Sprgs","total count":null,"country":"USA","inactive":1,"survivor":null,"geo_score":0.792,"annuitant":null,"id":"a6mvf6amepu1","geo_precision":"city","state":"illinois","active":null},"type":"Feature","geometry":{"type":"Point","coordinates":[-89.949846,42.278073]}},{"properties":{"city":"Willow Springs","total count":59,"country":"USA","inactive":18,"survivor":4,"geo_score":0.747,"annuitant":12,"id":"a6mvf6900b2q","geo_precision":"city","state":"illinois","active":25},"type":"Feature","geometry":{"type":"Point","coordinates":[-90.045117,41.612532]}},{"properties":{"city":"Wilmette","total count":377,"country":"USA","inactive":121,"survivor":47,"geo_score":0.857,"annuitant":92,"id":"a6mvf6e2cyym","geo_precision":"city","state":"illinois","active":117},"type":"Feature","geometry":{"type":"Point","coordinates":[-87.72836,42.079228]}},{"properties":{"city":"Wilmington","total count":null,"country":"USA","inactive":null,"survivor":null,"geo_score":0.857,"annuitant":1,"id":"a6mvf69jvlya","geo_precision":"city","state":"illinois","active":null},"type":"Feature","geometry":{"type":"Point","coordinates":[-90.486765,39.480683]}},{"properties":{"city":"Winnetka","total count":99,"country":"USA","inactive":33,"survivor":19,"geo_score":0.857,"annuitant":30,"id":"a6mvf66177wi","geo_precision":"city","state":"illinois","active":17},"type":"Feature","geometry":{"type":"Point","coordinates":[-87.940168,42.112176]}},{"properties":{"city":"Worth","total count":74,"country":"USA","inactive":18,"survivor":8,"geo_score":0.857,"annuitant":12,"id":"a6mvf65u49q4","geo_precision":"city","state":"illinois","active":36},"type":"Feature","geometry":{"type":"Point","coordinates":[-87.68732,41.811929]}},{"properties":{"city":"Big Rock","total count":null,"country":"USA","inactive":null,"survivor":1,"geo_score":0.796,"annuitant":null,"id":"a6mvf64am7jm","geo_precision":"city","state":"illinois","active":null},"type":"Feature","geometry":{"type":"Point","coordinates":[-88.619495,37.412829]}},{"properties":{"city":"Caledonia","total count":null,"country":"USA","inactive":null,"survivor":null,"geo_score":0.778,"annuitant":1,"id":"a6mvf6doen55","geo_precision":"city","state":"illinois","active":null},"type":"Feature","geometry":{"type":"Point","coordinates":[-88.300326,39.739477]}},{"properties":{"city":"Chicago","total count":null,"country":"USA","inactive":1,"survivor":null,"geo_score":0.857,"annuitant":null,"id":"a6mvf691m6c4","geo_precision":"city","state":"illinois","active":null},"type":"Feature","geometry":{"type":"Point","coordinates":[-87.650052,41.850033]}},{"properties":{"city":"Clare","total count":16,"country":"USA","inactive":2,"survivor":2,"geo_score":0.857,"annuitant":6,"id":"a6mvf648i68s","geo_precision":"city","state":"illinois","active":6},"type":"Feature","geometry":{"type":"Point","coordinates":[-88.83055,42.008626]}},{"properties":{"city":"Cortland","total count":144,"country":"USA","inactive":24,"survivor":13,"geo_score":0.857,"annuitant":20,"id":"a6mvf6dp8bck","geo_precision":"city","state":"illinois","active":87},"type":"Feature","geometry":{"type":"Point","coordinates":[-88.684007,41.926177]}},{"properties":{"city":"De Kalb","total count":21,"country":"USA","inactive":1,"survivor":17,"geo_score":0.738,"annuitant":1,"id":"a6mvf6c5b5yu","geo_precision":"city","state":"illinois","active":2},"type":"Feature","geometry":{"type":"Point","coordinates":[-90.316504,38.992751]}},{"properties":{"city":"Dekalb","total count":3199,"country":"USA","inactive":335,"survivor":309,"geo_score":0.857,"annuitant":854,"id":"a6mvf6677mu7","geo_precision":"city","state":"illinois","active":1701},"type":"Feature","geometry":{"type":"Point","coordinates":[-88.79101,41.816826]}},{"properties":{"city":"Esmond","total count":15,"country":"USA","inactive":2,"survivor":3,"geo_score":0.857,"annuitant":3,"id":"a6mvf6aph6vg","geo_precision":"city","state":"illinois","active":7},"type":"Feature","geometry":{"type":"Point","coordinates":[-88.919791,42.042932]}},{"properties":{"city":"Freeport","total count":null,"country":"USA","inactive":null,"survivor":null,"geo_score":0.857,"annuitant":1,"id":"a6mvf6btvtce","geo_precision":"city","state":"illinois","active":null},"type":"Feature","geometry":{"type":"Point","coordinates":[-89.591606,42.323529]}},{"properties":{"city":"Genoa","total count":138,"country":"USA","inactive":29,"survivor":17,"geo_score":0.857,"annuitant":33,"id":"a6mvf69slurx","geo_precision":"city","state":"illinois","active":59},"type":"Feature","geometry":{"type":"Point","coordinates":[-88.718101,42.10153]}},{"properties":{"city":"Hinckley","total count":79,"country":"USA","inactive":13,"survivor":16,"geo_score":0.857,"annuitant":12,"id":"a6mvf6f1znk5","geo_precision":"city","state":"illinois","active":38},"type":"Feature","geometry":{"type":"Point","coordinates":[-88.686052,41.740713]}},{"properties":{"city":"Il","total count":null,"country":"USA","inactive":null,"survivor":1,"geo_score":0.786,"annuitant":null,"id":"a6mvf63j7xp4","geo_precision":"city","state":"illinois","active":null},"type":"Feature","geometry":{"type":"Point","coordinates":[-88.473594,38.757302]}},{"properties":{"city":"Kingston","total count":71,"country":"USA","inactive":13,"survivor":13,"geo_score":0.857,"annuitant":18,"id":"a6mvf6ebruiu","geo_precision":"city","state":"illinois","active":27},"type":"Feature","geometry":{"type":"Point","coordinates":[-91.027913,39.816714]}},{"properties":{"city":"Kirkland","total count":50,"country":"USA","inactive":10,"survivor":9,"geo_score":0.857,"annuitant":9,"id":"a6mvf6ez9ii7","geo_precision":"city","state":"illinois","active":22},"type":"Feature","geometry":{"type":"Point","coordinates":[-88.871153,42.087039]}},{"properties":{"city":"Macomb","total count":null,"country":"USA","inactive":null,"survivor":1,"geo_score":0.857,"annuitant":null,"id":"a6mvf6a67lbw","geo_precision":"city","state":"illinois","active":null},"type":"Feature","geometry":{"type":"Point","coordinates":[-90.660675,40.459904]}},{"properties":{"city":"Malta","total count":124,"country":"USA","inactive":18,"survivor":12,"geo_score":0.857,"annuitant":46,"id":"a6mvf68k031y","geo_precision":"city","state":"illinois","active":48},"type":"Feature","geometry":{"type":"Point","coordinates":[-88.88516,41.931731]}},{"properties":{"city":"Sandwich","total count":137,"country":"USA","inactive":34,"survivor":18,"geo_score":0.857,"annuitant":26,"id":"a6mvf6ftkzu5","geo_precision":"city","state":"illinois","active":59},"type":"Feature","geometry":{"type":"Point","coordinates":[-88.688906,41.702091]}},{"properties":{"city":"Shabbona","total count":78,"country":"USA","inactive":8,"survivor":11,"geo_score":0.857,"annuitant":18,"id":"a6mvf69168tl","geo_precision":"city","state":"illinois","active":41},"type":"Feature","geometry":{"type":"Point","coordinates":[-88.836821,41.746774]}},{"properties":{"city":"Somonauk","total count":47,"country":"USA","inactive":17,"survivor":1,"geo_score":0.857,"annuitant":7,"id":"a6mvf62wv5o3","geo_precision":"city","state":"illinois","active":22},"type":"Feature","geometry":{"type":"Point","coordinates":[-88.783041,41.860645]}},{"properties":{"city":"Sycamore","total count":1263,"country":"USA","inactive":167,"survivor":147,"geo_score":0.857,"annuitant":312,"id":"a6mvf638co22","geo_precision":"city","state":"illinois","active":637},"type":"Feature","geometry":{"type":"Point","coordinates":[-88.68562,41.893687]}},{"properties":{"city":"Waterman","total count":88,"country":"USA","inactive":4,"survivor":11,"geo_score":0.857,"annuitant":16,"id":"a6mvf5zq0jqt","geo_precision":"city","state":"illinois","active":57},"type":"Feature","geometry":{"type":"Point","coordinates":[-88.778554,41.755215]}},{"properties":{"city":"Addison","total count":161,"country":"USA","inactive":59,"survivor":20,"geo_score":0.857,"annuitant":37,"id":"a6mvf6714g4y","geo_precision":"city","state":"illinois","active":45},"type":"Feature","geometry":{"type":"Point","coordinates":[-88.022516,41.887579]}},{"properties":{"city":"Aurora","total count":654,"country":"USA","inactive":277,"survivor":26,"geo_score":0.857,"annuitant":50,"id":"a6mvf6bsbjd8","geo_precision":"city","state":"illinois","active":301},"type":"Feature","geometry":{"type":"Point","coordinates":[-88.136616,41.768399]}},{"properties":{"city":"Bartlett","total count":288,"country":"USA","inactive":126,"survivor":21,"geo_score":0.857,"annuitant":13,"id":"a6mvf6cftlde","geo_precision":"city","state":"illinois","active":128},"type":"Feature","geometry":{"type":"Point","coordinates":[-88.207293,41.980242]}},{"properties":{"city":"Batavia","total count":null,"country":"USA","inactive":1,"survivor":null,"geo_score":0.857,"annuitant":null,"id":"a6mvf60cq2cm","geo_precision":"city","state":"illinois","active":null},"type":"Feature","geometry":{"type":"Point","coordinates":[-88.407334,41.828292]}},{"properties":{"city":"Bensenville","total count":86,"country":"USA","inactive":34,"survivor":8,"geo_score":0.857,"annuitant":12,"id":"a6mvf67jmoor","geo_precision":"city","state":"illinois","active":32},"type":"Feature","geometry":{"type":"Point","coordinates":[-88.088716,41.839679]}},{"properties":{"city":"Benton","total count":null,"country":"USA","inactive":null,"survivor":null,"geo_score":0.837,"annuitant":1,"id":"a6mvf5zogs6t","geo_precision":"city","state":"illinois","active":null},"type":"Feature","geometry":{"type":"Point","coordinates":[-88.806459,40.471979]}},{"properties":{"city":"Bloomingdale","total count":193,"country":"USA","inactive":70,"survivor":39,"geo_score":0.786,"annuitant":24,"id":"a6mvf6f9zof7","geo_precision":"city","state":"illinois","active":60},"type":"Feature","geometry":{"type":"Point","coordinates":[-89.033689,40.480592]}},{"properties":{"city":"Bolingbrook","total count":null,"country":"USA","inactive":null,"survivor":null,"geo_score":0.857,"annuitant":2,"id":"a6mvf69bg0zb","geo_precision":"city","state":"illinois","active":null},"type":"Feature","geometry":{"type":"Point","coordinates":[-88.068396,41.698642]}},{"properties":{"city":"Burr Ridge","total count":177,"country":"USA","inactive":66,"survivor":15,"geo_score":0.762,"annuitant":42,"id":"a6mvf626oda9","geo_precision":"city","state":"illinois","active":54},"type":"Feature","geometry":{"type":"Point","coordinates":[-90.401512,39.506159]}},{"properties":{"city":"Carol Stream","total count":264,"country":"USA","inactive":88,"survivor":25,"geo_score":0.766,"annuitant":33,"id":"a6mvf68jxa7j","geo_precision":"city","state":"illinois","active":118},"type":"Feature","geometry":{"type":"Point","coordinates":[-88.564536,42.217245]}},{"properties":{"city":"Chicago","total count":null,"country":"USA","inactive":1,"survivor":null,"geo_score":0.857,"annuitant":null,"id":"a6mvf6eei1u1","geo_precision":"city","state":"illinois","active":null},"type":"Feature","geometry":{"type":"Point","coordinates":[-87.650052,41.850033]}},{"properties":{"city":"Clarendon Hills","total count":112,"country":"USA","inactive":45,"survivor":11,"geo_score":0.745,"annuitant":19,"id":"a6mvf62c0vkn","geo_precision":"city","state":"illinois","active":37},"type":"Feature","geometry":{"type":"Point","coordinates":[-89.670103,40.596705]}},{"properties":{"city":"Clarendon Hls","total count":null,"country":"USA","inactive":2,"survivor":null,"geo_score":0.738,"annuitant":null,"id":"a6mvf61bkbox","geo_precision":"city","state":"illinois","active":1},"type":"Feature","geometry":{"type":"Point","coordinates":[-89.670103,40.596705]}},{"properties":{"city":"Darien","total count":327,"country":"USA","inactive":96,"survivor":25,"geo_score":0.857,"annuitant":74,"id":"a6mvf6dm0bex","geo_precision":"city","state":"illinois","active":132},"type":"Feature","geometry":{"type":"Point","coordinates":[-87.98046,41.743437]}},{"properties":{"city":"Davis","total count":null,"country":"USA","inactive":null,"survivor":null,"geo_score":0.857,"annuitant":1,"id":"a6mvf6d8n9io","geo_precision":"city","state":"illinois","active":null},"type":"Feature","geometry":{"type":"Point","coordinates":[-89.611026,42.398148]}},{"properties":{"city":"Downers Grove","total count":774,"country":"USA","inactive":283,"survivor":75,"geo_score":0.857,"annuitant":148,"id":"a6mvf6c3w6c5","geo_precision":"city","state":"illinois","active":268},"type":"Feature","geometry":{"type":"Point","coordinates":[-88.012267,41.796279]}},{"properties":{"city":"Elmhurst","total count":551,"country":"USA","inactive":210,"survivor":46,"geo_score":0.857,"annuitant":109,"id":"a6mvf6284vzx","geo_precision":"city","state":"illinois","active":186},"type":"Feature","geometry":{"type":"Point","coordinates":[-87.946413,41.88353]}},{"properties":{"city":"Glen Ellyn","total count":663,"country":"USA","inactive":221,"survivor":55,"geo_score":0.762,"annuitant":146,"id":"a6mvf60x5k67","geo_precision":"city","state":"illinois","active":241},"type":"Feature","geometry":{"type":"Point","coordinates":[-88.271174,41.294199]}},{"properties":{"city":"Glendale Heights","total count":146,"country":"USA","inactive":58,"survivor":7,"geo_score":0.79,"annuitant":23,"id":"a6mvf65jawv1","geo_precision":"city","state":"illinois","active":58},"type":"Feature","geometry":{"type":"Point","coordinates":[-90.415686,41.48559]}},{"properties":{"city":"Glendale Hts","total count":18,"country":"USA","inactive":4,"survivor":1,"geo_score":0.818,"annuitant":2,"id":"a6mvf6bshp3p","geo_precision":"city","state":"illinois","active":11},"type":"Feature","geometry":{"type":"Point","coordinates":[-90.415686,41.48559]}},{"properties":{"city":"Hinsdale","total count":188,"country":"USA","inactive":69,"survivor":22,"geo_score":0.857,"annuitant":30,"id":"a6mvf62r9s5t","geo_precision":"city","state":"illinois","active":67},"type":"Feature","geometry":{"type":"Point","coordinates":[-87.966845,41.78213]}},{"properties":{"city":"Hoffman Estates","total count":null,"country":"USA","inactive":null,"survivor":3,"geo_score":0.857,"annuitant":null,"id":"a6mvf6fdhfkl","geo_precision":"city","state":"illinois","active":null},"type":"Feature","geometry":{"type":"Point","coordinates":[-88.079795,42.042805]}},{"properties":{"city":"Itasca","total count":64,"country":"USA","inactive":22,"survivor":3,"geo_score":0.857,"annuitant":12,"id":"a6mvf66kqbhu","geo_precision":"city","state":"illinois","active":27},"type":"Feature","geometry":{"type":"Point","coordinates":[-88.088716,41.839679]}},{"properties":{"city":"Lemont","total count":41,"country":"USA","inactive":17,"survivor":6,"geo_score":0.857,"annuitant":10,"id":"a6mvf603jful","geo_precision":"city","state":"illinois","active":8},"type":"Feature","geometry":{"type":"Point","coordinates":[-87.975568,41.707431]}},{"properties":{"city":"Lisle","total count":373,"country":"USA","inactive":139,"survivor":30,"geo_score":0.857,"annuitant":49,"id":"a6mvf6er3106","geo_precision":"city","state":"illinois","active":155},"type":"Feature","geometry":{"type":"Point","coordinates":[-88.037714,41.79818]}},{"properties":{"city":"Lombard","total count":562,"country":"USA","inactive":200,"survivor":59,"geo_score":0.798,"annuitant":112,"id":"a6mvf6415m16","geo_precision":"city","state":"illinois","active":191},"type":"Feature","geometry":{"type":"Point","coordinates":[-89.658431,41.221148]}},{"properties":{"city":"Medinah","total count":23,"country":"USA","inactive":12,"survivor":2,"geo_score":0.735,"annuitant":3,"id":"a6mvf6587c6v","geo_precision":"city","state":"illinois","active":6},"type":"Feature","geometry":{"type":"Point","coordinates":[-89.367871,41.628367]}},{"properties":{"city":"Montgomery","total count":null,"country":"USA","inactive":1,"survivor":null,"geo_score":0.857,"annuitant":null,"id":"a6mvf62442pm","geo_precision":"city","state":"illinois","active":null},"type":"Feature","geometry":{"type":"Point","coordinates":[-88.457951,41.643752]}},{"properties":{"city":"Naperville","total count":1539,"country":"USA","inactive":592,"survivor":105,"geo_score":0.857,"annuitant":190,"id":"a6mvf6bnmthr","geo_precision":"city","state":"illinois","active":652},"type":"Feature","geometry":{"type":"Point","coordinates":[-88.152381,41.759029]}},{"properties":{"city":"Oak Brook","total count":169,"country":"USA","inactive":62,"survivor":16,"geo_score":0.768,"annuitant":58,"id":"a6mvf65z07qa","geo_precision":"city","state":"illinois","active":33},"type":"Feature","geometry":{"type":"Point","coordinates":[-88.517825,37.576438]}},{"properties":{"city":"Oakbrook Ter","total count":null,"country":"USA","inactive":1,"survivor":null,"geo_score":0.819,"annuitant":null,"id":"a6mvf693e1g3","geo_precision":"city","state":"illinois","active":1},"type":"Feature","geometry":{"type":"Point","coordinates":[-87.964508,41.85003]}},{"properties":{"city":"Oakbrook Terrace","total count":26,"country":"USA","inactive":8,"survivor":1,"geo_score":0.857,"annuitant":5,"id":"a6mvf651eoyw","geo_precision":"city","state":"illinois","active":12},"type":"Feature","geometry":{"type":"Point","coordinates":[-87.964508,41.85003]}},{"properties":{"city":"Olympia Fields","total count":null,"country":"USA","inactive":null,"survivor":null,"geo_score":0.747,"annuitant":1,"id":"a6mvf65ii0bl","geo_precision":"city","state":"illinois","active":null},"type":"Feature","geometry":{"type":"Point","coordinates":[-90.194704,38.187143]}},{"properties":{"city":"Ontarioville","total count":null,"country":"USA","inactive":null,"survivor":null,"geo_score":0.857,"annuitant":null,"id":"a6mvf6c5v5s1","geo_precision":"city","state":"illinois","active":1},"type":"Feature","geometry":{"type":"Point","coordinates":[-88.150073,41.987528]}},{"properties":{"city":"Plainfield","total count":null,"country":"USA","inactive":1,"survivor":null,"geo_score":0.857,"annuitant":null,"id":"a6mvf5zec0m3","geo_precision":"city","state":"illinois","active":null},"type":"Feature","geometry":{"type":"Point","coordinates":[-88.169698,41.632457]}},{"properties":{"city":"Roselle","total count":173,"country":"USA","inactive":74,"survivor":18,"geo_score":0.857,"annuitant":13,"id":"a6mvf665xuq7","geo_precision":"city","state":"illinois","active":68},"type":"Feature","geometry":{"type":"Point","coordinates":[-88.086091,41.980753]}},{"properties":{"city":"Schaumburg","total count":null,"country":"USA","inactive":null,"survivor":null,"geo_score":0.857,"annuitant":1,"id":"a6mvf6b4nv2t","geo_precision":"city","state":"illinois","active":null},"type":"Feature","geometry":{"type":"Point","coordinates":[-88.083959,42.030261]}},{"properties":{"city":"Sycamore","total count":null,"country":"USA","inactive":null,"survivor":null,"geo_score":0.857,"annuitant":1,"id":"a6mvf67oqay7","geo_precision":"city","state":"illinois","active":null},"type":"Feature","geometry":{"type":"Point","coordinates":[-88.68562,41.893687]}},{"properties":{"city":"Villa Park","total count":183,"country":"USA","inactive":68,"survivor":13,"geo_score":0.746,"annuitant":21,"id":"a6mvf62nxptd","geo_precision":"city","state":"illinois","active":81},"type":"Feature","geometry":{"type":"Point","coordinates":[-88.167861,42.326133]}},{"properties":{"city":"Warrenville","total count":147,"country":"USA","inactive":52,"survivor":16,"geo_score":0.857,"annuitant":26,"id":"a6mvf69fg9b6","geo_precision":"city","state":"illinois","active":53},"type":"Feature","geometry":{"type":"Point","coordinates":[-88.171551,41.805422]}},{"properties":{"city":"Wayne","total count":16,"country":"USA","inactive":7,"survivor":3,"geo_score":0.857,"annuitant":3,"id":"a6mvf64qsaff","geo_precision":"city","state":"illinois","active":3},"type":"Feature","geometry":{"type":"Point","coordinates":[-88.088716,41.839679]}},{"properties":{"city":"West Chicago","total count":226,"country":"USA","inactive":79,"survivor":12,"geo_score":0.805,"annuitant":44,"id":"a6mvf695xzrc","geo_precision":"city","state":"illinois","active":91},"type":"Feature","geometry":{"type":"Point","coordinates":[-87.650052,41.850033]}},{"properties":{"city":"Westmont","total count":256,"country":"USA","inactive":102,"survivor":15,"geo_score":0.857,"annuitant":41,"id":"a6mvf61gsr1p","geo_precision":"city","state":"illinois","active":98},"type":"Feature","geometry":{"type":"Point","coordinates":[-87.970713,41.799876]}},{"properties":{"city":"Wheaton","total count":1012,"country":"USA","inactive":341,"survivor":77,"geo_score":0.857,"annuitant":181,"id":"a6mvf64gwzib","geo_precision":"city","state":"illinois","active":413},"type":"Feature","geometry":{"type":"Point","coordinates":[-88.088716,41.839679]}},{"properties":{"city":"Willowbrook","total count":184,"country":"USA","inactive":66,"survivor":16,"geo_score":0.857,"annuitant":28,"id":"a6mvf6961syz","geo_precision":"city","state":"illinois","active":74},"type":"Feature","geometry":{"type":"Point","coordinates":[-87.935893,41.769753]}},{"properties":{"city":"Winfield","total count":180,"country":"USA","inactive":62,"survivor":20,"geo_score":0.857,"annuitant":35,"id":"a6mvf6483b2c","geo_precision":"city","state":"illinois","active":63},"type":"Feature","geometry":{"type":"Point","coordinates":[-88.088716,41.839679]}},{"properties":{"city":"Wood Dale","total count":81,"country":"USA","inactive":25,"survivor":12,"geo_score":0.786,"annuitant":13,"id":"a6mvf64i5clx","geo_precision":"city","state":"illinois","active":31},"type":"Feature","geometry":{"type":"Point","coordinates":[-90.48512,39.263658]}},{"properties":{"city":"Woodridge","total count":340,"country":"USA","inactive":119,"survivor":28,"geo_score":0.857,"annuitant":42,"id":"a6mvf67ez9pt","geo_precision":"city","state":"illinois","active":151},"type":"Feature","geometry":{"type":"Point","coordinates":[-88.041731,41.736788]}},{"properties":{"city":"Aurora","total count":689,"country":"USA","inactive":247,"survivor":49,"geo_score":0.857,"annuitant":81,"id":"a6mvf69rev57","geo_precision":"city","state":"illinois","active":312},"type":"Feature","geometry":{"type":"Point","coordinates":[-88.136616,41.768399]}},{"properties":{"city":"Batavia","total count":430,"country":"USA","inactive":148,"survivor":36,"geo_score":0.857,"annuitant":62,"id":"a6mvf61f3u9z","geo_precision":"city","state":"illinois","active":184},"type":"Feature","geometry":{"type":"Point","coordinates":[-88.407334,41.828292]}},{"properties":{"city":"Big Rock","total count":31,"country":"USA","inactive":10,"survivor":4,"geo_score":0.796,"annuitant":2,"id":"a6mvf67aa7tg","geo_precision":"city","state":"illinois","active":15},"type":"Feature","geometry":{"type":"Point","coordinates":[-88.619495,37.412829]}},{"properties":{"city":"Burlington","total count":8,"country":"USA","inactive":4,"survivor":1,"geo_score":0.857,"annuitant":2,"id":"a6mvf6bdgnjw","geo_precision":"city","state":"illinois","active":1},"type":"Feature","geometry":{"type":"Point","coordinates":[-88.539027,42.045792]}},{"properties":{"city":"Campton Hills","total count":null,"country":"USA","inactive":1,"survivor":null,"geo_score":0.75,"annuitant":1,"id":"a6mvf66koetx","geo_precision":"city","state":"illinois","active":1},"type":"Feature","geometry":{"type":"Point","coordinates":[-89.670103,40.596705]}},{"properties":{"city":"Carpentersville","total count":152,"country":"USA","inactive":60,"survivor":8,"geo_score":0.8,"annuitant":11,"id":"a6mvf677ggn7","geo_precision":"city","state":"illinois","active":73},"type":"Feature","geometry":{"type":"Point","coordinates":[-89.894266,38.891991]}},{"properties":{"city":"Chicago","total count":null,"country":"USA","inactive":1,"survivor":null,"geo_score":0.857,"annuitant":null,"id":"a6mvf60i7tmx","geo_precision":"city","state":"illinois","active":null},"type":"Feature","geometry":{"type":"Point","coordinates":[-87.650052,41.850033]}},{"properties":{"city":"Dundee","total count":28,"country":"USA","inactive":12,"survivor":5,"geo_score":0.738,"annuitant":2,"id":"a6mvf62fw4ki","geo_precision":"city","state":"illinois","active":9},"type":"Feature","geometry":{"type":"Point","coordinates":[-88.978394,38.664771]}},{"properties":{"city":"E Dundee","total count":null,"country":"USA","inactive":null,"survivor":null,"geo_score":0.735,"annuitant":null,"id":"a6mvf6exadbg","geo_precision":"city","state":"illinois","active":1},"type":"Feature","geometry":{"type":"Point","coordinates":[-88.978394,38.664771]}},{"properties":{"city":"East Dundee","total count":31,"country":"USA","inactive":12,"survivor":6,"geo_score":0.857,"annuitant":2,"id":"a6mvf62vd157","geo_precision":"city","state":"illinois","active":11},"type":"Feature","geometry":{"type":"Point","coordinates":[-88.271469,42.098915]}},{"properties":{"city":"Elburn","total count":154,"country":"USA","inactive":41,"survivor":12,"geo_score":0.857,"annuitant":25,"id":"a6mvf62t1ftp","geo_precision":"city","state":"illinois","active":76},"type":"Feature","geometry":{"type":"Point","coordinates":[-88.469931,41.834928]}},{"properties":{"city":"Elgin","total count":1259,"country":"USA","inactive":421,"survivor":94,"geo_score":0.857,"annuitant":191,"id":"a6mvf6638jh9","geo_precision":"city","state":"illinois","active":553},"type":"Feature","geometry":{"type":"Point","coordinates":[-88.429777,41.990689]}},{"properties":{"city":"Geneva","total count":434,"country":"USA","inactive":147,"survivor":22,"geo_score":0.857,"annuitant":63,"id":"a6mvf6388e6a","geo_precision":"city","state":"illinois","active":202},"type":"Feature","geometry":{"type":"Point","coordinates":[-88.406165,41.97974]}},{"properties":{"city":"Gilberts","total count":71,"country":"USA","inactive":29,"survivor":3,"geo_score":0.857,"annuitant":5,"id":"a6mvf68v4vuq","geo_precision":"city","state":"illinois","active":34},"type":"Feature","geometry":{"type":"Point","coordinates":[-88.379932,42.102524]}},{"properties":{"city":"Hampshire","total count":96,"country":"USA","inactive":31,"survivor":9,"geo_score":0.857,"annuitant":15,"id":"a6mvf6d9993g","geo_precision":"city","state":"illinois","active":41},"type":"Feature","geometry":{"type":"Point","coordinates":[-88.454812,42.027886]}},{"properties":{"city":"Huntley","total count":null,"country":"USA","inactive":null,"survivor":1,"geo_score":0.857,"annuitant":1,"id":"a6mvf6dlk6wr","geo_precision":"city","state":"illinois","active":null},"type":"Feature","geometry":{"type":"Point","coordinates":[-88.450815,42.197379]}},{"properties":{"city":"Kaneville","total count":null,"country":"USA","inactive":1,"survivor":1,"geo_score":0.818,"annuitant":null,"id":"a6mvf6a8yxdm","geo_precision":"city","state":"illinois","active":4},"type":"Feature","geometry":{"type":"Point","coordinates":[-88.12035,41.967528]}},{"properties":{"city":"Lafox","total count":null,"country":"USA","inactive":1,"survivor":null,"geo_score":0.857,"annuitant":null,"id":"a6mvf68dtybv","geo_precision":"city","state":"illinois","active":1},"type":"Feature","geometry":{"type":"Point","coordinates":[-88.420178,41.936977]}},{"properties":{"city":"Maple Park","total count":75,"country":"USA","inactive":14,"survivor":10,"geo_score":0.857,"annuitant":11,"id":"a6mvf6a0cd0f","geo_precision":"city","state":"illinois","active":40},"type":"Feature","geometry":{"type":"Point","coordinates":[-88.507929,41.922915]}},{"properties":{"city":"Millstadt","total count":null,"country":"USA","inactive":null,"survivor":null,"geo_score":0.857,"annuitant":1,"id":"a6mvf6bmhd71","geo_precision":"city","state":"illinois","active":null},"type":"Feature","geometry":{"type":"Point","coordinates":[-90.092336,38.471651]}},{"properties":{"city":"N Aurora","total count":null,"country":"USA","inactive":null,"survivor":2,"geo_score":0.837,"annuitant":null,"id":"a6mvf65lz40u","geo_precision":"city","state":"illinois","active":null},"type":"Feature","geometry":{"type":"Point","coordinates":[-88.136616,41.768399]}},{"properties":{"city":"North Aurora","total count":190,"country":"USA","inactive":77,"survivor":12,"geo_score":0.792,"annuitant":15,"id":"a6mvf6d4kkd7","geo_precision":"city","state":"illinois","active":86},"type":"Feature","geometry":{"type":"Point","coordinates":[-88.136616,41.768399]}},{"properties":{"city":"Pingree Grove","total count":null,"country":"USA","inactive":10,"survivor":null,"geo_score":0.857,"annuitant":null,"id":"a6mvf6fkih8f","geo_precision":"city","state":"illinois","active":15},"type":"Feature","geometry":{"type":"Point","coordinates":[-88.413416,42.068637]}},{"properties":{"city":"Plato Center","total count":null,"country":"USA","inactive":null,"survivor":null,"geo_score":0.74,"annuitant":null,"id":"a6mvf65tehg1","geo_precision":"city","state":"illinois","active":2},"type":"Feature","geometry":{"type":"Point","coordinates":[-87.667527,39.282538]}},{"properties":{"city":"Saint Charles","total count":415,"country":"USA","inactive":156,"survivor":30,"geo_score":0.857,"annuitant":97,"id":"a6mvf61y8q9u","geo_precision":"city","state":"illinois","active":132},"type":"Feature","geometry":{"type":"Point","coordinates":[-88.430167,41.937151]}},{"properties":{"city":"Sleepy Hollow","total count":55,"country":"USA","inactive":17,"survivor":4,"geo_score":0.857,"annuitant":10,"id":"a6mvf685w7o8","geo_precision":"city","state":"illinois","active":24},"type":"Feature","geometry":{"type":"Point","coordinates":[-88.302581,42.094192]}},{"properties":{"city":"South Elgin","total count":200,"country":"USA","inactive":61,"survivor":9,"geo_score":0.786,"annuitant":21,"id":"a6mvf6cieq2v","geo_precision":"city","state":"illinois","active":109},"type":"Feature","geometry":{"type":"Point","coordinates":[-88.429777,41.990689]}},{"properties":{"city":"St. Charles","total count":221,"country":"USA","inactive":73,"survivor":14,"geo_score":0.746,"annuitant":12,"id":"a6mvf6btpp3i","geo_precision":"city","state":"illinois","active":122},"type":"Feature","geometry":{"type":"Point","coordinates":[-90.731564,40.583158]}},{"properties":{"city":"St. Charles","total count":null,"country":"USA","inactive":1,"survivor":null,"geo_score":0.746,"annuitant":null,"id":"a6mvf6b2u0cw","geo_precision":"city","state":"illinois","active":1},"type":"Feature","geometry":{"type":"Point","coordinates":[-90.731564,40.583158]}},{"properties":{"city":"Sugar Grove","total count":264,"country":"USA","inactive":94,"survivor":14,"geo_score":0.857,"annuitant":32,"id":"a6mvf68g55ug","geo_precision":"city","state":"illinois","active":124},"type":"Feature","geometry":{"type":"Point","coordinates":[-90.731806,41.235034]}},{"properties":{"city":"Sycamore","total count":null,"country":"USA","inactive":null,"survivor":1,"geo_score":0.857,"annuitant":null,"id":"a6mvf68tdfdi","geo_precision":"city","state":"illinois","active":null},"type":"Feature","geometry":{"type":"Point","coordinates":[-88.68562,41.893687]}},{"properties":{"city":"Wasco","total count":null,"country":"USA","inactive":null,"survivor":null,"geo_score":0.857,"annuitant":2,"id":"a6mvf68e9a1c","geo_precision":"city","state":"illinois","active":3},"type":"Feature","geometry":{"type":"Point","coordinates":[-88.420178,41.936977]}},{"properties":{"city":"West Dundee","total count":77,"country":"USA","inactive":19,"survivor":5,"geo_score":0.743,"annuitant":12,"id":"a6mvf64qz1z4","geo_precision":"city","state":"illinois","active":41},"type":"Feature","geometry":{"type":"Point","coordinates":[-88.978394,38.664771]}},{"properties":{"city":"Antioch","total count":134,"country":"USA","inactive":26,"survivor":13,"geo_score":0.857,"annuitant":30,"id":"a6mvf6ahfjc0","geo_precision":"city","state":"illinois","active":65},"type":"Feature","geometry":{"type":"Point","coordinates":[-88.075733,42.451419]}},{"properties":{"city":"Bannockburn","total count":null,"country":"USA","inactive":4,"survivor":null,"geo_score":0.857,"annuitant":null,"id":"a6mvf65rpo9d","geo_precision":"city","state":"illinois","active":3},"type":"Feature","geometry":{"type":"Point","coordinates":[-87.866458,42.193358]}},{"properties":{"city":"Barrington","total count":259,"country":"USA","inactive":91,"survivor":24,"geo_score":0.81,"annuitant":50,"id":"a6mvf6974dal","geo_precision":"city","state":"illinois","active":94},"type":"Feature","geometry":{"type":"Point","coordinates":[-88.055908,42.152248]}},{"properties":{"city":"Bartlett","total count":null,"country":"USA","inactive":1,"survivor":null,"geo_score":0.857,"annuitant":null,"id":"a6mvf62yepog","geo_precision":"city","state":"illinois","active":null},"type":"Feature","geometry":{"type":"Point","coordinates":[-88.207293,41.980242]}},{"properties":{"city":"Beach Park","total count":41,"country":"USA","inactive":10,"survivor":3,"geo_score":0.746,"annuitant":7,"id":"a6mvf6ezndso","geo_precision":"city","state":"illinois","active":21},"type":"Feature","geometry":{"type":"Point","coordinates":[-89.13119,37.843384]}},{"properties":{"city":"Buffalo Grove","total count":316,"country":"USA","inactive":131,"survivor":26,"geo_score":0.798,"annuitant":37,"id":"a6mvf5zh0mmv","geo_precision":"city","state":"illinois","active":122},"type":"Feature","geometry":{"type":"Point","coordinates":[-89.387944,39.849893]}},{"properties":{"city":"Deer Park","total count":19,"country":"USA","inactive":7,"survivor":1,"geo_score":0.75,"annuitant":5,"id":"a6mvf626o437","geo_precision":"city","state":"illinois","active":6},"type":"Feature","geometry":{"type":"Point","coordinates":[-87.603084,40.718925]}},{"properties":{"city":"Deerfield","total count":195,"country":"USA","inactive":70,"survivor":17,"geo_score":0.857,"annuitant":31,"id":"a6mvf6ckz8qa","geo_precision":"city","state":"illinois","active":77},"type":"Feature","geometry":{"type":"Point","coordinates":[-87.866818,42.178175]}},{"properties":{"city":"Dekalb","total count":null,"country":"USA","inactive":1,"survivor":null,"geo_score":0.857,"annuitant":null,"id":"a6mvf61ih42n","geo_precision":"city","state":"illinois","active":null},"type":"Feature","geometry":{"type":"Point","coordinates":[-88.79101,41.816826]}},{"properties":{"city":"Fox Lake","total count":55,"country":"USA","inactive":18,"survivor":3,"geo_score":0.776,"annuitant":12,"id":"a6mvf5zl04s8","geo_precision":"city","state":"illinois","active":22},"type":"Feature","geometry":{"type":"Point","coordinates":[-88.495074,41.623086]}},{"properties":{"city":"Gages Lake","total count":8,"country":"USA","inactive":1,"survivor":2,"geo_score":0.857,"annuitant":1,"id":"a6mvf63vo3jg","geo_precision":"city","state":"illinois","active":4},"type":"Feature","geometry":{"type":"Point","coordinates":[-87.982577,42.351689]}},{"properties":{"city":"Grayslake","total count":452,"country":"USA","inactive":115,"survivor":33,"geo_score":0.857,"annuitant":90,"id":"a6mvf64ye9yk","geo_precision":"city","state":"illinois","active":214},"type":"Feature","geometry":{"type":"Point","coordinates":[-88.054502,42.352423]}},{"properties":{"city":"Great Lakes","total count":null,"country":"USA","inactive":2,"survivor":1,"geo_score":0.743,"annuitant":null,"id":"a6mvf6568g56","geo_precision":"city","state":"illinois","active":2},"type":"Feature","geometry":{"type":"Point","coordinates":[-88.424222,39.798644]}},{"properties":{"city":"Gurnee","total count":364,"country":"USA","inactive":108,"survivor":20,"geo_score":0.762,"annuitant":45,"id":"a6mvf6ay86zp","geo_precision":"city","state":"illinois","active":191},"type":"Feature","geometry":{"type":"Point","coordinates":[-89.772048,39.742274]}},{"properties":{"city":"Hainesville","total count":null,"country":"USA","inactive":10,"survivor":null,"geo_score":0.857,"annuitant":null,"id":"a6mvf66xlah2","geo_precision":"city","state":"illinois","active":18},"type":"Feature","geometry":{"type":"Point","coordinates":[-88.067858,42.345022]}},{"properties":{"city":"Hawthorn Wds","total count":null,"country":"USA","inactive":null,"survivor":1,"geo_score":0.727,"annuitant":1,"id":"a6mvf64m9xzt","geo_precision":"city","state":"illinois","active":null},"type":"Feature","geometry":{"type":"Point","coordinates":[-89.79483,39.985327]}},{"properties":{"city":"Hawthorn Woods","total count":67,"country":"USA","inactive":26,"survivor":4,"geo_score":0.857,"annuitant":15,"id":"a6mvf6dxx4vc","geo_precision":"city","state":"illinois","active":22},"type":"Feature","geometry":{"type":"Point","coordinates":[-88.049521,42.216969]}},{"properties":{"city":"Highland Park","total count":297,"country":"USA","inactive":86,"survivor":33,"geo_score":0.774,"annuitant":81,"id":"a6mvf678838n","geo_precision":"city","state":"illinois","active":97},"type":"Feature","geometry":{"type":"Point","coordinates":[-88.748949,39.215876]}},{"properties":{"city":"Highwood","total count":13,"country":"USA","inactive":5,"survivor":3,"geo_score":0.857,"annuitant":1,"id":"a6mvf645uj58","geo_precision":"city","state":"illinois","active":4},"type":"Feature","geometry":{"type":"Point","coordinates":[-87.814666,42.207374]}},{"properties":{"city":"Hoffman Estates","total count":null,"country":"USA","inactive":null,"survivor":null,"geo_score":0.857,"annuitant":null,"id":"a6mvf6f3gkpd","geo_precision":"city","state":"illinois","active":1},"type":"Feature","geometry":{"type":"Point","coordinates":[-88.079795,42.042805]}},{"properties":{"city":"Indian Creek","total count":null,"country":"USA","inactive":2,"survivor":1,"geo_score":0.857,"annuitant":null,"id":"a6mvf6dr905k","geo_precision":"city","state":"illinois","active":3},"type":"Feature","geometry":{"type":"Point","coordinates":[-87.979797,42.226968]}},{"properties":{"city":"Ingleside","total count":62,"country":"USA","inactive":9,"survivor":11,"geo_score":0.806,"annuitant":15,"id":"a6mvf63sl4xz","geo_precision":"city","state":"illinois","active":27},"type":"Feature","geometry":{"type":"Point","coordinates":[-88.144251,42.401687]}},{"properties":{"city":"Inverness","total count":14,"country":"USA","inactive":6,"survivor":1,"geo_score":0.857,"annuitant":4,"id":"a6mvf69xjj5b","geo_precision":"city","state":"illinois","active":3},"type":"Feature","geometry":{"type":"Point","coordinates":[-88.096187,42.118082]}},{"properties":{"city":"Island Lake","total count":55,"country":"USA","inactive":22,"survivor":1,"geo_score":0.857,"annuitant":7,"id":"a6mvf5zjvt6o","geo_precision":"city","state":"illinois","active":25},"type":"Feature","geometry":{"type":"Point","coordinates":[-88.188464,42.27179]}},{"properties":{"city":"Kildeer","total count":26,"country":"USA","inactive":14,"survivor":1,"geo_score":0.857,"annuitant":2,"id":"a6mvf61ofx3i","geo_precision":"city","state":"illinois","active":9},"type":"Feature","geometry":{"type":"Point","coordinates":[-88.047853,42.170581]}},{"properties":{"city":"Lake Barrington","total count":36,"country":"USA","inactive":15,"survivor":4,"geo_score":0.771,"annuitant":5,"id":"a6mvf699ltol","geo_precision":"city","state":"illinois","active":12},"type":"Feature","geometry":{"type":"Point","coordinates":[-88.055908,42.152248]}},{"properties":{"city":"Lake Bluff","total count":79,"country":"USA","inactive":28,"survivor":8,"geo_score":0.73,"annuitant":19,"id":"a6mvf6bgbnab","geo_precision":"city","state":"illinois","active":24},"type":"Feature","geometry":{"type":"Point","coordinates":[-89.680102,40.684482]}},{"properties":{"city":"Lake Forest","total count":139,"country":"USA","inactive":49,"survivor":16,"geo_score":0.786,"annuitant":28,"id":"a6mvf600j77h","geo_precision":"city","state":"illinois","active":46},"type":"Feature","geometry":{"type":"Point","coordinates":[-88.393085,40.754176]}},{"properties":{"city":"Lake Villa","total count":199,"country":"USA","inactive":64,"survivor":12,"geo_score":0.746,"annuitant":31,"id":"a6mvf6atjotp","geo_precision":"city","state":"illinois","active":92},"type":"Feature","geometry":{"type":"Point","coordinates":[-88.167861,42.326133]}},{"properties":{"city":"Lake Zurich","total count":164,"country":"USA","inactive":62,"survivor":20,"geo_score":0.857,"annuitant":15,"id":"a6mvf6bz6mlr","geo_precision":"city","state":"illinois","active":67},"type":"Feature","geometry":{"type":"Point","coordinates":[-88.076942,42.216543]}},{"properties":{"city":"Libertyville","total count":316,"country":"USA","inactive":103,"survivor":25,"geo_score":0.857,"annuitant":62,"id":"a6mvf6emtkdh","geo_precision":"city","state":"illinois","active":126},"type":"Feature","geometry":{"type":"Point","coordinates":[-87.957724,42.28947]}},{"properties":{"city":"Lincolnshire","total count":61,"country":"USA","inactive":24,"survivor":8,"geo_score":0.806,"annuitant":12,"id":"a6mvf6e9m7ov","geo_precision":"city","state":"illinois","active":17},"type":"Feature","geometry":{"type":"Point","coordinates":[-87.806994,41.502534]}},{"properties":{"city":"Lindenhurst","total count":126,"country":"USA","inactive":38,"survivor":3,"geo_score":0.857,"annuitant":14,"id":"a6mvf69yvus8","geo_precision":"city","state":"illinois","active":71},"type":"Feature","geometry":{"type":"Point","coordinates":[-88.026191,42.410577]}},{"properties":{"city":"Long Grove","total count":59,"country":"USA","inactive":27,"survivor":3,"geo_score":0.857,"annuitant":7,"id":"a6mvf65zuq05","geo_precision":"city","state":"illinois","active":22},"type":"Feature","geometry":{"type":"Point","coordinates":[-87.997852,42.178358]}},{"properties":{"city":"Mettawa","total count":null,"country":"USA","inactive":1,"survivor":null,"geo_score":0.857,"annuitant":null,"id":"a6mvf608u84s","geo_precision":"city","state":"illinois","active":null},"type":"Feature","geometry":{"type":"Point","coordinates":[-87.925906,42.233357]}},{"properties":{"city":"Mundelein","total count":221,"country":"USA","inactive":79,"survivor":20,"geo_score":0.857,"annuitant":30,"id":"a6mvf65ur539","geo_precision":"city","state":"illinois","active":92},"type":"Feature","geometry":{"type":"Point","coordinates":[-88.027327,42.252523]}},{"properties":{"city":"North Barrington","total count":15,"country":"USA","inactive":7,"survivor":5,"geo_score":0.762,"annuitant":2,"id":"a6mvf6fvef36","geo_precision":"city","state":"illinois","active":1},"type":"Feature","geometry":{"type":"Point","coordinates":[-88.055908,42.152248]}},{"properties":{"city":"North Chicago","total count":33,"country":"USA","inactive":10,"survivor":4,"geo_score":0.798,"annuitant":4,"id":"a6mvf62n63c7","geo_precision":"city","state":"illinois","active":15},"type":"Feature","geometry":{"type":"Point","coordinates":[-87.650052,41.850033]}},{"properties":{"city":"Northbrook","total count":null,"country":"USA","inactive":null,"survivor":null,"geo_score":0.79,"annuitant":1,"id":"a6mvf67fff89","geo_precision":"city","state":"illinois","active":null},"type":"Feature","geometry":{"type":"Point","coordinates":[-88.140635,42.207802]}},{"properties":{"city":"Old Mill Creek","total count":null,"country":"USA","inactive":2,"survivor":null,"geo_score":0.726,"annuitant":null,"id":"a6mvf62r4l3i","geo_precision":"city","state":"illinois","active":2},"type":"Feature","geometry":{"type":"Point","coordinates":[-89.907883,38.190606]}},{"properties":{"city":"Park City","total count":13,"country":"USA","inactive":2,"survivor":1,"geo_score":0.857,"annuitant":2,"id":"a6mvf6brz6e5","geo_precision":"city","state":"illinois","active":8},"type":"Feature","geometry":{"type":"Point","coordinates":[-87.88424,42.348355]}},{"properties":{"city":"Port Barrington","total count":null,"country":"USA","inactive":2,"survivor":null,"geo_score":0.771,"annuitant":null,"id":"a6mvf65tvwnc","geo_precision":"city","state":"illinois","active":4},"type":"Feature","geometry":{"type":"Point","coordinates":[-88.055908,42.152248]}},{"properties":{"city":"Prairie View","total count":13,"country":"USA","inactive":4,"survivor":6,"geo_score":0.805,"annuitant":1,"id":"a6mvf641wu0k","geo_precision":"city","state":"illinois","active":2},"type":"Feature","geometry":{"type":"Point","coordinates":[-89.943162,38.173106]}},{"properties":{"city":"Riverwoods","total count":31,"country":"USA","inactive":12,"survivor":4,"geo_score":0.857,"annuitant":10,"id":"a6mvf612gwq4","geo_precision":"city","state":"illinois","active":5},"type":"Feature","geometry":{"type":"Point","coordinates":[-87.897014,42.167525]}},{"properties":{"city":"Round Lake","total count":131,"country":"USA","inactive":53,"survivor":3,"geo_score":0.806,"annuitant":10,"id":"a6mvf64hymig","geo_precision":"city","state":"illinois","active":65},"type":"Feature","geometry":{"type":"Point","coordinates":[-88.090082,42.371688]}},{"properties":{"city":"Round Lake Beach","total count":99,"country":"USA","inactive":20,"survivor":6,"geo_score":0.735,"annuitant":11,"id":"a6mvf61p4xik","geo_precision":"city","state":"illinois","active":62},"type":"Feature","geometry":{"type":"Point","coordinates":[-89.13119,37.843384]}},{"properties":{"city":"Round Lake Heights","total count":null,"country":"USA","inactive":3,"survivor":null,"geo_score":0.812,"annuitant":null,"id":"a6mvf6cqcjsg","geo_precision":"city","state":"illinois","active":6},"type":"Feature","geometry":{"type":"Point","coordinates":[-88.090082,42.371688]}},{"properties":{"city":"Round Lake Park","total count":null,"country":"USA","inactive":5,"survivor":1,"geo_score":0.816,"annuitant":null,"id":"a6mvf6ci3gqp","geo_precision":"city","state":"illinois","active":9},"type":"Feature","geometry":{"type":"Point","coordinates":[-88.090082,42.371688]}},{"properties":{"city":"Rounds Lake Beach","total count":null,"country":"USA","inactive":null,"survivor":null,"geo_score":0.743,"annuitant":null,"id":"a6mvf6azwi29","geo_precision":"city","state":"illinois","active":1},"type":"Feature","geometry":{"type":"Point","coordinates":[-89.13119,37.843384]}},{"properties":{"city":"S Barrington","total count":null,"country":"USA","inactive":1,"survivor":null,"geo_score":0.8,"annuitant":null,"id":"a6mvf6bm4zvc","geo_precision":"city","state":"illinois","active":1},"type":"Feature","geometry":{"type":"Point","coordinates":[-88.055908,42.152248]}},{"properties":{"city":"South Barrington","total count":29,"country":"USA","inactive":11,"survivor":2,"geo_score":0.762,"annuitant":4,"id":"a6mvf6c6ezax","geo_precision":"city","state":"illinois","active":12},"type":"Feature","geometry":{"type":"Point","coordinates":[-88.055908,42.152248]}},{"properties":{"city":"Third Lake","total count":null,"country":"USA","inactive":5,"survivor":null,"geo_score":0.857,"annuitant":null,"id":"a6mvf6a3ybg1","geo_precision":"city","state":"illinois","active":14},"type":"Feature","geometry":{"type":"Point","coordinates":[-88.010912,42.373911]}},{"properties":{"city":"Tower Lakes","total count":7,"country":"USA","inactive":2,"survivor":2,"geo_score":0.857,"annuitant":1,"id":"a6mvf64426xg","geo_precision":"city","state":"illinois","active":2},"type":"Feature","geometry":{"type":"Point","coordinates":[-88.152025,42.231968]}},{"properties":{"city":"Vernon Hills","total count":168,"country":"USA","inactive":67,"survivor":18,"geo_score":0.753,"annuitant":15,"id":"a6mvf60t7vrw","geo_precision":"city","state":"illinois","active":68},"type":"Feature","geometry":{"type":"Point","coordinates":[-89.670103,40.596705]}},{"properties":{"city":"Volo","total count":null,"country":"USA","inactive":2,"survivor":null,"geo_score":0.857,"annuitant":1,"id":"a6mvf60ekrk3","geo_precision":"city","state":"illinois","active":8},"type":"Feature","geometry":{"type":"Point","coordinates":[-88.167861,42.326133]}},{"properties":{"city":"Wadsworth","total count":53,"country":"USA","inactive":14,"survivor":4,"geo_score":0.857,"annuitant":10,"id":"a6mvf6a62l8g","geo_precision":"city","state":"illinois","active":25},"type":"Feature","geometry":{"type":"Point","coordinates":[-87.940027,42.440139]}},{"properties":{"city":"Wauconda","total count":96,"country":"USA","inactive":33,"survivor":5,"geo_score":0.857,"annuitant":6,"id":"a6mvf634077e","geo_precision":"city","state":"illinois","active":52},"type":"Feature","geometry":{"type":"Point","coordinates":[-88.073127,42.249873]}},{"properties":{"city":"Waukegan","total count":279,"country":"USA","inactive":69,"survivor":26,"geo_score":0.857,"annuitant":36,"id":"a6mvf6cq72sl","geo_precision":"city","state":"illinois","active":148},"type":"Feature","geometry":{"type":"Point","coordinates":[-87.610053,42.322814]}},{"properties":{"city":"Winthrop Harbor","total count":37,"country":"USA","inactive":12,"survivor":1,"geo_score":0.857,"annuitant":4,"id":"a6mvf6fnho44","geo_precision":"city","state":"illinois","active":20},"type":"Feature","geometry":{"type":"Point","coordinates":[-87.834222,42.47832]}},{"properties":{"city":"Winthrop Hbr","total count":null,"country":"USA","inactive":1,"survivor":null,"geo_score":0.827,"annuitant":null,"id":"a6mvf6fg2dgu","geo_precision":"city","state":"illinois","active":null},"type":"Feature","geometry":{"type":"Point","coordinates":[-87.834222,42.47832]}},{"properties":{"city":"Zion","total count":95,"country":"USA","inactive":20,"survivor":5,"geo_score":0.857,"annuitant":11,"id":"a6mvf68o9ss2","geo_precision":"city","state":"illinois","active":59},"type":"Feature","geometry":{"type":"Point","coordinates":[-87.884975,42.45577]}},{"properties":{"city":"Algonquin","total count":239,"country":"USA","inactive":83,"survivor":16,"geo_score":0.857,"annuitant":33,"id":"a6mvf6aa0ykr","geo_precision":"city","state":"illinois","active":107},"type":"Feature","geometry":{"type":"Point","coordinates":[-88.315335,42.162949]}},{"properties":{"city":"Bull Valley","total count":null,"country":"USA","inactive":1,"survivor":null,"geo_score":0.771,"annuitant":3,"id":"a6mvf6ek5zir","geo_precision":"city","state":"illinois","active":6},"type":"Feature","geometry":{"type":"Point","coordinates":[-88.102,41.277532]}},{"properties":{"city":"Cary","total count":215,"country":"USA","inactive":73,"survivor":13,"geo_score":0.786,"annuitant":23,"id":"a6mvf64gorms","geo_precision":"city","state":"illinois","active":106},"type":"Feature","geometry":{"type":"Point","coordinates":[-89.67038,37.823941]}},{"properties":{"city":"Crystal Lake","total count":622,"country":"USA","inactive":212,"survivor":35,"geo_score":0.806,"annuitant":108,"id":"a6mvf63qz84w","geo_precision":"city","state":"illinois","active":267},"type":"Feature","geometry":{"type":"Point","coordinates":[-88.380087,42.233634]}},{"properties":{"city":"East Dundee","total count":null,"country":"USA","inactive":null,"survivor":null,"geo_score":0.857,"annuitant":1,"id":"a6mvf5zk9h57","geo_precision":"city","state":"illinois","active":null},"type":"Feature","geometry":{"type":"Point","coordinates":[-88.271469,42.098915]}},{"properties":{"city":"Fox River Grove","total count":32,"country":"USA","inactive":16,"survivor":2,"geo_score":0.747,"annuitant":1,"id":"a6mvf6dfmnlg","geo_precision":"city","state":"illinois","active":13},"type":"Feature","geometry":{"type":"Point","coordinates":[-88.495074,41.623086]}},{"properties":{"city":"Fox River Grv","total count":null,"country":"USA","inactive":2,"survivor":null,"geo_score":0.753,"annuitant":null,"id":"a6mvf6406qyn","geo_precision":"city","state":"illinois","active":null},"type":"Feature","geometry":{"type":"Point","coordinates":[-88.495074,41.623086]}},{"properties":{"city":"Gurnee","total count":null,"country":"USA","inactive":null,"survivor":1,"geo_score":0.762,"annuitant":null,"id":"a6mvf6bzlvcr","geo_precision":"city","state":"illinois","active":null},"type":"Feature","geometry":{"type":"Point","coordinates":[-89.772048,39.742274]}},{"properties":{"city":"Harvard","total count":78,"country":"USA","inactive":23,"survivor":5,"geo_score":0.798,"annuitant":18,"id":"a6mvf69of90o","geo_precision":"city","state":"illinois","active":32},"type":"Feature","geometry":{"type":"Point","coordinates":[-89.481481,40.728648]}},{"properties":{"city":"Hebron","total count":8,"country":"USA","inactive":3,"survivor":1,"geo_score":0.857,"annuitant":1,"id":"a6mvf648zay0","geo_precision":"city","state":"illinois","active":3},"type":"Feature","geometry":{"type":"Point","coordinates":[-88.430802,42.455151]}},{"properties":{"city":"Holiday Hills","total count":null,"country":"USA","inactive":null,"survivor":null,"geo_score":0.774,"annuitant":null,"id":"a6mvf679cw9d","geo_precision":"city","state":"illinois","active":2},"type":"Feature","geometry":{"type":"Point","coordinates":[-89.670103,40.596705]}},{"properties":{"city":"Huntley","total count":228,"country":"USA","inactive":48,"survivor":22,"geo_score":0.857,"annuitant":82,"id":"a6mvf6ceb27j","geo_precision":"city","state":"illinois","active":76},"type":"Feature","geometry":{"type":"Point","coordinates":[-88.450815,42.197379]}},{"properties":{"city":"Johnsburg","total count":27,"country":"USA","inactive":9,"survivor":3,"geo_score":0.857,"annuitant":4,"id":"a6mvf68mbhns","geo_precision":"city","state":"illinois","active":11},"type":"Feature","geometry":{"type":"Point","coordinates":[-88.242032,42.380021]}},{"properties":{"city":"Lake In the Hills","total count":166,"country":"USA","inactive":63,"survivor":10,"geo_score":0.745,"annuitant":9,"id":"a6mvf655mfmd","geo_precision":"city","state":"illinois","active":84},"type":"Feature","geometry":{"type":"Point","coordinates":[-89.670103,40.596705]}},{"properties":{"city":"Lakemoor","total count":18,"country":"USA","inactive":7,"survivor":3,"geo_score":0.857,"annuitant":1,"id":"a6mvf6a0yvg8","geo_precision":"city","state":"illinois","active":7},"type":"Feature","geometry":{"type":"Point","coordinates":[-88.198973,42.328633]}},{"properties":{"city":"Lakewood","total count":null,"country":"USA","inactive":null,"survivor":null,"geo_score":0.857,"annuitant":null,"id":"a6mvf66jiijw","geo_precision":"city","state":"illinois","active":1},"type":"Feature","geometry":{"type":"Point","coordinates":[-88.355086,42.22919]}},{"properties":{"city":"Lk In the Hls","total count":null,"country":"USA","inactive":1,"survivor":null,"geo_score":0.743,"annuitant":null,"id":"a6mvf6fh6qqz","geo_precision":"city","state":"illinois","active":1},"type":"Feature","geometry":{"type":"Point","coordinates":[-89.670103,40.596705]}},{"properties":{"city":"Marengo","total count":95,"country":"USA","inactive":31,"survivor":6,"geo_score":0.857,"annuitant":20,"id":"a6mvf60nvdjh","geo_precision":"city","state":"illinois","active":38},"type":"Feature","geometry":{"type":"Point","coordinates":[-88.607897,42.255176]}},{"properties":{"city":"McHenry","total count":261,"country":"USA","inactive":85,"survivor":31,"geo_score":0.857,"annuitant":38,"id":"a6mvf6chbosm","geo_precision":"city","state":"illinois","active":107},"type":"Feature","geometry":{"type":"Point","coordinates":[-88.320886,42.296671]}},{"properties":{"city":"Oakwood Hills","total count":null,"country":"USA","inactive":2,"survivor":null,"geo_score":0.75,"annuitant":1,"id":"a6mvf605w2uo","geo_precision":"city","state":"illinois","active":4},"type":"Feature","geometry":{"type":"Point","coordinates":[-89.670103,40.596705]}},{"properties":{"city":"Richmond","total count":23,"country":"USA","inactive":7,"survivor":3,"geo_score":0.857,"annuitant":4,"id":"a6mvf65oq4xh","geo_precision":"city","state":"illinois","active":9},"type":"Feature","geometry":{"type":"Point","coordinates":[-88.429864,42.328463]}},{"properties":{"city":"Ringwood","total count":null,"country":"USA","inactive":null,"survivor":null,"geo_score":0.857,"annuitant":1,"id":"a6mvf644xwt9","geo_precision":"city","state":"illinois","active":3},"type":"Feature","geometry":{"type":"Point","coordinates":[-88.305439,42.404829]}},{"properties":{"city":"Schaumburg","total count":null,"country":"USA","inactive":1,"survivor":null,"geo_score":0.857,"annuitant":null,"id":"a6mvf5zuhife","geo_precision":"city","state":"illinois","active":null},"type":"Feature","geometry":{"type":"Point","coordinates":[-88.083959,42.030261]}},{"properties":{"city":"Spring Grove","total count":74,"country":"USA","inactive":24,"survivor":5,"geo_score":0.792,"annuitant":11,"id":"a6mvf62bz8iy","geo_precision":"city","state":"illinois","active":34},"type":"Feature","geometry":{"type":"Point","coordinates":[-90.045117,41.612532]}},{"properties":{"city":"Trout Valley","total count":null,"country":"USA","inactive":1,"survivor":null,"geo_score":0.74,"annuitant":null,"id":"a6mvf6148w8l","geo_precision":"city","state":"illinois","active":1},"type":"Feature","geometry":{"type":"Point","coordinates":[-88.167861,42.326133]}},{"properties":{"city":"Union","total count":14,"country":"USA","inactive":1,"survivor":4,"geo_score":0.857,"annuitant":3,"id":"a6mvf6cj8rdy","geo_precision":"city","state":"illinois","active":6},"type":"Feature","geometry":{"type":"Point","coordinates":[-89.36704,40.287542]}},{"properties":{"city":"Village of Lakewood","total count":17,"country":"USA","inactive":6,"survivor":2,"geo_score":0.782,"annuitant":1,"id":"a6mvf62itejl","geo_precision":"city","state":"illinois","active":8},"type":"Feature","geometry":{"type":"Point","coordinates":[-88.355086,42.22919]}},{"properties":{"city":"Wonder Lake","total count":46,"country":"USA","inactive":11,"survivor":5,"geo_score":0.857,"annuitant":9,"id":"a6mvf6f1kvun","geo_precision":"city","state":"illinois","active":21},"type":"Feature","geometry":{"type":"Point","coordinates":[-88.332794,42.355165]}},{"properties":{"city":"Woodstock","total count":351,"country":"USA","inactive":108,"survivor":40,"geo_score":0.857,"annuitant":59,"id":"a6mvf645tuxe","geo_precision":"city","state":"illinois","active":144},"type":"Feature","geometry":{"type":"Point","coordinates":[-88.462832,42.320271]}},{"properties":{"city":"Aurora","total count":59,"country":"USA","inactive":11,"survivor":1,"geo_score":0.857,"annuitant":2,"id":"a6mvf67nkl6l","geo_precision":"city","state":"illinois","active":45},"type":"Feature","geometry":{"type":"Point","coordinates":[-88.136616,41.768399]}},{"properties":{"city":"Beecher","total count":61,"country":"USA","inactive":15,"survivor":4,"geo_score":0.857,"annuitant":10,"id":"a6mvf61t7h1y","geo_precision":"city","state":"illinois","active":32},"type":"Feature","geometry":{"type":"Point","coordinates":[-87.626723,41.356872]}},{"properties":{"city":"Bolingbrook","total count":602,"country":"USA","inactive":238,"survivor":45,"geo_score":0.857,"annuitant":74,"id":"a6mvf6fev38c","geo_precision":"city","state":"illinois","active":245},"type":"Feature","geometry":{"type":"Point","coordinates":[-88.068396,41.698642]}},{"properties":{"city":"Braidwood","total count":null,"country":"USA","inactive":13,"survivor":null,"geo_score":0.857,"annuitant":6,"id":"a6mvf6f4ttad","geo_precision":"city","state":"illinois","active":25},"type":"Feature","geometry":{"type":"Point","coordinates":[-88.017171,41.285878]}},{"properties":{"city":"Channahon","total count":129,"country":"USA","inactive":49,"survivor":8,"geo_score":0.857,"annuitant":11,"id":"a6mvf66z328q","geo_precision":"city","state":"illinois","active":61},"type":"Feature","geometry":{"type":"Point","coordinates":[-88.199325,41.43313]}},{"properties":{"city":"Chicago","total count":null,"country":"USA","inactive":3,"survivor":null,"geo_score":0.857,"annuitant":null,"id":"a6mvf6c2rpn4","geo_precision":"city","state":"illinois","active":null},"type":"Feature","geometry":{"type":"Point","coordinates":[-87.650052,41.850033]}},{"properties":{"city":"Crest Hill","total count":144,"country":"USA","inactive":36,"survivor":15,"geo_score":0.857,"annuitant":38,"id":"a6mvf646adh9","geo_precision":"city","state":"illinois","active":55},"type":"Feature","geometry":{"type":"Point","coordinates":[-88.098671,41.554753]}},{"properties":{"city":"Cresthill","total count":null,"country":"USA","inactive":2,"survivor":1,"geo_score":0.857,"annuitant":null,"id":"a6mvf69m16l1","geo_precision":"city","state":"illinois","active":2},"type":"Feature","geometry":{"type":"Point","coordinates":[-88.098671,41.554753]}},{"properties":{"city":"Crete","total count":257,"country":"USA","inactive":74,"survivor":29,"geo_score":0.776,"annuitant":63,"id":"a6mvf624mo5f","geo_precision":"city","state":"illinois","active":91},"type":"Feature","geometry":{"type":"Point","coordinates":[-88.424222,39.798644]}},{"properties":{"city":"Elwood","total count":33,"country":"USA","inactive":12,"survivor":3,"geo_score":0.857,"annuitant":4,"id":"a6mvf62ty46h","geo_precision":"city","state":"illinois","active":14},"type":"Feature","geometry":{"type":"Point","coordinates":[-88.090588,41.44288]}},{"properties":{"city":"Frankfort","total count":397,"country":"USA","inactive":137,"survivor":25,"geo_score":0.857,"annuitant":67,"id":"a6mvf6e7acva","geo_precision":"city","state":"illinois","active":168},"type":"Feature","geometry":{"type":"Point","coordinates":[-87.896109,41.451744]}},{"properties":{"city":"Homer Glen","total count":165,"country":"USA","inactive":43,"survivor":17,"geo_score":0.857,"annuitant":41,"id":"a6mvf6f6jquk","geo_precision":"city","state":"illinois","active":64},"type":"Feature","geometry":{"type":"Point","coordinates":[-87.938111,41.600032]}},{"properties":{"city":"Joliet","total count":951,"country":"USA","inactive":303,"survivor":73,"geo_score":0.738,"annuitant":148,"id":"a6mvf64ygk04","geo_precision":"city","state":"illinois","active":427},"type":"Feature","geometry":{"type":"Point","coordinates":[-90.667345,39.124215]}},{"properties":{"city":"Lockport","total count":271,"country":"USA","inactive":107,"survivor":26,"geo_score":0.857,"annuitant":27,"id":"a6mvf62ec1ao","geo_precision":"city","state":"illinois","active":111},"type":"Feature","geometry":{"type":"Point","coordinates":[-88.031268,41.552615]}},{"properties":{"city":"Manhattan","total count":101,"country":"USA","inactive":27,"survivor":10,"geo_score":0.857,"annuitant":7,"id":"a6mvf6bdukaa","geo_precision":"city","state":"illinois","active":57},"type":"Feature","geometry":{"type":"Point","coordinates":[-87.979113,41.491903]}},{"properties":{"city":"Mokena","total count":239,"country":"USA","inactive":80,"survivor":16,"geo_score":0.857,"annuitant":29,"id":"a6mvf6fmhrsc","geo_precision":"city","state":"illinois","active":114},"type":"Feature","geometry":{"type":"Point","coordinates":[-88.006767,41.426002]}},{"properties":{"city":"Monee","total count":97,"country":"USA","inactive":28,"survivor":9,"geo_score":0.857,"annuitant":16,"id":"a6mvf5zutrqv","geo_precision":"city","state":"illinois","active":44},"type":"Feature","geometry":{"type":"Point","coordinates":[-87.786645,41.412269]}},{"properties":{"city":"Naperville","total count":379,"country":"USA","inactive":170,"survivor":20,"geo_score":0.857,"annuitant":30,"id":"a6mvf69uuhr3","geo_precision":"city","state":"illinois","active":159},"type":"Feature","geometry":{"type":"Point","coordinates":[-88.152381,41.759029]}},{"properties":{"city":"New Lenox","total count":411,"country":"USA","inactive":138,"survivor":32,"geo_score":0.857,"annuitant":64,"id":"a6mvf67ftdpi","geo_precision":"city","state":"illinois","active":177},"type":"Feature","geometry":{"type":"Point","coordinates":[-87.961808,41.510802]}},{"properties":{"city":"Orland Park","total count":null,"country":"USA","inactive":null,"survivor":null,"geo_score":0.792,"annuitant":1,"id":"a6mvf6ead0vx","geo_precision":"city","state":"illinois","active":null},"type":"Feature","geometry":{"type":"Point","coordinates":[-87.843108,41.585311]}},{"properties":{"city":"Park Forest","total count":null,"country":"USA","inactive":null,"survivor":null,"geo_score":0.786,"annuitant":2,"id":"a6mvf657c8ea","geo_precision":"city","state":"illinois","active":null},"type":"Feature","geometry":{"type":"Point","coordinates":[-88.393085,40.754176]}},{"properties":{"city":"Peotone","total count":59,"country":"USA","inactive":11,"survivor":5,"geo_score":0.796,"annuitant":11,"id":"a6mvf65mks5z","geo_precision":"city","state":"illinois","active":32},"type":"Feature","geometry":{"type":"Point","coordinates":[-87.75364,38.476992]}},{"properties":{"city":"Plainfield","total count":740,"country":"USA","inactive":297,"survivor":56,"geo_score":0.857,"annuitant":74,"id":"a6mvf60owkdr","geo_precision":"city","state":"illinois","active":313},"type":"Feature","geometry":{"type":"Point","coordinates":[-88.169698,41.632457]}},{"properties":{"city":"Rockdale","total count":null,"country":"USA","inactive":4,"survivor":null,"geo_score":0.857,"annuitant":2,"id":"a6mvf60ljw2v","geo_precision":"city","state":"illinois","active":3},"type":"Feature","geometry":{"type":"Point","coordinates":[-88.114504,41.506142]}},{"properties":{"city":"Romeoville","total count":196,"country":"USA","inactive":54,"survivor":11,"geo_score":0.857,"annuitant":27,"id":"a6mvf6b0jlre","geo_precision":"city","state":"illinois","active":104},"type":"Feature","geometry":{"type":"Point","coordinates":[-88.089506,41.647531]}},{"properties":{"city":"Shorewood","total count":243,"country":"USA","inactive":82,"survivor":20,"geo_score":0.857,"annuitant":35,"id":"a6mvf65g2efc","geo_precision":"city","state":"illinois","active":106},"type":"Feature","geometry":{"type":"Point","coordinates":[-88.201729,41.520031]}},{"properties":{"city":"Sullivan","total count":null,"country":"USA","inactive":null,"survivor":null,"geo_score":0.857,"annuitant":1,"id":"a6mvf67pwnav","geo_precision":"city","state":"illinois","active":null},"type":"Feature","geometry":{"type":"Point","coordinates":[-88.633539,39.588093]}},{"properties":{"city":"University Park","total count":59,"country":"USA","inactive":7,"survivor":7,"geo_score":0.857,"annuitant":16,"id":"a6mvf67ronm0","geo_precision":"city","state":"illinois","active":29},"type":"Feature","geometry":{"type":"Point","coordinates":[-87.685325,41.592257]}},{"properties":{"city":"University Pk","total count":null,"country":"USA","inactive":null,"survivor":null,"geo_score":0.714,"annuitant":null,"id":"a6mvf68mot5z","geo_precision":"city","state":"illinois","active":1},"type":"Feature","geometry":{"type":"Point","coordinates":[-90.038994,38.796993]}},{"properties":{"city":"Wilmington","total count":57,"country":"USA","inactive":15,"survivor":5,"geo_score":0.857,"annuitant":5,"id":"a6mvf6cqommy","geo_precision":"city","state":"illinois","active":32},"type":"Feature","geometry":{"type":"Point","coordinates":[-90.486765,39.480683]}}],"is_temporal":false,"author":{"url":"","metadata":"","contact_name":"","contact_address":"","source":"","contact_phone":""},"source":"","pagination":{"sort":null,"start":0,"total":392,"limit":1000000},"state":"complete","tags":"","published":"2014-08-13T00:43:51-04:00","id":182383}