{"type":"FeatureCollection","data_type":"Dataset","url_type":null,"permissions":[{"permissions":{"download":true,"view":true},"group_id":"everyone"}],"classification":null,"title":"Michigan Roster","count":126,"stream_id":18244,"contributor":{"url":"http://geocommons.com/users/9734","name":"SoccerNCW23"},"data_attributes":null,"calculation_params":null,"icon_link":null,"link":"http://geocommons.com/overlays/18244.json","extent":[-122.207,26.1404,-71.0745,47.6155],"geometry_types":["point"],"unique_name":null,"name":"Michigan Roster","feature_count":126,"description":"","next_feature":null,"is_raster":false,"short_classification":"Y","stats":{"geo_score":{"max":0.857,"mean":0.84795238095238,"variance":0.00155958171428571,"stdev":0.0394915397811444,"min":0.516,"median":0.857}},"features":[{"properties":{"name":"Adam Barker","city":"ADRIAN","geo_score":0.857,"id":"a673c7wj2v4t","geo_precision":"city","position":"OL","state":"MI"},"type":"Feature","geometry":{"type":"Point","coordinates":[-84.065892,41.889943]}},{"properties":{"name":"Jordan Owens","city":"ALPHARETTA","geo_score":0.857,"id":"a673c7tqzg2l","geo_precision":"city","position":"WR","state":"GA"},"type":"Feature","geometry":{"type":"Point","coordinates":[-84.30205,34.112373]}},{"properties":{"name":"Matthew Cavanaugh","city":"ALTO","geo_score":0.857,"id":"a673c7pgy0m8","geo_precision":"city","position":"S","state":"MI"},"type":"Feature","geometry":{"type":"Point","coordinates":[-85.402859,42.856096]}},{"properties":{"name":"Rasheed Furrha","city":"ANN ARBOR","geo_score":0.857,"id":"a673c7zf5v5q","geo_precision":"city","position":"LB","state":"MI"},"type":"Feature","geometry":{"type":"Point","coordinates":[-83.849042,42.266638]}},{"properties":{"name":"Will Heininger","city":"ANN ARBOR","geo_score":0.857,"id":"a673c7zxpbdq","geo_precision":"city","position":"DE","state":"MI"},"type":"Feature","geometry":{"type":"Point","coordinates":[-83.849042,42.266638]}},{"properties":{"name":"Patrick Collins","city":"ANN ARBOR","geo_score":0.857,"id":"a673c81wka17","geo_precision":"city","position":"WR","state":"MI"},"type":"Feature","geometry":{"type":"Point","coordinates":[-83.849042,42.266638]}},{"properties":{"name":"Mike Therman","city":"ANN ARBOR","geo_score":0.857,"id":"a673c7r79pii","geo_precision":"city","position":"TE","state":"MI"},"type":"Feature","geometry":{"type":"Point","coordinates":[-83.849042,42.266638]}},{"properties":{"name":"Nadar Furrha","city":"ANN ARBOR","geo_score":0.857,"id":"a673c7uo25xt","geo_precision":"city","position":"QB","state":"MI"},"type":"Feature","geometry":{"type":"Point","coordinates":[-83.849042,42.266638]}},{"properties":{"name":"Jeremy Gallon","city":"APOPKA","geo_score":0.857,"id":"a673c7s1kfxd","geo_precision":"city","position":"WR","state":"FL"},"type":"Feature","geometry":{"type":"Point","coordinates":[-81.488843,28.635425]}},{"properties":{"name":"Bryant Nowicki","city":"BAY CITY","geo_score":0.857,"id":"a673c7tt3ewu","geo_precision":"city","position":"OL","state":"MI"},"type":"Feature","geometry":{"type":"Point","coordinates":[-83.953007,43.608773]}},{"properties":{"name":"Stephen Schilling","city":"BELLEVUE","geo_score":0.857,"id":"a673c7yrethh","geo_precision":"city","position":"OL","state":"WA"},"type":"Feature","geometry":{"type":"Point","coordinates":[-122.207221,47.615471]}},{"properties":{"name":"Paul Gyarmati","city":"BIRMINGHAM","geo_score":0.857,"id":"a673c80nyslh","geo_precision":"city","position":"LB","state":"MI"},"type":"Feature","geometry":{"type":"Point","coordinates":[-83.211319,42.546701]}},{"properties":{"name":"Zac Ciullo","city":"BLOOMFIELD HILLS","geo_score":0.857,"id":"a673c7lpc8fk","geo_precision":"city","position":"OL","state":"MI"},"type":"Feature","geometry":{"type":"Point","coordinates":[-83.279231,42.544534]}},{"properties":{"name":"Tim McAvoy","city":"BLOOMINGTON","geo_score":0.857,"id":"a673c7qv76xi","geo_precision":"city","position":"OL","state":"IL"},"type":"Feature","geometry":{"type":"Point","coordinates":[-88.850396,40.462041]}},{"properties":{"name":"Scott Schrimscher","city":"CANTON","geo_score":0.857,"id":"a673c7xcoawc","geo_precision":"city","position":"K","state":"MI"},"type":"Feature","geometry":{"type":"Point","coordinates":[-83.418143,42.374118]}},{"properties":{"name":"Steve Watson","city":"CHERRY HILLS VILLAGE","geo_score":0.857,"id":"a673c7ndoj4x","geo_precision":"city","position":"LB","state":"CO"},"type":"Feature","geometry":{"type":"Point","coordinates":[-104.959425,39.641654]}},{"properties":{"name":"Curt Graman","city":"CINCINNATI","geo_score":0.857,"id":"a673c7qlsyq1","geo_precision":"city","position":"LS","state":"OH"},"type":"Feature","geometry":{"type":"Point","coordinates":[-84.53822,39.166759]}},{"properties":{"name":"Adam Patterson","city":"COLUMBIA","geo_score":0.857,"id":"a673c7ol3f66","geo_precision":"city","position":"DE","state":"SC"},"type":"Feature","geometry":{"type":"Point","coordinates":[-81.024864,33.987454]}},{"properties":{"name":"Patrick Omameh","city":"COLUMBUS","geo_score":0.857,"id":"a673c81dl17b","geo_precision":"city","position":"OL","state":"OH"},"type":"Feature","geometry":{"type":"Point","coordinates":[-82.897222,40.040113]}},{"properties":{"name":"Stevie Brown","city":"COLUMBUS","geo_score":0.857,"id":"a673c7qdafff","geo_precision":"city","position":"LB","state":"IN"},"type":"Feature","geometry":{"type":"Point","coordinates":[-85.891338,39.191447]}},{"properties":{"name":"Junior Hemingway","city":"CONWAY","geo_score":0.857,"id":"a673c7o50dhm","geo_precision":"city","position":"WR","state":"SC"},"type":"Feature","geometry":{"type":"Point","coordinates":[-78.948287,33.868775]}},{"properties":{"name":"Jordan Kovacs","city":"CURTICE","geo_score":0.857,"id":"a673c7puqbq4","geo_precision":"city","position":"S","state":"OH"},"type":"Feature","geometry":{"type":"Point","coordinates":[-83.357328,41.597798]}},{"properties":{"name":"Nick Koenigsknecht","city":"DAVISBURG","geo_score":0.857,"id":"a673c7ubgdp3","geo_precision":"city","position":"WR","state":"MI"},"type":"Feature","geometry":{"type":"Point","coordinates":[-83.535805,42.749639]}},{"properties":{"name":"Denard Robinson","city":"DEERFIELD BEACH","geo_score":0.857,"id":"a673c7ma2l41","geo_precision":"city","position":"QB","state":"FL"},"type":"Feature","geometry":{"type":"Point","coordinates":[-80.140769,26.273761]}},{"properties":{"name":"Adrian Witty","city":"DEERFIELD BEACH","geo_score":0.857,"id":"a673c7t2srac","geo_precision":"city","position":"CB","state":"FL"},"type":"Feature","geometry":{"type":"Point","coordinates":[-80.140769,26.273761]}},{"properties":{"name":"Greg Banks","city":"DENVER","geo_score":0.857,"id":"a673c7qx1o9p","geo_precision":"city","position":"DT","state":"CO"},"type":"Feature","geometry":{"type":"Point","coordinates":[-104.856808,39.726303]}},{"properties":{"name":"Boubacar Cissoko","city":"DETROIT","geo_score":0.857,"id":"a673c7ysujmb","geo_precision":"city","position":"CB","state":"MI"},"type":"Feature","geometry":{"type":"Point","coordinates":[-83.150823,42.239933]}},{"properties":{"name":"Brandon Graham","city":"DETROIT","geo_score":0.857,"id":"a673c7v7t5uh","geo_precision":"city","position":"DE","state":"MI"},"type":"Feature","geometry":{"type":"Point","coordinates":[-83.150823,42.239933]}},{"properties":{"name":"Teric Jones","city":"DETROIT","geo_score":0.857,"id":"a673c7un4reg","geo_precision":"city","position":"CB","state":"MI"},"type":"Feature","geometry":{"type":"Point","coordinates":[-83.150823,42.239933]}},{"properties":{"name":"William Campbell","city":"DETROIT","geo_score":0.857,"id":"a673c7zwcq2y","geo_precision":"city","position":"DT","state":"MI"},"type":"Feature","geometry":{"type":"Point","coordinates":[-83.150823,42.239933]}},{"properties":{"name":"Dominique Ware","city":"DETROIT","geo_score":0.857,"id":"a673c7vd17ra","geo_precision":"city","position":"DT","state":"MI"},"type":"Feature","geometry":{"type":"Point","coordinates":[-83.150823,42.239933]}},{"properties":{"name":"Floyd Simmons","city":"DETROIT","geo_score":0.857,"id":"a673c7qickge","geo_precision":"city","position":"S","state":"MI"},"type":"Feature","geometry":{"type":"Point","coordinates":[-83.150823,42.239933]}},{"properties":{"name":"Thomas Gordon","city":"DETROIT","geo_score":0.857,"id":"a673c80x8yg9","geo_precision":"city","position":"S","state":"MI"},"type":"Feature","geometry":{"type":"Point","coordinates":[-83.150823,42.239933]}},{"properties":{"name":"Cameron Gordon","city":"DETROIT","geo_score":0.857,"id":"a673c7s4c1kp","geo_precision":"city","position":"WR","state":"MI"},"type":"Feature","geometry":{"type":"Point","coordinates":[-83.150823,42.239933]}},{"properties":{"name":"Michael Cox","city":"DORCHESTER","geo_score":0.857,"id":"a673c7yvqmhy","geo_precision":"city","position":"RB","state":"MA"},"type":"Feature","geometry":{"type":"Point","coordinates":[-71.074495,42.297321]}},{"properties":{"name":"Jon Bills","city":"FARMINGTON HILLS","geo_score":0.857,"id":"a673c7rhzvfx","geo_precision":"city","position":"TE","state":"MI"},"type":"Feature","geometry":{"type":"Point","coordinates":[-83.377155,42.485313]}},{"properties":{"name":"Mark Moundros","city":"FARMINGTON HILLS","geo_score":0.857,"id":"a673c7z6gn0u","geo_precision":"city","position":"FB","state":"MI"},"type":"Feature","geometry":{"type":"Point","coordinates":[-83.377155,42.485313]}},{"properties":{"name":"Jason Olesnavage","city":"FERNDALE","geo_score":0.857,"id":"a673c7yvgv4x","geo_precision":"city","position":"K","state":"MI"},"type":"Feature","geometry":{"type":"Point","coordinates":[-83.140675,42.460586]}},{"properties":{"name":"Carlos Brown","city":"FRANKLIN","geo_score":0.857,"id":"a673c7q93vzx","geo_precision":"city","position":"RB","state":"GA"},"type":"Feature","geometry":{"type":"Point","coordinates":[-85.134045,33.278005]}},{"properties":{"name":"Obi Ezeh","city":"GRAND RAPIDS","geo_score":0.857,"id":"a673c7lpzu7b","geo_precision":"city","position":"LB","state":"MI"},"type":"Feature","geometry":{"type":"Point","coordinates":[-85.629101,42.984226]}},{"properties":{"name":"Kelvin Grady","city":"GRAND RAPIDS","geo_score":0.857,"id":"a673c7qjdaja","geo_precision":"city","position":"WR","state":"MI"},"type":"Feature","geometry":{"type":"Point","coordinates":[-85.629101,42.984226]}},{"properties":{"name":"Kevin Grady","city":"GRAND RAPIDS","geo_score":0.857,"id":"a673c7z0urt5","geo_precision":"city","position":"RB","state":"MI"},"type":"Feature","geometry":{"type":"Point","coordinates":[-85.629101,42.984226]}},{"properties":{"name":"Doug Rogan","city":"GRASS LAKE","geo_score":0.857,"id":"a673c7o4uy1k","geo_precision":"city","position":"WR","state":"MI"},"type":"Feature","geometry":{"type":"Point","coordinates":[-84.344285,42.258533]}},{"properties":{"name":"Zac Baker","city":"GRAYLING","geo_score":0.857,"id":"a673c7pqapn4","geo_precision":"city","position":"WR","state":"MI"},"type":"Feature","geometry":{"type":"Point","coordinates":[-84.612941,44.691777]}},{"properties":{"name":"J.T. Floyd","city":"GREENVILLE","geo_score":0.857,"id":"a673c7wwjyxw","geo_precision":"city","position":"CB","state":"SC"},"type":"Feature","geometry":{"type":"Point","coordinates":[-82.402871,34.848567]}},{"properties":{"name":"Karl Tech","city":"GROSSE POINTE","geo_score":0.857,"id":"a673c7t3oevk","geo_precision":"city","position":"S","state":"MI"},"type":"Feature","geometry":{"type":"Point","coordinates":[-83.150823,42.239933]}},{"properties":{"name":"Nathan Brink","city":"HOLLAND","geo_score":0.857,"id":"a673c7uw65wv","geo_precision":"city","position":"DE","state":"MI"},"type":"Feature","geometry":{"type":"Point","coordinates":[-86.444751,42.985596]}},{"properties":{"name":"Seth Broekhuizen","city":"HOLLAND","geo_score":0.857,"id":"a673c7s3a56t","geo_precision":"city","position":"K","state":"MI"},"type":"Feature","geometry":{"type":"Point","coordinates":[-86.444751,42.985596]}},{"properties":{"name":"Kris Pauloski","city":"INDIANAPOLIS","geo_score":0.857,"id":"a673c7vgblq6","geo_precision":"city","position":"K","state":"IN"},"type":"Feature","geometry":{"type":"Point","coordinates":[-86.13216,39.775092]}},{"properties":{"name":"Tom Pomarico","city":"JACKSON","geo_score":0.857,"id":"a673c7p3jisr","geo_precision":"city","position":"LS","state":"MI"},"type":"Feature","geometry":{"type":"Point","coordinates":[-84.421104,42.248979]}},{"properties":{"name":"Chris Berry","city":"KENTWOOD","geo_score":0.857,"id":"a673c7s1k194","geo_precision":"city","position":"P","state":"MI"},"type":"Feature","geometry":{"type":"Point","coordinates":[-85.644749,42.869473]}},{"properties":{"name":"Kevin Leach","city":"KENTWOOD","geo_score":0.857,"id":"a673c7o28chi","geo_precision":"city","position":"LB","state":"MI"},"type":"Feature","geometry":{"type":"Point","coordinates":[-85.644749,42.869473]}},{"properties":{"name":"Mark Ortmann","city":"KLEIN","geo_score":0.857,"id":"a673c7utcmxe","geo_precision":"city","position":"OL","state":"TX"},"type":"Feature","geometry":{"type":"Point","coordinates":[-95.532441,30.04772]}},{"properties":{"name":"Terrence Robinson","city":"KLEIN","geo_score":0.857,"id":"a673c7oner82","geo_precision":"city","position":"WR","state":"TX"},"type":"Feature","geometry":{"type":"Point","coordinates":[-95.532441,30.04772]}},{"properties":{"name":"Ricky Barnum","city":"LAKELAND","geo_score":0.857,"id":"a673c7uppa01","geo_precision":"city","position":"OL","state":"FL"},"type":"Feature","geometry":{"type":"Point","coordinates":[-81.956122,28.059997]}},{"properties":{"name":"Vladimir Emilien","city":"LAUDERHILL","geo_score":0.857,"id":"a673c7s08xdq","geo_precision":"city","position":"S","state":"FL"},"type":"Feature","geometry":{"type":"Point","coordinates":[-80.213381,26.140364]}},{"properties":{"name":"David Molk","city":"LEMONT","geo_score":0.857,"id":"a673c7vwlf04","geo_precision":"city","position":"OL","state":"IL"},"type":"Feature","geometry":{"type":"Point","coordinates":[-87.975568,41.707431]}},{"properties":{"name":"David Moosman","city":"LIBERTYVILLE","geo_score":0.857,"id":"a673c7o1g06l","geo_precision":"city","position":"OL","state":"IL"},"type":"Feature","geometry":{"type":"Point","coordinates":[-87.957724,42.28947]}},{"properties":{"name":"Tim North","city":"LINDEN","geo_score":0.857,"id":"a673c80ijgk2","geo_precision":"city","position":"DE","state":"MI"},"type":"Feature","geometry":{"type":"Point","coordinates":[-83.811322,42.825944]}},{"properties":{"name":"Donovan Warren","city":"LONG BEACH","geo_score":0.857,"id":"a673c7uah6cb","geo_precision":"city","position":"CB","state":"CA"},"type":"Feature","geometry":{"type":"Point","coordinates":[-118.167423,33.777152]}},{"properties":{"name":"Jonas Mouton","city":"LOS ANGELES","geo_score":0.857,"id":"a673c7utn6xl","geo_precision":"city","position":"LB","state":"CA"},"type":"Feature","geometry":{"type":"Point","coordinates":[-118.248405,33.973951]}},{"properties":{"name":"Ricky Reyes","city":"MACOMB","geo_score":0.857,"id":"a673c7sr4xat","geo_precision":"city","position":"WR","state":"MI"},"type":"Feature","geometry":{"type":"Point","coordinates":[-82.916262,42.673476]}},{"properties":{"name":"James Rogers","city":"MADISON HEIGHTS","geo_score":0.729,"id":"a673c80zuuxf","geo_precision":"street","position":"WR","state":"MI"},"type":"Feature","geometry":{"type":"Point","coordinates":[-83.124866,42.526872]}},{"properties":{"name":"LaTerryal Savoy","city":"MAMOU","geo_score":0.857,"id":"a673c7y9jr0t","geo_precision":"city","position":"WR","state":"LA"},"type":"Feature","geometry":{"type":"Point","coordinates":[-92.425103,30.714716]}},{"properties":{"name":"J.T. Turner","city":"MASSILLON","geo_score":0.857,"id":"a673c7zbajia","geo_precision":"city","position":"CB","state":"OH"},"type":"Feature","geometry":{"type":"Point","coordinates":[-81.43535,40.850643]}},{"properties":{"name":"Erik Gunderson","city":"MILAN","geo_score":0.857,"id":"a673c7r27z4p","geo_precision":"city","position":"OL","state":"MI"},"type":"Feature","geometry":{"type":"Point","coordinates":[-83.659763,42.001525]}},{"properties":{"name":"Benjamin Sutton","city":"MILLER PLACE","geo_score":0.75,"id":"a673c7pcx24l","geo_precision":"street","position":"RB","state":"NY"},"type":"Feature","geometry":{"type":"Point","coordinates":[-72.995344,40.961185]}},{"properties":{"name":"Renaldo Sagesse","city":"MONTREAL","geo_score":0.771,"id":"a673c7qapwiy","geo_precision":"street","position":"DT","state":"PQ"},"type":"Feature","geometry":{"type":"Point","coordinates":[-96.708889,33.043244]}},{"properties":{"name":"Zac Johnson","city":"MORENCI","geo_score":0.857,"id":"a673c7yqhjju","geo_precision":"city","position":"S","state":"MI"},"type":"Feature","geometry":{"type":"Point","coordinates":[-84.229012,41.84736]}},{"properties":{"name":"Jonny Childers","city":"MUSKEGON","geo_score":0.857,"id":"a673c7sfjnj2","geo_precision":"city","position":"FB","state":"MI"},"type":"Feature","geometry":{"type":"Point","coordinates":[-86.232858,43.233764]}},{"properties":{"name":"Brandon Smith","city":"NEW BRUNSWICK","geo_score":0.857,"id":"a673c7mf57wv","geo_precision":"city","position":"LB","state":"NJ"},"type":"Feature","geometry":{"type":"Point","coordinates":[-74.444395,40.486754]}},{"properties":{"name":"George Morales","city":"NORTH LAS VEGAS","geo_score":0.516,"id":"a673c81ebdap","geo_precision":"street","position":"LS","state":"NV"},"type":"Feature","geometry":{"type":"Point","coordinates":[-115.159866,36.180276]}},{"properties":{"name":"Jon Conover","city":"NORTHVILLE","geo_score":0.857,"id":"a673c7nz5e1w","geo_precision":"city","position":"WR","state":"MI"},"type":"Feature","geometry":{"type":"Point","coordinates":[-83.432434,42.41729]}},{"properties":{"name":"Kenny Demens","city":"OAK PARK","geo_score":0.857,"id":"a673c7wpsxpj","geo_precision":"city","position":"LB","state":"MI"},"type":"Feature","geometry":{"type":"Point","coordinates":[-83.178177,42.466585]}},{"properties":{"name":"Michael Schofield","city":"ORLAND PARK","geo_score":0.857,"id":"a673c7pepdlu","geo_precision":"city","position":"OL","state":"IL"},"type":"Feature","geometry":{"type":"Point","coordinates":[-87.68732,41.811929]}},{"properties":{"name":"Mike Jones","city":"ORLANDO","geo_score":0.857,"id":"a673c7p89yw4","geo_precision":"city","position":"LB","state":"FL"},"type":"Feature","geometry":{"type":"Point","coordinates":[-81.373291,28.545179]}},{"properties":{"name":"Greg Mathews","city":"ORLANDO","geo_score":0.857,"id":"a673c7z0vp63","geo_precision":"city","position":"WR","state":"FL"},"type":"Feature","geometry":{"type":"Point","coordinates":[-81.373291,28.545179]}},{"properties":{"name":"Martavious Odoms","city":"PAHOKEE","geo_score":0.857,"id":"a673c7pskddl","geo_precision":"city","position":"WR","state":"FL"},"type":"Feature","geometry":{"type":"Point","coordinates":[-80.17864,26.623067]}},{"properties":{"name":"Brandin Hawthorne","city":"PAHOKEE","geo_score":0.857,"id":"a673c80lo5tw","geo_precision":"city","position":"LB","state":"FL"},"type":"Feature","geometry":{"type":"Point","coordinates":[-80.17864,26.623067]}},{"properties":{"name":"Vincent Smith","city":"PAHOKEE","geo_score":0.857,"id":"a673c7o7ozeg","geo_precision":"city","position":"RB","state":"FL"},"type":"Feature","geometry":{"type":"Point","coordinates":[-80.17864,26.623067]}},{"properties":{"name":"Je'Ron Stokes","city":"PHILADELPHIA","geo_score":0.857,"id":"a673c7vl32n5","geo_precision":"city","position":"WR","state":"PA"},"type":"Feature","geometry":{"type":"Point","coordinates":[-75.11787,40.001811]}},{"properties":{"name":"Perry Dorrestein","city":"PLAINFIELD","geo_score":0.857,"id":"a673c7t0jot5","geo_precision":"city","position":"OL","state":"IL"},"type":"Feature","geometry":{"type":"Point","coordinates":[-88.169698,41.632457]}},{"properties":{"name":"Martell Webb","city":"PONTIAC","geo_score":0.857,"id":"a673c7qsaarf","geo_precision":"city","position":"TE","state":"MI"},"type":"Feature","geometry":{"type":"Point","coordinates":[-83.289036,42.670272]}},{"properties":{"name":"Anthony LaLota","city":"PRINCETON","geo_score":0.857,"id":"a673c7xczbo2","geo_precision":"city","position":"DE","state":"NJ"},"type":"Feature","geometry":{"type":"Point","coordinates":[-74.693953,40.343625]}},{"properties":{"name":"J.B. Fitzgerald","city":"PRINCETON JUNCTION","geo_score":0.857,"id":"a673c7x834a3","geo_precision":"city","position":"LB","state":"NJ"},"type":"Feature","geometry":{"type":"Point","coordinates":[-74.651101,40.266858]}},{"properties":{"name":"Mike Martin","city":"REDFORD","geo_score":0.857,"id":"a673c7p5a43b","geo_precision":"city","position":"DT","state":"MI"},"type":"Feature","geometry":{"type":"Point","coordinates":[-83.282029,42.392286]}},{"properties":{"name":"Tony Anderson","city":"REDONDO BEACH","geo_score":0.857,"id":"a673c7vf05l5","geo_precision":"city","position":"CB","state":"CA"},"type":"Feature","geometry":{"type":"Point","coordinates":[-118.298662,33.786594]}},{"properties":{"name":"Marell Evans","city":"RICHMOND","geo_score":0.857,"id":"a673c7y6s7df","geo_precision":"city","position":"LB","state":"VA"},"type":"Feature","geometry":{"type":"Point","coordinates":[-77.460262,37.553758]}},{"properties":{"name":"Brandon Minor","city":"RICHMOND","geo_score":0.857,"id":"a673c7up86nc","geo_precision":"city","position":"RB","state":"VA"},"type":"Feature","geometry":{"type":"Point","coordinates":[-77.460262,37.553758]}},{"properties":{"name":"Joe Reynolds","city":"ROCHESTER","geo_score":0.857,"id":"a673c7owkwsk","geo_precision":"city","position":"WR","state":"MI"},"type":"Feature","geometry":{"type":"Point","coordinates":[-83.156629,42.726216]}},{"properties":{"name":"Jareth Glanda","city":"ROCHESTER HILLS","geo_score":0.857,"id":"a673c7sy0q4t","geo_precision":"city","position":"OL","state":"MI"},"type":"Feature","geometry":{"type":"Point","coordinates":[-83.158266,42.665588]}},{"properties":{"name":"Eddie Murray","city":"ROYAL OAK","geo_score":0.857,"id":"a673c80lgqwu","geo_precision":"city","position":"K","state":"MI"},"type":"Feature","geometry":{"type":"Point","coordinates":[-83.145375,42.492485]}},{"properties":{"name":"John McColgan","city":"SAGINAW","geo_score":0.857,"id":"a673c7trivw3","geo_precision":"city","position":"FB","state":"MI"},"type":"Feature","geometry":{"type":"Point","coordinates":[-83.886873,43.41242]}},{"properties":{"name":"Quinton Washington","city":"SAINT STEPHEN","geo_score":0.857,"id":"a673c7mo9rqh","geo_precision":"city","position":"OL","state":"SC"},"type":"Feature","geometry":{"type":"Point","coordinates":[-79.92364,33.33618]}},{"properties":{"name":"Bryan Wright","city":"SALEM","geo_score":0.857,"id":"a673c7nz42rp","geo_precision":"city","position":"K","state":"OH"},"type":"Feature","geometry":{"type":"Point","coordinates":[-80.763459,40.862743]}},{"properties":{"name":"Nick Sheridan","city":"SALINE","geo_score":0.857,"id":"a673c7op6xce","geo_precision":"city","position":"QB","state":"MI"},"type":"Feature","geometry":{"type":"Point","coordinates":[-83.802375,42.147636]}},{"properties":{"name":"Vince Helmuth","city":"SALINE","geo_score":0.857,"id":"a673c7zzr3zm","geo_precision":"city","position":"DT","state":"MI"},"type":"Feature","geometry":{"type":"Point","coordinates":[-83.802375,42.147636]}},{"properties":{"name":"Tate Forcier","city":"SAN DIEGO","geo_score":0.857,"id":"a673c7quuwzr","geo_precision":"city","position":"QB","state":"CA"},"type":"Feature","geometry":{"type":"Point","coordinates":[-117.174366,32.7211]}},{"properties":{"name":"Michael Williams","city":"SANTA YNEZ","geo_score":0.857,"id":"a673c7lojygd","geo_precision":"city","position":"S","state":"CA"},"type":"Feature","geometry":{"type":"Point","coordinates":[-120.091629,34.646136]}},{"properties":{"name":"Craig Roh","city":"SCOTTSDALE","geo_score":0.857,"id":"a673c7zhl7cb","geo_precision":"city","position":"LB","state":"AZ"},"type":"Feature","geometry":{"type":"Point","coordinates":[-111.874248,33.524143]}},{"properties":{"name":"Taylor Lewan","city":"SCOTTSDALE","geo_score":0.857,"id":"a673c7nk61il","geo_precision":"city","position":"OL","state":"AZ"},"type":"Feature","geometry":{"type":"Point","coordinates":[-111.874248,33.524143]}},{"properties":{"name":"Tom Lindley","city":"SHIRLEY","geo_score":0.857,"id":"a673c7y93uu9","geo_precision":"city","position":"OL","state":"NY"},"type":"Feature","geometry":{"type":"Point","coordinates":[-72.637078,40.922326]}},{"properties":{"name":"Jared Van Slyke","city":"ST. LOUIS","geo_score":0.719,"id":"a673c81n40uf","geo_precision":"street","position":"S","state":"MO"},"type":"Feature","geometry":{"type":"Point","coordinates":[-90.271457,38.694471]}},{"properties":{"name":"Darryl Stonum","city":"STAFFORD","geo_score":0.857,"id":"a673c7vdut6h","geo_precision":"city","position":"WR","state":"TX"},"type":"Feature","geometry":{"type":"Point","coordinates":[-95.996865,29.450518]}},{"properties":{"name":"Brandon Herron","city":"STAFFORD","geo_score":0.857,"id":"a673c7oowu9n","geo_precision":"city","position":"LB","state":"TX"},"type":"Feature","geometry":{"type":"Point","coordinates":[-95.996865,29.450518]}},{"properties":{"name":"John Ferrara","city":"STATEN ISLAND","geo_score":0.857,"id":"a673c7qm5dwz","geo_precision":"city","position":"OL","state":"NY"},"type":"Feature","geometry":{"type":"Point","coordinates":[-74.093323,40.623632]}},{"properties":{"name":"David Cone","city":"STATESBORO","geo_score":0.857,"id":"a673c7vylhee","geo_precision":"city","position":"QB","state":"GA"},"type":"Feature","geometry":{"type":"Point","coordinates":[-81.784956,32.425]}},{"properties":{"name":"Troy Woolfolk","city":"SUGAR LAND","geo_score":0.857,"id":"a673c7qlgpof","geo_precision":"city","position":"S","state":"TX"},"type":"Feature","geometry":{"type":"Point","coordinates":[-95.756462,29.525461]}},{"properties":{"name":"Jordan Reilly","city":"TAYLOR","geo_score":0.857,"id":"a673c7myq36w","geo_precision":"city","position":"S","state":"MI"},"type":"Feature","geometry":{"type":"Point","coordinates":[-83.249067,42.245837]}},{"properties":{"name":"Kevin Koger","city":"TOLEDO","geo_score":0.857,"id":"a673c7n14lwd","geo_precision":"city","position":"TE","state":"OH"},"type":"Feature","geometry":{"type":"Point","coordinates":[-83.569359,41.720684]}},{"properties":{"name":"Rocko Khoury","city":"TRAVERSE CITY","geo_score":0.857,"id":"a673c7uiakvw","geo_precision":"city","position":"OL","state":"MI"},"type":"Feature","geometry":{"type":"Point","coordinates":[-85.676342,44.693963]}},{"properties":{"name":"Roy Roundtree","city":"TROTWOOD","geo_score":0.857,"id":"a673c7v4y1nf","geo_precision":"city","position":"WR","state":"OH"},"type":"Feature","geometry":{"type":"Point","coordinates":[-84.311333,39.797279]}},{"properties":{"name":"Brandon Moore","city":"TROTWOOD","geo_score":0.857,"id":"a673c7mqqbpm","geo_precision":"city","position":"TE","state":"OH"},"type":"Feature","geometry":{"type":"Point","coordinates":[-84.311333,39.797279]}},{"properties":{"name":"Michael Shaw","city":"TROTWOOD","geo_score":0.857,"id":"a673c7vpfmby","geo_precision":"city","position":"RB","state":"OH"},"type":"Feature","geometry":{"type":"Point","coordinates":[-84.311333,39.797279]}},{"properties":{"name":"Zoltan Mesko","city":"TWINSBURG","geo_score":0.857,"id":"a673c7zvi00e","geo_precision":"city","position":"P","state":"OH"},"type":"Feature","geometry":{"type":"Point","coordinates":[-81.440435,41.313304]}},{"properties":{"name":"Jack Kennedy","city":"WALLED LAKE","geo_score":0.857,"id":"a673c7t6auez","geo_precision":"city","position":"QB","state":"MI"},"type":"Feature","geometry":{"type":"Point","coordinates":[-83.47726,42.558183]}},{"properties":{"name":"Elliott Mealer","city":"WAUSEON","geo_score":0.857,"id":"a673c7tdu8id","geo_precision":"city","position":"OL","state":"OH"},"type":"Feature","geometry":{"type":"Point","coordinates":[-84.178148,41.59151]}},{"properties":{"name":"Ohene Opong-Owusu","city":"WEST BLOOMFIELD","geo_score":0.75,"id":"a673c7o67lo7","geo_precision":"street","position":"LB","state":"MI"},"type":"Feature","geometry":{"type":"Point","coordinates":[-83.332831,42.54368]}},{"properties":{"name":"O'Neil Swanson","city":"WEST BLOOMFIELD","geo_score":0.75,"id":"a673c7qsb1n4","geo_precision":"street","position":"RB","state":"MI"},"type":"Feature","geometry":{"type":"Point","coordinates":[-83.332831,42.54368]}},{"properties":{"name":"Christian Brandt","city":"WEST BLOOMFIELD","geo_score":0.75,"id":"a673c7ohedd9","geo_precision":"street","position":"OL","state":"MI"},"type":"Feature","geometry":{"type":"Point","coordinates":[-83.332831,42.54368]}},{"properties":{"name":"Brendan Gibbons","city":"WEST PALM BEACH","geo_score":0.838,"id":"a673c7y7mdpa","geo_precision":"city","position":"K","state":"FL"},"type":"Feature","geometry":{"type":"Point","coordinates":[-80.070613,26.672643]}},{"properties":{"name":"Ryan Van Bergen","city":"WHITEHALL","geo_score":0.857,"id":"a673c7tld7ae","geo_precision":"city","position":"DT","state":"MI"},"type":"Feature","geometry":{"type":"Point","coordinates":[-86.327092,43.345831]}},{"properties":{"name":"Mark Huyge","city":"WYOMING","geo_score":0.857,"id":"a673c7xcr2ps","geo_precision":"city","position":"OL","state":"MI"},"type":"Feature","geometry":{"type":"Point","coordinates":[-85.705309,42.91336]}},{"properties":{"name":"Fitzgerald Toussaint","city":"YOUNGSTOWN","geo_score":0.857,"id":"a673c7toaekj","geo_precision":"city","position":"RB","state":"OH"},"type":"Feature","geometry":{"type":"Point","coordinates":[-80.802854,41.017082]}},{"properties":{"name":"Isaiah Bell","city":"YOUNGSTOWN","geo_score":0.857,"id":"a673c7zd9rd4","geo_precision":"city","position":"LB","state":"OH"},"type":"Feature","geometry":{"type":"Point","coordinates":[-80.802854,41.017082]}},{"properties":{"name":"Al Backey","city":"YPSILANTI","geo_score":0.857,"id":"a673c7zqxl7u","geo_precision":"city","position":"CB","state":"MI"},"type":"Feature","geometry":{"type":"Point","coordinates":[-83.620494,42.202139]}}],"is_temporal":false,"author":{"url":"","metadata":"","contact_name":"","contact_address":"","source":"","contact_phone":""},"source":"","pagination":{"sort":null,"start":0,"total":126,"limit":1000000},"state":"complete","tags":"sports","published":"2014-08-10T23:51:17-04:00","id":18244}