{"type":"FeatureCollection","data_type":"Dataset","url_type":null,"permissions":[{"permissions":{"download":true,"view":true},"group_id":"everyone"}],"classification":null,"title":"Customer_Sales_in_US_Jan_-_Nov","count":162,"stream_id":182638,"contributor":{"url":"http://geocommons.com/users/36704","name":"kkasprzyk"},"data_attributes":null,"calculation_params":null,"icon_link":null,"link":"http://geocommons.com/overlays/182638.json","extent":[-113.952,0.35,114.417,54.2334],"geometry_types":["point"],"unique_name":null,"name":"Customer_Sales_in_US_Jan_-_Nov","feature_count":162,"description":"","next_feature":null,"is_raster":false,"short_classification":"Y","stats":{},"features":[{"properties":{"city":"ADA","geo_score":0.0,"id":"a67x0a64od87","geo_precision":"unmatched","state":"MN"},"type":"Feature","geometry":null},{"properties":{"city":"AITKIN","geo_score":0.0,"id":"a67x09xyeid4","geo_precision":"unmatched","state":"MN"},"type":"Feature","geometry":null},{"properties":{"city":"ALBERT LEA","geo_score":0.0,"id":"a67x0acyi44p","geo_precision":"unmatched","state":"MN"},"type":"Feature","geometry":null},{"properties":{"city":"ALBERTVILLE","geo_score":0.0,"id":"a67x0a0dcabs","geo_precision":"unmatched","state":"MN"},"type":"Feature","geometry":null},{"properties":{"city":"ALEXANDRIA","geo_score":0.0,"id":"a67x0a84pdqk","geo_precision":"unmatched","state":"MN"},"type":"Feature","geometry":null},{"properties":{"city":"ANOKA","geo_score":0.0,"id":"a67x0ab5mrns","geo_precision":"unmatched","state":"MN"},"type":"Feature","geometry":null},{"properties":{"city":"ARNOLDS PARK","geo_score":0.0,"id":"a67x0a6hlmlq","geo_precision":"unmatched","state":"IA"},"type":"Feature","geometry":null},{"properties":{"city":"AU GRES","geo_score":0.0,"id":"a67x0adagtjw","geo_precision":"unmatched","state":"MI"},"type":"Feature","geometry":null},{"properties":{"city":"BAXTER","geo_score":0.0,"id":"a67x0a86ihif","geo_precision":"unmatched","state":"MN"},"type":"Feature","geometry":null},{"properties":{"city":"BELMOND","geo_score":0.0,"id":"a67x0a9d3h2v","geo_precision":"unmatched","state":"IA"},"type":"Feature","geometry":null},{"properties":{"city":"BEMIDJI","geo_score":0.0,"id":"a67x09zncj2r","geo_precision":"unmatched","state":"MN"},"type":"Feature","geometry":null},{"properties":{"city":"BETHEL","geo_score":0.0,"id":"a67x0abc7tgi","geo_precision":"unmatched","state":"MN"},"type":"Feature","geometry":null},{"properties":{"city":"BILLINGS","geo_score":0.0,"id":"a67x0a79rcsj","geo_precision":"unmatched","state":"MT"},"type":"Feature","geometry":null},{"properties":{"city":"BISMARCK","geo_score":0.0,"id":"a67x0a3uselj","geo_precision":"unmatched","state":"ND"},"type":"Feature","geometry":null},{"properties":{"city":"BLAINE","geo_score":0.881,"id":"a67x0a8mensq","geo_precision":"zip","state":"MN"},"type":"Feature","geometry":{"type":"Point","coordinates":[98.2773399353027,48.806750404891]}},{"properties":{"city":"BLOOMINGTON","geo_score":0.0,"id":"a67x0a5qt9wb","geo_precision":"unmatched","state":"MN"},"type":"Feature","geometry":null},{"properties":{"city":"BOTTINEAU","geo_score":0.0,"id":"a67x0a87epyb","geo_precision":"unmatched","state":"ND"},"type":"Feature","geometry":null},{"properties":{"city":"BRAINERD","geo_score":0.921,"id":"a67x0a4ylj1j","geo_precision":"zip","state":"MN"},"type":"Feature","geometry":{"type":"Point","coordinates":[113.2791667,46.6805556]}},{"properties":{"city":"BRANDON","geo_score":0.929,"id":"a67x0aa2innm","geo_precision":"zip","state":"MN"},"type":"Feature","geometry":{"type":"Point","coordinates":[95.4166667,49.4833333]}},{"properties":{"city":"BRECKENRIDGE","geo_score":0.0,"id":"a67x0adlcl5n","geo_precision":"unmatched","state":"MN"},"type":"Feature","geometry":null},{"properties":{"city":"BREEZY POINT","geo_score":0.0,"id":"a67x09xo7skr","geo_precision":"unmatched","state":"MN"},"type":"Feature","geometry":null},{"properties":{"city":"BROOKINGS","geo_score":0.905,"id":"a67x0a3uofj8","geo_precision":"zip","state":"SD"},"type":"Feature","geometry":{"type":"Point","coordinates":[23.1666667,12.8]}},{"properties":{"city":"BUFFALO","geo_score":0.0,"id":"a67x09y0nd1d","geo_precision":"unmatched","state":"WY"},"type":"Feature","geometry":null},{"properties":{"city":"BUFFALO LAKE","geo_score":0.0,"id":"a67x0abue4xf","geo_precision":"unmatched","state":"MN"},"type":"Feature","geometry":null},{"properties":{"city":"BUTTE","geo_score":0.0,"id":"a67x0a9igvnb","geo_precision":"unmatched","state":"MT"},"type":"Feature","geometry":null},{"properties":{"city":"CANBY","geo_score":0.0,"id":"a67x0a2679dx","geo_precision":"unmatched","state":"MN"},"type":"Feature","geometry":null},{"properties":{"city":"CARRINGTON","geo_score":0.0,"id":"a67x0a2ibzz6","geo_precision":"unmatched","state":"ND"},"type":"Feature","geometry":null},{"properties":{"city":"CEDAR","geo_score":0.0,"id":"a67x09xqg9fm","geo_precision":"unmatched","state":"MN"},"type":"Feature","geometry":null},{"properties":{"city":"CHAMBERLAIN","geo_score":0.0,"id":"a67x09xqh0pn","geo_precision":"unmatched","state":"SD"},"type":"Feature","geometry":null},{"properties":{"city":"CHAMPLIN","geo_score":0.0,"id":"a67x0a1hfb5s","geo_precision":"unmatched","state":"MN"},"type":"Feature","geometry":null},{"properties":{"city":"CHANHASSEN","geo_score":0.0,"id":"a67x0ablrx3n","geo_precision":"unmatched","state":"MN"},"type":"Feature","geometry":null},{"properties":{"city":"CHASKA","geo_score":0.0,"id":"a67x0a2imemg","geo_precision":"unmatched","state":"MN"},"type":"Feature","geometry":null},{"properties":{"city":"CHIPPEWA FALLS","geo_score":0.0,"id":"a67x09z2i0w0","geo_precision":"unmatched","state":"WI"},"type":"Feature","geometry":null},{"properties":{"city":"CHISHOLM","geo_score":0.0,"id":"a67x0a5mycwi","geo_precision":"unmatched","state":"MN"},"type":"Feature","geometry":null},{"properties":{"city":"CLAYTON","geo_score":0.918,"id":"a67x0acmtsk8","geo_precision":"zip","state":"GA"},"type":"Feature","geometry":{"type":"Point","coordinates":[10.7333333,0.35]}},{"properties":{"city":"CLEVELAND","geo_score":0.0,"id":"a67x0abfveq2","geo_precision":"unmatched","state":"OK"},"type":"Feature","geometry":null},{"properties":{"city":"COON RAPIDS","geo_score":0.886,"id":"a67x0a5oh8l9","geo_precision":"zip","state":"MN"},"type":"Feature","geometry":{"type":"Point","coordinates":[106.0333333,48.1666667]}},{"properties":{"city":"CORCORAN","geo_score":0.909,"id":"a67x0a1l6rof","geo_precision":"zip","state":"MN"},"type":"Feature","geometry":{"type":"Point","coordinates":[111.2,49.2666667]}},{"properties":{"city":"COTTAGE GROVE","geo_score":0.0,"id":"a67x0a8zmugv","geo_precision":"unmatched","state":"MN"},"type":"Feature","geometry":null},{"properties":{"city":"CROOKSTON","geo_score":0.0,"id":"a67x09za6ub6","geo_precision":"unmatched","state":"MN"},"type":"Feature","geometry":null},{"properties":{"city":"CROSSLAKE","geo_score":0.0,"id":"a67x0a43goh0","geo_precision":"unmatched","state":"MN"},"type":"Feature","geometry":null},{"properties":{"city":"DAWSON","geo_score":0.905,"id":"a67x0ab7abhw","geo_precision":"zip","state":"MN"},"type":"Feature","geometry":{"type":"Point","coordinates":[107.25,48.2]}},{"properties":{"city":"DELANO","geo_score":0.929,"id":"a67x0acpc3de","geo_precision":"zip","state":"MN"},"type":"Feature","geometry":{"type":"Point","coordinates":[108.7333333,47.2833333]}},{"properties":{"city":"DETROIT LAKES","geo_score":0.0,"id":"a67x0a2a48pi","geo_precision":"unmatched","state":"MN"},"type":"Feature","geometry":null},{"properties":{"city":"DEVILS LAKE","geo_score":0.0,"id":"a67x0acnhanc","geo_precision":"unmatched","state":"ND"},"type":"Feature","geometry":null},{"properties":{"city":"DICKINSON","geo_score":0.0,"id":"a67x0a6zd0rh","geo_precision":"unmatched","state":"ND"},"type":"Feature","geometry":null},{"properties":{"city":"DILWORTH","geo_score":0.0,"id":"a67x0acdvl7p","geo_precision":"unmatched","state":"MN"},"type":"Feature","geometry":null},{"properties":{"city":"DULUTH","geo_score":0.0,"id":"a67x0aa8k61o","geo_precision":"unmatched","state":"MN"},"type":"Feature","geometry":null},{"properties":{"city":"EAGAN","geo_score":0.0,"id":"a67x0ac2dq78","geo_precision":"unmatched","state":"MN"},"type":"Feature","geometry":null},{"properties":{"city":"EAGLE RIVER","geo_score":0.0,"id":"a67x0a80o894","geo_precision":"unmatched","state":"AK"},"type":"Feature","geometry":null},{"properties":{"city":"EDEN PRAIRIE","geo_score":0.0,"id":"a67x0a39zne5","geo_precision":"unmatched","state":"MN"},"type":"Feature","geometry":null},{"properties":{"city":"EFFIE","geo_score":0.0,"id":"a67x0a1v9kdl","geo_precision":"unmatched","state":"MN"},"type":"Feature","geometry":null},{"properties":{"city":"ELBOW LAKE","geo_score":0.0,"id":"a67x0aa5lpps","geo_precision":"unmatched","state":"MN"},"type":"Feature","geometry":null},{"properties":{"city":"ELK RIVER","geo_score":0.0,"id":"a67x0a7uynlt","geo_precision":"unmatched","state":"MN"},"type":"Feature","geometry":null},{"properties":{"city":"EMBARRASS","geo_score":0.0,"id":"a67x09yxp8v1","geo_precision":"unmatched","state":"MN"},"type":"Feature","geometry":null},{"properties":{"city":"ENOLA","geo_score":0.0,"id":"a67x0a86r389","geo_precision":"unmatched","state":"PA"},"type":"Feature","geometry":null},{"properties":{"city":"ESTERVILLE","geo_score":0.0,"id":"a67x0a4ee6o4","geo_precision":"unmatched","state":"IA"},"type":"Feature","geometry":null},{"properties":{"city":"FARGO","geo_score":0.0,"id":"a67x09ygqpmb","geo_precision":"unmatched","state":"ND"},"type":"Feature","geometry":null},{"properties":{"city":"FARMINGTON","geo_score":0.0,"id":"a67x0a32sr50","geo_precision":"unmatched","state":"MN"},"type":"Feature","geometry":null},{"properties":{"city":"FOREST LAKE","geo_score":0.0,"id":"a67x0a7eu86h","geo_precision":"unmatched","state":"MN"},"type":"Feature","geometry":null},{"properties":{"city":"FORT ATKINSON","geo_score":0.0,"id":"a67x0abcicpc","geo_precision":"unmatched","state":"WI"},"type":"Feature","geometry":null},{"properties":{"city":"FRESNO","geo_score":0.98,"id":"a67x0a4e2zc4","geo_precision":"zip","state":"CA"},"type":"Feature","geometry":{"type":"Point","coordinates":[-110.801757578,54.233441361]}},{"properties":{"city":"FRIDLEY","geo_score":0.0,"id":"a67x0a8sru9w","geo_precision":"unmatched","state":"MN"},"type":"Feature","geometry":null},{"properties":{"city":"GLENCOE","geo_score":0.0,"id":"a67x0a2rfrb7","geo_precision":"unmatched","state":"MN"},"type":"Feature","geometry":null},{"properties":{"city":"GLENWOOD","geo_score":0.0,"id":"a67x0a9cbxrq","geo_precision":"unmatched","state":"MN"},"type":"Feature","geometry":null},{"properties":{"city":"GRAND FORKS","geo_score":0.0,"id":"a67x09zxz7vu","geo_precision":"unmatched","state":"ND"},"type":"Feature","geometry":null},{"properties":{"city":"GRAND RAPIDS","geo_score":0.0,"id":"a67x09zv05hd","geo_precision":"unmatched","state":"MN"},"type":"Feature","geometry":null},{"properties":{"city":"HAM LAKE","geo_score":0.0,"id":"a67x0a34c8zr","geo_precision":"unmatched","state":"MN"},"type":"Feature","geometry":null},{"properties":{"city":"HASTINGS","geo_score":0.0,"id":"a67x09zzpqj0","geo_precision":"unmatched","state":"MN"},"type":"Feature","geometry":null},{"properties":{"city":"HIBBING","geo_score":0.0,"id":"a67x0advlqih","geo_precision":"unmatched","state":"MN"},"type":"Feature","geometry":null},{"properties":{"city":"HUDSON","geo_score":0.0,"id":"a67x0a4ogmp3","geo_precision":"unmatched","state":"WI"},"type":"Feature","geometry":null},{"properties":{"city":"HUMBOLDT","geo_score":0.0,"id":"a67x0a72twlw","geo_precision":"unmatched","state":"IA"},"type":"Feature","geometry":null},{"properties":{"city":"HURON","geo_score":0.929,"id":"a67x0a9brhat","geo_precision":"zip","state":"SD"},"type":"Feature","geometry":{"type":"Point","coordinates":[22.1833333,13.1166667]}},{"properties":{"city":"HUTCHINSON","geo_score":0.0,"id":"a67x0ac82whh","geo_precision":"unmatched","state":"MN"},"type":"Feature","geometry":null},{"properties":{"city":"INTERNATIONAL FALLS","geo_score":0.0,"id":"a67x0acojkgq","geo_precision":"unmatched","state":"MN"},"type":"Feature","geometry":null},{"properties":{"city":"IRONWOOD","geo_score":0.0,"id":"a67x0aakymei","geo_precision":"unmatched","state":"MI"},"type":"Feature","geometry":null},{"properties":{"city":"JAMESTOWN","geo_score":0.0,"id":"a67x0a399pn5","geo_precision":"unmatched","state":"ND"},"type":"Feature","geometry":null},{"properties":{"city":"KABETOGAMA","geo_score":0.0,"id":"a67x09z1j8p6","geo_precision":"unmatched","state":"MN"},"type":"Feature","geometry":null},{"properties":{"city":"KALAMAZOO","geo_score":0.0,"id":"a67x0a81b7za","geo_precision":"unmatched","state":"MI"},"type":"Feature","geometry":null},{"properties":{"city":"KENMARE","geo_score":0.0,"id":"a67x0aci27b9","geo_precision":"unmatched","state":"ND"},"type":"Feature","geometry":null},{"properties":{"city":"Lake Park","geo_score":0.0,"id":"a67x0a4qk2br","geo_precision":"unmatched","state":"IA"},"type":"Feature","geometry":null},{"properties":{"city":"LAKEVILLE","geo_score":0.0,"id":"a67x0a4tsm21","geo_precision":"unmatched","state":"MN"},"type":"Feature","geometry":null},{"properties":{"city":"LARCHWOOD","geo_score":0.0,"id":"a67x0a1zlp5s","geo_precision":"unmatched","state":"IA"},"type":"Feature","geometry":null},{"properties":{"city":"LINDSTROM","geo_score":0.0,"id":"a67x0a29apu8","geo_precision":"unmatched","state":"MN"},"type":"Feature","geometry":null},{"properties":{"city":"LITTLE FALLS","geo_score":0.0,"id":"a67x0a6txepr","geo_precision":"unmatched","state":"MN"},"type":"Feature","geometry":null},{"properties":{"city":"LONSDALE","geo_score":0.0,"id":"a67x0a2n1rq2","geo_precision":"unmatched","state":"MN"},"type":"Feature","geometry":null},{"properties":{"city":"MANDAN","geo_score":0.0,"id":"a67x0a8rh9w9","geo_precision":"unmatched","state":"ND"},"type":"Feature","geometry":null},{"properties":{"city":"MANKATO","geo_score":0.0,"id":"a67x09zhoibm","geo_precision":"unmatched","state":"MN"},"type":"Feature","geometry":null},{"properties":{"city":"MAPLE GROVE","geo_score":0.0,"id":"a67x0a6543q6","geo_precision":"unmatched","state":"MN"},"type":"Feature","geometry":null},{"properties":{"city":"Maplewood","geo_score":0.0,"id":"a67x0a03wuvo","geo_precision":"unmatched","state":"MN"},"type":"Feature","geometry":null},{"properties":{"city":"MARION","geo_score":0.0,"id":"a67x0a6vvpeg","geo_precision":"unmatched","state":"IA"},"type":"Feature","geometry":null},{"properties":{"city":"MARSHALL","geo_score":0.0,"id":"a67x09yxk5wc","geo_precision":"unmatched","state":"MN"},"type":"Feature","geometry":null},{"properties":{"city":"MENDOTA HEIGHTS","geo_score":0.0,"id":"a67x0a4l1i02","geo_precision":"unmatched","state":"MN"},"type":"Feature","geometry":null},{"properties":{"city":"MIFFLINTOWN","geo_score":0.0,"id":"a67x0a1x8pax","geo_precision":"unmatched","state":"PA"},"type":"Feature","geometry":null},{"properties":{"city":"MILACA","geo_score":0.0,"id":"a67x0adx7hx3","geo_precision":"unmatched","state":"MN"},"type":"Feature","geometry":null},{"properties":{"city":"MILLER","geo_score":0.905,"id":"a67x0a96lykd","geo_precision":"zip","state":"SD"},"type":"Feature","geometry":{"type":"Point","coordinates":[31.1,4.45]}},{"properties":{"city":"MINNEAPOLIS","geo_score":0.0,"id":"a67x0a950e8o","geo_precision":"unmatched","state":"MN"},"type":"Feature","geometry":null},{"properties":{"city":"MINNETONKA","geo_score":0.0,"id":"a67x09ytbx9q","geo_precision":"unmatched","state":"MN"},"type":"Feature","geometry":null},{"properties":{"city":"MINNETRISTA","geo_score":0.0,"id":"a67x09yuzd9j","geo_precision":"unmatched","state":"MN"},"type":"Feature","geometry":null},{"properties":{"city":"MINOT","geo_score":0.0,"id":"a67x09ygdm80","geo_precision":"unmatched","state":"ND"},"type":"Feature","geometry":null},{"properties":{"city":"MITCHELL","geo_score":0.911,"id":"a67x09y5543m","geo_precision":"zip","state":"SD"},"type":"Feature","geometry":{"type":"Point","coordinates":[37.8833333,17.7833333]}},{"properties":{"city":"MOORHEAD","geo_score":0.0,"id":"a67x0a9ts7n4","geo_precision":"unmatched","state":"MN"},"type":"Feature","geometry":null},{"properties":{"city":"MOSINEE","geo_score":0.0,"id":"a67x0a39sn9y","geo_precision":"unmatched","state":"WI"},"type":"Feature","geometry":null},{"properties":{"city":"MOUND","geo_score":0.905,"id":"a67x0a1s730u","geo_precision":"zip","state":"MN"},"type":"Feature","geometry":{"type":"Point","coordinates":[103.4255556,48.2966667]}},{"properties":{"city":"MOUNT HOREB","geo_score":0.0,"id":"a67x09za1fbq","geo_precision":"unmatched","state":"WI"},"type":"Feature","geometry":null},{"properties":{"city":"NEW HOPE","geo_score":0.0,"id":"a67x0a0jijcn","geo_precision":"unmatched","state":"MN"},"type":"Feature","geometry":null},{"properties":{"city":"NEW LONDON","geo_score":0.0,"id":"a67x09z7m7sx","geo_precision":"unmatched","state":"MN"},"type":"Feature","geometry":null},{"properties":{"city":"NEW PRAGUE","geo_score":0.0,"id":"a67x0a39vb55","geo_precision":"unmatched","state":"MN"},"type":"Feature","geometry":null},{"properties":{"city":"NEW ULM","geo_score":0.0,"id":"a67x0a2skyb5","geo_precision":"unmatched","state":"MN"},"type":"Feature","geometry":null},{"properties":{"city":"NORTH BRANCH","geo_score":0.0,"id":"a67x0aclhjtf","geo_precision":"unmatched","state":"MN"},"type":"Feature","geometry":null},{"properties":{"city":"NORTH ST PAUL","geo_score":0.0,"id":"a67x0a183427","geo_precision":"unmatched","state":"MN"},"type":"Feature","geometry":null},{"properties":{"city":"OAKDALE","geo_score":0.0,"id":"a67x09xmbr80","geo_precision":"unmatched","state":"MN"},"type":"Feature","geometry":null},{"properties":{"city":"OSSEO","geo_score":0.0,"id":"a67x0a2gm7l9","geo_precision":"unmatched","state":"MN"},"type":"Feature","geometry":null},{"properties":{"city":"OSTEGO","geo_score":0.0,"id":"a67x0a7qwvuy","geo_precision":"unmatched","state":"MN"},"type":"Feature","geometry":null},{"properties":{"city":"PAGE","geo_score":0.0,"id":"a67x0a88j1kv","geo_precision":"unmatched","state":"ND"},"type":"Feature","geometry":null},{"properties":{"city":"PARK RAPIDS","geo_score":0.0,"id":"a67x0a6o2zu9","geo_precision":"unmatched","state":"MN"},"type":"Feature","geometry":null},{"properties":{"city":"PEKIN","geo_score":0.0,"id":"a67x0ac74imb","geo_precision":"unmatched","state":"IL"},"type":"Feature","geometry":null},{"properties":{"city":"PEORIA HEIGHTS","geo_score":0.0,"id":"a67x0a8cavme","geo_precision":"unmatched","state":"IL"},"type":"Feature","geometry":null},{"properties":{"city":"PERHAM","geo_score":0.0,"id":"a67x09ypgtww","geo_precision":"unmatched","state":"MN"},"type":"Feature","geometry":null},{"properties":{"city":"PIERRE","geo_score":0.952,"id":"a67x0a4u910y","geo_precision":"zip","state":"SD"},"type":"Feature","geometry":{"type":"Point","coordinates":[32.0333333,8.0333333]}},{"properties":{"city":"PLYMOUTH","geo_score":0.0,"id":"a67x0abnqpu3","geo_precision":"unmatched","state":"MN"},"type":"Feature","geometry":null},{"properties":{"city":"PRAIRIE DU CHIEN","geo_score":0.0,"id":"a67x0acskuwy","geo_precision":"unmatched","state":"WI"},"type":"Feature","geometry":null},{"properties":{"city":"PRESCOTT","geo_score":0.0,"id":"a67x0adbiefl","geo_precision":"unmatched","state":"WI"},"type":"Feature","geometry":null},{"properties":{"city":"PRINCETON","geo_score":0.0,"id":"a67x0acv1pr8","geo_precision":"unmatched","state":"MN"},"type":"Feature","geometry":null},{"properties":{"city":"PROCTOR","geo_score":0.0,"id":"a67x0a04ovh4","geo_precision":"unmatched","state":"MN"},"type":"Feature","geometry":null},{"properties":{"city":"RAMSEY","geo_score":0.0,"id":"a67x0a6bga67","geo_precision":"unmatched","state":"MN"},"type":"Feature","geometry":null},{"properties":{"city":"RAPID CITY","geo_score":0.921,"id":"a67x0a8sy76v","geo_precision":"zip","state":"SD"},"type":"Feature","geometry":{"type":"Point","coordinates":[32.4772222,4.52]}},{"properties":{"city":"Richfield","geo_score":0.0,"id":"a67x09xhu9hc","geo_precision":"unmatched","state":"MN"},"type":"Feature","geometry":null},{"properties":{"city":"RIVER FALLS","geo_score":0.0,"id":"a67x0aad1irz","geo_precision":"unmatched","state":"WI"},"type":"Feature","geometry":null},{"properties":{"city":"ROBERTS","geo_score":0.0,"id":"a67x09zpqrik","geo_precision":"unmatched","state":"WI"},"type":"Feature","geometry":null},{"properties":{"city":"ROCHESTER","geo_score":0.0,"id":"a67x09z1mg0d","geo_precision":"unmatched","state":"MN"},"type":"Feature","geometry":null},{"properties":{"city":"ROGERS","geo_score":0.0,"id":"a67x09ynoizc","geo_precision":"unmatched","state":"MN"},"type":"Feature","geometry":null},{"properties":{"city":"ROSEAU","geo_score":0.0,"id":"a67x0a1e5po7","geo_precision":"unmatched","state":"MN"},"type":"Feature","geometry":null},{"properties":{"city":"Rosemount","geo_score":0.0,"id":"a67x09yrqwyv","geo_precision":"unmatched","state":"MN"},"type":"Feature","geometry":null},{"properties":{"city":"SANTEE","geo_score":0.881,"id":"a67x0a0kuqul","geo_precision":"zip","state":"CA"},"type":"Feature","geometry":{"type":"Point","coordinates":[-113.95200458,52.266814844]}},{"properties":{"city":"SAUK CENTRE","geo_score":0.871,"id":"a67x0a5ws55g","geo_precision":"zip","state":"MN"},"type":"Feature","geometry":{"type":"Point","coordinates":[89.0,49.3833333]}},{"properties":{"city":"SCOTTSBLUFF","geo_score":0.0,"id":"a67x0a7rqzag","geo_precision":"unmatched","state":"NE"},"type":"Feature","geometry":null},{"properties":{"city":"SEDALIA","geo_score":0.0,"id":"a67x0ac4wj2e","geo_precision":"unmatched","state":"MO"},"type":"Feature","geometry":null},{"properties":{"city":"SHAKOPEE","geo_score":0.0,"id":"a67x0a0ew76h","geo_precision":"unmatched","state":"MN"},"type":"Feature","geometry":null},{"properties":{"city":"SHOREVIEW","geo_score":0.0,"id":"a67x09yg30u8","geo_precision":"unmatched","state":"MN"},"type":"Feature","geometry":null},{"properties":{"city":"SIOUX FALLS","geo_score":0.871,"id":"a67x0a0qtiid","geo_precision":"zip","state":"SD"},"type":"Feature","geometry":{"type":"Point","coordinates":[36.0833333,20.2833333]}},{"properties":{"city":"SOUTH ST PAUL","geo_score":0.0,"id":"a67x0a004ktz","geo_precision":"unmatched","state":"MN"},"type":"Feature","geometry":null},{"properties":{"city":"ST CLOUD","geo_score":0.898,"id":"a67x0a3j9lxo","geo_precision":"zip","state":"MN"},"type":"Feature","geometry":{"type":"Point","coordinates":[113.2333333,48.5666667]}},{"properties":{"city":"ST LOUIS PARK","geo_score":0.896,"id":"a67x09xvqbyd","geo_precision":"zip","state":"MN"},"type":"Feature","geometry":{"type":"Point","coordinates":[105.755767822266,45.5017751069887]}},{"properties":{"city":"ST. JAMES","geo_score":0.0,"id":"a67x0a89fe34","geo_precision":"unmatched","state":"MN"},"type":"Feature","geometry":null},{"properties":{"city":"ST. MICHAEL","geo_score":0.0,"id":"a67x0a5ylgr7","geo_precision":"unmatched","state":"MN"},"type":"Feature","geometry":null},{"properties":{"city":"St. Paul","geo_score":0.0,"id":"a67x0ac19zoa","geo_precision":"unmatched","state":"MN"},"type":"Feature","geometry":null},{"properties":{"city":"STANLEY","geo_score":0.0,"id":"a67x0a797wc5","geo_precision":"unmatched","state":"ND"},"type":"Feature","geometry":null},{"properties":{"city":"SUPERIOR","geo_score":0.0,"id":"a67x09yby0sn","geo_precision":"unmatched","state":"WI"},"type":"Feature","geometry":null},{"properties":{"city":"VIRGINIA","geo_score":0.0,"id":"a67x0acc32rs","geo_precision":"unmatched","state":"MN"},"type":"Feature","geometry":null},{"properties":{"city":"WACONIA","geo_score":0.0,"id":"a67x0a7xxlfn","geo_precision":"unmatched","state":"MN"},"type":"Feature","geometry":null},{"properties":{"city":"WAHPETON","geo_score":0.0,"id":"a67x09zr4x1y","geo_precision":"unmatched","state":"ND"},"type":"Feature","geometry":null},{"properties":{"city":"WARROAD","geo_score":0.0,"id":"a67x0a3gbujy","geo_precision":"unmatched","state":"MN"},"type":"Feature","geometry":null},{"properties":{"city":"WATERTOWN","geo_score":0.0,"id":"a67x09zzvx81","geo_precision":"unmatched","state":"SD"},"type":"Feature","geometry":null},{"properties":{"city":"WATFORD CITY","geo_score":0.0,"id":"a67x0a2pzjcv","geo_precision":"unmatched","state":"ND"},"type":"Feature","geometry":null},{"properties":{"city":"Wayzata","geo_score":0.0,"id":"a67x09z9hxji","geo_precision":"unmatched","state":"MN"},"type":"Feature","geometry":null},{"properties":{"city":"WEBSTER CITY","geo_score":0.0,"id":"a67x0a1jlaip","geo_precision":"unmatched","state":"IA"},"type":"Feature","geometry":null},{"properties":{"city":"WEST FARGO","geo_score":0.0,"id":"a67x0a7lq70w","geo_precision":"unmatched","state":"ND"},"type":"Feature","geometry":null},{"properties":{"city":"WHITE BEAR LAKE","geo_score":0.879,"id":"a67x0a41a6z0","geo_precision":"zip","state":"MN"},"type":"Feature","geometry":{"type":"Point","coordinates":[114.4166667,49.7833333]}},{"properties":{"city":"WILLISTON","geo_score":0.0,"id":"a67x0ab09wa9","geo_precision":"unmatched","state":"ND"},"type":"Feature","geometry":null},{"properties":{"city":"WOODBURY","geo_score":0.0,"id":"a67x09ymn1dl","geo_precision":"unmatched","state":"MN"},"type":"Feature","geometry":null},{"properties":{"city":"Yankton","geo_score":0.0,"id":"a67x0aasyk7t","geo_precision":"unmatched","state":"SD"},"type":"Feature","geometry":null}],"is_temporal":false,"author":{"url":"","metadata":null,"contact_name":null,"contact_address":null,"source":null,"contact_phone":null},"source":"","pagination":{"sort":null,"start":0,"total":162,"limit":1000000},"state":"complete","tags":"","published":"2014-08-13T01:11:05-04:00","id":182638}